{"status":true,"message":"","result":[{"server_id":9,"name":"Uncletopia | Atlanta | 1 | All Maps","name_short":"atl-1","host":"atl-1.us.uncletopia.com","port":27015,"enabled":true,"region":"us-east","cc":"us","latitude":33.753746,"longitude":-84.38633,"reserved":0,"last_update":"0001-01-01T00:00:00Z","name_a2s":"Uncletopia | Atlanta | 1 | All Maps","protocol":17,"map":"pl_snowycoast","folder":"tf","game":"Team Fortress","app_id":440,"player_count":24,"max_players":24,"Bots":0,"server_type":"Dedicated","server_os":"Linux","password":true,"vac":true,"version":"7757534","steam_id":85568392924469982,"keywords":["nocrits","nodmgspread","payload","uncletopia"],"game_id":440,"stv_port":27016,"stv_name":"Uncletopia | Atlanta | 1 | All Maps | STV","players":[{"user_id":153,"name":"ATL1 | Lylith","steam_id":76561198386687546,"connected_time":3187000000000,"state":"active","ping":45},{"user_id":166,"name":"Intro Bonito","steam_id":76561198119478838,"connected_time":998000000000,"state":"active","ping":59},{"user_id":168,"name":"Clorthax","steam_id":76561198800676106,"connected_time":193000000000,"state":"active","ping":67},{"user_id":155,"name":"lil hog","steam_id":76561199230929836,"connected_time":3185000000000,"state":"active","ping":82},{"user_id":150,"name":"BotchyAlarm8","steam_id":76561198092682129,"connected_time":3895000000000,"state":"active","ping":77},{"user_id":165,"name":"vid_","steam_id":76561198065159053,"connected_time":1114000000000,"state":"active","ping":51},{"user_id":138,"name":"YukiTanuki","steam_id":76561198873907851,"connected_time":5255000000000,"state":"active","ping":70},{"user_id":77,"name":"ash","steam_id":76561198127890645,"connected_time":10948000000000,"state":"active","ping":67},{"user_id":162,"name":"Bottom Trans Cowgirl","steam_id":76561198304239680,"connected_time":1674000000000,"state":"active","ping":77},{"user_id":158,"name":"gallowsCalibrator","steam_id":76561198404707578,"connected_time":2821000000000,"state":"active","ping":49},{"user_id":156,"name":"Mr.Mug","steam_id":76561199282207802,"connected_time":3169000000000,"state":"active","ping":76},{"user_id":89,"name":"cola","steam_id":76561198374390458,"connected_time":9815000000000,"state":"active","ping":62},{"user_id":133,"name":"Save your wifi","steam_id":76561198286147372,"connected_time":5719000000000,"state":"active","ping":62},{"user_id":160,"name":"Gus","steam_id":76561198085203150,"connected_time":2121000000000,"state":"active","ping":69},{"user_id":161,"name":"jandajanda","steam_id":76561198235722476,"connected_time":1690000000000,"state":"active","ping":55},{"user_id":130,"name":"ATL1 | Lav4ie","steam_id":76561198825997674,"connected_time":6261000000000,"state":"active","ping":60},{"user_id":97,"name":"lker","steam_id":76561197976975075,"connected_time":9476000000000,"state":"active","ping":44},{"user_id":167,"name":"IZISOO","steam_id":76561198970380577,"connected_time":248000000000,"state":"active","ping":87},{"user_id":80,"name":"stink","steam_id":76561198099318923,"connected_time":10446000000000,"state":"active","ping":75},{"user_id":103,"name":"DFR Le4n!!!","steam_id":76561198045522596,"connected_time":8702000000000,"state":"active","ping":72},{"user_id":164,"name":"floofy","steam_id":76561198389769098,"connected_time":1483000000000,"state":"active","ping":84},{"user_id":159,"name":"ATL1 | Psionic Box","steam_id":76561198151019322,"connected_time":2349000000000,"state":"active","ping":75},{"user_id":149,"name":"twitch.tv/blazingin","steam_id":76561198119873148,"connected_time":4016000000000,"state":"active","ping":79},{"user_id":170,"name":"‚òô Corrupt ‚ùß","steam_id":76561197977631915,"connected_time":191000000000,"state":"active","ping":72}]},{"server_id":400,"name":"Uncletopia | Atlanta | 3 | Stopwatch Beta","name_short":"atl-3","host":"atl-1.us.uncletopia.com","port":27035,"enabled":true,"region":"us-east","cc":"us","latitude":33.753746,"longitude":-84.38633,"reserved":0,"last_update":"0001-01-01T00:00:00Z","name_a2s":"Uncletopia | Atlanta | 3 | Stopwatch Beta","protocol":17,"map":"workshop/koth_ramjam_rc1.ugc459778887","folder":"tf","game":"Team Fortress","app_id":440,"player_count":0,"max_players":24,"Bots":0,"server_type":"Dedicated","server_os":"Linux","password":true,"vac":true,"version":"7757534","steam_id":85568392924515187,"keywords":["cp","nocrits","nodmgspread","uncletopia"],"game_id":440,"stv_port":27036,"stv_name":"Uncletopia | Atlanta | 3 | Stopwatch Beta | STV","players":null},{"server_id":401,"name":"Uncletopia | Atlanta | 4 | No Payload","name_short":"atl-4","host":"atl-1.us.uncletopia.com","port":27045,"enabled":true,"region":"us-east","cc":"us","latitude":33.753746,"longitude":-84.38633,"reserved":0,"last_update":"0001-01-01T00:00:00Z","name_a2s":"Uncletopia | Atlanta | 4 | No Payload","protocol":17,"map":"pl_pier","folder":"tf","game":"Team Fortress","app_id":440,"player_count":0,"max_players":24,"Bots":0,"server_type":"Dedicated","server_os":"Linux","password":true,"vac":true,"version":"7723704","steam_id":85568392924515188,"keywords":["nocrits","nodmgspread","payload","uncletopia"],"game_id":440,"stv_port":27046,"stv_name":"Uncletopia | Atlanta | 4 | No Payload | STV","players":null},{"server_id":2,"name":"Uncletopia | Chicago | 1 | All Maps","name_short":"chi-1","host":"chi-1.us.uncletopia.com","port":27015,"enabled":true,"region":"us-central","cc":"us","latitude":41.881832,"longitude":-87.62318,"reserved":0,"last_update":"0001-01-01T00:00:00Z","name_a2s":"Uncletopia | Chicago | 1 | All Maps","protocol":17,"map":"pl_pier","folder":"tf","game":"Team Fortress","app_id":440,"player_count":24,"max_players":24,"Bots":0,"server_type":"Dedicated","server_os":"Linux","password":true,"vac":true,"version":"7757534","steam_id":85568392924469984,"keywords":["nocrits","nodmgspread","payload","uncletopia"],"game_id":440,"stv_port":27016,"stv_name":"Uncletopia | Chicago | 1 | All Maps | STV","players":[{"user_id":259,"name":"/","steam_id":76561198009818412,"connected_time":338000000000,"state":"active","ping":67},{"user_id":247,"name":"Sweetie Belle","steam_id":76561198085473845,"connected_time":859000000000,"state":"active","ping":45},{"user_id":209,"name":"PKBEAST_7","steam_id":76561198177136537,"connected_time":3278000000000,"state":"active","ping":86},{"user_id":255,"name":"NOLSEY","steam_id":76561198108959504,"connected_time":493000000000,"state":"active","ping":58},{"user_id":200,"name":"Subderhenge","steam_id":76561198090955892,"connected_time":3759000000000,"state":"active","ping":92},{"user_id":215,"name":"30 Hours of Pain, All at once","steam_id":76561198057745131,"connected_time":2805000000000,"state":"active","ping":55},{"user_id":248,"name":"bloard","steam_id":76561198083206034,"connected_time":854000000000,"state":"active","ping":76},{"user_id":249,"name":"Hounty B.","steam_id":76561198045974827,"connected_time":824000000000,"state":"active","ping":82},{"user_id":196,"name":"dudedudealot","steam_id":76561198335601171,"connected_time":3866000000000,"state":"active","ping":49},{"user_id":246,"name":"Lilac Lulamoon","steam_id":76561198111402757,"connected_time":1146000000000,"state":"active","ping":62},{"user_id":250,"name":"TrueKingPumpkin","steam_id":76561198806433630,"connected_time":821000000000,"state":"active","ping":59},{"user_id":235,"name":"botulism","steam_id":76561198141204302,"connected_time":2021000000000,"state":"active","ping":82},{"user_id":251,"name":"Sarbanes-Oxley","steam_id":76561197975898479,"connected_time":803000000000,"state":"active","ping":76},{"user_id":256,"name":"Strange Child","steam_id":76561198082523009,"connected_time":470000000000,"state":"active","ping":69},{"user_id":222,"name":"his flatulence","steam_id":76561198799404824,"connected_time":2448000000000,"state":"active","ping":72},{"user_id":223,"name":"barbara","steam_id":76561198072417792,"connected_time":2434000000000,"state":"active","ping":113},{"user_id":258,"name":"Adawnby","steam_id":76561198103057295,"connected_time":357000000000,"state":"active","ping":77},{"user_id":237,"name":"xZackAttack27x","steam_id":76561198035446639,"connected_time":1855000000000,"state":"active","ping":63},{"user_id":244,"name":"Nobody","steam_id":76561199352089107,"connected_time":1412000000000,"state":"active","ping":97},{"user_id":252,"name":"Ye ( I Love Caulk ) West","steam_id":76561198068830312,"connected_time":752000000000,"state":"active","ping":46},{"user_id":260,"name":"kier","steam_id":76561198018564445,"connected_time":334000000000,"state":"active","ping":75},{"user_id":242,"name":"ShitsandGiggles‚Ñ¢","steam_id":76561198058708019,"connected_time":1557000000000,"state":"active","ping":61},{"user_id":232,"name":"Rx Auntie","steam_id":76561198051618393,"connected_time":2233000000000,"state":"active","ping":100},{"user_id":245,"name":"Maxxycat","steam_id":76561198194062681,"connected_time":1401000000000,"state":"active","ping":64}]},{"server_id":106,"name":"Uncletopia | Chicago | 2 | All Maps","name_short":"chi-2","host":"chi-1.us.uncletopia.com","port":27025,"enabled":true,"region":"us-central","cc":"us","latitude":41.881832,"longitude":-87.62318,"reserved":0,"last_update":"0001-01-01T00:00:00Z","name_a2s":"Uncletopia | Chicago | 2 | All Maps","protocol":17,"map":"pl_upward","folder":"tf","game":"Team Fortress","app_id":440,"player_count":24,"max_players":24,"Bots":0,"server_type":"Dedicated","server_os":"Linux","password":true,"vac":true,"version":"7757534","steam_id":85568392924469985,"keywords":["nocrits","nodmgspread","payload","uncletopia"],"game_id":440,"stv_port":27026,"stv_name":"Uncletopia | Chicago | 2 | All Maps | STV","players":[{"user_id":214,"name":"Char Aznable","steam_id":76561198041630663,"connected_time":6770000000000,"state":"active","ping":64},{"user_id":272,"name":"GuyGoom","steam_id":76561198254522178,"connected_time":3498000000000,"state":"active","ping":56},{"user_id":305,"name":"Female Gamer","steam_id":76561199366482682,"connected_time":998000000000,"state":"active","ping":104},{"user_id":255,"name":"Vox Vulpera","steam_id":76561198796227041,"connected_time":4366000000000,"state":"active","ping":58},{"user_id":261,"name":"AOTFB | WhiteWolf6421","steam_id":76561199184921234,"connected_time":4293000000000,"state":"active","ping":83},{"user_id":304,"name":"uhooter","steam_id":76561198007829078,"connected_time":1069000000000,"state":"active","ping":49},{"user_id":306,"name":"Denis","steam_id":76561198818419214,"connected_time":983000000000,"state":"active","ping":73},{"user_id":293,"name":"dP | I'm in a Wookie Suit","steam_id":76561198083307644,"connected_time":2104000000000,"state":"active","ping":106},{"user_id":311,"name":"calube","steam_id":76561198029350858,"connected_time":931000000000,"state":"active","ping":148},{"user_id":308,"name":"CheeseEatingSurrenderMonkeys","steam_id":76561197961193906,"connected_time":968000000000,"state":"active","ping":99},{"user_id":289,"name":"illious","steam_id":76561198169925494,"connected_time":2596000000000,"state":"active","ping":67},{"user_id":317,"name":"ThisBeeSparta18","steam_id":76561198174023582,"connected_time":608000000000,"state":"active","ping":57},{"user_id":312,"name":"ali oop","steam_id":76561198057516213,"connected_time":918000000000,"state":"active","ping":94},{"user_id":316,"name":"Racist The Rock","steam_id":76561198388706572,"connected_time":817000000000,"state":"active","ping":41},{"user_id":309,"name":"Bryton","steam_id":76561197984702054,"connected_time":948000000000,"state":"active","ping":65},{"user_id":310,"name":"grease lord","steam_id":76561198334418685,"connected_time":934000000000,"state":"active","ping":80},{"user_id":318,"name":"VLADIMIR LENIN'S CAT","steam_id":76561198182999551,"connected_time":586000000000,"state":"active","ping":56},{"user_id":268,"name":"wolf_71","steam_id":76561198963570945,"connected_time":3990000000000,"state":"active","ping":64},{"user_id":314,"name":"cologne","steam_id":76561198069600113,"connected_time":892000000000,"state":"active","ping":57},{"user_id":315,"name":"T√ñZI","steam_id":76561198045268695,"connected_time":889000000000,"state":"active","ping":75},{"user_id":319,"name":"CropFarmer","steam_id":76561198173712581,"connected_time":577000000000,"state":"active","ping":101},{"user_id":276,"name":"the one and only","steam_id":76561198139421218,"connected_time":3422000000000,"state":"active","ping":89},{"user_id":250,"name":"Raven","steam_id":76561198393887732,"connected_time":4446000000000,"state":"active","ping":85},{"user_id":291,"name":"Jazz","steam_id":76561198281069210,"connected_time":2513000000000,"state":"active","ping":74}]},{"server_id":402,"name":"Uncletopia | Chicago | 3 | All Maps","name_short":"chi-3","host":"chi-1.us.uncletopia.com","port":27035,"enabled":true,"region":"us-central","cc":"us","latitude":41.881832,"longitude":-87.62318,"reserved":0,"last_update":"0001-01-01T00:00:00Z","name_a2s":"Uncletopia | Chicago | 3 | All Maps","protocol":17,"map":"cp_steel","folder":"tf","game":"Team Fortress","app_id":440,"player_count":18,"max_players":24,"Bots":0,"server_type":"Dedicated","server_os":"Linux","password":true,"vac":true,"version":"7757534","steam_id":85568392924515191,"keywords":["cp","nocrits","nodmgspread","uncletopia"],"game_id":440,"stv_port":27036,"stv_name":"Uncletopia | Chicago | 3 | All Maps | STV","players":[{"user_id":209,"name":"DS8U","steam_id":76561198151554321,"connected_time":2114000000000,"state":"active","ping":54},{"user_id":235,"name":"Large Man","steam_id":76561198880396651,"connected_time":338000000000,"state":"active","ping":85},{"user_id":232,"name":"Bevan(The Manager)","steam_id":76561198073890273,"connected_time":557000000000,"state":"active","ping":104},{"user_id":234,"name":"yeyoi","steam_id":76561198069821885,"connected_time":375000000000,"state":"active","ping":73},{"user_id":207,"name":"SKIN IS WHERE THE FLAVOR IS","steam_id":76561198115842661,"connected_time":2513000000000,"state":"active","ping":73},{"user_id":229,"name":"Dr. Dickass PhD.","steam_id":76561199101726044,"connected_time":877000000000,"state":"active","ping":75},{"user_id":230,"name":"RussianVesper","steam_id":76561198263326607,"connected_time":819000000000,"state":"active","ping":76},{"user_id":226,"name":"Kosmic","steam_id":76561198948650368,"connected_time":982000000000,"state":"active","ping":113},{"user_id":194,"name":"Wug","steam_id":76561198084112264,"connected_time":3684000000000,"state":"active","ping":75},{"user_id":227,"name":"AgentK33","steam_id":76561198027375309,"connected_time":933000000000,"state":"active","ping":61},{"user_id":237,"name":"Ediot","steam_id":76561199349494096,"connected_time":114000000000,"state":"active","ping":98},{"user_id":238,"name":"ChuChu","steam_id":76561199443647976,"connected_time":113000000000,"state":"active","ping":156},{"user_id":222,"name":"Spectral Cloud","steam_id":76561199255382599,"connected_time":1161000000000,"state":"active","ping":48},{"user_id":177,"name":"GDHURRICANE","steam_id":76561199067561497,"connected_time":4728000000000,"state":"active","ping":84},{"user_id":223,"name":"Fish","steam_id":76561198986516474,"connected_time":1088000000000,"state":"active","ping":107},{"user_id":193,"name":"D9","steam_id":76561198149666258,"connected_time":3715000000000,"state":"active","ping":70},{"user_id":224,"name":"SketchMeister","steam_id":76561198042362032,"connected_time":1066000000000,"state":"active","ping":56},{"user_id":203,"name":"ExoTheFlyingFish","steam_id":76561198034388243,"connected_time":3100000000000,"state":"active","ping":60}]},{"server_id":403,"name":"Uncletopia | Chicago | 4 | All Maps","name_short":"chi-4","host":"chi-1.us.uncletopia.com","port":27045,"enabled":true,"region":"us-central","cc":"us","latitude":41.881832,"longitude":-87.62318,"reserved":0,"last_update":"0001-01-01T00:00:00Z","name_a2s":"Uncletopia | Chicago | 4 | All Maps","protocol":17,"map":"pl_goldrush","folder":"tf","game":"Team Fortress","app_id":440,"player_count":22,"max_players":24,"Bots":0,"server_type":"Dedicated","server_os":"Linux","password":true,"vac":true,"version":"7757534","steam_id":85568392924515193,"keywords":["nocrits","nodmgspread","payload","uncletopia"],"game_id":440,"stv_port":27046,"stv_name":"Uncletopia | Chicago | 4 | All Maps | STV","players":[{"user_id":234,"name":"Freezer Fox YT","steam_id":76561198060542607,"connected_time":1100000000000,"state":"active","ping":84},{"user_id":235,"name":"ZeeerZowowowBwow","steam_id":76561198018404265,"connected_time":1084000000000,"state":"active","ping":105},{"user_id":247,"name":"cinibo","steam_id":76561198139802458,"connected_time":389000000000,"state":"active","ping":78},{"user_id":216,"name":"M.L.JEW","steam_id":76561198997375055,"connected_time":1743000000000,"state":"active","ping":76},{"user_id":213,"name":"gwotelover420","steam_id":76561198414250681,"connected_time":1947000000000,"state":"active","ping":60},{"user_id":241,"name":"Daddy","steam_id":76561198093028567,"connected_time":646000000000,"state":"active","ping":72},{"user_id":217,"name":"femboy chicken","steam_id":76561199055185732,"connected_time":1735000000000,"state":"active","ping":152},{"user_id":255,"name":"skaj","steam_id":76561198082278586,"connected_time":31000000000,"state":"active","ping":73},{"user_id":230,"name":"FROYO donovin","steam_id":76561198045679387,"connected_time":1470000000000,"state":"active","ping":45},{"user_id":250,"name":"Doctor366","steam_id":76561198330917568,"connected_time":89000000000,"state":"active","ping":62},{"user_id":240,"name":"ano sono etto","steam_id":76561197965022076,"connected_time":886000000000,"state":"active","ping":58},{"user_id":251,"name":"MissXis","steam_id":76561198256277680,"connected_time":83000000000,"state":"active","ping":51},{"user_id":257,"name":"Mythius","steam_id":76561198401392472,"connected_time":25000000000,"state":"active","ping":76},{"user_id":243,"name":"leumas","steam_id":76561198240408540,"connected_time":548000000000,"state":"active","ping":75},{"user_id":238,"name":"im thinkin arby's","steam_id":76561198083271257,"connected_time":963000000000,"state":"active","ping":79},{"user_id":253,"name":"onion","steam_id":76561198242311084,"connected_time":40000000000,"state":"active","ping":60},{"user_id":256,"name":"HumFreY","steam_id":76561198076639682,"connected_time":26000000000,"state":"spawning","ping":60},{"user_id":199,"name":"B45Guy","steam_id":76561198117290531,"connected_time":3348000000000,"state":"active","ping":81},{"user_id":258,"name":"three three","steam_id":76561198177354155,"connected_time":3000000000,"state":"spawning","ping":44},{"user_id":200,"name":"I_Am_Lazy","steam_id":76561199030283067,"connected_time":3338000000000,"state":"active","ping":86},{"user_id":208,"name":"Passes the Bungus","steam_id":76561198040647717,"connected_time":2734000000000,"state":"active","ping":87},{"user_id":212,"name":"FiveStryker","steam_id":76561198366172207,"connected_time":2246000000000,"state":"active","ping":59}]},{"server_id":36,"name":"Uncletopia | Chicago | 5 | All Maps","name_short":"chi-5","host":"chi-2.us.uncletopia.com","port":27015,"enabled":true,"region":"us-central","cc":"us","latitude":41.881832,"longitude":-87.62318,"reserved":0,"last_update":"0001-01-01T00:00:00Z","name_a2s":"Uncletopia | Chicago | 5 | All Maps","protocol":17,"map":"pl_snowycoast","folder":"tf","game":"Team Fortress","app_id":440,"player_count":0,"max_players":24,"Bots":0,"server_type":"Dedicated","server_os":"Linux","password":true,"vac":true,"version":"7757534","steam_id":85568392924866362,"keywords":["nocrits","nodmgspread","payload","uncletopia"],"game_id":440,"stv_port":27016,"stv_name":"Uncletopia | Chicago | 5 | All Maps | STV","players":null},{"server_id":37,"name":"Uncletopia | Chicago | 6 | All Maps","name_short":"chi-6","host":"chi-2.us.uncletopia.com","port":27025,"enabled":true,"region":"us-central","cc":"us","latitude":41.881832,"longitude":-87.62318,"reserved":0,"last_update":"0001-01-01T00:00:00Z","name_a2s":"Uncletopia | Chicago | 6 | All Maps","protocol":17,"map":"pl_badwater","folder":"tf","game":"Team Fortress","app_id":440,"player_count":24,"max_players":24,"Bots":0,"server_type":"Dedicated","server_os":"Linux","password":true,"vac":true,"version":"7757534","steam_id":85568392924866363,"keywords":["nocrits","nodmgspread","payload","uncletopia"],"game_id":440,"stv_port":27026,"stv_name":"Uncletopia | Chicago | 6 | All Maps | STV","players":[{"user_id":200,"name":"capybara","steam_id":76561198798828328,"connected_time":2495000000000,"state":"active","ping":50},{"user_id":208,"name":"C4K3","steam_id":76561197996963285,"connected_time":1644000000000,"state":"active","ping":75},{"user_id":220,"name":"Average Vicodin Consumer","steam_id":76561199236719411,"connected_time":370000000000,"state":"active","ping":71},{"user_id":215,"name":"hashmap","steam_id":76561198043794014,"connected_time":673000000000,"state":"active","ping":52},{"user_id":222,"name":"Boter","steam_id":76561198066994093,"connected_time":259000000000,"state":"active","ping":63},{"user_id":221,"name":"gangster spongebob","steam_id":76561198199090317,"connected_time":361000000000,"state":"active","ping":136},{"user_id":205,"name":"willsmith69","steam_id":76561198365512706,"connected_time":2326000000000,"state":"active","ping":62},{"user_id":211,"name":"3rdmann","steam_id":76561198071285213,"connected_time":1341000000000,"state":"active","ping":79},{"user_id":225,"name":"Da2303","steam_id":76561199055103969,"connected_time":113000000000,"state":"active","ping":99},{"user_id":184,"name":"Andallfor","steam_id":76561198350143349,"connected_time":3556000000000,"state":"active","ping":74},{"user_id":212,"name":"Oscar","steam_id":76561198096972418,"connected_time":1303000000000,"state":"active","ping":86},{"user_id":223,"name":"ayr","steam_id":76561198083640961,"connected_time":151000000000,"state":"active","ping":75},{"user_id":219,"name":"BuddyMocha","steam_id":76561198054654515,"connected_time":473000000000,"state":"active","ping":46},{"user_id":224,"name":"Spekktre","steam_id":76561199089094169,"connected_time":115000000000,"state":"active","ping":85},{"user_id":204,"name":"squeako","steam_id":76561199031480674,"connected_time":2371000000000,"state":"active","ping":70},{"user_id":213,"name":"Haunting","steam_id":76561198088529360,"connected_time":1134000000000,"state":"active","ping":72},{"user_id":226,"name":"Notakomi","steam_id":76561198044757688,"connected_time":99000000000,"state":"active","ping":75},{"user_id":227,"name":"The Lonely Croc","steam_id":76561198123241396,"connected_time":94000000000,"state":"active","ping":80},{"user_id":190,"name":"McSpazatron","steam_id":76561198955942148,"connected_time":3124000000000,"state":"active","ping":104},{"user_id":228,"name":"Robyn Goodfellowe","steam_id":76561198074719241,"connected_time":55000000000,"state":"active","ping":70},{"user_id":163,"name":"Dug","steam_id":76561198017691029,"connected_time":4854000000000,"state":"active","ping":56},{"user_id":206,"name":"Rudy","steam_id":76561198013456828,"connected_time":2173000000000,"state":"active","ping":59},{"user_id":218,"name":"goon minster","steam_id":76561198059245735,"connected_time":518000000000,"state":"active","ping":82},{"user_id":230,"name":"4d4","steam_id":76561198402360789,"connected_time":40000000000,"state":"active","ping":57}]},{"server_id":38,"name":"Uncletopia | Chicago | 7 | Stopwatch Beta","name_short":"chi-7","host":"chi-2.us.uncletopia.com","port":27035,"enabled":true,"region":"us-central","cc":"us","latitude":41.881832,"longitude":-87.62318,"reserved":0,"last_update":"0001-01-01T00:00:00Z","name_a2s":"Uncletopia | Chicago | 7 | Stopwatch Beta","protocol":17,"map":"workshop/pl_badwater_pro_v12.ugc2142942074","folder":"tf","game":"Team Fortress","app_id":440,"player_count":0,"max_players":24,"Bots":0,"server_type":"Dedicated","server_os":"Linux","password":true,"vac":true,"version":"7757534","steam_id":85568392924866364,"keywords":["nocrits","nodmgspread","payload","uncletopia"],"game_id":440,"stv_port":27036,"stv_name":"Uncletopia | Chicago | 7 | Stopwatch Beta | STV","players":null},{"server_id":39,"name":"Uncletopia | Chicago | 8 | Community","name_short":"chi-8","host":"chi-2.us.uncletopia.com","port":27045,"enabled":true,"region":"us-central","cc":"us","latitude":41.881832,"longitude":-87.62318,"reserved":0,"last_update":"0001-01-01T00:00:00Z","name_a2s":"Uncletopia | Chicago | 8 | Community","protocol":17,"map":"workshop/pl_barnblitz_pro7.ugc582280235","folder":"tf","game":"Team Fortress","app_id":440,"player_count":0,"max_players":24,"Bots":0,"server_type":"Dedicated","server_os":"Linux","password":true,"vac":true,"version":"7757534","steam_id":85568392924866365,"keywords":["nocrits","nodmgspread","payload","uncletopia"],"game_id":440,"stv_port":27046,"stv_name":"Uncletopia | Chicago | 8 | Community | STV","players":null},{"server_id":8,"name":"Uncletopia | Dallas | 1 | All Maps","name_short":"dal-1","host":"dal-1.us.uncletopia.com","port":27015,"enabled":true,"region":"us-central","cc":"us","latitude":32.779167,"longitude":-96.80889,"reserved":0,"last_update":"0001-01-01T00:00:00Z","name_a2s":"Uncletopia | Dallas | 1 | All Maps","protocol":17,"map":"pl_barnblitz","folder":"tf","game":"Team Fortress","app_id":440,"player_count":24,"max_players":24,"Bots":0,"server_type":"Dedicated","server_os":"Linux","password":true,"vac":true,"version":"7757534","steam_id":85568392924469986,"keywords":["nocrits","nodmgspread","payload","uncletopia"],"game_id":440,"stv_port":27016,"stv_name":"Uncletopia | Dallas | 1 | All Maps | STV","players":[{"user_id":153,"name":"Sazanka","steam_id":76561197996976286,"connected_time":2389000000000,"state":"active","ping":85},{"user_id":177,"name":"NIGHTGAMER7","steam_id":76561198079419562,"connected_time":1578000000000,"state":"active","ping":69},{"user_id":165,"name":"The Horselords and Animal Gods","steam_id":76561197975094050,"connected_time":1978000000000,"state":"active","ping":84},{"user_id":180,"name":"The Foolish Samurai","steam_id":76561198094494945,"connected_time":1405000000000,"state":"active","ping":81},{"user_id":184,"name":"vhs","steam_id":76561198880644978,"connected_time":1142000000000,"state":"active","ping":77},{"user_id":166,"name":"Caoticaos","steam_id":76561198114800227,"connected_time":1975000000000,"state":"active","ping":130},{"user_id":167,"name":"sneep","steam_id":76561197967846640,"connected_time":1967000000000,"state":"active","ping":109},{"user_id":152,"name":"tavorraX0","steam_id":76561198042465206,"connected_time":2660000000000,"state":"active","ping":136},{"user_id":168,"name":"canman","steam_id":76561197986919292,"connected_time":1965000000000,"state":"active","ping":100},{"user_id":178,"name":"Father Jon","steam_id":76561198324730919,"connected_time":1475000000000,"state":"active","ping":71},{"user_id":172,"name":"Drake from State Farm","steam_id":76561199069029812,"connected_time":1759000000000,"state":"active","ping":88},{"user_id":118,"name":"Swoletard","steam_id":76561198074212758,"connected_time":5173000000000,"state":"active","ping":59},{"user_id":190,"name":"+","steam_id":76561198262422184,"connected_time":282000000000,"state":"active","ping":52},{"user_id":188,"name":"Toxic Medic Main","steam_id":76561198009314845,"connected_time":858000000000,"state":"active","ping":72},{"user_id":141,"name":"Fuegan Ra","steam_id":76561198287923849,"connected_time":3736000000000,"state":"active","ping":72},{"user_id":136,"name":"Foomfa","steam_id":76561198007033616,"connected_time":3987000000000,"state":"active","ping":62},{"user_id":182,"name":"Socialism Enjoyer","steam_id":76561197991817974,"connected_time":1329000000000,"state":"active","ping":96},{"user_id":160,"name":"Pinto","steam_id":76561199105386998,"connected_time":2180000000000,"state":"active","ping":57},{"user_id":173,"name":"cornealvase9152","steam_id":76561198851958868,"connected_time":1749000000000,"state":"active","ping":80},{"user_id":185,"name":"Gongus","steam_id":76561199199194177,"connected_time":1061000000000,"state":"active","ping":63},{"user_id":187,"name":"regular_consuelo","steam_id":76561198327831852,"connected_time":911000000000,"state":"active","ping":95},{"user_id":183,"name":"Limasio","steam_id":76561198198176191,"connected_time":1281000000000,"state":"active","ping":71},{"user_id":119,"name":"stinkiest smelliest gamer ever","steam_id":76561198014593467,"connected_time":5169000000000,"state":"active","ping":59},{"user_id":189,"name":"Tachi","steam_id":76561198158581216,"connected_time":712000000000,"state":"active","ping":90}]},{"server_id":108,"name":"Uncletopia | Dallas | 2 | All Maps","name_short":"dal-2","host":"dal-1.us.uncletopia.com","port":27025,"enabled":true,"region":"us-central","cc":"us","latitude":32.779167,"longitude":-96.80889,"reserved":0,"last_update":"0001-01-01T00:00:00Z","name_a2s":"Uncletopia | Dallas | 2 | All Maps","protocol":17,"map":"koth_viaduct","folder":"tf","game":"Team Fortress","app_id":440,"player_count":24,"max_players":24,"Bots":0,"server_type":"Dedicated","server_os":"Linux","password":true,"vac":true,"version":"7757534","steam_id":85568392924469988,"keywords":["cp","nocrits","nodmgspread","uncletopia"],"game_id":440,"stv_port":27026,"stv_name":"Uncletopia | Dallas | 2 | All Maps | STV","players":[{"user_id":233,"name":"cixcin","steam_id":76561199215821942,"connected_time":367000000000,"state":"active","ping":48},{"user_id":213,"name":"LiMPs","steam_id":76561198176806234,"connected_time":1476000000000,"state":"active","ping":84},{"user_id":217,"name":"Ocktorock","steam_id":76561198211636619,"connected_time":981000000000,"state":"active","ping":104},{"user_id":219,"name":"Blixstorm","steam_id":76561198352750870,"connected_time":935000000000,"state":"active","ping":106},{"user_id":236,"name":"Biggest Charms","steam_id":76561198075134882,"connected_time":18000000000,"state":"active","ping":304},{"user_id":235,"name":"SaxyThePhone","steam_id":76561199439167761,"connected_time":49000000000,"state":"active","ping":79},{"user_id":220,"name":"McAspie","steam_id":76561198079700167,"connected_time":929000000000,"state":"active","ping":55},{"user_id":221,"name":"rainbowmaster25!","steam_id":76561199215255414,"connected_time":834000000000,"state":"active","ping":81},{"user_id":198,"name":"UnsettlingVoice","steam_id":76561198036614583,"connected_time":2182000000000,"state":"active","ping":74},{"user_id":199,"name":"lft dw4rf","steam_id":76561198046953937,"connected_time":2137000000000,"state":"active","ping":114},{"user_id":200,"name":"gonurlight","steam_id":76561198935839416,"connected_time":2132000000000,"state":"active","ping":75},{"user_id":201,"name":"picachu9999000","steam_id":76561198998313129,"connected_time":2127000000000,"state":"active","ping":115},{"user_id":227,"name":"Deno! Í∞ÑÎ∂Ä","steam_id":76561198041113335,"connected_time":471000000000,"state":"active","ping":108},{"user_id":202,"name":"Roken","steam_id":76561198037836282,"connected_time":2040000000000,"state":"active","ping":75},{"user_id":234,"name":"WannaSeeA","steam_id":76561198097701042,"connected_time":165000000000,"state":"active","ping":50},{"user_id":223,"name":"CSchnappi","steam_id":76561198131999968,"connected_time":682000000000,"state":"active","ping":40},{"user_id":207,"name":"Smitty Werbenjagermanjensen","steam_id":76561198065782439,"connected_time":1822000000000,"state":"active","ping":99},{"user_id":224,"name":"Not A Rapper","steam_id":76561198077523537,"connected_time":676000000000,"state":"active","ping":96},{"user_id":225,"name":"SPREAD CHRISTMAS CHEER AND JOY","steam_id":76561198800386026,"connected_time":674000000000,"state":"active","ping":93},{"user_id":232,"name":"AKK0","steam_id":76561199063194145,"connected_time":388000000000,"state":"active","ping":71},{"user_id":194,"name":"Orca?","steam_id":76561198164341099,"connected_time":2554000000000,"state":"active","ping":75},{"user_id":230,"name":"a pancake","steam_id":76561198005778292,"connected_time":416000000000,"state":"active","ping":114},{"user_id":191,"name":"nnobi","steam_id":76561198878729277,"connected_time":3068000000000,"state":"active","ping":75},{"user_id":231,"name":"She's giving you a WUTVILLE??","steam_id":76561198172792271,"connected_time":416000000000,"state":"active","ping":92}]},{"server_id":5,"name":"Uncletopia | Frankfurt | 1 | All Maps","name_short":"frk-1","host":"frk-1.de.uncletopia.com","port":27015,"enabled":true,"region":"eu","cc":"de","latitude":50.110924,"longitude":8.682127,"reserved":0,"last_update":"0001-01-01T00:00:00Z","name_a2s":"Uncletopia | Frankfurt | 1 | All Maps","protocol":17,"map":"pl_pier","folder":"tf","game":"Team Fortress","app_id":440,"player_count":0,"max_players":24,"Bots":0,"server_type":"Dedicated","server_os":"Linux","password":true,"vac":true,"version":"7757534","steam_id":85568392924469989,"keywords":["nocrits","nodmgspread","payload","uncletopia"],"game_id":440,"stv_port":27016,"stv_name":"Uncletopia | Frankfurt | 1 | All Maps | STV","players":null},{"server_id":110,"name":"Uncletopia | Frankfurt | 2 | All Maps","name_short":"frk-2","host":"frk-1.de.uncletopia.com","port":27025,"enabled":true,"region":"eu","cc":"de","latitude":50.110924,"longitude":8.682127,"reserved":0,"last_update":"0001-01-01T00:00:00Z","name_a2s":"Uncletopia | Frankfurt | 2 | All Maps","protocol":17,"map":"cp_altitude","folder":"tf","game":"Team Fortress","app_id":440,"player_count":0,"max_players":24,"Bots":0,"server_type":"Dedicated","server_os":"Linux","password":true,"vac":true,"version":"7757534","steam_id":85568392924469990,"keywords":["cp","nocrits","nodmgspread","uncletopia"],"game_id":440,"stv_port":27026,"stv_name":"Uncletopia | Frankfurt | 2 | All Maps | STV","players":null},{"server_id":308,"name":"Uncletopia | Frankfurt | 3 | All Maps","name_short":"frk-3","host":"frk-1.de.uncletopia.com","port":27035,"enabled":true,"region":"eu","cc":"de","latitude":50.110924,"longitude":8.682127,"reserved":0,"last_update":"0001-01-01T00:00:00Z","name_a2s":"Uncletopia | Frankfurt | 3 | All Maps","protocol":17,"map":"cp_process_final","folder":"tf","game":"Team Fortress","app_id":440,"player_count":0,"max_players":24,"Bots":0,"server_type":"Dedicated","server_os":"Linux","password":true,"vac":true,"version":"7757534","steam_id":85568392924504274,"keywords":["cp","nocrits","nodmgspread","uncletopia"],"game_id":440,"stv_port":27036,"stv_name":"Uncletopia | Frankfurt | 3 | All Maps | STV","players":null},{"server_id":309,"name":"Uncletopia | Frankfurt | 4 | All Maps","name_short":"frk-4","host":"frk-1.de.uncletopia.com","port":27045,"enabled":true,"region":"eu","cc":"de","latitude":50.110924,"longitude":8.682127,"reserved":0,"last_update":"0001-01-01T00:00:00Z","name_a2s":"Uncletopia | Frankfurt | 4 | All Maps","protocol":17,"map":"pl_snowycoast","folder":"tf","game":"Team Fortress","app_id":440,"player_count":0,"max_players":24,"Bots":0,"server_type":"Dedicated","server_os":"Linux","password":true,"vac":true,"version":"7757534","steam_id":85568392924504275,"keywords":["nocrits","nodmgspread","payload","uncletopia"],"game_id":440,"stv_port":27046,"stv_name":"Uncletopia | Frankfurt | 4 | All Maps | STV","players":null},{"server_id":310,"name":"Uncletopia | Frankfurt | 5 | All Maps","name_short":"frk-5","host":"frk-1.de.uncletopia.com","port":27055,"enabled":true,"region":"eu","cc":"de","latitude":50.110924,"longitude":8.682127,"reserved":0,"last_update":"0001-01-01T00:00:00Z","name_a2s":"Uncletopia | Frankfurt | 5 | All Maps","protocol":17,"map":"cp_altitude","folder":"tf","game":"Team Fortress","app_id":440,"player_count":0,"max_players":24,"Bots":0,"server_type":"Dedicated","server_os":"Linux","password":true,"vac":true,"version":"7757534","steam_id":85568392924504277,"keywords":["cp","nocrits","nodmgspread","uncletopia"],"game_id":440,"stv_port":27056,"stv_name":"Uncletopia | Frankfurt | 5 | All Maps | STV","players":null},{"server_id":311,"name":"Uncletopia | Frankfurt | 6 | All Maps","name_short":"frk-6","host":"frk-1.de.uncletopia.com","port":27065,"enabled":true,"region":"eu","cc":"de","latitude":50.110924,"longitude":8.682127,"reserved":0,"last_update":"0001-01-01T00:00:00Z","name_a2s":"Uncletopia | Frankfurt | 6 | All Maps","protocol":17,"map":"koth_highpass","folder":"tf","game":"Team Fortress","app_id":440,"player_count":0,"max_players":24,"Bots":0,"server_type":"Dedicated","server_os":"Linux","password":true,"vac":true,"version":"7757534","steam_id":85568392924504278,"keywords":["cp","nocrits","nodmgspread","uncletopia"],"game_id":440,"stv_port":27066,"stv_name":"Uncletopia | Frankfurt | 6 | All Maps | STV","players":null},{"server_id":23,"name":"Uncletopia | Frankfurt | 7 | Stopwatch Beta","name_short":"frk-7","host":"frk-1.de.uncletopia.com","port":27075,"enabled":true,"region":"eu","cc":"de","latitude":50.110924,"longitude":8.682127,"reserved":0,"last_update":"0001-01-01T00:00:00Z","name_a2s":"Uncletopia | Frankfurt | 7 | Stopwatch Beta","protocol":17,"map":"pl_borneo","folder":"tf","game":"Team Fortress","app_id":440,"player_count":0,"max_players":24,"Bots":0,"server_type":"Dedicated","server_os":"Linux","password":true,"vac":true,"version":"7757534","steam_id":85568392924742827,"keywords":["nocrits","nodmgspread","payload","uncletopia"],"game_id":440,"stv_port":27076,"stv_name":"Uncletopia | Frankfurt | 7 | Stopwatch Beta | STV","players":null},{"server_id":24,"name":"Uncletopia | Frankfurt | 8 | Community","name_short":"frk-8","host":"frk-1.de.uncletopia.com","port":27085,"enabled":true,"region":"eu","cc":"de","latitude":50.110924,"longitude":8.682127,"reserved":0,"last_update":"0001-01-01T00:00:00Z","name_a2s":"Uncletopia | Frankfurt | 8 | Community","protocol":17,"map":"koth_cascade","folder":"tf","game":"Team Fortress","app_id":440,"player_count":0,"max_players":24,"Bots":0,"server_type":"Dedicated","server_os":"Linux","password":true,"vac":true,"version":"7757534","steam_id":85568392924742828,"keywords":["cp","nocrits","nodmgspread","uncletopia"],"game_id":440,"stv_port":27086,"stv_name":"Uncletopia | Frankfurt | 8 | Community | STV","players":null},{"server_id":202,"name":"Uncletopia | Hong Kong | 1 | All Maps","name_short":"hgk-1","host":"hgk-1.hk.uncletopia.com","port":27015,"enabled":true,"region":"asia","cc":"hk","latitude":22.302711,"longitude":114.177216,"reserved":0,"last_update":"0001-01-01T00:00:00Z","name_a2s":"Uncletopia | Hong Kong | 1 | All Maps","protocol":17,"map":"pl_pier","folder":"tf","game":"Team Fortress","app_id":440,"player_count":1,"max_players":24,"Bots":0,"server_type":"Dedicated","server_os":"Linux","password":true,"vac":true,"version":"7757534","steam_id":85568392924494504,"keywords":["nocrits","nodmgspread","payload","uncletopia"],"game_id":440,"stv_port":27016,"stv_name":"Uncletopia | Hong Kong | 1 | All Maps | STV","players":[{"user_id":103,"name":"1673*","steam_id":76561198338911926,"connected_time":66000000000,"state":"active","ping":132}]},{"server_id":1,"name":"Uncletopia | Los Angeles | 1 | All Maps","name_short":"lax-1","host":"lax-1.us.uncletopia.com","port":27015,"enabled":true,"region":"us-west","cc":"us","latitude":33.94279,"longitude":-118.41004,"reserved":0,"last_update":"0001-01-01T00:00:00Z","name_a2s":"Uncletopia | Los Angeles | 1 | All Maps","protocol":17,"map":"koth_cascade","folder":"tf","game":"Team Fortress","app_id":440,"player_count":0,"max_players":24,"Bots":0,"server_type":"Dedicated","server_os":"Linux","password":true,"vac":true,"version":"7757534","steam_id":85568392924469991,"keywords":["cp","nocrits","nodmgspread","uncletopia"],"game_id":440,"stv_port":27016,"stv_name":"Uncletopia | Los Angeles | 1 | All Maps | STV","players":null},{"server_id":112,"name":"Uncletopia | Los Angeles | 2 | All Maps","name_short":"lax-2","host":"lax-1.us.uncletopia.com","port":27025,"enabled":true,"region":"us-west","cc":"us","latitude":33.94279,"longitude":-118.41004,"reserved":0,"last_update":"0001-01-01T00:00:00Z","name_a2s":"Uncletopia | Los Angeles | 2 | All Maps","protocol":17,"map":"pl_hoodoo_final","folder":"tf","game":"Team Fortress","app_id":440,"player_count":24,"max_players":24,"Bots":0,"server_type":"Dedicated","server_os":"Linux","password":true,"vac":true,"version":"7757534","steam_id":85568392924469992,"keywords":["nocrits","nodmgspread","payload","uncletopia"],"game_id":440,"stv_port":27026,"stv_name":"Uncletopia | Los Angeles | 2 | All Maps | STV","players":[{"user_id":192,"name":"Goalie","steam_id":76561198307517249,"connected_time":469000000000,"state":"active","ping":48},{"user_id":189,"name":"J U K I E","steam_id":76561197962841151,"connected_time":707000000000,"state":"active","ping":72},{"user_id":123,"name":"Tom Skirrett","steam_id":76561198014600788,"connected_time":5708000000000,"state":"active","ping":96},{"user_id":194,"name":"üê∫-Iwky-ü¶ä","steam_id":76561198185616311,"connected_time":396000000000,"state":"active","ping":72},{"user_id":112,"name":"DragoDuck","steam_id":76561198385685683,"connected_time":6288000000000,"state":"active","ping":90},{"user_id":69,"name":"Mothma","steam_id":76561198353789504,"connected_time":8434000000000,"state":"active","ping":63},{"user_id":122,"name":"TROY","steam_id":76561197983852176,"connected_time":5755000000000,"state":"active","ping":46},{"user_id":155,"name":"fortzei","steam_id":76561198210920541,"connected_time":3047000000000,"state":"active","ping":69},{"user_id":78,"name":"teh mummy","steam_id":76561198044123636,"connected_time":8161000000000,"state":"active","ping":32},{"user_id":125,"name":"HeroOfTime","steam_id":76561199096218001,"connected_time":5414000000000,"state":"active","ping":44},{"user_id":58,"name":"Can You Feel It Mr.Krabs","steam_id":76561198128302414,"connected_time":10047000000000,"state":"active","ping":43},{"user_id":160,"name":"neffam3","steam_id":76561198074256803,"connected_time":2754000000000,"state":"active","ping":89},{"user_id":191,"name":"Sasuri","steam_id":76561198404769732,"connected_time":543000000000,"state":"active","ping":57},{"user_id":163,"name":"IntravenusDeMilo","steam_id":76561197970629020,"connected_time":2321000000000,"state":"active","ping":67},{"user_id":185,"name":"HeartAttack","steam_id":76561198135833968,"connected_time":1278000000000,"state":"active","ping":52},{"user_id":181,"name":"TOOL fan","steam_id":76561198272021214,"connected_time":1384000000000,"state":"active","ping":48},{"user_id":195,"name":"Mr. Brightside","steam_id":76561198006307713,"connected_time":249000000000,"state":"active","ping":90},{"user_id":175,"name":"Jack from Jack in The Box","steam_id":76561199083594971,"connected_time":1642000000000,"state":"active","ping":48},{"user_id":193,"name":"Mr. Worldwide","steam_id":76561198366440924,"connected_time":463000000000,"state":"active","ping":55},{"user_id":140,"name":"puffer","steam_id":76561199049164456,"connected_time":4652000000000,"state":"active","ping":75},{"user_id":188,"name":"Walter","steam_id":76561198176428878,"connected_time":1022000000000,"state":"active","ping":66},{"user_id":183,"name":"pooping.peter.2009","steam_id":76561198171368867,"connected_time":1314000000000,"state":"active","ping":47},{"user_id":186,"name":"weed lesbian","steam_id":76561198042263805,"connected_time":1244000000000,"state":"active","ping":70},{"user_id":165,"name":"Krazy","steam_id":76561198835502709,"connected_time":2185000000000,"state":"active","ping":45}]},{"server_id":324,"name":"Uncletopia | Los Angeles | 3 | All Maps","name_short":"lax-3","host":"lax-1.us.uncletopia.com","port":27035,"enabled":true,"region":"us-west","cc":"us","latitude":33.94279,"longitude":-118.41004,"reserved":0,"last_update":"0001-01-01T00:00:00Z","name_a2s":"Uncletopia | Los Angeles | 3 | All Maps","protocol":17,"map":"pl_badwater","folder":"tf","game":"Team Fortress","app_id":440,"player_count":19,"max_players":24,"Bots":0,"server_type":"Dedicated","server_os":"Linux","password":true,"vac":true,"version":"7757534","steam_id":85568392924510198,"keywords":["nocrits","nodmgspread","payload","uncletopia"],"game_id":440,"stv_port":27036,"stv_name":"Uncletopia | Los Angeles | 3 | All Maps | STV","players":[{"user_id":251,"name":"gamer","steam_id":76561198334059206,"connected_time":34000000000,"state":"active","ping":55},{"user_id":234,"name":"kho","steam_id":76561198195764728,"connected_time":1627000000000,"state":"active","ping":105},{"user_id":226,"name":"E-Spliff","steam_id":76561199093733603,"connected_time":2383000000000,"state":"active","ping":48},{"user_id":247,"name":"social distance warrior","steam_id":76561198128992994,"connected_time":456000000000,"state":"active","ping":75},{"user_id":227,"name":"existential dread","steam_id":76561198041907345,"connected_time":2371000000000,"state":"active","ping":51},{"user_id":194,"name":"Frazzer","steam_id":76561198088679707,"connected_time":4225000000000,"state":"active","ping":53},{"user_id":217,"name":"duane","steam_id":76561198149565822,"connected_time":2767000000000,"state":"active","ping":103},{"user_id":244,"name":"Fong","steam_id":76561198138002824,"connected_time":792000000000,"state":"active","ping":85},{"user_id":248,"name":"PainInTheRuss","steam_id":76561197977960543,"connected_time":289000000000,"state":"active","ping":60},{"user_id":193,"name":"Delimeat","steam_id":76561198043824595,"connected_time":4227000000000,"state":"active","ping":46},{"user_id":231,"name":"Bryce Gobo","steam_id":76561199411560141,"connected_time":1916000000000,"state":"active","ping":73},{"user_id":212,"name":"Nuggies","steam_id":76561198272432592,"connected_time":3093000000000,"state":"active","ping":61},{"user_id":202,"name":"carpet","steam_id":76561199059705224,"connected_time":3960000000000,"state":"active","ping":82},{"user_id":249,"name":"Mr. Yoshida","steam_id":76561198263829831,"connected_time":283000000000,"state":"active","ping":71},{"user_id":242,"name":"gerg","steam_id":76561197997127387,"connected_time":953000000000,"state":"active","ping":59},{"user_id":232,"name":"Gettin Carried","steam_id":76561198108066455,"connected_time":1834000000000,"state":"active","ping":74},{"user_id":243,"name":"Chiaki Nanami","steam_id":76561198164782653,"connected_time":952000000000,"state":"active","ping":121},{"user_id":230,"name":"Obersteuermann","steam_id":76561198044468707,"connected_time":2051000000000,"state":"active","ping":68},{"user_id":210,"name":"Leo","steam_id":76561198309760791,"connected_time":3152000000000,"state":"active","ping":101}]},{"server_id":25,"name":"Uncletopia | Los Angeles | 4 | Stopwatch Beta","name_short":"lax-4","host":"lax-1.us.uncletopia.com","port":27045,"enabled":true,"region":"us-west","cc":"us","latitude":33.94279,"longitude":-118.41004,"reserved":0,"last_update":"0001-01-01T00:00:00Z","name_a2s":"Uncletopia | Los Angeles | 4 | Stopwatch Beta","protocol":17,"map":"koth_viaduct","folder":"tf","game":"Team Fortress","app_id":440,"player_count":0,"max_players":24,"Bots":0,"server_type":"Dedicated","server_os":"Linux","password":true,"vac":true,"version":"7757534","steam_id":85568392924510199,"keywords":["cp","nocrits","nodmgspread","uncletopia"],"game_id":440,"stv_port":27046,"stv_name":"Uncletopia | Los Angeles | 4 | Stopwatch Beta | STV","players":null},{"server_id":11,"name":"Uncletopia | London | 1 | All Maps","name_short":"lon-1","host":"lon-1.uk.uncletopia.com","port":27015,"enabled":true,"region":"eu","cc":"gb","latitude":51.509865,"longitude":-0.118092,"reserved":0,"last_update":"0001-01-01T00:00:00Z","name_a2s":"Uncletopia | London | 1 | All Maps","protocol":17,"map":"pl_barnblitz","folder":"tf","game":"Team Fortress","app_id":440,"player_count":24,"max_players":24,"Bots":0,"server_type":"Dedicated","server_os":"Linux","password":true,"vac":true,"version":"7757534","steam_id":85568392924367362,"keywords":["nocrits","nodmgspread","payload","uncletopia"],"game_id":440,"stv_port":27016,"stv_name":"Uncletopia | London | 1 | All Maps | STV","players":[{"user_id":187,"name":"Funi","steam_id":76561198237603082,"connected_time":3287000000000,"state":"active","ping":99},{"user_id":197,"name":"K2_not_n9","steam_id":76561199217173541,"connected_time":2778000000000,"state":"active","ping":112},{"user_id":244,"name":"dr. filth","steam_id":76561198389005732,"connected_time":17000000000,"state":"spawning","ping":193},{"user_id":236,"name":"rev up the bugatti wahey","steam_id":76561198079589665,"connected_time":317000000000,"state":"active","ping":45},{"user_id":195,"name":"bassam","steam_id":76561199057881822,"connected_time":2857000000000,"state":"active","ping":111},{"user_id":241,"name":"RIFT","steam_id":76561198991622379,"connected_time":213000000000,"state":"active","ping":45},{"user_id":210,"name":"It's a me Malario","steam_id":76561198176546013,"connected_time":1843000000000,"state":"active","ping":48},{"user_id":242,"name":"BrainLacking","steam_id":76561198965574196,"connected_time":167000000000,"state":"active","ping":57},{"user_id":232,"name":"true","steam_id":76561198031145243,"connected_time":961000000000,"state":"active","ping":78},{"user_id":238,"name":"MarkBV","steam_id":76561198427014506,"connected_time":252000000000,"state":"active","ping":133},{"user_id":211,"name":"Dragon's Fury","steam_id":76561198049405872,"connected_time":1838000000000,"state":"active","ping":48},{"user_id":237,"name":"The Dude","steam_id":76561198056602261,"connected_time":269000000000,"state":"active","ping":158},{"user_id":206,"name":"hmscole09","steam_id":76561198811362788,"connected_time":2140000000000,"state":"active","ping":49},{"user_id":228,"name":"duster cat","steam_id":76561198832231975,"connected_time":1116000000000,"state":"active","ping":94},{"user_id":185,"name":"Nazuna","steam_id":76561198413225595,"connected_time":3365000000000,"state":"active","ping":113},{"user_id":243,"name":"Flal","steam_id":76561198453819816,"connected_time":47000000000,"state":"spawning","ping":59},{"user_id":245,"name":"Garduuk","steam_id":76561198010745965,"connected_time":10000000000,"state":"active","ping":276},{"user_id":188,"name":"ParussMan","steam_id":76561198446245146,"connected_time":3275000000000,"state":"active","ping":114},{"user_id":224,"name":"dorak","steam_id":76561198818037965,"connected_time":1238000000000,"state":"active","ping":116},{"user_id":231,"name":"Goblin Gaming","steam_id":76561199087406024,"connected_time":992000000000,"state":"active","ping":79},{"user_id":227,"name":"Ser.Herpiman","steam_id":76561198314165728,"connected_time":1158000000000,"state":"active","ping":75},{"user_id":213,"name":"stoppen","steam_id":76561197960281482,"connected_time":1824000000000,"state":"active","ping":73},{"user_id":235,"name":"YOUNG Mozart","steam_id":76561198262549397,"connected_time":507000000000,"state":"active","ping":64},{"user_id":219,"name":"Linked","steam_id":76561198119217687,"connected_time":1733000000000,"state":"active","ping":62}]},{"server_id":114,"name":"Uncletopia | London | 2 | All Maps","name_short":"lon-2","host":"lon-1.uk.uncletopia.com","port":27025,"enabled":true,"region":"eu","cc":"gb","latitude":51.509865,"longitude":-0.118092,"reserved":0,"last_update":"0001-01-01T00:00:00Z","name_a2s":"Uncletopia | London | 2 | All Maps","protocol":17,"map":"pl_swiftwater_final1","folder":"tf","game":"Team Fortress","app_id":440,"player_count":0,"max_players":24,"Bots":0,"server_type":"Dedicated","server_os":"Linux","password":true,"vac":true,"version":"7757534","steam_id":85568392924470941,"keywords":["nocrits","nodmgspread","payload","uncletopia"],"game_id":440,"stv_port":27026,"stv_name":"Uncletopia | London | 2 | All Maps | STV","players":null},{"server_id":320,"name":"Uncletopia | London | 3 | All Maps","name_short":"lon-3","host":"lon-1.uk.uncletopia.com","port":27035,"enabled":true,"region":"eu","cc":"gb","latitude":51.509865,"longitude":-0.118092,"reserved":0,"last_update":"0001-01-01T00:00:00Z","name_a2s":"Uncletopia | London | 3 | All Maps","protocol":17,"map":"koth_cascade","folder":"tf","game":"Team Fortress","app_id":440,"player_count":0,"max_players":24,"Bots":0,"server_type":"Dedicated","server_os":"Linux","password":true,"vac":true,"version":"7757534","steam_id":85568392924510192,"keywords":["cp","nocrits","nodmgspread","uncletopia"],"game_id":440,"stv_port":27036,"stv_name":"Uncletopia | London | 3 | All Maps | STV","players":null},{"server_id":321,"name":"Uncletopia | London | 4 | All Maps","name_short":"lon-4","host":"lon-1.uk.uncletopia.com","port":27045,"enabled":true,"region":"eu","cc":"gb","latitude":51.509865,"longitude":-0.118092,"reserved":0,"last_update":"0001-01-01T00:00:00Z","name_a2s":"Uncletopia | London | 4 | All Maps","protocol":17,"map":"cp_snakewater_final1","folder":"tf","game":"Team Fortress","app_id":440,"player_count":0,"max_players":24,"Bots":0,"server_type":"Dedicated","server_os":"Linux","password":true,"vac":true,"version":"7757534","steam_id":85568392924510193,"keywords":["cp","nocrits","nodmgspread","uncletopia"],"game_id":440,"stv_port":27046,"stv_name":"Uncletopia | London | 4 | All Maps | STV","players":null},{"server_id":21,"name":"Uncletopia | London | 5 | All Maps","name_short":"lon-5","host":"lon-1.uk.uncletopia.com","port":27055,"enabled":true,"region":"eu","cc":"gb","latitude":51.509865,"longitude":-0.118092,"reserved":0,"last_update":"0001-01-01T00:00:00Z","name_a2s":"Uncletopia | London | 5 | All Maps","protocol":17,"map":"pl_badwater","folder":"tf","game":"Team Fortress","app_id":440,"player_count":0,"max_players":24,"Bots":0,"server_type":"Dedicated","server_os":"Linux","password":true,"vac":true,"version":"7757534","steam_id":85568392924742829,"keywords":["nocrits","nodmgspread","payload","uncletopia"],"game_id":440,"stv_port":27056,"stv_name":"Uncletopia | London | 5 | All Maps | STV","players":null},{"server_id":22,"name":"Uncletopia | London | 6 | All Maps","name_short":"lon-6","host":"lon-1.uk.uncletopia.com","port":27065,"enabled":true,"region":"eu","cc":"gb","latitude":51.509865,"longitude":-0.118092,"reserved":0,"last_update":"0001-01-01T00:00:00Z","name_a2s":"Uncletopia | London | 6 | All Maps","protocol":17,"map":"cp_sunshine","folder":"tf","game":"Team Fortress","app_id":440,"player_count":0,"max_players":24,"Bots":0,"server_type":"Dedicated","server_os":"Linux","password":true,"vac":true,"version":"7757534","steam_id":85568392924742830,"keywords":["cp","nocrits","nodmgspread","uncletopia"],"game_id":440,"stv_port":27066,"stv_name":"Uncletopia | London | 6 | All Maps | STV","players":null},{"server_id":40,"name":"Uncletopia | London | 7 | No Payload","name_short":"lon-7","host":"lon-1.uk.uncletopia.com","port":27075,"enabled":true,"region":"eu","cc":"gb","latitude":51.509865,"longitude":-0.118092,"reserved":0,"last_update":"0001-01-01T00:00:00Z","name_a2s":"Uncletopia | London | 7 | No Payload","protocol":17,"map":"koth_lazarus","folder":"tf","game":"Team Fortress","app_id":440,"player_count":0,"max_players":24,"Bots":0,"server_type":"Dedicated","server_os":"Linux","password":true,"vac":true,"version":"7757534","steam_id":85568392924964314,"keywords":["cp","nocrits","nodmgspread","uncletopia"],"game_id":440,"stv_port":27076,"stv_name":"Uncletopia | London | 7 | No Payload | STV","players":null},{"server_id":41,"name":"Uncletopia | London | 8 | Community","name_short":"lon-8","host":"lon-1.uk.uncletopia.com","port":27085,"enabled":true,"region":"eu","cc":"gb","latitude":51.509865,"longitude":-0.118092,"reserved":0,"last_update":"0001-01-01T00:00:00Z","name_a2s":"Uncletopia | London | 8 | Community","protocol":17,"map":"cp_snakewater_final1","folder":"tf","game":"Team Fortress","app_id":440,"player_count":0,"max_players":24,"Bots":0,"server_type":"Dedicated","server_os":"Linux","password":true,"vac":true,"version":"7757534","steam_id":85568392924964315,"keywords":["cp","nocrits","nodmgspread","uncletopia"],"game_id":440,"stv_port":27086,"stv_name":"Uncletopia | London | 8 | Community | STV","players":null},{"server_id":300,"name":"Uncletopia | Montr√©al | 1 | All Maps","name_short":"mtl-1","host":"mtl-1.ca.uncletopia.com","port":27015,"enabled":true,"region":"us-east","cc":"ca","latitude":45.50889,"longitude":-73.56167,"reserved":0,"last_update":"0001-01-01T00:00:00Z","name_a2s":"Uncletopia | Montr√©al | 1 | All Maps","protocol":17,"map":"koth_lakeside_final","folder":"tf","game":"Team Fortress","app_id":440,"player_count":0,"max_players":24,"Bots":0,"server_type":"Dedicated","server_os":"Linux","password":true,"vac":true,"version":"7757534","steam_id":85568392924500087,"keywords":["cp","nocrits","nodmgspread","uncletopia"],"game_id":440,"stv_port":27016,"stv_name":"Uncletopia | Montr√©al | 1 | All Maps | STV","players":null},{"server_id":301,"name":"Uncletopia | Montr√©al | 2 | All Maps","name_short":"mtl-2","host":"mtl-1.ca.uncletopia.com","port":27025,"enabled":true,"region":"us-east","cc":"ca","latitude":45.50889,"longitude":-73.56167,"reserved":0,"last_update":"0001-01-01T00:00:00Z","name_a2s":"Uncletopia | Montr√©al | 2 | All Maps","protocol":17,"map":"pl_borneo","folder":"tf","game":"Team Fortress","app_id":440,"player_count":0,"max_players":24,"Bots":0,"server_type":"Dedicated","server_os":"Linux","password":true,"vac":true,"version":"7757534","steam_id":85568392924500088,"keywords":["nocrits","nodmgspread","payload","uncletopia"],"game_id":440,"stv_port":27026,"stv_name":"Uncletopia | Montr√©al | 2 | All Maps | STV","players":null},{"server_id":302,"name":"Uncletopia | Montr√©al | 3 | All Maps","name_short":"mtl-3","host":"mtl-1.ca.uncletopia.com","port":27035,"enabled":true,"region":"us-east","cc":"ca","latitude":45.50889,"longitude":-73.56167,"reserved":0,"last_update":"0001-01-01T00:00:00Z","name_a2s":"Uncletopia | Montr√©al | 3 | All Maps","protocol":17,"map":"cp_sunshine","folder":"tf","game":"Team Fortress","app_id":440,"player_count":0,"max_players":24,"Bots":0,"server_type":"Dedicated","server_os":"Linux","password":true,"vac":true,"version":"7757534","steam_id":85568392924500089,"keywords":["cp","nocrits","nodmgspread","uncletopia"],"game_id":440,"stv_port":27036,"stv_name":"Uncletopia | Montr√©al | 3 | All Maps | STV","players":null},{"server_id":303,"name":"Uncletopia | Montr√©al | 4 | No Payload","name_short":"mtl-4","host":"mtl-1.ca.uncletopia.com","port":27045,"enabled":true,"region":"us-east","cc":"ca","latitude":45.50889,"longitude":-73.56167,"reserved":0,"last_update":"0001-01-01T00:00:00Z","name_a2s":"Uncletopia | Montr√©al | 4 | No Payload","protocol":17,"map":"koth_lakeside_final","folder":"tf","game":"Team Fortress","app_id":440,"player_count":0,"max_players":24,"Bots":0,"server_type":"Dedicated","server_os":"Linux","password":true,"vac":true,"version":"7757534","steam_id":85568392924500090,"keywords":["cp","nocrits","nodmgspread","uncletopia"],"game_id":440,"stv_port":27046,"stv_name":"Uncletopia | Montr√©al | 4 | No Payload | STV","players":null},{"server_id":13,"name":"Uncletopia | New York City | 1 | All Maps","name_short":"nyc-1","host":"nyc-1.us.uncletopia.com","port":27015,"enabled":true,"region":"us-east","cc":"us","latitude":40.73061,"longitude":-73.93524,"reserved":0,"last_update":"0001-01-01T00:00:00Z","name_a2s":"Uncletopia | New York City | 1 | All Maps","protocol":17,"map":"cp_snakewater_final1","folder":"tf","game":"Team Fortress","app_id":440,"player_count":24,"max_players":24,"Bots":0,"server_type":"Dedicated","server_os":"Linux","password":true,"vac":true,"version":"7757534","steam_id":85568392924469993,"keywords":["cp","nocrits","nodmgspread","uncletopia"],"game_id":440,"stv_port":27016,"stv_name":"Uncletopia | New York City | 1 | All Maps | STV","players":[{"user_id":226,"name":"SoWhich","steam_id":76561198237125842,"connected_time":664000000000,"state":"active","ping":59},{"user_id":227,"name":"raisedbybirds","steam_id":76561198131531646,"connected_time":632000000000,"state":"active","ping":58},{"user_id":232,"name":"Yoshimelon","steam_id":76561198253054325,"connected_time":537000000000,"state":"active","ping":76},{"user_id":229,"name":"Eldigan","steam_id":76561198271449992,"connected_time":601000000000,"state":"active","ping":56},{"user_id":230,"name":"really hot sexy mom (real)","steam_id":76561198044696803,"connected_time":597000000000,"state":"active","ping":50},{"user_id":194,"name":"Dog Goggles","steam_id":76561197995233692,"connected_time":2536000000000,"state":"active","ping":65},{"user_id":186,"name":"Herald of Oblivion","steam_id":76561198978700365,"connected_time":2676000000000,"state":"active","ping":84},{"user_id":221,"name":"Juanelo","steam_id":76561199096390505,"connected_time":1114000000000,"state":"active","ping":102},{"user_id":214,"name":"Lupin III","steam_id":76561198054723601,"connected_time":1305000000000,"state":"active","ping":58},{"user_id":215,"name":"rshannon315","steam_id":76561198108027112,"connected_time":1295000000000,"state":"active","ping":51},{"user_id":231,"name":"bitcrush","steam_id":76561198040677234,"connected_time":579000000000,"state":"active","ping":126},{"user_id":196,"name":"layabout","steam_id":76561198130892117,"connected_time":2474000000000,"state":"active","ping":60},{"user_id":208,"name":"glitchy","steam_id":76561199009135766,"connected_time":2013000000000,"state":"active","ping":60},{"user_id":223,"name":"Infinity","steam_id":76561199134919099,"connected_time":1042000000000,"state":"active","ping":50},{"user_id":225,"name":"alex","steam_id":76561198117181511,"connected_time":979000000000,"state":"active","ping":57},{"user_id":219,"name":"Antifa Alligator","steam_id":76561197988170816,"connected_time":1211000000000,"state":"active","ping":86},{"user_id":125,"name":"MAXIMUS","steam_id":76561198085809453,"connected_time":7276000000000,"state":"active","ping":81},{"user_id":216,"name":"GreenApples","steam_id":76561198120559543,"connected_time":1293000000000,"state":"active","ping":120},{"user_id":75,"name":"Fudgely","steam_id":76561198039425862,"connected_time":10293000000000,"state":"active","ping":58},{"user_id":233,"name":"Cool Ranch Buddha","steam_id":76561197982863756,"connected_time":507000000000,"state":"active","ping":74},{"user_id":205,"name":"KFC‚ò≠","steam_id":76561199206815320,"connected_time":2128000000000,"state":"active","ping":104},{"user_id":234,"name":"rocky","steam_id":76561198162392569,"connected_time":477000000000,"state":"active","ping":64},{"user_id":235,"name":"ivy","steam_id":76561198131876013,"connected_time":349000000000,"state":"active","ping":50},{"user_id":217,"name":"Dullahan","steam_id":76561198119668908,"connected_time":1292000000000,"state":"active","ping":112}]},{"server_id":14,"name":"Uncletopia | New York City | 2 | All Maps","name_short":"nyc-2","host":"nyc-1.us.uncletopia.com","port":27025,"enabled":true,"region":"us-east","cc":"us","latitude":40.73061,"longitude":-73.93524,"reserved":0,"last_update":"0001-01-01T00:00:00Z","name_a2s":"Uncletopia | New York City | 2 | All Maps","protocol":17,"map":"koth_highpass","folder":"tf","game":"Team Fortress","app_id":440,"player_count":0,"max_players":24,"Bots":0,"server_type":"Dedicated","server_os":"Linux","password":true,"vac":true,"version":"7757534","steam_id":85568392924469994,"keywords":["cp","nocrits","nodmgspread","uncletopia"],"game_id":440,"stv_port":27026,"stv_name":"Uncletopia | New York City | 2 | All Maps | STV","players":null},{"server_id":15,"name":"Uncletopia | New York City | 3 | Stopwatch Beta","name_short":"nyc-3","host":"nyc-1.us.uncletopia.com","port":27035,"enabled":true,"region":"us-east","cc":"us","latitude":40.73061,"longitude":-73.93524,"reserved":0,"last_update":"0001-01-01T00:00:00Z","name_a2s":"Uncletopia | New York City | 3 | Stopwatch Beta","protocol":17,"map":"pl_upward","folder":"tf","game":"Team Fortress","app_id":440,"player_count":0,"max_players":24,"Bots":0,"server_type":"Dedicated","server_os":"Linux","password":true,"vac":true,"version":"7757534","steam_id":85568392924742820,"keywords":["nocrits","nodmgspread","payload","uncletopia"],"game_id":440,"stv_port":27036,"stv_name":"Uncletopia | New York City | 3 | Stopwatch Beta | STV","players":null},{"server_id":16,"name":"Uncletopia | New York City | 4 | Community","name_short":"nyc-4","host":"nyc-1.us.uncletopia.com","port":27045,"enabled":true,"region":"us-east","cc":"us","latitude":40.73061,"longitude":-73.93524,"reserved":0,"last_update":"0001-01-01T00:00:00Z","name_a2s":"Uncletopia | New York City | 4 | Community","protocol":17,"map":"workshop/pl_cactuscanyon_redux_rc4b.ugc2579644293","folder":"tf","game":"Team Fortress","app_id":440,"player_count":0,"max_players":24,"Bots":0,"server_type":"Dedicated","server_os":"Linux","password":true,"vac":true,"version":"7757534","steam_id":85568392924742821,"keywords":["nocrits","nodmgspread","payload","uncletopia"],"game_id":440,"stv_port":27046,"stv_name":"Uncletopia | New York City | 4 | Community | STV","players":null},{"server_id":142,"name":"Uncletopia | S√£o Paulo | 1 | All Maps","name_short":"sao-1","host":"sao-1.br.uncletopia.com","port":27015,"enabled":true,"region":"sa","cc":"br","latitude":-23.533773,"longitude":-46.62529,"reserved":0,"last_update":"0001-01-01T00:00:00Z","name_a2s":"Uncletopia | S√£o Paulo | 1 | All Maps","protocol":17,"map":"pl_upward","folder":"tf","game":"Team Fortress","app_id":440,"player_count":0,"max_players":24,"Bots":0,"server_type":"Dedicated","server_os":"Linux","password":true,"vac":true,"version":"7757534","steam_id":85568392924469996,"keywords":["nocrits","nodmgspread","payload","uncletopia"],"game_id":440,"stv_port":27016,"stv_name":"Uncletopia | S√£o Paulo | 1 | All Maps | STV","players":null},{"server_id":143,"name":"Uncletopia | S√£o Paulo | 2 | All Maps","name_short":"sao-2","host":"sao-2.br.uncletopia.com","port":27015,"enabled":true,"region":"sa","cc":"br","latitude":-23.533773,"longitude":-46.62529,"reserved":0,"last_update":"0001-01-01T00:00:00Z","name_a2s":"Uncletopia | S√£o Paulo | 2 | All Maps","protocol":17,"map":"koth_viaduct","folder":"tf","game":"Team Fortress","app_id":440,"player_count":0,"max_players":24,"Bots":0,"server_type":"Dedicated","server_os":"Linux","password":true,"vac":true,"version":"7757534","steam_id":85568392924485349,"keywords":["cp","nocrits","nodmgspread","uncletopia"],"game_id":440,"stv_port":27016,"stv_name":"Uncletopia | S√£o Paulo | 2 | All Maps | STV","players":null},{"server_id":7,"name":"Uncletopia | Seattle | 1 | All Maps","name_short":"sea-1","host":"sea-1.us.uncletopia.com","port":27015,"enabled":true,"region":"us-west","cc":"us","latitude":47.608013,"longitude":-122.33517,"reserved":0,"last_update":"0001-01-01T00:00:00Z","name_a2s":"Uncletopia | Seattle | 1 | All Maps","protocol":17,"map":"koth_harvest_final","folder":"tf","game":"Team Fortress","app_id":440,"player_count":24,"max_players":24,"Bots":0,"server_type":"Dedicated","server_os":"Linux","password":true,"vac":true,"version":"7757534","steam_id":85568392924469997,"keywords":["cp","nocrits","nodmgspread","uncletopia"],"game_id":440,"stv_port":27016,"stv_name":"Uncletopia | Seattle | 1 | All Maps | STV","players":[{"user_id":290,"name":"Michael scom GUNGA ‰∑±","steam_id":76561198137221516,"connected_time":1603000000000,"state":"active","ping":42},{"user_id":280,"name":"TheCowledWiz","steam_id":76561198016735868,"connected_time":2710000000000,"state":"active","ping":47},{"user_id":294,"name":"KingTinkerer","steam_id":76561198226856548,"connected_time":1145000000000,"state":"active","ping":77},{"user_id":185,"name":"Mignyanne :3","steam_id":76561198048754056,"connected_time":9125000000000,"state":"active","ping":72},{"user_id":246,"name":"ORANGE","steam_id":76561198000401769,"connected_time":5594000000000,"state":"active","ping":50},{"user_id":297,"name":"I' eating a sandwich","steam_id":76561198253922494,"connected_time":206000000000,"state":"active","ping":95},{"user_id":293,"name":"PvZ Enthusiast","steam_id":76561199089562026,"connected_time":1362000000000,"state":"active","ping":52},{"user_id":267,"name":"Glen Frogmire","steam_id":76561198059313367,"connected_time":4167000000000,"state":"active","ping":43},{"user_id":214,"name":"Average Motor Vehicle Enjoyer","steam_id":76561199076603690,"connected_time":7387000000000,"state":"active","ping":91},{"user_id":296,"name":"Wormy wants to RTV","steam_id":76561198054539200,"connected_time":213000000000,"state":"active","ping":56},{"user_id":268,"name":"Arsonist Goose","steam_id":76561198147441830,"connected_time":4164000000000,"state":"active","ping":75},{"user_id":286,"name":"funk shrimps","steam_id":76561198146228439,"connected_time":1772000000000,"state":"active","ping":46},{"user_id":270,"name":"[TrC] Dackstrus","steam_id":76561197973518509,"connected_time":4083000000000,"state":"active","ping":60},{"user_id":295,"name":"jungus","steam_id":76561198129862008,"connected_time":957000000000,"state":"active","ping":75},{"user_id":272,"name":"[TrC] Nosy","steam_id":76561197978859310,"connected_time":3719000000000,"state":"active","ping":58},{"user_id":266,"name":"Daz","steam_id":76561198041431938,"connected_time":4175000000000,"state":"active","ping":123},{"user_id":245,"name":"Luca","steam_id":76561198125087140,"connected_time":5684000000000,"state":"active","ping":50},{"user_id":265,"name":"lavender","steam_id":76561199069518286,"connected_time":4179000000000,"state":"active","ping":75},{"user_id":193,"name":"kilroy_39","steam_id":76561198205173325,"connected_time":8341000000000,"state":"active","ping":94},{"user_id":292,"name":"Skabbety","steam_id":76561198168044257,"connected_time":1396000000000,"state":"active","ping":44},{"user_id":287,"name":"Sweets","steam_id":76561198998446307,"connected_time":1690000000000,"state":"active","ping":68},{"user_id":239,"name":"egyptiangodcard","steam_id":76561198855935442,"connected_time":6124000000000,"state":"active","ping":62},{"user_id":276,"name":"Ayayahuasca","steam_id":76561199002906056,"connected_time":2997000000000,"state":"active","ping":54},{"user_id":289,"name":"Res Ipsa","steam_id":76561198041349210,"connected_time":1654000000000,"state":"active","ping":75}]},{"server_id":119,"name":"Uncletopia | Seattle | 2 | All Maps","name_short":"sea-2","host":"sea-1.us.uncletopia.com","port":27025,"enabled":true,"region":"us-west","cc":"us","latitude":47.608013,"longitude":-122.33517,"reserved":0,"last_update":"0001-01-01T00:00:00Z","name_a2s":"Uncletopia | Seattle | 2 | All Maps","protocol":17,"map":"pl_pier","folder":"tf","game":"Team Fortress","app_id":440,"player_count":24,"max_players":24,"Bots":0,"server_type":"Dedicated","server_os":"Linux","password":true,"vac":true,"version":"7757534","steam_id":85568392924469998,"keywords":["nocrits","nodmgspread","payload","uncletopia"],"game_id":440,"stv_port":27026,"stv_name":"Uncletopia | Seattle | 2 | All Maps | STV","players":[{"user_id":214,"name":"Foyboy‚Ñ¢","steam_id":76561198072305817,"connected_time":2386000000000,"state":"active","ping":97},{"user_id":233,"name":"THAT CAT","steam_id":76561198010828625,"connected_time":968000000000,"state":"active","ping":39},{"user_id":243,"name":"Roberto‚Ñ¢","steam_id":76561198856969918,"connected_time":158000000000,"state":"active","ping":81},{"user_id":229,"name":"Idontknow","steam_id":76561199207044048,"connected_time":1125000000000,"state":"active","ping":43},{"user_id":211,"name":"Professor Cuthbert Calculus","steam_id":76561198003257461,"connected_time":2438000000000,"state":"active","ping":58},{"user_id":242,"name":"The Pepsi¬Æ Superbowl¬Æ!","steam_id":76561198080828981,"connected_time":322000000000,"state":"active","ping":82},{"user_id":222,"name":"S Q U I S H E  T H A T  C A T","steam_id":76561198293865429,"connected_time":1670000000000,"state":"active","ping":38},{"user_id":239,"name":"Anderswo","steam_id":76561198253224241,"connected_time":649000000000,"state":"active","ping":60},{"user_id":215,"name":"Julien","steam_id":76561199389584938,"connected_time":2337000000000,"state":"active","ping":37},{"user_id":230,"name":"JJP","steam_id":76561198032914094,"connected_time":1069000000000,"state":"active","ping":72},{"user_id":235,"name":"HanakoToast","steam_id":76561198045233131,"connected_time":935000000000,"state":"active","ping":97},{"user_id":161,"name":"MCman","steam_id":76561198412110305,"connected_time":6375000000000,"state":"active","ping":77},{"user_id":185,"name":"Gwoted Wiwf Da Swaws","steam_id":76561197992559225,"connected_time":5193000000000,"state":"active","ping":57},{"user_id":234,"name":"R5-D4","steam_id":76561198025196439,"connected_time":963000000000,"state":"active","ping":59},{"user_id":240,"name":"CoherentCarpet („Éé‡≤†Áõä‡≤†)\ufffd\ufffd","steam_id":76561198045625360,"connected_time":637000000000,"state":"active","ping":112},{"user_id":237,"name":"TimTam Tom","steam_id":76561198045988062,"connected_time":810000000000,"state":"active","ping":96},{"user_id":206,"name":"COOL master_9","steam_id":76561198073041151,"connected_time":3092000000000,"state":"active","ping":111},{"user_id":241,"name":"General Fisticuffs","steam_id":76561198255721392,"connected_time":574000000000,"state":"active","ping":114},{"user_id":231,"name":"Giantbob","steam_id":76561199043760220,"connected_time":1064000000000,"state":"active","ping":133},{"user_id":137,"name":"haha funy pp man","steam_id":76561198116862395,"connected_time":9041000000000,"state":"active","ping":55},{"user_id":220,"name":"mudunit","steam_id":76561198811544015,"connected_time":2162000000000,"state":"active","ping":55},{"user_id":232,"name":"Elias","steam_id":76561198031295139,"connected_time":1031000000000,"state":"active","ping":59},{"user_id":245,"name":"Number28","steam_id":76561198315018819,"connected_time":135000000000,"state":"active","ping":78},{"user_id":187,"name":"Adalbern","steam_id":76561197991785034,"connected_time":4566000000000,"state":"active","ping":47}]},{"server_id":406,"name":"Uncletopia | Seattle | 3 | Stopwatch Beta","name_short":"sea-3","host":"sea-1.us.uncletopia.com","port":27035,"enabled":true,"region":"us-west","cc":"us","latitude":47.608013,"longitude":-122.33517,"reserved":0,"last_update":"0001-01-01T00:00:00Z","name_a2s":"Uncletopia | Seattle | 3 | Stopwatch Beta","protocol":17,"map":"workshop/koth_clearcut_b15.ugc2107050255","folder":"tf","game":"Team Fortress","app_id":440,"player_count":0,"max_players":24,"Bots":0,"server_type":"Dedicated","server_os":"Linux","password":true,"vac":true,"version":"7757534","steam_id":85568392924515217,"keywords":["cp","nocrits","nodmgspread","uncletopia"],"game_id":440,"stv_port":27036,"stv_name":"Uncletopia | Seattle | 3 | Stopwatch Beta | STV","players":null},{"server_id":17,"name":"Uncletopia | San Francisco | 1 | All Maps","name_short":"sfo-1","host":"sfo-1.us.uncletopia.com","port":27015,"enabled":true,"region":"us-west","cc":"us","latitude":37.77397,"longitude":-122.4313,"reserved":0,"last_update":"0001-01-01T00:00:00Z","name_a2s":"Uncletopia | San Francisco | 1 | All Maps","protocol":17,"map":"pl_frontier_final","folder":"tf","game":"Team Fortress","app_id":440,"player_count":24,"max_players":24,"Bots":0,"server_type":"Dedicated","server_os":"Linux","password":true,"vac":true,"version":"7757534","steam_id":85568392924469999,"keywords":["nocrits","nodmgspread","payload","uncletopia"],"game_id":440,"stv_port":27016,"stv_name":"Uncletopia | San Francisco | 1 | All Maps | STV","players":[{"user_id":143,"name":"HUIEI","steam_id":76561198073763735,"connected_time":1509000000000,"state":"active","ping":53},{"user_id":144,"name":"dmdr1969","steam_id":76561198080469611,"connected_time":1274000000000,"state":"active","ping":111},{"user_id":154,"name":"JON","steam_id":76561198057971005,"connected_time":200000000000,"state":"active","ping":56},{"user_id":145,"name":"plastiquemonk","steam_id":76561198126035719,"connected_time":1265000000000,"state":"active","ping":55},{"user_id":146,"name":"SirJameston","steam_id":76561198035674306,"connected_time":1265000000000,"state":"active","ping":101},{"user_id":105,"name":"TonyPepperoni","steam_id":76561198127761074,"connected_time":3585000000000,"state":"active","ping":47},{"user_id":155,"name":"Samantha","steam_id":76561198127578307,"connected_time":170000000000,"state":"active","ping":76},{"user_id":152,"name":"WaffleWithNoToppings","steam_id":76561199088280111,"connected_time":234000000000,"state":"active","ping":69},{"user_id":156,"name":"Cave Dweller","steam_id":76561198374825685,"connected_time":167000000000,"state":"active","ping":60},{"user_id":115,"name":"Yokogaijin Jr.","steam_id":76561199124647094,"connected_time":2695000000000,"state":"active","ping":52},{"user_id":157,"name":"A Fruit","steam_id":76561198951830050,"connected_time":147000000000,"state":"active","ping":81},{"user_id":141,"name":"Stboxnard","steam_id":76561198089888887,"connected_time":1803000000000,"state":"active","ping":80},{"user_id":119,"name":"themadlad67","steam_id":76561199309554436,"connected_time":2544000000000,"state":"active","ping":71},{"user_id":106,"name":"Porytal","steam_id":76561198306101889,"connected_time":3572000000000,"state":"active","ping":68},{"user_id":158,"name":"Mr. Call You Back","steam_id":76561198025172811,"connected_time":145000000000,"state":"active","ping":57},{"user_id":147,"name":"Honos","steam_id":76561198125027158,"connected_time":1188000000000,"state":"active","ping":78},{"user_id":125,"name":"Milano","steam_id":76561198051889174,"connected_time":2320000000000,"state":"active","ping":54},{"user_id":161,"name":"brutal","steam_id":76561199122497648,"connected_time":25000000000,"state":"spawning","ping":51},{"user_id":142,"name":"HAT-WEARING‚Ñ¢ Maggot Gamer Cat","steam_id":76561197973992705,"connected_time":1774000000000,"state":"active","ping":60},{"user_id":149,"name":"DanielDaSavage9","steam_id":76561198401532367,"connected_time":1025000000000,"state":"active","ping":53},{"user_id":133,"name":"Some Dood on the Internet","steam_id":76561198054657687,"connected_time":2010000000000,"state":"active","ping":78},{"user_id":160,"name":"Lily Thorn","steam_id":76561198305488625,"connected_time":66000000000,"state":"active","ping":79},{"user_id":139,"name":"ilMoose","steam_id":76561198827275420,"connected_time":1844000000000,"state":"active","ping":65},{"user_id":140,"name":"Agent86","steam_id":76561198046794593,"connected_time":1836000000000,"state":"active","ping":152}]},{"server_id":18,"name":"Uncletopia | San Francisco | 2 | All Maps","name_short":"sfo-2","host":"sfo-1.us.uncletopia.com","port":27025,"enabled":true,"region":"us-west","cc":"us","latitude":37.77397,"longitude":-122.4313,"reserved":0,"last_update":"0001-01-01T00:00:00Z","name_a2s":"Uncletopia | San Francisco | 2 | All Maps","protocol":17,"map":"pl_pier","folder":"tf","game":"Team Fortress","app_id":440,"player_count":0,"max_players":24,"Bots":0,"server_type":"Dedicated","server_os":"Linux","password":true,"vac":true,"version":"7757534","steam_id":85568392924470000,"keywords":["nocrits","nodmgspread","payload","uncletopia"],"game_id":440,"stv_port":27026,"stv_name":"Uncletopia | San Francisco | 2 | All Maps | STV","players":null},{"server_id":19,"name":"Uncletopia | San Francisco | 3 | Stopwatch Beta","name_short":"sfo-3","host":"sfo-1.us.uncletopia.com","port":27035,"enabled":true,"region":"us-west","cc":"us","latitude":37.77397,"longitude":-122.4313,"reserved":0,"last_update":"0001-01-01T00:00:00Z","name_a2s":"Uncletopia | San Francisco | 3 | Stopwatch Beta","protocol":17,"map":"koth_viaduct","folder":"tf","game":"Team Fortress","app_id":440,"player_count":0,"max_players":24,"Bots":0,"server_type":"Dedicated","server_os":"Linux","password":true,"vac":true,"version":"7757534","steam_id":85568392924742824,"keywords":["cp","nocrits","nodmgspread","uncletopia"],"game_id":440,"stv_port":27036,"stv_name":"Uncletopia | San Francisco | 3 | Stopwatch Beta | STV","players":null},{"server_id":20,"name":"Uncletopia | San Francisco | 4 | Community","name_short":"sfo-4","host":"sfo-1.us.uncletopia.com","port":27045,"enabled":true,"region":"us-west","cc":"us","latitude":37.77397,"longitude":-122.4313,"reserved":0,"last_update":"0001-01-01T00:00:00Z","name_a2s":"Uncletopia | San Francisco | 4 | Community","protocol":17,"map":"workshop/koth_bagel_rc5.ugc2514036946","folder":"tf","game":"Team Fortress","app_id":440,"player_count":0,"max_players":24,"Bots":0,"server_type":"Dedicated","server_os":"Linux","password":true,"vac":true,"version":"7757534","steam_id":85568392924742826,"keywords":["cp","nocrits","nodmgspread","uncletopia"],"game_id":440,"stv_port":27046,"stv_name":"Uncletopia | San Francisco | 4 | Community | STV","players":null},{"server_id":141,"name":"Uncletopia | Sydney | 1 | All Maps","name_short":"syd-1","host":"syd-1.au.uncletopia.com","port":27015,"enabled":true,"region":"au","cc":"au","latitude":-33.865143,"longitude":151.2099,"reserved":0,"last_update":"0001-01-01T00:00:00Z","name_a2s":"Uncletopia | Sydney | 1 | All Maps","protocol":17,"map":"pl_barnblitz","folder":"tf","game":"Team Fortress","app_id":440,"player_count":24,"max_players":24,"Bots":0,"server_type":"Dedicated","server_os":"Linux","password":true,"vac":true,"version":"7757534","steam_id":85568392924470001,"keywords":["nocrits","nodmgspread","payload","uncletopia"],"game_id":440,"stv_port":27016,"stv_name":"Uncletopia | Sydney | 1 | All Maps | STV","players":[{"user_id":172,"name":"Extra Exotic","steam_id":76561198045191981,"connected_time":2925000000000,"state":"active","ping":59},{"user_id":207,"name":"Kiwipisiki","steam_id":76561198063134372,"connected_time":105000000000,"state":"active","ping":50},{"user_id":195,"name":"Vanessa","steam_id":76561198077728992,"connected_time":983000000000,"state":"active","ping":60},{"user_id":184,"name":"Pug","steam_id":76561198136794372,"connected_time":2307000000000,"state":"active","ping":51},{"user_id":196,"name":"J√ò‚±§","steam_id":76561199020647083,"connected_time":982000000000,"state":"active","ping":80},{"user_id":202,"name":"Owlenstein‚Ñ¢","steam_id":76561198093983826,"connected_time":577000000000,"state":"active","ping":113},{"user_id":199,"name":"Kumbya 3D","steam_id":76561198117979249,"connected_time":716000000000,"state":"active","ping":65},{"user_id":198,"name":"Havocking","steam_id":76561198053587032,"connected_time":815000000000,"state":"active","ping":62},{"user_id":153,"name":"D E T H","steam_id":76561198406959622,"connected_time":5381000000000,"state":"active","ping":69},{"user_id":189,"name":"CheeseFlag126","steam_id":76561199262769917,"connected_time":2004000000000,"state":"active","ping":67},{"user_id":75,"name":"Fatass Yoshi","steam_id":76561198033784848,"connected_time":11876000000000,"state":"active","ping":47},{"user_id":206,"name":"Critz Eastwood","steam_id":76561198050094688,"connected_time":222000000000,"state":"active","ping":51},{"user_id":181,"name":"beth.cubitt","steam_id":76561198454733447,"connected_time":2617000000000,"state":"active","ping":88},{"user_id":205,"name":"music made addict","steam_id":76561198420572723,"connected_time":246000000000,"state":"active","ping":60},{"user_id":163,"name":"Rodundo","steam_id":76561198060139416,"connected_time":4201000000000,"state":"active","ping":77},{"user_id":182,"name":"arthur coop","steam_id":76561199121752428,"connected_time":2611000000000,"state":"active","ping":104},{"user_id":197,"name":"Random Cluster Missile -BvM-","steam_id":76561198086192598,"connected_time":893000000000,"state":"active","ping":88},{"user_id":183,"name":"michael","steam_id":76561198052848358,"connected_time":2396000000000,"state":"active","ping":65},{"user_id":74,"name":"Editor_Billy","steam_id":76561199165608946,"connected_time":12018000000000,"state":"active","ping":58},{"user_id":204,"name":"Chocolate Lightning","steam_id":76561198213958971,"connected_time":512000000000,"state":"active","ping":85},{"user_id":30,"name":"Hertog van Damme","steam_id":76561198152470958,"connected_time":14941000000000,"state":"active","ping":72},{"user_id":190,"name":"Dr Barry Mundy PhD","steam_id":76561198034512686,"connected_time":1908000000000,"state":"active","ping":46},{"user_id":160,"name":"krandlez` (Any/All)","steam_id":76561198044839726,"connected_time":4571000000000,"state":"active","ping":42},{"user_id":150,"name":"Cup","steam_id":76561198038485845,"connected_time":5638000000000,"state":"active","ping":30}]},{"server_id":123,"name":"Uncletopia | Sydney | 2 | All Maps","name_short":"syd-2","host":"syd-1.au.uncletopia.com","port":27025,"enabled":true,"region":"au","cc":"au","latitude":-33.865143,"longitude":151.2099,"reserved":0,"last_update":"0001-01-01T00:00:00Z","name_a2s":"Uncletopia | Sydney | 2 | All Maps","protocol":17,"map":"pl_pier","folder":"tf","game":"Team Fortress","app_id":440,"player_count":4,"max_players":24,"Bots":0,"server_type":"Dedicated","server_os":"Linux","password":true,"vac":true,"version":"7757534","steam_id":85568392924470002,"keywords":["nocrits","nodmgspread","payload","uncletopia"],"game_id":440,"stv_port":27026,"stv_name":"Uncletopia | Sydney | 2 | All Maps | STV","players":[{"user_id":21,"name":"aruite","steam_id":76561197975035859,"connected_time":569000000000,"state":"active","ping":50},{"user_id":22,"name":"Jaibonaparte","steam_id":76561198069604670,"connected_time":551000000000,"state":"active","ping":47},{"user_id":26,"name":"Ninjafire9823","steam_id":76561199405033993,"connected_time":208000000000,"state":"active","ping":174},{"user_id":27,"name":"timothy timosno","steam_id":76561199151336024,"connected_time":192000000000,"state":"active","ping":64}]},{"server_id":395,"name":"Uncletopia | Sydney | 3 | All Maps","name_short":"syd-3","host":"syd-1.au.uncletopia.com","port":27035,"enabled":true,"region":"au","cc":"au","latitude":-33.865143,"longitude":151.2099,"reserved":0,"last_update":"0001-01-01T00:00:00Z","name_a2s":"Uncletopia | Sydney | 3 | All Maps","protocol":17,"map":"pl_snowycoast","folder":"tf","game":"Team Fortress","app_id":440,"player_count":19,"max_players":24,"Bots":0,"server_type":"Dedicated","server_os":"Linux","password":true,"vac":true,"version":"7757534","steam_id":85568392925194467,"keywords":["nocrits","nodmgspread","payload","uncletopia"],"game_id":440,"stv_port":27036,"stv_name":"Uncletopia | Sydney | 3 | All Maps | STV","players":[{"user_id":125,"name":"Kevin","steam_id":76561198046089618,"connected_time":1118000000000,"state":"active","ping":45},{"user_id":133,"name":"the spy is a lie","steam_id":76561198181615222,"connected_time":623000000000,"state":"active","ping":75},{"user_id":126,"name":"Greg","steam_id":76561198133966374,"connected_time":1076000000000,"state":"active","ping":52},{"user_id":124,"name":"canned tuna","steam_id":76561198420727269,"connected_time":1203000000000,"state":"active","ping":50},{"user_id":91,"name":"freek","steam_id":76561198406237673,"connected_time":2863000000000,"state":"active","ping":54},{"user_id":120,"name":"The Red Yoshi","steam_id":76561197998052231,"connected_time":1368000000000,"state":"active","ping":62},{"user_id":127,"name":"kalum","steam_id":76561198252924186,"connected_time":1050000000000,"state":"active","ping":73},{"user_id":134,"name":"MikkyD","steam_id":76561198043452962,"connected_time":606000000000,"state":"active","ping":60},{"user_id":102,"name":"Paula","steam_id":76561198010688399,"connected_time":2345000000000,"state":"active","ping":75},{"user_id":114,"name":"Poison_Kouki","steam_id":76561198150364859,"connected_time":1541000000000,"state":"active","ping":54},{"user_id":117,"name":"hobo","steam_id":76561199046481213,"connected_time":1455000000000,"state":"active","ping":70},{"user_id":110,"name":"Dupiter","steam_id":76561198108820767,"connected_time":1856000000000,"state":"active","ping":47},{"user_id":107,"name":"engineer gaming","steam_id":76561199218582893,"connected_time":2039000000000,"state":"active","ping":175},{"user_id":131,"name":"precious.","steam_id":76561198054804209,"connected_time":864000000000,"state":"active","ping":84},{"user_id":100,"name":"Detergent Burger","steam_id":76561198362462506,"connected_time":2523000000000,"state":"active","ping":45},{"user_id":95,"name":"ree boy","steam_id":76561199024189820,"connected_time":2697000000000,"state":"active","ping":105},{"user_id":121,"name":"gaming","steam_id":76561198353213912,"connected_time":1339000000000,"state":"active","ping":57},{"user_id":122,"name":"toblue","steam_id":76561198189137465,"connected_time":1325000000000,"state":"active","ping":83},{"user_id":128,"name":"Ben","steam_id":76561198208691667,"connected_time":1022000000000,"state":"active","ping":68}]},{"server_id":396,"name":"Uncletopia | Sydney | 4 | All Maps","name_short":"syd-4","host":"syd-1.au.uncletopia.com","port":27045,"enabled":true,"region":"au","cc":"au","latitude":-33.865143,"longitude":151.2099,"reserved":0,"last_update":"0001-01-01T00:00:00Z","name_a2s":"Uncletopia | Sydney | 4 | All Maps","protocol":17,"map":"koth_viaduct","folder":"tf","game":"Team Fortress","app_id":440,"player_count":0,"max_players":24,"Bots":0,"server_type":"Dedicated","server_os":"Linux","password":true,"vac":true,"version":"7757534","steam_id":85568392925397958,"keywords":["cp","nocrits","nodmgspread","uncletopia"],"game_id":440,"stv_port":27046,"stv_name":"Uncletopia | Sydney | 4 | All Maps | STV","players":null},{"server_id":58,"name":"Uncletopia | Sydney | 5 | Stopwatch Beta","name_short":"syd-5","host":"syd-1.au.uncletopia.com","port":27055,"enabled":true,"region":"au","cc":"au","latitude":-33.865143,"longitude":151.2099,"reserved":0,"last_update":"0001-01-01T00:00:00Z","name_a2s":"Uncletopia | Sydney | 5 | Stopwatch Beta","protocol":17,"map":"pl_barnblitz","folder":"tf","game":"Team Fortress","app_id":440,"player_count":0,"max_players":24,"Bots":0,"server_type":"Dedicated","server_os":"Linux","password":true,"vac":true,"version":"7757534","steam_id":85568392925397959,"keywords":["nocrits","nodmgspread","payload","uncletopia"],"game_id":440,"stv_port":27056,"stv_name":"Uncletopia | Sydney | 5 | Stopwatch Beta | STV","players":null},{"server_id":59,"name":"Uncletopia | Sydney | 6 | Community","name_short":"syd-6","host":"syd-1.au.uncletopia.com","port":27065,"enabled":true,"region":"au","cc":"au","latitude":-33.865143,"longitude":151.2099,"reserved":0,"last_update":"0001-01-01T00:00:00Z","name_a2s":"Uncletopia | Sydney | 6 | Community","protocol":17,"map":"workshop/cp_reckoner_rc6.ugc674719999","folder":"tf","game":"Team Fortress","app_id":440,"player_count":0,"max_players":24,"Bots":0,"server_type":"Dedicated","server_os":"Linux","password":true,"vac":true,"version":"7757534","steam_id":85568392925397960,"keywords":["cp","nocrits","nodmgspread","uncletopia"],"game_id":440,"stv_port":27066,"stv_name":"Uncletopia | Sydney | 6 | Community | STV","players":null},{"server_id":49,"name":"Uncletopia | Warsaw | 1 | All Maps","name_short":"waw-1","host":"waw-1.pl.uncletopia.com","port":27015,"enabled":true,"region":"eu","cc":"pl","latitude":52.2297,"longitude":21.017532,"reserved":0,"last_update":"0001-01-01T00:00:00Z","name_a2s":"","protocol":0,"map":"","folder":"","game":"","app_id":0,"player_count":0,"max_players":0,"Bots":0,"server_type":"","server_os":"","password":false,"vac":false,"version":"","steam_id":0,"keywords":null,"game_id":0,"stv_port":0,"stv_name":"","players":null},{"server_id":50,"name":"Uncletopia | Warsaw | 2 | All Maps","name_short":"waw-2","host":"waw-1.pl.uncletopia.com","port":27025,"enabled":true,"region":"eu","cc":"pl","latitude":52.2297,"longitude":21.017532,"reserved":0,"last_update":"0001-01-01T00:00:00Z","name_a2s":"Uncletopia | Warsaw | 2 | All Maps","protocol":17,"map":"cp_snakewater_final1","folder":"tf","game":"Team Fortress","app_id":440,"player_count":0,"max_players":24,"Bots":0,"server_type":"Dedicated","server_os":"Linux","password":true,"vac":true,"version":"7757534","steam_id":85568392925397851,"keywords":["cp","nocrits","nodmgspread","uncletopia"],"game_id":440,"stv_port":27026,"stv_name":"Uncletopia | Warsaw | 2 | All Maps | STV","players":null},{"server_id":51,"name":"Uncletopia | Warsaw | 3 | All Maps","name_short":"waw-3","host":"waw-1.pl.uncletopia.com","port":27035,"enabled":true,"region":"eu","cc":"pl","latitude":52.2297,"longitude":21.017532,"reserved":0,"last_update":"0001-01-01T00:00:00Z","name_a2s":"Uncletopia | Warsaw | 3 | All Maps","protocol":17,"map":"cp_sunshine","folder":"tf","game":"Team Fortress","app_id":440,"player_count":0,"max_players":24,"Bots":0,"server_type":"Dedicated","server_os":"Linux","password":true,"vac":true,"version":"7757534","steam_id":85568392925397852,"keywords":["cp","nocrits","nodmgspread","uncletopia"],"game_id":440,"stv_port":27036,"stv_name":"Uncletopia | Warsaw | 3 | All Maps | STV","players":null},{"server_id":52,"name":"Uncletopia | Warsaw | 4 | All Maps","name_short":"waw-4","host":"waw-1.pl.uncletopia.com","port":27045,"enabled":true,"region":"eu","cc":"pl","latitude":52.2297,"longitude":21.017532,"reserved":0,"last_update":"0001-01-01T00:00:00Z","name_a2s":"Uncletopia | Warsaw | 4 | All Maps","protocol":17,"map":"pl_borneo","folder":"tf","game":"Team Fortress","app_id":440,"player_count":0,"max_players":24,"Bots":0,"server_type":"Dedicated","server_os":"Linux","password":true,"vac":true,"version":"7757534","steam_id":85568392925397853,"keywords":["nocrits","nodmgspread","payload","uncletopia"],"game_id":440,"stv_port":27046,"stv_name":"Uncletopia | Warsaw | 4 | All Maps | STV","players":null},{"server_id":53,"name":"Uncletopia | Warsaw | 5 | Stopwatch Beta","name_short":"waw-5","host":"waw-1.pl.uncletopia.com","port":27055,"enabled":true,"region":"eu","cc":"pl","latitude":52.2297,"longitude":21.017532,"reserved":0,"last_update":"0001-01-01T00:00:00Z","name_a2s":"Uncletopia | Warsaw | 5 | Stopwatch Beta","protocol":17,"map":"pl_upward","folder":"tf","game":"Team Fortress","app_id":440,"player_count":0,"max_players":24,"Bots":0,"server_type":"Dedicated","server_os":"Linux","password":true,"vac":true,"version":"7757534","steam_id":85568392925397854,"keywords":["nocrits","nodmgspread","payload","uncletopia"],"game_id":440,"stv_port":27056,"stv_name":"Uncletopia | Warsaw | 5 | Stopwatch Beta | STV","players":null},{"server_id":54,"name":"Uncletopia | Warsaw | 6 | Community","name_short":"waw-6","host":"waw-1.pl.uncletopia.com","port":27065,"enabled":true,"region":"eu","cc":"pl","latitude":52.2297,"longitude":21.017532,"reserved":0,"last_update":"0001-01-01T00:00:00Z","name_a2s":"Uncletopia | Warsaw | 6 | Community","protocol":17,"map":"pl_barnblitz","folder":"tf","game":"Team Fortress","app_id":440,"player_count":0,"max_players":24,"Bots":0,"server_type":"Dedicated","server_os":"Linux","password":true,"vac":true,"version":"7757534","steam_id":85568392925397856,"keywords":["nocrits","nodmgspread","payload","uncletopia"],"game_id":440,"stv_port":27066,"stv_name":"Uncletopia | Warsaw | 6 | Community | STV","players":null}]}