{"status":true,"message":"","result":[{"server_id":9,"name":"Uncletopia | Atlanta | 1 | All Maps","name_short":"atl-1","host":"atl-1.us.uncletopia.com","port":27015,"enabled":true,"region":"us-east","cc":"us","latitude":33.753746,"longitude":-84.38633,"reserved":0,"last_update":"0001-01-01T00:00:00Z","name_a2s":"Uncletopia | Atlanta | 1 | All Maps","protocol":17,"map":"ctf_2fort","folder":"tf","game":"Team Fortress","app_id":440,"player_count":12,"max_players":24,"Bots":0,"server_type":"Dedicated","server_os":"Linux","password":true,"vac":true,"version":"7932396","steam_id":85568392924469982,"keywords":["ctf","nocrits","nodmgspread","uncletopia"],"game_id":440,"stv_port":27016,"stv_name":"Uncletopia | Atlanta | 1 | All Maps | STV","players":[{"user_id":685,"name":"Clubs","steam_id":76561198271133942,"connected_time":5000000000,"state":"spawning","ping":82},{"user_id":670,"name":"L1PBLUS","steam_id":76561198992018320,"connected_time":632000000000,"state":"spawning","ping":173},{"user_id":665,"name":"Kracken","steam_id":76561198843862421,"connected_time":1007000000000,"state":"spawning","ping":66},{"user_id":629,"name":"KBoneski ‚ô°","steam_id":76561198307409065,"connected_time":2034000000000,"state":"spawning","ping":91},{"user_id":603,"name":"xX_KingVermin_Xx","steam_id":76561198257737347,"connected_time":2871000000000,"state":"spawning","ping":82},{"user_id":684,"name":"I regret nothing","steam_id":76561198399261089,"connected_time":70000000000,"state":"spawning","ping":96},{"user_id":662,"name":"Soupman_Official","steam_id":76561198314308732,"connected_time":1244000000000,"state":"spawning","ping":81},{"user_id":663,"name":"QWJIOJQIOJISWQIJ","steam_id":76561198037181253,"connected_time":1124000000000,"state":"spawning","ping":47},{"user_id":666,"name":"Herdez Hot Salsa","steam_id":76561197991740906,"connected_time":998000000000,"state":"spawning","ping":282},{"user_id":667,"name":"earthlark","steam_id":76561198087620967,"connected_time":983000000000,"state":"spawning","ping":56},{"user_id":625,"name":"DocHoliday429","steam_id":76561198083522714,"connected_time":2160000000000,"state":"spawning","ping":98},{"user_id":575,"name":"LProduct","steam_id":76561199442139670,"connected_time":3810000000000,"state":"spawning","ping":120}]},{"server_id":104,"name":"Uncletopia | Atlanta | 2 | All Maps","name_short":"atl-2","host":"atl-1.us.uncletopia.com","port":27025,"enabled":true,"region":"us-east","cc":"us","latitude":33.753746,"longitude":-84.38633,"reserved":0,"last_update":"0001-01-01T00:00:00Z","name_a2s":"Uncletopia | Atlanta | 2 | All Maps","protocol":17,"map":"cp_snakewater_final1","folder":"tf","game":"Team Fortress","app_id":440,"player_count":0,"max_players":24,"Bots":0,"server_type":"Dedicated","server_os":"Linux","password":true,"vac":true,"version":"7932396","steam_id":85568392924469983,"keywords":["cp","nocrits","nodmgspread","uncletopia"],"game_id":440,"stv_port":27026,"stv_name":"Uncletopia | Atlanta | 2 | All Maps | STV","players":null},{"server_id":400,"name":"Uncletopia | Atlanta | 3 | Community","name_short":"atl-3","host":"atl-1.us.uncletopia.com","port":27035,"enabled":true,"region":"us-east","cc":"us","latitude":33.753746,"longitude":-84.38633,"reserved":0,"last_update":"0001-01-01T00:00:00Z","name_a2s":"Uncletopia | Atlanta | 3 | Community","protocol":17,"map":"workshop/koth_trenchfoot_b1a.ugc731436616","folder":"tf","game":"Team Fortress","app_id":440,"player_count":0,"max_players":24,"Bots":0,"server_type":"Dedicated","server_os":"Linux","password":true,"vac":true,"version":"7932396","steam_id":85568392924515187,"keywords":["cp","nocrits","nodmgspread","uncletopia"],"game_id":440,"stv_port":27036,"stv_name":"Uncletopia | Atlanta | 3 | Community | STV","players":null},{"server_id":401,"name":"Uncletopia | Atlanta | 4 | No Payload","name_short":"atl-4","host":"atl-1.us.uncletopia.com","port":27045,"enabled":true,"region":"us-east","cc":"us","latitude":33.753746,"longitude":-84.38633,"reserved":0,"last_update":"0001-01-01T00:00:00Z","name_a2s":"","protocol":0,"map":"","folder":"","game":"","app_id":0,"player_count":0,"max_players":0,"Bots":0,"server_type":"","server_os":"","password":false,"vac":false,"version":"","steam_id":0,"keywords":null,"game_id":0,"stv_port":0,"stv_name":"","players":null},{"server_id":2,"name":"Uncletopia | Chicago | 1 | All Maps","name_short":"chi-1","host":"chi-1.us.uncletopia.com","port":27015,"enabled":true,"region":"us-central","cc":"us","latitude":41.881832,"longitude":-87.62318,"reserved":0,"last_update":"0001-01-01T00:00:00Z","name_a2s":"Uncletopia | Chicago | 1 | All Maps","protocol":17,"map":"cp_altitude","folder":"tf","game":"Team Fortress","app_id":440,"player_count":23,"max_players":24,"Bots":0,"server_type":"Dedicated","server_os":"Linux","password":true,"vac":true,"version":"7932396","steam_id":85568392924469984,"keywords":["cp","nocrits","nodmgspread","uncletopia"],"game_id":440,"stv_port":27016,"stv_name":"Uncletopia | Chicago | 1 | All Maps | STV","players":[{"user_id":407,"name":"theghazinator","steam_id":76561198188027695,"connected_time":987000000000,"state":"active","ping":47},{"user_id":415,"name":"King's Disease","steam_id":76561198076639682,"connected_time":778000000000,"state":"active","ping":65},{"user_id":420,"name":"BoskGrot","steam_id":76561198200161477,"connected_time":736000000000,"state":"active","ping":67},{"user_id":408,"name":"Lorberry","steam_id":76561198023706058,"connected_time":981000000000,"state":"active","ping":31},{"user_id":384,"name":"Astoriae!","steam_id":76561199090168858,"connected_time":4007000000000,"state":"active","ping":68},{"user_id":373,"name":"Doctor Emerald(real)","steam_id":76561199123003872,"connected_time":5173000000000,"state":"active","ping":95},{"user_id":402,"name":"VidzCMC","steam_id":76561198848142973,"connected_time":1476000000000,"state":"active","ping":51},{"user_id":409,"name":"smoking on bhutanese shadow pac","steam_id":76561198095313463,"connected_time":969000000000,"state":"active","ping":53},{"user_id":421,"name":"splinter130","steam_id":76561198298152841,"connected_time":258000000000,"state":"active","ping":72},{"user_id":344,"name":"DuckMann","steam_id":76561198197058638,"connected_time":7847000000000,"state":"active","ping":58},{"user_id":403,"name":"Yummy Kabobz","steam_id":76561198067661705,"connected_time":1303000000000,"state":"active","ping":60},{"user_id":411,"name":"El G√ºey","steam_id":76561197970450546,"connected_time":946000000000,"state":"active","ping":110},{"user_id":413,"name":"mikegilkey2","steam_id":76561198118561757,"connected_time":838000000000,"state":"active","ping":99},{"user_id":423,"name":"anyakitten","steam_id":76561197994492154,"connected_time":49000000000,"state":"active","ping":171},{"user_id":366,"name":"Obelix","steam_id":76561198274715109,"connected_time":5470000000000,"state":"active","ping":55},{"user_id":406,"name":"Method Mon Mothma","steam_id":76561197976110189,"connected_time":1049000000000,"state":"active","ping":68},{"user_id":424,"name":"DinoGoof","steam_id":76561198998427283,"connected_time":44000000000,"state":"active","ping":66},{"user_id":386,"name":"DarkHero","steam_id":76561198197125710,"connected_time":3344000000000,"state":"active","ping":69},{"user_id":414,"name":"MagicalBoyChan","steam_id":76561198024776873,"connected_time":831000000000,"state":"active","ping":102},{"user_id":416,"name":"Rose","steam_id":76561198955581861,"connected_time":771000000000,"state":"active","ping":105},{"user_id":392,"name":"Exio","steam_id":76561198218639325,"connected_time":3273000000000,"state":"active","ping":79},{"user_id":417,"name":"we're so back","steam_id":76561198058485742,"connected_time":766000000000,"state":"active","ping":71},{"user_id":418,"name":"Lore","steam_id":76561198098407538,"connected_time":763000000000,"state":"active","ping":46}]},{"server_id":106,"name":"Uncletopia | Chicago | 2 | All Maps","name_short":"chi-2","host":"chi-1.us.uncletopia.com","port":27025,"enabled":true,"region":"us-central","cc":"us","latitude":41.881832,"longitude":-87.62318,"reserved":0,"last_update":"0001-01-01T00:00:00Z","name_a2s":"Uncletopia | Chicago | 2 | All Maps","protocol":17,"map":"pl_barnblitz","folder":"tf","game":"Team Fortress","app_id":440,"player_count":23,"max_players":24,"Bots":0,"server_type":"Dedicated","server_os":"Linux","password":true,"vac":true,"version":"7932396","steam_id":85568392924469985,"keywords":["nocrits","nodmgspread","payload","uncletopia"],"game_id":440,"stv_port":27026,"stv_name":"Uncletopia | Chicago | 2 | All Maps | STV","players":[{"user_id":396,"name":"Soju","steam_id":76561198044130442,"connected_time":2774000000000,"state":"active","ping":77},{"user_id":433,"name":"bur","steam_id":76561198004231658,"connected_time":272000000000,"state":"active","ping":63},{"user_id":350,"name":"Grand","steam_id":76561198290143399,"connected_time":7443000000000,"state":"active","ping":69},{"user_id":421,"name":"basil","steam_id":76561198075758026,"connected_time":1357000000000,"state":"active","ping":88},{"user_id":397,"name":"Luh G√´eky","steam_id":76561198053621664,"connected_time":2757000000000,"state":"active","ping":45},{"user_id":355,"name":"NAHIDA","steam_id":76561198349648942,"connected_time":6973000000000,"state":"active","ping":166},{"user_id":394,"name":"Bodhi","steam_id":76561198103230995,"connected_time":2958000000000,"state":"active","ping":86},{"user_id":439,"name":"Jelqing Table","steam_id":76561198051373750,"connected_time":81000000000,"state":"active","ping":72},{"user_id":422,"name":"Sophie","steam_id":76561198170408057,"connected_time":1352000000000,"state":"active","ping":64},{"user_id":420,"name":"charm quark","steam_id":76561198098770777,"connected_time":1807000000000,"state":"active","ping":105},{"user_id":437,"name":"Alecto","steam_id":76561198042476864,"connected_time":253000000000,"state":"active","ping":50},{"user_id":432,"name":"sonikro","steam_id":76561197989428692,"connected_time":306000000000,"state":"active","ping":60},{"user_id":402,"name":"john travolta from pulp fiction","steam_id":76561199487373269,"connected_time":1975000000000,"state":"active","ping":64},{"user_id":399,"name":"Saya","steam_id":76561199476886074,"connected_time":2731000000000,"state":"active","ping":60},{"user_id":376,"name":"saint martin","steam_id":76561198173047169,"connected_time":5487000000000,"state":"active","ping":60},{"user_id":427,"name":"Box{Fear is for the weak}","steam_id":76561198259097323,"connected_time":1296000000000,"state":"active","ping":72},{"user_id":358,"name":"Dot.","steam_id":76561198149463984,"connected_time":6725000000000,"state":"active","ping":47},{"user_id":424,"name":"0","steam_id":76561198046055673,"connected_time":1344000000000,"state":"active","ping":75},{"user_id":440,"name":":3 beelthazus","steam_id":76561198127783432,"connected_time":50000000000,"state":"active","ping":73},{"user_id":429,"name":"msay","steam_id":76561198170888029,"connected_time":1265000000000,"state":"active","ping":97},{"user_id":377,"name":"DFR oak","steam_id":76561198092135570,"connected_time":5380000000000,"state":"active","ping":74},{"user_id":430,"name":"sophia","steam_id":76561197971448104,"connected_time":1264000000000,"state":"active","ping":66},{"user_id":348,"name":"Truffles","steam_id":76561198095868800,"connected_time":7619000000000,"state":"active","ping":85}]},{"server_id":402,"name":"Uncletopia | Chicago | 3 | All Maps","name_short":"chi-3","host":"chi-1.us.uncletopia.com","port":27035,"enabled":true,"region":"us-central","cc":"us","latitude":41.881832,"longitude":-87.62318,"reserved":0,"last_update":"0001-01-01T00:00:00Z","name_a2s":"Uncletopia | Chicago | 3 | All Maps","protocol":17,"map":"cp_sunshine","folder":"tf","game":"Team Fortress","app_id":440,"player_count":24,"max_players":24,"Bots":0,"server_type":"Dedicated","server_os":"Linux","password":true,"vac":true,"version":"7932396","steam_id":85568392924515191,"keywords":["cp","nocrits","nodmgspread","uncletopia"],"game_id":440,"stv_port":27036,"stv_name":"Uncletopia | Chicago | 3 | All Maps | STV","players":[{"user_id":911,"name":"megalexcraft00","steam_id":76561198167075182,"connected_time":687000000000,"state":"active","ping":76},{"user_id":925,"name":"Dinner","steam_id":76561198067294811,"connected_time":445000000000,"state":"active","ping":62},{"user_id":909,"name":"Spike Bones","steam_id":76561198234926120,"connected_time":735000000000,"state":"active","ping":102},{"user_id":835,"name":"Monochi","steam_id":76561198093093118,"connected_time":6249000000000,"state":"active","ping":71},{"user_id":927,"name":"Phillip Jeffries","steam_id":76561198064052174,"connected_time":367000000000,"state":"active","ping":65},{"user_id":881,"name":"Six Piece Chicken McNobody","steam_id":76561198129848222,"connected_time":2951000000000,"state":"active","ping":64},{"user_id":923,"name":"StarManMatt","steam_id":76561198125513574,"connected_time":449000000000,"state":"active","ping":86},{"user_id":892,"name":"Jobe Bryant","steam_id":76561198044844522,"connected_time":1863000000000,"state":"active","ping":61},{"user_id":899,"name":"niko","steam_id":76561199154286181,"connected_time":1445000000000,"state":"active","ping":69},{"user_id":912,"name":"Big Oil","steam_id":76561199238964574,"connected_time":630000000000,"state":"active","ping":65},{"user_id":893,"name":"CthulhusBSack","steam_id":76561199067224131,"connected_time":1858000000000,"state":"active","ping":72},{"user_id":913,"name":"Post nut clarity","steam_id":76561198060246831,"connected_time":629000000000,"state":"active","ping":86},{"user_id":894,"name":"nicksunboro","steam_id":76561198057506946,"connected_time":1853000000000,"state":"active","ping":70},{"user_id":914,"name":"Censing Auto, The Challenger","steam_id":76561198060926681,"connected_time":609000000000,"state":"active","ping":60},{"user_id":915,"name":"Zen56","steam_id":76561198074554894,"connected_time":551000000000,"state":"active","ping":100},{"user_id":916,"name":"dave","steam_id":76561198135961731,"connected_time":543000000000,"state":"active","ping":88},{"user_id":903,"name":"Senna","steam_id":76561198115830949,"connected_time":1041000000000,"state":"active","ping":80},{"user_id":917,"name":"Pork Tenderloin","steam_id":76561198138663842,"connected_time":541000000000,"state":"active","ping":53},{"user_id":918,"name":"Kevbot","steam_id":76561198028055669,"connected_time":519000000000,"state":"active","ping":67},{"user_id":924,"name":"LemonDogSmooth","steam_id":76561198035022723,"connected_time":449000000000,"state":"active","ping":100},{"user_id":920,"name":"Xyverle","steam_id":76561198799726415,"connected_time":472000000000,"state":"active","ping":60},{"user_id":928,"name":"illious","steam_id":76561198169925494,"connected_time":306000000000,"state":"active","ping":68},{"user_id":921,"name":"Agent Mania","steam_id":76561198029741272,"connected_time":471000000000,"state":"active","ping":99},{"user_id":926,"name":"Ping","steam_id":76561198072947773,"connected_time":439000000000,"state":"active","ping":55}]},{"server_id":403,"name":"Uncletopia | Chicago | 4 | All Maps","name_short":"chi-4","host":"chi-1.us.uncletopia.com","port":27045,"enabled":true,"region":"us-central","cc":"us","latitude":41.881832,"longitude":-87.62318,"reserved":0,"last_update":"0001-01-01T00:00:00Z","name_a2s":"Uncletopia | Chicago | 4 | All Maps","protocol":17,"map":"cp_powerhouse","folder":"tf","game":"Team Fortress","app_id":440,"player_count":24,"max_players":24,"Bots":0,"server_type":"Dedicated","server_os":"Linux","password":true,"vac":true,"version":"7932396","steam_id":85568392924515193,"keywords":["cp","nocrits","nodmgspread","uncletopia"],"game_id":440,"stv_port":27046,"stv_name":"Uncletopia | Chicago | 4 | All Maps | STV","players":[{"user_id":567,"name":"200VTEC","steam_id":76561198232617936,"connected_time":1732000000000,"state":"active","ping":59},{"user_id":574,"name":"Poe Wuppafoe","steam_id":76561198211674749,"connected_time":992000000000,"state":"active","ping":69},{"user_id":507,"name":"l4d2 marshall","steam_id":76561198042570322,"connected_time":5144000000000,"state":"active","ping":57},{"user_id":538,"name":"DoomsdaySnail","steam_id":76561198131444200,"connected_time":3417000000000,"state":"active","ping":66},{"user_id":568,"name":"user00xman","steam_id":76561198037518646,"connected_time":1654000000000,"state":"active","ping":60},{"user_id":539,"name":"Zephyr","steam_id":76561198129785553,"connected_time":3408000000000,"state":"active","ping":64},{"user_id":573,"name":"evil vvizard vveed","steam_id":76561198308748776,"connected_time":1241000000000,"state":"active","ping":78},{"user_id":581,"name":"Lumi","steam_id":76561198089978036,"connected_time":153000000000,"state":"active","ping":72},{"user_id":440,"name":"Pizza","steam_id":76561198118748364,"connected_time":6303000000000,"state":"active","ping":74},{"user_id":579,"name":"leaf","steam_id":76561198059680103,"connected_time":243000000000,"state":"active","ping":62},{"user_id":586,"name":"illegal alien","steam_id":76561198840484105,"connected_time":38000000000,"state":"active","ping":72},{"user_id":525,"name":"Makina","steam_id":76561198057475567,"connected_time":4720000000000,"state":"active","ping":69},{"user_id":569,"name":"Deathpill","steam_id":76561197994404793,"connected_time":1599000000000,"state":"active","ping":74},{"user_id":570,"name":"shrub","steam_id":76561198108020681,"connected_time":1552000000000,"state":"active","ping":60},{"user_id":477,"name":"Kng","steam_id":76561198993248203,"connected_time":5460000000000,"state":"active","ping":81},{"user_id":543,"name":"Danmar33","steam_id":76561198056453091,"connected_time":3324000000000,"state":"active","ping":47},{"user_id":584,"name":"god's drunkest driver","steam_id":76561198069407799,"connected_time":112000000000,"state":"active","ping":73},{"user_id":545,"name":"ArnoldGamingÔæ†Ÿ¥","steam_id":76561198040140247,"connected_time":3290000000000,"state":"active","ping":87},{"user_id":557,"name":"Meme Foreskin II","steam_id":76561198028157625,"connected_time":2211000000000,"state":"active","ping":90},{"user_id":572,"name":"rawgust","steam_id":76561198004523887,"connected_time":1317000000000,"state":"active","ping":110},{"user_id":576,"name":"richarven","steam_id":76561198189429665,"connected_time":934000000000,"state":"active","ping":74},{"user_id":563,"name":"6t26j","steam_id":76561198278282836,"connected_time":1975000000000,"state":"active","ping":52},{"user_id":564,"name":"lxzvrdwxzvrd","steam_id":76561198111975583,"connected_time":1971000000000,"state":"active","ping":94},{"user_id":582,"name":"Space Lizard","steam_id":76561198056798193,"connected_time":150000000000,"state":"active","ping":72}]},{"server_id":36,"name":"Uncletopia | Chicago | 5 | All Maps","name_short":"chi-5","host":"chi-2.us.uncletopia.com","port":27015,"enabled":true,"region":"us-central","cc":"us","latitude":41.881832,"longitude":-87.62318,"reserved":0,"last_update":"0001-01-01T00:00:00Z","name_a2s":"Uncletopia | Chicago | 5 | All Maps","protocol":17,"map":"cp_dustbowl","folder":"tf","game":"Team Fortress","app_id":440,"player_count":21,"max_players":24,"Bots":0,"server_type":"Dedicated","server_os":"Linux","password":true,"vac":true,"version":"7932396","steam_id":85568392924866362,"keywords":["cp","nocrits","nodmgspread","uncletopia"],"game_id":440,"stv_port":27016,"stv_name":"Uncletopia | Chicago | 5 | All Maps | STV","players":[{"user_id":489,"name":"Urbanzpinapple","steam_id":76561198115426938,"connected_time":992000000000,"state":"active","ping":59},{"user_id":472,"name":"CheeseLikeSubstance","steam_id":76561197977170646,"connected_time":1911000000000,"state":"active","ping":48},{"user_id":463,"name":"Korbashkrull","steam_id":76561198061396915,"connected_time":2858000000000,"state":"active","ping":102},{"user_id":445,"name":"excited exclam","steam_id":76561198081971317,"connected_time":3667000000000,"state":"active","ping":50},{"user_id":493,"name":"mittensbro","steam_id":76561198028640976,"connected_time":26000000000,"state":"spawning","ping":69},{"user_id":480,"name":"ShawnLmao","steam_id":76561198350691501,"connected_time":1427000000000,"state":"active","ping":86},{"user_id":467,"name":"Retrace","steam_id":76561198080620966,"connected_time":2444000000000,"state":"active","ping":82},{"user_id":488,"name":"Renota","steam_id":76561198058224488,"connected_time":1029000000000,"state":"active","ping":62},{"user_id":481,"name":"hashmap","steam_id":76561198043794014,"connected_time":1398000000000,"state":"active","ping":47},{"user_id":478,"name":"Tri-Dot","steam_id":76561199075186597,"connected_time":1455000000000,"state":"active","ping":72},{"user_id":474,"name":"DededeMain | trade.tf","steam_id":76561198310951632,"connected_time":1756000000000,"state":"active","ping":74},{"user_id":427,"name":"Irthene","steam_id":76561198047888351,"connected_time":5394000000000,"state":"active","ping":61},{"user_id":468,"name":"bkiller","steam_id":76561198029265697,"connected_time":2415000000000,"state":"active","ping":79},{"user_id":425,"name":"Cervid√©","steam_id":76561198098579497,"connected_time":5670000000000,"state":"active","ping":74},{"user_id":490,"name":"üü†","steam_id":76561198018213050,"connected_time":797000000000,"state":"active","ping":45},{"user_id":477,"name":"Grentac","steam_id":76561198140435841,"connected_time":1594000000000,"state":"active","ping":74},{"user_id":482,"name":"Sweetyfluff","steam_id":76561198045397871,"connected_time":1355000000000,"state":"active","ping":68},{"user_id":491,"name":"i love tranq","steam_id":76561198241948526,"connected_time":762000000000,"state":"active","ping":60},{"user_id":483,"name":"VX Ghost","steam_id":76561198072541436,"connected_time":1349000000000,"state":"active","ping":46},{"user_id":485,"name":"Reaper","steam_id":76561198435826103,"connected_time":1278000000000,"state":"active","ping":60},{"user_id":428,"name":"Snake Handler","steam_id":76561198027198306,"connected_time":5334000000000,"state":"active","ping":59}]},{"server_id":37,"name":"Uncletopia | Chicago | 6 | All Maps","name_short":"chi-6","host":"chi-2.us.uncletopia.com","port":27025,"enabled":true,"region":"us-central","cc":"us","latitude":41.881832,"longitude":-87.62318,"reserved":0,"last_update":"0001-01-01T00:00:00Z","name_a2s":"Uncletopia | Chicago | 6 | All Maps","protocol":17,"map":"pl_upward","folder":"tf","game":"Team Fortress","app_id":440,"player_count":24,"max_players":24,"Bots":0,"server_type":"Dedicated","server_os":"Linux","password":true,"vac":true,"version":"7932396","steam_id":85568392924866363,"keywords":["nocrits","nodmgspread","payload","uncletopia"],"game_id":440,"stv_port":27026,"stv_name":"Uncletopia | Chicago | 6 | All Maps | STV","players":[{"user_id":205,"name":"for the king","steam_id":76561197973488858,"connected_time":2525000000000,"state":"active","ping":59},{"user_id":164,"name":"JimmySquid","steam_id":76561198254242530,"connected_time":4471000000000,"state":"active","ping":84},{"user_id":186,"name":"Punkin","steam_id":76561198334301755,"connected_time":3418000000000,"state":"active","ping":72},{"user_id":145,"name":"(Past Tense)","steam_id":76561197996279335,"connected_time":6425000000000,"state":"active","ping":51},{"user_id":215,"name":"RedSock","steam_id":76561198161243404,"connected_time":1692000000000,"state":"active","ping":45},{"user_id":183,"name":"An Erect Penis :)","steam_id":76561198086477485,"connected_time":3434000000000,"state":"active","ping":40},{"user_id":221,"name":"imposter","steam_id":76561198085571748,"connected_time":860000000000,"state":"active","ping":62},{"user_id":222,"name":"idcimsothrowed","steam_id":76561198339527138,"connected_time":851000000000,"state":"active","ping":103},{"user_id":197,"name":"Sarbanes-Oxley","steam_id":76561197975898479,"connected_time":3103000000000,"state":"active","ping":76},{"user_id":149,"name":"money talks, wealth whispers","steam_id":76561198149666258,"connected_time":6206000000000,"state":"active","ping":59},{"user_id":216,"name":"scrotal recall","steam_id":76561198135945598,"connected_time":1685000000000,"state":"active","ping":74},{"user_id":227,"name":"sapphrodite","steam_id":76561198279341789,"connected_time":92000000000,"state":"active","ping":65},{"user_id":220,"name":"aint that just the way","steam_id":76561198301423746,"connected_time":1300000000000,"state":"active","ping":60},{"user_id":225,"name":"playguy carter","steam_id":76561198080679337,"connected_time":615000000000,"state":"active","ping":55},{"user_id":189,"name":"millie","steam_id":76561198008366811,"connected_time":3388000000000,"state":"active","ping":59},{"user_id":170,"name":"Dr Oshawott","steam_id":76561198042021629,"connected_time":4011000000000,"state":"active","ping":67},{"user_id":213,"name":"Resistance","steam_id":76561198146782074,"connected_time":1741000000000,"state":"active","ping":61},{"user_id":217,"name":"Fiendish Frog","steam_id":76561198029478821,"connected_time":1633000000000,"state":"active","ping":75},{"user_id":152,"name":"Furious George","steam_id":76561198405111646,"connected_time":6161000000000,"state":"active","ping":98},{"user_id":224,"name":"Tommy Pickles (Very Cool)","steam_id":76561198391261463,"connected_time":761000000000,"state":"active","ping":72},{"user_id":129,"name":"helen keller","steam_id":76561197979870540,"connected_time":7439000000000,"state":"active","ping":55},{"user_id":154,"name":"Killroy NQP ‚ù§","steam_id":76561198006983771,"connected_time":6122000000000,"state":"active","ping":81},{"user_id":180,"name":"aleksei","steam_id":76561199061380038,"connected_time":3700000000000,"state":"active","ping":74}]},{"server_id":38,"name":"Uncletopia | Chicago | 7 | Stopwatch Beta","name_short":"chi-7","host":"chi-2.us.uncletopia.com","port":27035,"enabled":true,"region":"us-central","cc":"us","latitude":41.881832,"longitude":-87.62318,"reserved":0,"last_update":"0001-01-01T00:00:00Z","name_a2s":"Uncletopia | Chicago | 7 | Stopwatch Beta","protocol":17,"map":"workshop/pl_badwater_pro_v12.ugc2142942074","folder":"tf","game":"Team Fortress","app_id":440,"player_count":0,"max_players":24,"Bots":0,"server_type":"Dedicated","server_os":"Linux","password":true,"vac":true,"version":"7932396","steam_id":85568392924866364,"keywords":["nocrits","nodmgspread","payload","uncletopia"],"game_id":440,"stv_port":27036,"stv_name":"Uncletopia | Chicago | 7 | Stopwatch Beta | STV","players":null},{"server_id":39,"name":"Uncletopia | Chicago | 8 | Community","name_short":"chi-8","host":"chi-2.us.uncletopia.com","port":27045,"enabled":true,"region":"us-central","cc":"us","latitude":41.881832,"longitude":-87.62318,"reserved":0,"last_update":"0001-01-01T00:00:00Z","name_a2s":"Uncletopia | Chicago | 8 | Community","protocol":17,"map":"workshop/koth_trenchfoot_b1a.ugc731436616","folder":"tf","game":"Team Fortress","app_id":440,"player_count":0,"max_players":24,"Bots":0,"server_type":"Dedicated","server_os":"Linux","password":true,"vac":true,"version":"7932396","steam_id":85568392924866365,"keywords":["cp","nocrits","nodmgspread","uncletopia"],"game_id":440,"stv_port":27046,"stv_name":"Uncletopia | Chicago | 8 | Community | STV","players":null},{"server_id":8,"name":"Uncletopia | Dallas | 1 | All Maps","name_short":"dal-1","host":"dal-1.us.uncletopia.com","port":27015,"enabled":true,"region":"us-central","cc":"us","latitude":32.779167,"longitude":-96.80889,"reserved":0,"last_update":"0001-01-01T00:00:00Z","name_a2s":"Uncletopia | Dallas | 1 | All Maps","protocol":17,"map":"pl_upward","folder":"tf","game":"Team Fortress","app_id":440,"player_count":24,"max_players":24,"Bots":0,"server_type":"Dedicated","server_os":"Linux","password":true,"vac":true,"version":"7932396","steam_id":85568392924469986,"keywords":["nocrits","nodmgspread","payload","uncletopia"],"game_id":440,"stv_port":27016,"stv_name":"Uncletopia | Dallas | 1 | All Maps | STV","players":[{"user_id":812,"name":"???","steam_id":76561198200155343,"connected_time":455000000000,"state":"active","ping":43},{"user_id":785,"name":"E P H E M E R A L","steam_id":76561198128614882,"connected_time":1706000000000,"state":"active","ping":85},{"user_id":648,"name":"cypherzero","steam_id":76561199182960322,"connected_time":13823000000000,"state":"active","ping":53},{"user_id":804,"name":"Bean Marrow","steam_id":76561198116650223,"connected_time":718000000000,"state":"active","ping":75},{"user_id":731,"name":"plink","steam_id":76561198057829889,"connected_time":6148000000000,"state":"active","ping":77},{"user_id":801,"name":"BOBBYSMOKE","steam_id":76561198201872929,"connected_time":1111000000000,"state":"active","ping":67},{"user_id":805,"name":"Stranger in a Strange Land","steam_id":76561198049843671,"connected_time":711000000000,"state":"active","ping":90},{"user_id":768,"name":"Unreliable Narrator","steam_id":76561198021303959,"connected_time":2700000000000,"state":"active","ping":78},{"user_id":793,"name":"Filliam","steam_id":76561198124028151,"connected_time":1542000000000,"state":"active","ping":85},{"user_id":806,"name":"Cosmic Torgue","steam_id":76561198828724945,"connected_time":710000000000,"state":"active","ping":103},{"user_id":799,"name":"Zir√òhh","steam_id":76561198202286460,"connected_time":1361000000000,"state":"active","ping":63},{"user_id":807,"name":"Zerman","steam_id":76561198094846729,"connected_time":695000000000,"state":"active","ping":95},{"user_id":811,"name":"Bullwinkle J. Moose","steam_id":76561198075977196,"connected_time":505000000000,"state":"active","ping":56},{"user_id":813,"name":"Burt Macklin","steam_id":76561198038080028,"connected_time":369000000000,"state":"active","ping":86},{"user_id":775,"name":"aphip","steam_id":76561198084621244,"connected_time":2222000000000,"state":"active","ping":79},{"user_id":794,"name":"dealinwithit","steam_id":76561198127424835,"connected_time":1539000000000,"state":"active","ping":92},{"user_id":810,"name":"Manic","steam_id":76561198128149670,"connected_time":536000000000,"state":"active","ping":46},{"user_id":808,"name":"IRS Spec Ops","steam_id":76561198129148160,"connected_time":689000000000,"state":"active","ping":100},{"user_id":809,"name":"Heal","steam_id":76561198798229240,"connected_time":687000000000,"state":"active","ping":75},{"user_id":802,"name":"¬∞Creamy Gilligan","steam_id":76561198001569384,"connected_time":857000000000,"state":"active","ping":83},{"user_id":800,"name":"Krow","steam_id":76561198010392099,"connected_time":1273000000000,"state":"active","ping":50},{"user_id":784,"name":"DapperRobot","steam_id":76561198050531559,"connected_time":1737000000000,"state":"active","ping":75},{"user_id":787,"name":"‚ô¶‚ô£Quadric‚ô•‚ô†","steam_id":76561198061003853,"connected_time":1688000000000,"state":"active","ping":94},{"user_id":815,"name":"Fernando","steam_id":76561198443038047,"connected_time":176000000000,"state":"active","ping":67}]},{"server_id":108,"name":"Uncletopia | Dallas | 2 | All Maps","name_short":"dal-2","host":"dal-1.us.uncletopia.com","port":27025,"enabled":true,"region":"us-central","cc":"us","latitude":32.779167,"longitude":-96.80889,"reserved":0,"last_update":"0001-01-01T00:00:00Z","name_a2s":"Uncletopia | Dallas | 2 | All Maps","protocol":17,"map":"pl_badwater","folder":"tf","game":"Team Fortress","app_id":440,"player_count":23,"max_players":24,"Bots":0,"server_type":"Dedicated","server_os":"Linux","password":true,"vac":true,"version":"7932396","steam_id":85568392924469988,"keywords":["nocrits","nodmgspread","payload","uncletopia"],"game_id":440,"stv_port":27026,"stv_name":"Uncletopia | Dallas | 2 | All Maps | STV","players":[{"user_id":705,"name":"Kylesicle","steam_id":76561198154341285,"connected_time":382000000000,"state":"active","ping":67},{"user_id":706,"name":"mr_angry_guy","steam_id":76561199365643094,"connected_time":371000000000,"state":"active","ping":74},{"user_id":681,"name":"goooot","steam_id":76561198155591052,"connected_time":1260000000000,"state":"active","ping":50},{"user_id":707,"name":"Octovaitor","steam_id":76561198004658451,"connected_time":359000000000,"state":"active","ping":78},{"user_id":708,"name":"Arrluk","steam_id":76561198396679452,"connected_time":352000000000,"state":"active","ping":74},{"user_id":683,"name":"None of that $9.99 bullshit","steam_id":76561198116169903,"connected_time":1223000000000,"state":"active","ping":75},{"user_id":710,"name":"Khaiden","steam_id":76561198104454754,"connected_time":312000000000,"state":"active","ping":179},{"user_id":697,"name":"Abu Shoosh","steam_id":76561198094990358,"connected_time":802000000000,"state":"active","ping":75},{"user_id":696,"name":"MerkyWaters","steam_id":76561197998853063,"connected_time":821000000000,"state":"active","ping":78},{"user_id":699,"name":"Major_Pippy","steam_id":76561198004482878,"connected_time":775000000000,"state":"active","ping":99},{"user_id":688,"name":"Mossy","steam_id":76561198156401277,"connected_time":1105000000000,"state":"active","ping":82},{"user_id":679,"name":"Maid Knight","steam_id":76561198214370515,"connected_time":1552000000000,"state":"active","ping":73},{"user_id":616,"name":"Bag","steam_id":76561198012395490,"connected_time":4755000000000,"state":"active","ping":71},{"user_id":692,"name":"damiankiller1243","steam_id":76561198868885090,"connected_time":945000000000,"state":"active","ping":59},{"user_id":689,"name":"LatinRhythms - 4 ref","steam_id":76561198025110751,"connected_time":1090000000000,"state":"active","ping":181},{"user_id":718,"name":"‚òúARZviTEK‚òû","steam_id":76561198321843681,"connected_time":4000000000,"state":"spawning","ping":195},{"user_id":690,"name":"what da dog doin","steam_id":76561198090573639,"connected_time":1069000000000,"state":"active","ping":82},{"user_id":713,"name":"peebs","steam_id":76561198261319753,"connected_time":187000000000,"state":"active","ping":53},{"user_id":714,"name":"lingulata","steam_id":76561198076208960,"connected_time":184000000000,"state":"active","ping":78},{"user_id":703,"name":"skizze","steam_id":76561198044964749,"connected_time":686000000000,"state":"active","ping":71},{"user_id":694,"name":"Mail Delivery","steam_id":76561198290046318,"connected_time":904000000000,"state":"active","ping":61},{"user_id":715,"name":"tesagi","steam_id":76561198026664629,"connected_time":179000000000,"state":"active","ping":72},{"user_id":717,"name":"Drunken Beanie","steam_id":76561198063904491,"connected_time":145000000000,"state":"active","ping":91}]},{"server_id":5,"name":"Uncletopia | Frankfurt | 1 | All Maps","name_short":"frk-1","host":"frk-1.de.uncletopia.com","port":27015,"enabled":true,"region":"eu","cc":"de","latitude":50.110924,"longitude":8.682127,"reserved":0,"last_update":"0001-01-01T00:00:00Z","name_a2s":"Uncletopia | Frankfurt | 1 | All Maps","protocol":17,"map":"pl_pier","folder":"tf","game":"Team Fortress","app_id":440,"player_count":0,"max_players":24,"Bots":0,"server_type":"Dedicated","server_os":"Linux","password":true,"vac":true,"version":"7932396","steam_id":85568392924469989,"keywords":["nocrits","nodmgspread","payload","uncletopia"],"game_id":440,"stv_port":27016,"stv_name":"Uncletopia | Frankfurt | 1 | All Maps | STV","players":null},{"server_id":110,"name":"Uncletopia | Frankfurt | 2 | All Maps","name_short":"frk-2","host":"frk-1.de.uncletopia.com","port":27025,"enabled":true,"region":"eu","cc":"de","latitude":50.110924,"longitude":8.682127,"reserved":0,"last_update":"0001-01-01T00:00:00Z","name_a2s":"Uncletopia | Frankfurt | 2 | All Maps","protocol":17,"map":"pl_swiftwater_final1","folder":"tf","game":"Team Fortress","app_id":440,"player_count":0,"max_players":24,"Bots":0,"server_type":"Dedicated","server_os":"Linux","password":true,"vac":true,"version":"7932396","steam_id":85568392924469990,"keywords":["nocrits","nodmgspread","payload","uncletopia"],"game_id":440,"stv_port":27026,"stv_name":"Uncletopia | Frankfurt | 2 | All Maps | STV","players":null},{"server_id":308,"name":"Uncletopia | Frankfurt | 3 | All Maps","name_short":"frk-3","host":"frk-1.de.uncletopia.com","port":27035,"enabled":true,"region":"eu","cc":"de","latitude":50.110924,"longitude":8.682127,"reserved":0,"last_update":"0001-01-01T00:00:00Z","name_a2s":"Uncletopia | Frankfurt | 3 | All Maps","protocol":17,"map":"koth_highpass","folder":"tf","game":"Team Fortress","app_id":440,"player_count":0,"max_players":24,"Bots":0,"server_type":"Dedicated","server_os":"Linux","password":true,"vac":true,"version":"7932396","steam_id":85568392924504274,"keywords":["cp","nocrits","nodmgspread","uncletopia"],"game_id":440,"stv_port":27036,"stv_name":"Uncletopia | Frankfurt | 3 | All Maps | STV","players":null},{"server_id":309,"name":"Uncletopia | Frankfurt | 4 | All Maps","name_short":"frk-4","host":"frk-1.de.uncletopia.com","port":27045,"enabled":true,"region":"eu","cc":"de","latitude":50.110924,"longitude":8.682127,"reserved":0,"last_update":"0001-01-01T00:00:00Z","name_a2s":"Uncletopia | Frankfurt | 4 | All Maps","protocol":17,"map":"koth_lakeside_final","folder":"tf","game":"Team Fortress","app_id":440,"player_count":0,"max_players":24,"Bots":0,"server_type":"Dedicated","server_os":"Linux","password":true,"vac":true,"version":"7932396","steam_id":85568392924504275,"keywords":["cp","nocrits","nodmgspread","uncletopia"],"game_id":440,"stv_port":27046,"stv_name":"Uncletopia | Frankfurt | 4 | All Maps | STV","players":null},{"server_id":310,"name":"Uncletopia | Frankfurt | 5 | All Maps","name_short":"frk-5","host":"frk-1.de.uncletopia.com","port":27055,"enabled":true,"region":"eu","cc":"de","latitude":50.110924,"longitude":8.682127,"reserved":0,"last_update":"0001-01-01T00:00:00Z","name_a2s":"Uncletopia | Frankfurt | 5 | All Maps","protocol":17,"map":"koth_highpass","folder":"tf","game":"Team Fortress","app_id":440,"player_count":0,"max_players":24,"Bots":0,"server_type":"Dedicated","server_os":"Linux","password":true,"vac":true,"version":"7932396","steam_id":85568392924504277,"keywords":["cp","nocrits","nodmgspread","uncletopia"],"game_id":440,"stv_port":27056,"stv_name":"Uncletopia | Frankfurt | 5 | All Maps | STV","players":null},{"server_id":311,"name":"Uncletopia | Frankfurt | 6 | All Maps","name_short":"frk-6","host":"frk-1.de.uncletopia.com","port":27065,"enabled":true,"region":"eu","cc":"de","latitude":50.110924,"longitude":8.682127,"reserved":0,"last_update":"0001-01-01T00:00:00Z","name_a2s":"Uncletopia | Frankfurt | 6 | All Maps","protocol":17,"map":"pl_badwater","folder":"tf","game":"Team Fortress","app_id":440,"player_count":0,"max_players":24,"Bots":0,"server_type":"Dedicated","server_os":"Linux","password":true,"vac":true,"version":"7932396","steam_id":85568392924504278,"keywords":["nocrits","nodmgspread","payload","uncletopia"],"game_id":440,"stv_port":27066,"stv_name":"Uncletopia | Frankfurt | 6 | All Maps | STV","players":null},{"server_id":23,"name":"Uncletopia | Frankfurt | 7 | Stopwatch Beta","name_short":"frk-7","host":"frk-1.de.uncletopia.com","port":27075,"enabled":true,"region":"eu","cc":"de","latitude":50.110924,"longitude":8.682127,"reserved":0,"last_update":"0001-01-01T00:00:00Z","name_a2s":"Uncletopia | Frankfurt | 7 | Stopwatch Beta","protocol":17,"map":"pl_snowycoast","folder":"tf","game":"Team Fortress","app_id":440,"player_count":0,"max_players":24,"Bots":0,"server_type":"Dedicated","server_os":"Linux","password":true,"vac":true,"version":"7932396","steam_id":85568392924742827,"keywords":["nocrits","nodmgspread","payload","uncletopia"],"game_id":440,"stv_port":27076,"stv_name":"Uncletopia | Frankfurt | 7 | Stopwatch Beta | STV","players":null},{"server_id":24,"name":"Uncletopia | Frankfurt | 8 | Community","name_short":"frk-8","host":"frk-1.de.uncletopia.com","port":27085,"enabled":true,"region":"eu","cc":"de","latitude":50.110924,"longitude":8.682127,"reserved":0,"last_update":"0001-01-01T00:00:00Z","name_a2s":"Uncletopia | Frankfurt | 8 | Community","protocol":17,"map":"workshop/cp_bruhstbowl_b6.ugc2878604990","folder":"tf","game":"Team Fortress","app_id":440,"player_count":0,"max_players":24,"Bots":0,"server_type":"Dedicated","server_os":"Linux","password":true,"vac":true,"version":"7932396","steam_id":85568392924742828,"keywords":["cp","nocrits","nodmgspread","uncletopia"],"game_id":440,"stv_port":27086,"stv_name":"Uncletopia | Frankfurt | 8 | Community | STV","players":null},{"server_id":202,"name":"Uncletopia | Hong Kong | 1 | All Maps","name_short":"hgk-1","host":"hgk-1.hk.uncletopia.com","port":27015,"enabled":true,"region":"asia","cc":"hk","latitude":22.302711,"longitude":114.177216,"reserved":0,"last_update":"0001-01-01T00:00:00Z","name_a2s":"Uncletopia | Hong Kong | 1 | All Maps","protocol":17,"map":"pl_upward","folder":"tf","game":"Team Fortress","app_id":440,"player_count":6,"max_players":24,"Bots":0,"server_type":"Dedicated","server_os":"Linux","password":true,"vac":true,"version":"7932396","steam_id":85568392924494504,"keywords":["nocrits","nodmgspread","payload","uncletopia"],"game_id":440,"stv_port":27016,"stv_name":"Uncletopia | Hong Kong | 1 | All Maps | STV","players":[{"user_id":16,"name":"Xx_EpicTrickstabber_xX","steam_id":76561199024960087,"connected_time":6534000000000,"state":"active","ping":47},{"user_id":33,"name":"Troller","steam_id":76561199227612515,"connected_time":75000000000,"state":"active","ping":83},{"user_id":19,"name":"jarell","steam_id":76561198271534653,"connected_time":4746000000000,"state":"active","ping":64},{"user_id":20,"name":"SugarCoat","steam_id":76561199230196794,"connected_time":4243000000000,"state":"active","ping":120},{"user_id":32,"name":"hi","steam_id":76561198079387090,"connected_time":123000000000,"state":"active","ping":63},{"user_id":31,"name":"b—ãW–∞e—Ç","steam_id":76561199469301103,"connected_time":191000000000,"state":"active","ping":426}]},{"server_id":1,"name":"Uncletopia | Los Angeles | 1 | All Maps","name_short":"lax-1","host":"lax-1.us.uncletopia.com","port":27015,"enabled":true,"region":"us-west","cc":"us","latitude":33.94279,"longitude":-118.41004,"reserved":0,"last_update":"0001-01-01T00:00:00Z","name_a2s":"Uncletopia | Los Angeles | 1 | All Maps","protocol":17,"map":"ctf_turbine","folder":"tf","game":"Team Fortress","app_id":440,"player_count":22,"max_players":24,"Bots":0,"server_type":"Dedicated","server_os":"Linux","password":true,"vac":true,"version":"7932396","steam_id":85568392924469991,"keywords":["ctf","nocrits","nodmgspread","uncletopia"],"game_id":440,"stv_port":27016,"stv_name":"Uncletopia | Los Angeles | 1 | All Maps | STV","players":[{"user_id":319,"name":"SorcererMinty","steam_id":76561199185659553,"connected_time":330000000000,"state":"active","ping":90},{"user_id":270,"name":"a chicken","steam_id":76561198313121580,"connected_time":3435000000000,"state":"active","ping":38},{"user_id":310,"name":"Î©çÏ≤≠Ìïú ÎØ∏Íµ≠Ïù∏","steam_id":76561198041986461,"connected_time":659000000000,"state":"active","ping":68},{"user_id":317,"name":"Dr. Fast M.D.","steam_id":76561198871298539,"connected_time":385000000000,"state":"active","ping":70},{"user_id":307,"name":"Actually Reb","steam_id":76561198087307468,"connected_time":748000000000,"state":"active","ping":64},{"user_id":300,"name":"erm what the scallop???","steam_id":76561198338610196,"connected_time":1549000000000,"state":"active","ping":69},{"user_id":325,"name":"Herbal Infusion","steam_id":76561198146881319,"connected_time":8000000000,"state":"spawning","ping":31},{"user_id":302,"name":"SCUD missile up your ass","steam_id":76561198066452726,"connected_time":1131000000000,"state":"active","ping":50},{"user_id":298,"name":"MonkeyNobody","steam_id":76561199451266605,"connected_time":1633000000000,"state":"active","ping":53},{"user_id":217,"name":"._.","steam_id":76561198300316801,"connected_time":6648000000000,"state":"active","ping":105},{"user_id":318,"name":"..flop","steam_id":76561197989058876,"connected_time":379000000000,"state":"active","ping":80},{"user_id":313,"name":"garbo","steam_id":76561198149280150,"connected_time":456000000000,"state":"active","ping":45},{"user_id":309,"name":"Starkiller","steam_id":76561198101643120,"connected_time":717000000000,"state":"active","ping":86},{"user_id":290,"name":"californjoe","steam_id":76561197965047795,"connected_time":1795000000000,"state":"active","ping":54},{"user_id":320,"name":"deacon bewbs","steam_id":76561199203778125,"connected_time":285000000000,"state":"active","ping":76},{"user_id":304,"name":"FAKE uncletopia server","steam_id":76561198065662025,"connected_time":1118000000000,"state":"active","ping":57},{"user_id":322,"name":"Milk","steam_id":76561198083766036,"connected_time":186000000000,"state":"active","ping":78},{"user_id":315,"name":"Kurtle","steam_id":76561199099898602,"connected_time":421000000000,"state":"active","ping":72},{"user_id":271,"name":"Dr.Doc","steam_id":76561198981911429,"connected_time":3347000000000,"state":"active","ping":90},{"user_id":266,"name":"HAT-WEARING‚Ñ¢ Maggot Gamer Cat","steam_id":76561197973992705,"connected_time":4053000000000,"state":"active","ping":70},{"user_id":324,"name":"Benis Gonzalez","steam_id":76561198799391259,"connected_time":111000000000,"state":"active","ping":92},{"user_id":279,"name":"Sgt. Satire","steam_id":76561198104193483,"connected_time":2885000000000,"state":"active","ping":68}]},{"server_id":112,"name":"Uncletopia | Los Angeles | 2 | All Maps","name_short":"lax-2","host":"lax-1.us.uncletopia.com","port":27025,"enabled":true,"region":"us-west","cc":"us","latitude":33.94279,"longitude":-118.41004,"reserved":0,"last_update":"0001-01-01T00:00:00Z","name_a2s":"Uncletopia | Los Angeles | 2 | All Maps","protocol":17,"map":"plr_hightower","folder":"tf","game":"Team Fortress","app_id":440,"player_count":23,"max_players":24,"Bots":0,"server_type":"Dedicated","server_os":"Linux","password":true,"vac":true,"version":"7932396","steam_id":85568392924469992,"keywords":["nocrits","nodmgspread","payload","uncletopia"],"game_id":440,"stv_port":27026,"stv_name":"Uncletopia | Los Angeles | 2 | All Maps | STV","players":[{"user_id":246,"name":"FireQuiz","steam_id":76561198107357249,"connected_time":121000000000,"state":"active","ping":71},{"user_id":244,"name":"xbox record that","steam_id":76561198150117455,"connected_time":352000000000,"state":"active","ping":45},{"user_id":209,"name":"Fluffy","steam_id":76561198213561811,"connected_time":2449000000000,"state":"active","ping":34},{"user_id":233,"name":"dudescore","steam_id":76561199091453555,"connected_time":1321000000000,"state":"active","ping":71},{"user_id":245,"name":"Ratchet55","steam_id":76561198208655521,"connected_time":171000000000,"state":"active","ping":62},{"user_id":222,"name":"Joe Biden TF2","steam_id":76561198837570484,"connected_time":1691000000000,"state":"active","ping":50},{"user_id":250,"name":"Bodhisattva","steam_id":76561198085228896,"connected_time":7000000000,"state":"spawning","ping":44},{"user_id":234,"name":"‚ôÇ boss of this gym ‚ôÇ","steam_id":76561198027102212,"connected_time":1154000000000,"state":"active","ping":92},{"user_id":231,"name":"CockDick69","steam_id":76561198051882744,"connected_time":1364000000000,"state":"active","ping":107},{"user_id":197,"name":"lasagnalarry12","steam_id":76561198162688146,"connected_time":3045000000000,"state":"active","ping":48},{"user_id":251,"name":"SD","steam_id":76561198217410988,"connected_time":0,"state":"connecting","ping":0},{"user_id":242,"name":"lol","steam_id":76561198026491738,"connected_time":398000000000,"state":"active","ping":57},{"user_id":173,"name":"vioxynteris","steam_id":76561198161428666,"connected_time":4058000000000,"state":"active","ping":31},{"user_id":248,"name":"GingaNinja","steam_id":76561198048984325,"connected_time":98000000000,"state":"active","ping":100},{"user_id":230,"name":"Poly","steam_id":76561198327850752,"connected_time":1429000000000,"state":"active","ping":74},{"user_id":224,"name":"RashestHen75","steam_id":76561199229427395,"connected_time":1618000000000,"state":"active","ping":45},{"user_id":180,"name":"Sleempreem","steam_id":76561198131987251,"connected_time":3621000000000,"state":"active","ping":40},{"user_id":232,"name":"Aibroc","steam_id":76561199164997748,"connected_time":1339000000000,"state":"active","ping":56},{"user_id":227,"name":"Lex","steam_id":76561198069948353,"connected_time":1502000000000,"state":"active","ping":89},{"user_id":236,"name":"lemonjack","steam_id":76561198277380277,"connected_time":1085000000000,"state":"active","ping":57},{"user_id":249,"name":"Daddy Topps","steam_id":76561198203594332,"connected_time":88000000000,"state":"active","ping":75},{"user_id":85,"name":"FlashofAsh","steam_id":76561198400422981,"connected_time":9277000000000,"state":"active","ping":71},{"user_id":176,"name":"Cheers! I'll drink to that","steam_id":76561198112705880,"connected_time":3900000000000,"state":"active","ping":49}]},{"server_id":324,"name":"Uncletopia | Los Angeles | 3 | All Maps","name_short":"lax-3","host":"lax-1.us.uncletopia.com","port":27035,"enabled":true,"region":"us-west","cc":"us","latitude":33.94279,"longitude":-118.41004,"reserved":0,"last_update":"0001-01-01T00:00:00Z","name_a2s":"Uncletopia | Los Angeles | 3 | All Maps","protocol":17,"map":"pl_badwater","folder":"tf","game":"Team Fortress","app_id":440,"player_count":24,"max_players":24,"Bots":0,"server_type":"Dedicated","server_os":"Linux","password":true,"vac":true,"version":"7932396","steam_id":85568392924510198,"keywords":["nocrits","nodmgspread","payload","uncletopia"],"game_id":440,"stv_port":27036,"stv_name":"Uncletopia | Los Angeles | 3 | All Maps | STV","players":[{"user_id":543,"name":"Drake from State Farm","steam_id":76561199069029812,"connected_time":2615000000000,"state":"active","ping":61},{"user_id":556,"name":"A Skilled Player","steam_id":76561198075619480,"connected_time":1080000000000,"state":"active","ping":48},{"user_id":534,"name":"Marz","steam_id":76561198799364911,"connected_time":3356000000000,"state":"active","ping":58},{"user_id":519,"name":"sheep gf (real)","steam_id":76561198068189558,"connected_time":4532000000000,"state":"active","ping":59},{"user_id":564,"name":"zanefoxgames","steam_id":76561198801872568,"connected_time":550000000000,"state":"active","ping":80},{"user_id":565,"name":"ky jelly packing","steam_id":76561198240906222,"connected_time":435000000000,"state":"active","ping":105},{"user_id":558,"name":"Deryn Sharp","steam_id":76561198047017346,"connected_time":950000000000,"state":"active","ping":57},{"user_id":566,"name":"Sayori","steam_id":76561198957479336,"connected_time":415000000000,"state":"active","ping":93},{"user_id":523,"name":"elephant thumb","steam_id":76561198118859752,"connected_time":4268000000000,"state":"active","ping":46},{"user_id":554,"name":"BoxMan","steam_id":76561198316541559,"connected_time":1686000000000,"state":"active","ping":101},{"user_id":559,"name":"SNŒªRTLE","steam_id":76561198321853655,"connected_time":915000000000,"state":"active","ping":70},{"user_id":557,"name":"Mr. Baseball","steam_id":76561198112635823,"connected_time":954000000000,"state":"active","ping":87},{"user_id":568,"name":"body of a pig","steam_id":76561198128363064,"connected_time":399000000000,"state":"active","ping":111},{"user_id":560,"name":"Demonic Cipher","steam_id":76561198066082088,"connected_time":894000000000,"state":"active","ping":105},{"user_id":533,"name":"Tom Cr√∫aich","steam_id":76561197999439911,"connected_time":3893000000000,"state":"active","ping":92},{"user_id":552,"name":"saggysage","steam_id":76561198249808678,"connected_time":1875000000000,"state":"active","ping":92},{"user_id":572,"name":"regular_consuelo","steam_id":76561198327831852,"connected_time":352000000000,"state":"active","ping":118},{"user_id":537,"name":"Pez","steam_id":76561199197778137,"connected_time":3192000000000,"state":"active","ping":71},{"user_id":563,"name":"Yhimir","steam_id":76561198973439216,"connected_time":655000000000,"state":"active","ping":80},{"user_id":569,"name":"moe","steam_id":76561198929586245,"connected_time":395000000000,"state":"active","ping":55},{"user_id":531,"name":"Tree45","steam_id":76561198143698408,"connected_time":3988000000000,"state":"active","ping":116},{"user_id":570,"name":"Ken","steam_id":76561198190992453,"connected_time":380000000000,"state":"active","ping":51},{"user_id":573,"name":"Doctor X (Michiko Daemon)","steam_id":76561199106264424,"connected_time":348000000000,"state":"active","ping":107},{"user_id":532,"name":"R5-D4","steam_id":76561198025196439,"connected_time":3964000000000,"state":"active","ping":111}]},{"server_id":25,"name":"Uncletopia | Los Angeles | 4 | Stopwatch Beta","name_short":"lax-4","host":"lax-1.us.uncletopia.com","port":27045,"enabled":true,"region":"us-west","cc":"us","latitude":33.94279,"longitude":-118.41004,"reserved":0,"last_update":"0001-01-01T00:00:00Z","name_a2s":"Uncletopia | Los Angeles | 4 | Stopwatch Beta","protocol":17,"map":"pl_borneo","folder":"tf","game":"Team Fortress","app_id":440,"player_count":0,"max_players":24,"Bots":0,"server_type":"Dedicated","server_os":"Linux","password":true,"vac":true,"version":"7932396","steam_id":85568392924510199,"keywords":["nocrits","nodmgspread","payload","uncletopia"],"game_id":440,"stv_port":27046,"stv_name":"Uncletopia | Los Angeles | 4 | Stopwatch Beta | STV","players":null},{"server_id":11,"name":"Uncletopia | London | 1 | All Maps","name_short":"lon-1","host":"lon-1.uk.uncletopia.com","port":27015,"enabled":true,"region":"eu","cc":"gb","latitude":51.509865,"longitude":-0.118092,"reserved":0,"last_update":"0001-01-01T00:00:00Z","name_a2s":"Uncletopia | London | 1 | All Maps","protocol":17,"map":"cp_sunshine","folder":"tf","game":"Team Fortress","app_id":440,"player_count":24,"max_players":24,"Bots":0,"server_type":"Dedicated","server_os":"Linux","password":true,"vac":true,"version":"7932396","steam_id":85568392924367362,"keywords":["cp","nocrits","nodmgspread","uncletopia"],"game_id":440,"stv_port":27016,"stv_name":"Uncletopia | London | 1 | All Maps | STV","players":[{"user_id":1181,"name":"jonbob","steam_id":76561197963506620,"connected_time":147000000000,"state":"active","ping":47},{"user_id":1154,"name":"Ôº≥ÔΩÅÔΩìÔΩìÔΩô","steam_id":76561198844060342,"connected_time":2048000000000,"state":"active","ping":39},{"user_id":1185,"name":"Dr. Strain","steam_id":76561198078476091,"connected_time":11000000000,"state":"spawning","ping":113},{"user_id":1174,"name":"DOOM slayer","steam_id":76561199057261023,"connected_time":406000000000,"state":"active","ping":131},{"user_id":1158,"name":"Cryspoeth47","steam_id":76561198892776023,"connected_time":1823000000000,"state":"active","ping":115},{"user_id":1172,"name":"thespartanjon","steam_id":76561198045286648,"connected_time":722000000000,"state":"active","ping":53},{"user_id":1156,"name":"Perpetual Pub Push","steam_id":76561198256714846,"connected_time":1868000000000,"state":"active","ping":43},{"user_id":1143,"name":"Dim","steam_id":76561198141549249,"connected_time":3095000000000,"state":"active","ping":145},{"user_id":1170,"name":"string theory","steam_id":76561198818037965,"connected_time":867000000000,"state":"active","ping":104},{"user_id":1175,"name":"lipps","steam_id":76561198042071754,"connected_time":397000000000,"state":"active","ping":68},{"user_id":1138,"name":"Kosmonaukt","steam_id":76561198168108777,"connected_time":3505000000000,"state":"active","ping":48},{"user_id":1177,"name":"Zwphyr","steam_id":76561198160772793,"connected_time":234000000000,"state":"active","ping":60},{"user_id":1114,"name":"Eirnix","steam_id":76561198353799435,"connected_time":4928000000000,"state":"active","ping":94},{"user_id":1186,"name":"Parker's Place","steam_id":76561198009481666,"connected_time":1000000000,"state":"spawning","ping":269},{"user_id":1179,"name":"Jeerven","steam_id":76561198259189841,"connected_time":210000000000,"state":"active","ping":65},{"user_id":1148,"name":"Xx_EpicGaymer_xX","steam_id":76561198846784757,"connected_time":2581000000000,"state":"active","ping":56},{"user_id":1162,"name":"09manny90","steam_id":76561198210547163,"connected_time":1535000000000,"state":"active","ping":54},{"user_id":1180,"name":"Gimmick","steam_id":76561197979603871,"connected_time":202000000000,"state":"active","ping":60},{"user_id":1171,"name":"Tibalt Nyahuma","steam_id":76561198034779431,"connected_time":796000000000,"state":"active","ping":145},{"user_id":1184,"name":"Dude Time","steam_id":76561198092991160,"connected_time":63000000000,"state":"active","ping":165},{"user_id":1119,"name":"Cosmetic brain","steam_id":76561198055936410,"connected_time":4448000000000,"state":"active","ping":84},{"user_id":1135,"name":"MIG","steam_id":76561198099245500,"connected_time":3592000000000,"state":"active","ping":58},{"user_id":1182,"name":"123","steam_id":76561198106308056,"connected_time":142000000000,"state":"active","ping":179},{"user_id":1183,"name":"amzy","steam_id":76561199141148170,"connected_time":91000000000,"state":"active","ping":204}]},{"server_id":114,"name":"Uncletopia | London | 2 | All Maps","name_short":"lon-2","host":"lon-1.uk.uncletopia.com","port":27025,"enabled":true,"region":"eu","cc":"gb","latitude":51.509865,"longitude":-0.118092,"reserved":0,"last_update":"0001-01-01T00:00:00Z","name_a2s":"Uncletopia | London | 2 | All Maps","protocol":17,"map":"cp_dustbowl","folder":"tf","game":"Team Fortress","app_id":440,"player_count":0,"max_players":24,"Bots":0,"server_type":"Dedicated","server_os":"Linux","password":true,"vac":true,"version":"7932396","steam_id":85568392924470941,"keywords":["cp","nocrits","nodmgspread","uncletopia"],"game_id":440,"stv_port":27026,"stv_name":"Uncletopia | London | 2 | All Maps | STV","players":null},{"server_id":320,"name":"Uncletopia | London | 3 | All Maps","name_short":"lon-3","host":"lon-1.uk.uncletopia.com","port":27035,"enabled":true,"region":"eu","cc":"gb","latitude":51.509865,"longitude":-0.118092,"reserved":0,"last_update":"0001-01-01T00:00:00Z","name_a2s":"Uncletopia | London | 3 | All Maps","protocol":17,"map":"koth_highpass","folder":"tf","game":"Team Fortress","app_id":440,"player_count":0,"max_players":24,"Bots":0,"server_type":"Dedicated","server_os":"Linux","password":true,"vac":true,"version":"7932396","steam_id":85568392924510192,"keywords":["cp","nocrits","nodmgspread","uncletopia"],"game_id":440,"stv_port":27036,"stv_name":"Uncletopia | London | 3 | All Maps | STV","players":null},{"server_id":321,"name":"Uncletopia | London | 4 | All Maps","name_short":"lon-4","host":"lon-1.uk.uncletopia.com","port":27045,"enabled":true,"region":"eu","cc":"gb","latitude":51.509865,"longitude":-0.118092,"reserved":0,"last_update":"0001-01-01T00:00:00Z","name_a2s":"Uncletopia | London | 4 | All Maps","protocol":17,"map":"pl_frontier_final","folder":"tf","game":"Team Fortress","app_id":440,"player_count":0,"max_players":24,"Bots":0,"server_type":"Dedicated","server_os":"Linux","password":true,"vac":true,"version":"7932396","steam_id":85568392924510193,"keywords":["nocrits","nodmgspread","payload","uncletopia"],"game_id":440,"stv_port":27046,"stv_name":"Uncletopia | London | 4 | All Maps | STV","players":null},{"server_id":21,"name":"Uncletopia | London | 5 | All Maps","name_short":"lon-5","host":"lon-1.uk.uncletopia.com","port":27055,"enabled":true,"region":"eu","cc":"gb","latitude":51.509865,"longitude":-0.118092,"reserved":0,"last_update":"0001-01-01T00:00:00Z","name_a2s":"Uncletopia | London | 5 | All Maps","protocol":17,"map":"koth_lakeside_final","folder":"tf","game":"Team Fortress","app_id":440,"player_count":0,"max_players":24,"Bots":0,"server_type":"Dedicated","server_os":"Linux","password":true,"vac":true,"version":"7932396","steam_id":85568392924742829,"keywords":["cp","nocrits","nodmgspread","uncletopia"],"game_id":440,"stv_port":27056,"stv_name":"Uncletopia | London | 5 | All Maps | STV","players":null},{"server_id":22,"name":"Uncletopia | London | 6 | All Maps","name_short":"lon-6","host":"lon-1.uk.uncletopia.com","port":27065,"enabled":true,"region":"eu","cc":"gb","latitude":51.509865,"longitude":-0.118092,"reserved":0,"last_update":"0001-01-01T00:00:00Z","name_a2s":"Uncletopia | London | 6 | All Maps","protocol":17,"map":"koth_lakeside_final","folder":"tf","game":"Team Fortress","app_id":440,"player_count":0,"max_players":24,"Bots":0,"server_type":"Dedicated","server_os":"Linux","password":true,"vac":true,"version":"7932396","steam_id":85568392924742830,"keywords":["cp","nocrits","nodmgspread","uncletopia"],"game_id":440,"stv_port":27066,"stv_name":"Uncletopia | London | 6 | All Maps | STV","players":null},{"server_id":40,"name":"Uncletopia | London | 7 | No Payload","name_short":"lon-7","host":"lon-1.uk.uncletopia.com","port":27075,"enabled":true,"region":"eu","cc":"gb","latitude":51.509865,"longitude":-0.118092,"reserved":0,"last_update":"0001-01-01T00:00:00Z","name_a2s":"Uncletopia | London | 7 | No Payload","protocol":17,"map":"koth_brazil","folder":"tf","game":"Team Fortress","app_id":440,"player_count":0,"max_players":24,"Bots":0,"server_type":"Dedicated","server_os":"Linux","password":true,"vac":true,"version":"7932396","steam_id":85568392924964314,"keywords":["cp","nocrits","nodmgspread","uncletopia"],"game_id":440,"stv_port":27076,"stv_name":"Uncletopia | London | 7 | No Payload | STV","players":null},{"server_id":41,"name":"Uncletopia | London | 8 | Community","name_short":"lon-8","host":"lon-1.uk.uncletopia.com","port":27085,"enabled":true,"region":"eu","cc":"gb","latitude":51.509865,"longitude":-0.118092,"reserved":0,"last_update":"0001-01-01T00:00:00Z","name_a2s":"Uncletopia | London | 8 | Community","protocol":17,"map":"workshop/cp_snowbase_b18.ugc2081770490","folder":"tf","game":"Team Fortress","app_id":440,"player_count":0,"max_players":24,"Bots":0,"server_type":"Dedicated","server_os":"Linux","password":true,"vac":true,"version":"7932396","steam_id":85568392924964315,"keywords":["cp","nocrits","nodmgspread","uncletopia"],"game_id":440,"stv_port":27086,"stv_name":"Uncletopia | London | 8 | Community | STV","players":null},{"server_id":300,"name":"Uncletopia | Montr√©al | 1 | All Maps","name_short":"mtl-1","host":"mtl-1.ca.uncletopia.com","port":27015,"enabled":true,"region":"us-east","cc":"ca","latitude":45.50889,"longitude":-73.56167,"reserved":0,"last_update":"0001-01-01T00:00:00Z","name_a2s":"Uncletopia | Montr√©al | 1 | All Maps","protocol":17,"map":"cp_dustbowl","folder":"tf","game":"Team Fortress","app_id":440,"player_count":0,"max_players":24,"Bots":0,"server_type":"Dedicated","server_os":"Linux","password":true,"vac":true,"version":"7932396","steam_id":85568392924500087,"keywords":["cp","nocrits","nodmgspread","uncletopia"],"game_id":440,"stv_port":27016,"stv_name":"Uncletopia | Montr√©al | 1 | All Maps | STV","players":null},{"server_id":301,"name":"Uncletopia | Montr√©al | 2 | All Maps","name_short":"mtl-2","host":"mtl-1.ca.uncletopia.com","port":27025,"enabled":true,"region":"us-east","cc":"ca","latitude":45.50889,"longitude":-73.56167,"reserved":0,"last_update":"0001-01-01T00:00:00Z","name_a2s":"Uncletopia | Montr√©al | 2 | All Maps","protocol":17,"map":"pl_snowycoast","folder":"tf","game":"Team Fortress","app_id":440,"player_count":0,"max_players":24,"Bots":0,"server_type":"Dedicated","server_os":"Linux","password":true,"vac":true,"version":"7932396","steam_id":85568392924500088,"keywords":["nocrits","nodmgspread","payload","uncletopia"],"game_id":440,"stv_port":27026,"stv_name":"Uncletopia | Montr√©al | 2 | All Maps | STV","players":null},{"server_id":302,"name":"Uncletopia | Montr√©al | 3 | All Maps","name_short":"mtl-3","host":"mtl-1.ca.uncletopia.com","port":27035,"enabled":true,"region":"us-east","cc":"ca","latitude":45.50889,"longitude":-73.56167,"reserved":0,"last_update":"0001-01-01T00:00:00Z","name_a2s":"Uncletopia | Montr√©al | 3 | All Maps","protocol":17,"map":"pl_barnblitz","folder":"tf","game":"Team Fortress","app_id":440,"player_count":0,"max_players":24,"Bots":0,"server_type":"Dedicated","server_os":"Linux","password":true,"vac":true,"version":"7932396","steam_id":85568392924500089,"keywords":["nocrits","nodmgspread","payload","uncletopia"],"game_id":440,"stv_port":27036,"stv_name":"Uncletopia | Montr√©al | 3 | All Maps | STV","players":null},{"server_id":303,"name":"Uncletopia | Montr√©al | 4 | No Payload","name_short":"mtl-4","host":"mtl-1.ca.uncletopia.com","port":27045,"enabled":true,"region":"us-east","cc":"ca","latitude":45.50889,"longitude":-73.56167,"reserved":0,"last_update":"0001-01-01T00:00:00Z","name_a2s":"Uncletopia | Montr√©al | 4 | No Payload","protocol":17,"map":"cp_snakewater_final1","folder":"tf","game":"Team Fortress","app_id":440,"player_count":0,"max_players":24,"Bots":0,"server_type":"Dedicated","server_os":"Linux","password":true,"vac":true,"version":"7932396","steam_id":85568392924500090,"keywords":["cp","nocrits","nodmgspread","uncletopia"],"game_id":440,"stv_port":27046,"stv_name":"Uncletopia | Montr√©al | 4 | No Payload | STV","players":null},{"server_id":13,"name":"Uncletopia | New York City | 1 | All Maps","name_short":"nyc-1","host":"nyc-1.us.uncletopia.com","port":27015,"enabled":true,"region":"us-east","cc":"us","latitude":40.73061,"longitude":-73.93524,"reserved":0,"last_update":"0001-01-01T00:00:00Z","name_a2s":"Uncletopia | New York City | 1 | All Maps","protocol":17,"map":"cp_sunshine","folder":"tf","game":"Team Fortress","app_id":440,"player_count":9,"max_players":24,"Bots":0,"server_type":"Dedicated","server_os":"Linux","password":true,"vac":true,"version":"7932396","steam_id":85568392924469993,"keywords":["cp","nocrits","nodmgspread","uncletopia"],"game_id":440,"stv_port":27016,"stv_name":"Uncletopia | New York City | 1 | All Maps | STV","players":[{"user_id":384,"name":"Periculosum PhD in Funny","steam_id":76561198123370914,"connected_time":1347000000000,"state":"active","ping":84},{"user_id":393,"name":"SomethingUnusual","steam_id":76561198217824760,"connected_time":393000000000,"state":"active","ping":122},{"user_id":394,"name":"King STAZE","steam_id":76561198190731506,"connected_time":320000000000,"state":"active","ping":115},{"user_id":386,"name":"squidgamer89","steam_id":76561198368108050,"connected_time":1062000000000,"state":"active","ping":30},{"user_id":399,"name":"monkeycake","steam_id":76561198272061915,"connected_time":90000000000,"state":"active","ping":59},{"user_id":398,"name":"I'm a stone","steam_id":76561198414300607,"connected_time":97000000000,"state":"active","ping":124},{"user_id":400,"name":"Duchess","steam_id":76561198042490743,"connected_time":9000000000,"state":"active","ping":103},{"user_id":389,"name":"isla","steam_id":76561198139759348,"connected_time":1009000000000,"state":"active","ping":40},{"user_id":337,"name":"L + Ratio","steam_id":76561198263786953,"connected_time":5170000000000,"state":"active","ping":75}]},{"server_id":14,"name":"Uncletopia | New York City | 2 | All Maps","name_short":"nyc-2","host":"nyc-1.us.uncletopia.com","port":27025,"enabled":true,"region":"us-east","cc":"us","latitude":40.73061,"longitude":-73.93524,"reserved":0,"last_update":"0001-01-01T00:00:00Z","name_a2s":"Uncletopia | New York City | 2 | All Maps","protocol":17,"map":"ctf_2fort","folder":"tf","game":"Team Fortress","app_id":440,"player_count":0,"max_players":24,"Bots":0,"server_type":"Dedicated","server_os":"Linux","password":true,"vac":true,"version":"7932396","steam_id":85568392924469994,"keywords":["ctf","nocrits","nodmgspread","uncletopia"],"game_id":440,"stv_port":27026,"stv_name":"Uncletopia | New York City | 2 | All Maps | STV","players":null},{"server_id":15,"name":"Uncletopia | New York City | 3 | Stopwatch Beta","name_short":"nyc-3","host":"nyc-1.us.uncletopia.com","port":27035,"enabled":true,"region":"us-east","cc":"us","latitude":40.73061,"longitude":-73.93524,"reserved":0,"last_update":"0001-01-01T00:00:00Z","name_a2s":"Uncletopia | New York City | 3 | Stopwatch Beta","protocol":17,"map":"workshop/koth_ramjam_rc1.ugc459778887","folder":"tf","game":"Team Fortress","app_id":440,"player_count":0,"max_players":24,"Bots":0,"server_type":"Dedicated","server_os":"Linux","password":true,"vac":true,"version":"7932396","steam_id":85568392924742820,"keywords":["cp","nocrits","nodmgspread","uncletopia"],"game_id":440,"stv_port":27036,"stv_name":"Uncletopia | New York City | 3 | Stopwatch Beta | STV","players":null},{"server_id":16,"name":"Uncletopia | New York City | 4 | Community","name_short":"nyc-4","host":"nyc-1.us.uncletopia.com","port":27045,"enabled":true,"region":"us-east","cc":"us","latitude":40.73061,"longitude":-73.93524,"reserved":0,"last_update":"0001-01-01T00:00:00Z","name_a2s":"Uncletopia | New York City | 4 | Community","protocol":17,"map":"workshop/cp_snowbase_b18.ugc2081770490","folder":"tf","game":"Team Fortress","app_id":440,"player_count":23,"max_players":24,"Bots":0,"server_type":"Dedicated","server_os":"Linux","password":true,"vac":true,"version":"7932396","steam_id":85568392924742821,"keywords":["cp","nocrits","nodmgspread","uncletopia"],"game_id":440,"stv_port":27046,"stv_name":"Uncletopia | New York City | 4 | Community | STV","players":[{"user_id":451,"name":"Amauri","steam_id":76561198130809137,"connected_time":2622000000000,"state":"active","ping":73},{"user_id":455,"name":"awesomeajb08","steam_id":76561199056316311,"connected_time":2289000000000,"state":"active","ping":69},{"user_id":480,"name":"Antifa Supersoldier","steam_id":76561198141816516,"connected_time":32000000000,"state":"active","ping":76},{"user_id":458,"name":"SonarPocket","steam_id":76561198168885050,"connected_time":1784000000000,"state":"active","ping":41},{"user_id":408,"name":"HundchenTanque","steam_id":76561198122692754,"connected_time":5148000000000,"state":"active","ping":40},{"user_id":478,"name":"RanchDress1ng","steam_id":76561198111258192,"connected_time":46000000000,"state":"active","ping":45},{"user_id":469,"name":"YouR dad","steam_id":76561198044013623,"connected_time":1151000000000,"state":"active","ping":77},{"user_id":373,"name":"please don't! im helpless!","steam_id":76561198103496593,"connected_time":7751000000000,"state":"active","ping":61},{"user_id":411,"name":"meat.","steam_id":76561198256154493,"connected_time":4885000000000,"state":"active","ping":77},{"user_id":415,"name":"Rabid-Gentleman","steam_id":76561199071967379,"connected_time":4791000000000,"state":"active","ping":82},{"user_id":479,"name":"tiredfisherman69","steam_id":76561199228963816,"connected_time":40000000000,"state":"active","ping":123},{"user_id":413,"name":"girl arc","steam_id":76561198406252824,"connected_time":4861000000000,"state":"active","ping":120},{"user_id":472,"name":"CORGI.EXE","steam_id":76561198077093432,"connected_time":655000000000,"state":"active","ping":53},{"user_id":462,"name":"Missing Minus","steam_id":76561198120822928,"connected_time":1623000000000,"state":"active","ping":61},{"user_id":437,"name":"bedrockperson","steam_id":76561198131381584,"connected_time":3392000000000,"state":"active","ping":56},{"user_id":454,"name":"New Ultrakill Update","steam_id":76561198060135755,"connected_time":2550000000000,"state":"active","ping":35},{"user_id":432,"name":"Kitsune","steam_id":76561198039238125,"connected_time":3576000000000,"state":"active","ping":94},{"user_id":457,"name":"Gruncle PUXXY's Ginger-Bred Men","steam_id":76561197995465137,"connected_time":1839000000000,"state":"active","ping":82},{"user_id":418,"name":"‚ô• kiss me! ‚ô•","steam_id":76561198014557455,"connected_time":4691000000000,"state":"active","ping":76},{"user_id":420,"name":"Low Poly Jerma","steam_id":76561198042689943,"connected_time":4584000000000,"state":"active","ping":65},{"user_id":421,"name":"MagikarpEX","steam_id":76561198166172279,"connected_time":4552000000000,"state":"active","ping":57},{"user_id":438,"name":"HE‚ÄôS IN THE GODDAMN WALLS","steam_id":76561198363267009,"connected_time":3372000000000,"state":"active","ping":88},{"user_id":476,"name":"Loaf","steam_id":76561198174967027,"connected_time":287000000000,"state":"active","ping":75}]},{"server_id":142,"name":"Uncletopia | S√£o Paulo | 1 | All Maps","name_short":"sao-1","host":"sao-1.br.uncletopia.com","port":27015,"enabled":true,"region":"sa","cc":"br","latitude":-23.533773,"longitude":-46.62529,"reserved":0,"last_update":"0001-01-01T00:00:00Z","name_a2s":"Uncletopia | S√£o Paulo | 1 | All Maps","protocol":17,"map":"cp_snakewater_final1","folder":"tf","game":"Team Fortress","app_id":440,"player_count":0,"max_players":24,"Bots":0,"server_type":"Dedicated","server_os":"Linux","password":true,"vac":true,"version":"7932396","steam_id":85568392924469996,"keywords":["cp","nocrits","nodmgspread","uncletopia"],"game_id":440,"stv_port":27016,"stv_name":"Uncletopia | S√£o Paulo | 1 | All Maps | STV","players":null},{"server_id":143,"name":"Uncletopia | S√£o Paulo | 2 | All Maps","name_short":"sao-2","host":"sao-2.br.uncletopia.com","port":27015,"enabled":true,"region":"sa","cc":"br","latitude":-23.533773,"longitude":-46.62529,"reserved":0,"last_update":"0001-01-01T00:00:00Z","name_a2s":"Uncletopia | S√£o Paulo | 2 | All Maps","protocol":17,"map":"koth_harvest_final","folder":"tf","game":"Team Fortress","app_id":440,"player_count":0,"max_players":24,"Bots":0,"server_type":"Dedicated","server_os":"Linux","password":true,"vac":true,"version":"7932396","steam_id":85568392924485349,"keywords":["cp","nocrits","nodmgspread","uncletopia"],"game_id":440,"stv_port":27016,"stv_name":"Uncletopia | S√£o Paulo | 2 | All Maps | STV","players":null},{"server_id":7,"name":"Uncletopia | Seattle | 1 | All Maps","name_short":"sea-1","host":"sea-1.us.uncletopia.com","port":27015,"enabled":true,"region":"us-west","cc":"us","latitude":47.608013,"longitude":-122.33517,"reserved":0,"last_update":"0001-01-01T00:00:00Z","name_a2s":"Uncletopia | Seattle | 1 | All Maps","protocol":17,"map":"koth_viaduct","folder":"tf","game":"Team Fortress","app_id":440,"player_count":25,"max_players":24,"Bots":0,"server_type":"Dedicated","server_os":"Linux","password":true,"vac":true,"version":"7932396","steam_id":85568392924469997,"keywords":["cp","nocrits","nodmgspread","uncletopia"],"game_id":440,"stv_port":27016,"stv_name":"Uncletopia | Seattle | 1 | All Maps | STV","players":[{"user_id":452,"name":"NEBULA","steam_id":76561198086878595,"connected_time":260000000000,"state":"active","ping":68},{"user_id":447,"name":"spenca","steam_id":76561198025371154,"connected_time":1269000000000,"state":"active","ping":70},{"user_id":394,"name":"gravewater","steam_id":76561198043558709,"connected_time":6744000000000,"state":"active","ping":47},{"user_id":421,"name":"Doctor‚Ñ¢","steam_id":76561198134309750,"connected_time":4157000000000,"state":"active","ping":108},{"user_id":451,"name":"jayeskae","steam_id":76561198144220801,"connected_time":688000000000,"state":"active","ping":46},{"user_id":448,"name":"Integral","steam_id":76561198158225481,"connected_time":1265000000000,"state":"active","ping":85},{"user_id":413,"name":"mike, man spreads on ttc","steam_id":76561198225411004,"connected_time":4723000000000,"state":"active","ping":66},{"user_id":449,"name":"Lord Hater","steam_id":76561199158148782,"connected_time":1202000000000,"state":"active","ping":57},{"user_id":450,"name":"Glorious Leader Kim Jim the III","steam_id":76561198149714906,"connected_time":1103000000000,"state":"active","ping":64},{"user_id":424,"name":"SnailYT","steam_id":76561198332040385,"connected_time":3134000000000,"state":"active","ping":62},{"user_id":371,"name":"a cat plushie","steam_id":76561198080046542,"connected_time":10994000000000,"state":"active","ping":45},{"user_id":416,"name":"Sniff","steam_id":76561198010270922,"connected_time":4611000000000,"state":"active","ping":49},{"user_id":460,"name":"Ducks","steam_id":76561198130038345,"connected_time":194000000000,"state":"active","ping":56},{"user_id":440,"name":"mub","steam_id":76561197961943948,"connected_time":1943000000000,"state":"active","ping":49},{"user_id":445,"name":"hart","steam_id":76561198046073848,"connected_time":1288000000000,"state":"active","ping":47},{"user_id":443,"name":"Stev the Prurient Oxymoron","steam_id":76561197999442625,"connected_time":1387000000000,"state":"active","ping":63},{"user_id":446,"name":"Florist","steam_id":76561198009121060,"connected_time":1288000000000,"state":"active","ping":48},{"user_id":349,"name":"amantes dominatio","steam_id":76561198042913843,"connected_time":12465000000000,"state":"active","ping":61},{"user_id":457,"name":"eryn üó∫","steam_id":76561198004433070,"connected_time":230000000000,"state":"active","ping":123},{"user_id":461,"name":"jorts","steam_id":76561199041179985,"connected_time":124000000000,"state":"active","ping":72},{"user_id":425,"name":"lavender","steam_id":76561199069518286,"connected_time":3133000000000,"state":"active","ping":74},{"user_id":397,"name":"Jammy","steam_id":76561198119652755,"connected_time":6437000000000,"state":"active","ping":101},{"user_id":432,"name":"MegumiTame","steam_id":76561198450280686,"connected_time":2456000000000,"state":"active","ping":53},{"user_id":456,"name":"‚ô•haunti","steam_id":76561199235580556,"connected_time":247000000000,"state":"active","ping":46},{"user_id":409,"name":"Nea","steam_id":76561198408792773,"connected_time":5248000000000,"state":"active","ping":46}]},{"server_id":119,"name":"Uncletopia | Seattle | 2 | All Maps","name_short":"sea-2","host":"sea-1.us.uncletopia.com","port":27025,"enabled":true,"region":"us-west","cc":"us","latitude":47.608013,"longitude":-122.33517,"reserved":0,"last_update":"0001-01-01T00:00:00Z","name_a2s":"Uncletopia | Seattle | 2 | All Maps","protocol":17,"map":"pl_upward","folder":"tf","game":"Team Fortress","app_id":440,"player_count":24,"max_players":24,"Bots":0,"server_type":"Dedicated","server_os":"Linux","password":true,"vac":true,"version":"7932396","steam_id":85568392924469998,"keywords":["nocrits","nodmgspread","payload","uncletopia"],"game_id":440,"stv_port":27026,"stv_name":"Uncletopia | Seattle | 2 | All Maps | STV","players":[{"user_id":293,"name":"LWebb","steam_id":76561199162936929,"connected_time":1734000000000,"state":"active","ping":104},{"user_id":297,"name":"2Fort Cactus","steam_id":76561199273395913,"connected_time":1701000000000,"state":"active","ping":50},{"user_id":270,"name":"shelf","steam_id":76561198260021696,"connected_time":4710000000000,"state":"active","ping":47},{"user_id":299,"name":"mooney","steam_id":76561199110622484,"connected_time":1390000000000,"state":"active","ping":74},{"user_id":311,"name":"AMBROTOS","steam_id":76561198042600523,"connected_time":228000000000,"state":"active","ping":105},{"user_id":265,"name":"my wife didn't like her present","steam_id":76561198380018244,"connected_time":5090000000000,"state":"active","ping":75},{"user_id":286,"name":"BlazedBunny","steam_id":76561198243610560,"connected_time":2526000000000,"state":"active","ping":73},{"user_id":300,"name":"An Old Lady","steam_id":76561198047480318,"connected_time":1355000000000,"state":"active","ping":70},{"user_id":279,"name":"BoxCann0n","steam_id":76561199153390130,"connected_time":3655000000000,"state":"active","ping":183},{"user_id":281,"name":"dougrocks421","steam_id":76561198165063918,"connected_time":2865000000000,"state":"active","ping":44},{"user_id":256,"name":"A UsedNom","steam_id":76561198402832756,"connected_time":5753000000000,"state":"active","ping":57},{"user_id":303,"name":"Spy of 83","steam_id":76561199062242958,"connected_time":1054000000000,"state":"active","ping":82},{"user_id":262,"name":"Where The F**K I Am?","steam_id":76561197986530028,"connected_time":5233000000000,"state":"active","ping":107},{"user_id":310,"name":"Ayyyojimbo","steam_id":76561198020324687,"connected_time":395000000000,"state":"active","ping":68},{"user_id":294,"name":"Branta","steam_id":76561199103842843,"connected_time":1728000000000,"state":"active","ping":50},{"user_id":288,"name":"TROY","steam_id":76561197983852176,"connected_time":2250000000000,"state":"active","ping":77},{"user_id":312,"name":"Mike Bean Burritos","steam_id":76561198173430607,"connected_time":167000000000,"state":"active","ping":47},{"user_id":291,"name":"Tom Skirrett","steam_id":76561198014600788,"connected_time":1881000000000,"state":"active","ping":68},{"user_id":306,"name":"delight","steam_id":76561197980280272,"connected_time":521000000000,"state":"active","ping":50},{"user_id":314,"name":"slowdance","steam_id":76561198097427947,"connected_time":93000000000,"state":"active","ping":125},{"user_id":309,"name":"My sister gets terrible gifts","steam_id":76561198060731432,"connected_time":420000000000,"state":"active","ping":115},{"user_id":269,"name":"Atomic_Rooster","steam_id":76561197992862398,"connected_time":4748000000000,"state":"active","ping":81},{"user_id":205,"name":"aisu","steam_id":76561198043768507,"connected_time":9964000000000,"state":"active","ping":102},{"user_id":292,"name":"i hate my husbands gift","steam_id":76561198271964253,"connected_time":1881000000000,"state":"active","ping":67}]},{"server_id":406,"name":"Uncletopia | Seattle | 3 | Stopwatch Beta","name_short":"sea-3","host":"sea-1.us.uncletopia.com","port":27035,"enabled":true,"region":"us-west","cc":"us","latitude":47.608013,"longitude":-122.33517,"reserved":0,"last_update":"0001-01-01T00:00:00Z","name_a2s":"Uncletopia | Seattle | 3 | Stopwatch Beta","protocol":17,"map":"workshop/koth_bagel_rc6.ugc2514036946","folder":"tf","game":"Team Fortress","app_id":440,"player_count":0,"max_players":24,"Bots":0,"server_type":"Dedicated","server_os":"Linux","password":true,"vac":true,"version":"7932396","steam_id":85568392924515217,"keywords":["cp","nocrits","nodmgspread","uncletopia"],"game_id":440,"stv_port":27036,"stv_name":"Uncletopia | Seattle | 3 | Stopwatch Beta | STV","players":null},{"server_id":17,"name":"Uncletopia | San Francisco | 1 | All Maps","name_short":"sfo-1","host":"sfo-1.us.uncletopia.com","port":27015,"enabled":true,"region":"us-west","cc":"us","latitude":37.77397,"longitude":-122.4313,"reserved":0,"last_update":"0001-01-01T00:00:00Z","name_a2s":"Uncletopia | San Francisco | 1 | All Maps","protocol":17,"map":"cp_snakewater_final1","folder":"tf","game":"Team Fortress","app_id":440,"player_count":24,"max_players":24,"Bots":0,"server_type":"Dedicated","server_os":"Linux","password":true,"vac":true,"version":"7932396","steam_id":85568392924469999,"keywords":["cp","nocrits","nodmgspread","uncletopia"],"game_id":440,"stv_port":27016,"stv_name":"Uncletopia | San Francisco | 1 | All Maps | STV","players":[{"user_id":332,"name":"H.","steam_id":76561198074951179,"connected_time":1507000000000,"state":"active","ping":64},{"user_id":343,"name":"Reflector","steam_id":76561198078999855,"connected_time":460000000000,"state":"active","ping":99},{"user_id":319,"name":"Space360","steam_id":76561198106743284,"connected_time":2312000000000,"state":"active","ping":71},{"user_id":339,"name":"Darkspiral","steam_id":76561198080807559,"connected_time":1295000000000,"state":"active","ping":54},{"user_id":283,"name":"Siev","steam_id":76561198000518937,"connected_time":5046000000000,"state":"active","ping":75},{"user_id":277,"name":"DoubleX2000","steam_id":76561198164134387,"connected_time":6143000000000,"state":"active","ping":98},{"user_id":333,"name":"DEMOMAN","steam_id":76561198451141064,"connected_time":1490000000000,"state":"active","ping":104},{"user_id":313,"name":"Vonaducci","steam_id":76561198079344729,"connected_time":2490000000000,"state":"active","ping":62},{"user_id":310,"name":"Minimrow","steam_id":76561199467410485,"connected_time":2563000000000,"state":"active","ping":71},{"user_id":342,"name":"Buakaw","steam_id":76561199067143694,"connected_time":955000000000,"state":"active","ping":60},{"user_id":345,"name":"esdot","steam_id":76561198836178527,"connected_time":310000000000,"state":"active","ping":74},{"user_id":340,"name":"chilis baby back ribs","steam_id":76561198813516435,"connected_time":1118000000000,"state":"active","ping":49},{"user_id":317,"name":"Professor Nope","steam_id":76561198027864470,"connected_time":2359000000000,"state":"active","ping":55},{"user_id":335,"name":"Moonman327","steam_id":76561197992616059,"connected_time":1483000000000,"state":"active","ping":104},{"user_id":336,"name":"Stranger","steam_id":76561199197055016,"connected_time":1468000000000,"state":"active","ping":152},{"user_id":292,"name":"I'm a easy kill","steam_id":76561199092023746,"connected_time":4085000000000,"state":"active","ping":64},{"user_id":298,"name":"Trey","steam_id":76561198110024593,"connected_time":3823000000000,"state":"active","ping":84},{"user_id":337,"name":"TNTblast","steam_id":76561198411334274,"connected_time":1437000000000,"state":"active","ping":55},{"user_id":295,"name":"35 years without a footjob...","steam_id":76561198799299193,"connected_time":4003000000000,"state":"active","ping":72},{"user_id":341,"name":"Unoriginal","steam_id":76561198799473001,"connected_time":1014000000000,"state":"active","ping":60},{"user_id":324,"name":"MyLittleKony:Abduction is Magic","steam_id":76561198066084326,"connected_time":2241000000000,"state":"active","ping":59},{"user_id":325,"name":"Old_Hendrek_VII","steam_id":76561198997763068,"connected_time":2222000000000,"state":"active","ping":74},{"user_id":155,"name":"smith","steam_id":76561199391478575,"connected_time":15236000000000,"state":"active","ping":80},{"user_id":338,"name":"Maid 'n' China","steam_id":76561198423392976,"connected_time":1434000000000,"state":"active","ping":55}]},{"server_id":18,"name":"Uncletopia | San Francisco | 2 | All Maps","name_short":"sfo-2","host":"sfo-1.us.uncletopia.com","port":27025,"enabled":true,"region":"us-west","cc":"us","latitude":37.77397,"longitude":-122.4313,"reserved":0,"last_update":"0001-01-01T00:00:00Z","name_a2s":"Uncletopia | San Francisco | 2 | All Maps","protocol":17,"map":"pl_frontier_final","folder":"tf","game":"Team Fortress","app_id":440,"player_count":24,"max_players":24,"Bots":0,"server_type":"Dedicated","server_os":"Linux","password":true,"vac":true,"version":"7932396","steam_id":85568392924470000,"keywords":["nocrits","nodmgspread","payload","uncletopia"],"game_id":440,"stv_port":27026,"stv_name":"Uncletopia | San Francisco | 2 | All Maps | STV","players":[{"user_id":221,"name":"ibu","steam_id":76561197968084065,"connected_time":1706000000000,"state":"active","ping":73},{"user_id":192,"name":"Squiliam","steam_id":76561198025278006,"connected_time":4278000000000,"state":"active","ping":79},{"user_id":142,"name":"Edwon","steam_id":76561198319902846,"connected_time":7719000000000,"state":"active","ping":65},{"user_id":197,"name":"DarkForce8","steam_id":76561198853892261,"connected_time":3731000000000,"state":"active","ping":74},{"user_id":227,"name":"Cat doin laundry","steam_id":76561198063895852,"connected_time":1282000000000,"state":"active","ping":88},{"user_id":87,"name":"Hindmost","steam_id":76561199081837220,"connected_time":10839000000000,"state":"active","ping":113},{"user_id":198,"name":"rad killl raccoon","steam_id":76561198980975595,"connected_time":3710000000000,"state":"active","ping":96},{"user_id":222,"name":"ForAPessimistImPrettyOptimistic","steam_id":76561198170128009,"connected_time":1706000000000,"state":"active","ping":55},{"user_id":175,"name":"G. Howard Dee","steam_id":76561198058382812,"connected_time":5332000000000,"state":"active","ping":61},{"user_id":200,"name":"Anarchy","steam_id":76561199062545363,"connected_time":3674000000000,"state":"active","ping":128},{"user_id":234,"name":"Livin' Like Larry","steam_id":76561198313360974,"connected_time":135000000000,"state":"active","ping":43},{"user_id":172,"name":"wlfgng","steam_id":76561198316639499,"connected_time":5392000000000,"state":"active","ping":32},{"user_id":181,"name":"ShredMaan","steam_id":76561198429982138,"connected_time":5067000000000,"state":"active","ping":62},{"user_id":220,"name":"OddSlaush","steam_id":76561198043898488,"connected_time":1744000000000,"state":"active","ping":46},{"user_id":215,"name":"Optimore","steam_id":76561198047662990,"connected_time":2134000000000,"state":"active","ping":55},{"user_id":143,"name":"phon","steam_id":76561198140659236,"connected_time":7715000000000,"state":"active","ping":49},{"user_id":228,"name":"no brain","steam_id":76561198451032322,"connected_time":1214000000000,"state":"active","ping":106},{"user_id":233,"name":"selvhat","steam_id":76561198114225509,"connected_time":383000000000,"state":"active","ping":59},{"user_id":209,"name":"Donut_Dom","steam_id":76561198058434230,"connected_time":2968000000000,"state":"active","ping":83},{"user_id":208,"name":"qt pa 2t","steam_id":76561198066867150,"connected_time":3025000000000,"state":"active","ping":106},{"user_id":219,"name":"Monty","steam_id":76561197993567253,"connected_time":1778000000000,"state":"active","ping":68},{"user_id":223,"name":"viciousbeatmaker","steam_id":76561198086876652,"connected_time":1700000000000,"state":"active","ping":74},{"user_id":230,"name":"UnusualTofu","steam_id":76561198060103750,"connected_time":1162000000000,"state":"active","ping":69},{"user_id":226,"name":"Warg","steam_id":76561198040868420,"connected_time":1309000000000,"state":"active","ping":111}]},{"server_id":19,"name":"Uncletopia | San Francisco | 3 | Stopwatch Beta","name_short":"sfo-3","host":"sfo-1.us.uncletopia.com","port":27035,"enabled":true,"region":"us-west","cc":"us","latitude":37.77397,"longitude":-122.4313,"reserved":0,"last_update":"0001-01-01T00:00:00Z","name_a2s":"Uncletopia | San Francisco | 3 | Stopwatch Beta","protocol":17,"map":"workshop/pl_badwater_pro_v12.ugc2142942074","folder":"tf","game":"Team Fortress","app_id":440,"player_count":0,"max_players":24,"Bots":0,"server_type":"Dedicated","server_os":"Linux","password":true,"vac":true,"version":"7932396","steam_id":85568392924742824,"keywords":["nocrits","nodmgspread","payload","uncletopia"],"game_id":440,"stv_port":27036,"stv_name":"Uncletopia | San Francisco | 3 | Stopwatch Beta | STV","players":null},{"server_id":20,"name":"Uncletopia | San Francisco | 4 | Community","name_short":"sfo-4","host":"sfo-1.us.uncletopia.com","port":27045,"enabled":true,"region":"us-west","cc":"us","latitude":37.77397,"longitude":-122.4313,"reserved":0,"last_update":"0001-01-01T00:00:00Z","name_a2s":"Uncletopia | San Francisco | 4 | Community","protocol":17,"map":"workshop/cp_croissant_final.ugc458840209","folder":"tf","game":"Team Fortress","app_id":440,"player_count":11,"max_players":24,"Bots":0,"server_type":"Dedicated","server_os":"Linux","password":true,"vac":true,"version":"7932396","steam_id":85568392924742826,"keywords":["nocrits","nodmgspread","payload","uncletopia"],"game_id":440,"stv_port":27046,"stv_name":"Uncletopia | San Francisco | 4 | Community | STV","players":[{"user_id":41,"name":"Grizzakk","steam_id":76561198115821923,"connected_time":712000000000,"state":"connecting","ping":97},{"user_id":42,"name":"G.bo","steam_id":76561198085176270,"connected_time":686000000000,"state":"connecting","ping":52},{"user_id":13,"name":"johnman gooberguy","steam_id":76561199014859764,"connected_time":4694000000000,"state":"connecting","ping":64},{"user_id":14,"name":"SvicidalBug","steam_id":76561198221390504,"connected_time":4595000000000,"state":"connecting","ping":114},{"user_id":15,"name":"BoX_hEaD101","steam_id":76561198200875467,"connected_time":4352000000000,"state":"connecting","ping":77},{"user_id":26,"name":"titty","steam_id":76561199034119199,"connected_time":3023000000000,"state":"connecting","ping":64},{"user_id":46,"name":"s4lmooooooo1301931231","steam_id":76561198055882807,"connected_time":76000000000,"state":"connecting","ping":90},{"user_id":25,"name":"frog with knife","steam_id":76561198171203882,"connected_time":3467000000000,"state":"connecting","ping":145},{"user_id":40,"name":"Zom_Named_Zam","steam_id":76561198328066203,"connected_time":1070000000000,"state":"connecting","ping":75},{"user_id":38,"name":"the_fishFactory","steam_id":76561199230137653,"connected_time":1288000000000,"state":"connecting","ping":87}]},{"server_id":141,"name":"Uncletopia | Sydney | 1 | All Maps","name_short":"syd-1","host":"syd-1.au.uncletopia.com","port":27015,"enabled":true,"region":"au","cc":"au","latitude":-33.865143,"longitude":151.2099,"reserved":0,"last_update":"0001-01-01T00:00:00Z","name_a2s":"Uncletopia | Sydney | 1 | All Maps","protocol":17,"map":"pl_badwater","folder":"tf","game":"Team Fortress","app_id":440,"player_count":0,"max_players":24,"Bots":0,"server_type":"Dedicated","server_os":"Linux","password":true,"vac":true,"version":"7932396","steam_id":85568392924470001,"keywords":["nocrits","nodmgspread","payload","uncletopia"],"game_id":440,"stv_port":27016,"stv_name":"Uncletopia | Sydney | 1 | All Maps | STV","players":null},{"server_id":123,"name":"Uncletopia | Sydney | 2 | All Maps","name_short":"syd-2","host":"syd-1.au.uncletopia.com","port":27025,"enabled":true,"region":"au","cc":"au","latitude":-33.865143,"longitude":151.2099,"reserved":0,"last_update":"0001-01-01T00:00:00Z","name_a2s":"Uncletopia | Sydney | 2 | All Maps","protocol":17,"map":"pl_upward","folder":"tf","game":"Team Fortress","app_id":440,"player_count":16,"max_players":24,"Bots":0,"server_type":"Dedicated","server_os":"Linux","password":true,"vac":true,"version":"7932396","steam_id":85568392924470002,"keywords":["nocrits","nodmgspread","payload","uncletopia"],"game_id":440,"stv_port":27026,"stv_name":"Uncletopia | Sydney | 2 | All Maps | STV","players":[{"user_id":48,"name":"Cheez","steam_id":76561199209844827,"connected_time":162000000000,"state":"active","ping":56},{"user_id":23,"name":"Muffin","steam_id":76561198075391119,"connected_time":1680000000000,"state":"active","ping":52},{"user_id":24,"name":"homes inc","steam_id":76561198170188198,"connected_time":1388000000000,"state":"active","ping":51},{"user_id":25,"name":"voxii","steam_id":76561198099698281,"connected_time":1041000000000,"state":"active","ping":67},{"user_id":52,"name":"maburaho1","steam_id":76561198211416633,"connected_time":0,"state":"spawning","ping":37},{"user_id":21,"name":"infernoraz","steam_id":76561198117582261,"connected_time":2431000000000,"state":"active","ping":50},{"user_id":50,"name":"mind eraser","steam_id":76561198145136439,"connected_time":96000000000,"state":"active","ping":53},{"user_id":29,"name":"you've left me be Wilbur'd","steam_id":76561198301282416,"connected_time":879000000000,"state":"active","ping":48},{"user_id":31,"name":"I like sandvig","steam_id":76561199353313556,"connected_time":791000000000,"state":"active","ping":52},{"user_id":34,"name":"Jeshƒ´","steam_id":76561198105982416,"connected_time":735000000000,"state":"active","ping":56},{"user_id":35,"name":"‚±£êåÑ≈§êåÑ“∞","steam_id":76561199140764838,"connected_time":716000000000,"state":"active","ping":67},{"user_id":36,"name":"Snake ATM","steam_id":76561197968304462,"connected_time":639000000000,"state":"active","ping":52},{"user_id":44,"name":"clap sell","steam_id":76561199487384159,"connected_time":361000000000,"state":"active","ping":279},{"user_id":39,"name":"theory haver","steam_id":76561198133867907,"connected_time":543000000000,"state":"active","ping":63},{"user_id":46,"name":"FishKing","steam_id":76561198059674541,"connected_time":290000000000,"state":"active","ping":69},{"user_id":42,"name":"full english onna toob","steam_id":76561198048064049,"connected_time":423000000000,"state":"active","ping":74}]},{"server_id":395,"name":"Uncletopia | Sydney | 3 | All Maps","name_short":"syd-3","host":"syd-1.au.uncletopia.com","port":27035,"enabled":true,"region":"au","cc":"au","latitude":-33.865143,"longitude":151.2099,"reserved":0,"last_update":"0001-01-01T00:00:00Z","name_a2s":"Uncletopia | Sydney | 3 | All Maps","protocol":17,"map":"cp_dustbowl","folder":"tf","game":"Team Fortress","app_id":440,"player_count":0,"max_players":24,"Bots":0,"server_type":"Dedicated","server_os":"Linux","password":true,"vac":true,"version":"7932396","steam_id":85568392925194467,"keywords":["cp","nocrits","nodmgspread","uncletopia"],"game_id":440,"stv_port":27036,"stv_name":"Uncletopia | Sydney | 3 | All Maps | STV","players":null},{"server_id":396,"name":"Uncletopia | Sydney | 4 | All Maps","name_short":"syd-4","host":"syd-1.au.uncletopia.com","port":27045,"enabled":true,"region":"au","cc":"au","latitude":-33.865143,"longitude":151.2099,"reserved":0,"last_update":"0001-01-01T00:00:00Z","name_a2s":"Uncletopia | Sydney | 4 | All Maps","protocol":17,"map":"pl_pier","folder":"tf","game":"Team Fortress","app_id":440,"player_count":0,"max_players":24,"Bots":0,"server_type":"Dedicated","server_os":"Linux","password":true,"vac":true,"version":"7932396","steam_id":85568392925397958,"keywords":["nocrits","nodmgspread","payload","uncletopia"],"game_id":440,"stv_port":27046,"stv_name":"Uncletopia | Sydney | 4 | All Maps | STV","players":null},{"server_id":58,"name":"Uncletopia | Sydney | 5 | Stopwatch Beta","name_short":"syd-5","host":"syd-1.au.uncletopia.com","port":27055,"enabled":true,"region":"au","cc":"au","latitude":-33.865143,"longitude":151.2099,"reserved":0,"last_update":"0001-01-01T00:00:00Z","name_a2s":"Uncletopia | Sydney | 5 | Stopwatch Beta","protocol":17,"map":"pl_borneo","folder":"tf","game":"Team Fortress","app_id":440,"player_count":0,"max_players":24,"Bots":0,"server_type":"Dedicated","server_os":"Linux","password":true,"vac":true,"version":"7932396","steam_id":85568392925397959,"keywords":["nocrits","nodmgspread","payload","uncletopia"],"game_id":440,"stv_port":27056,"stv_name":"Uncletopia | Sydney | 5 | Stopwatch Beta | STV","players":null},{"server_id":59,"name":"Uncletopia | Sydney | 6 | Community","name_short":"syd-6","host":"syd-1.au.uncletopia.com","port":27065,"enabled":true,"region":"au","cc":"au","latitude":-33.865143,"longitude":151.2099,"reserved":0,"last_update":"0001-01-01T00:00:00Z","name_a2s":"Uncletopia | Sydney | 6 | Community","protocol":17,"map":"workshop/pl_vigil_rc9.ugc1266210012","folder":"tf","game":"Team Fortress","app_id":440,"player_count":0,"max_players":24,"Bots":0,"server_type":"Dedicated","server_os":"Linux","password":true,"vac":true,"version":"7932396","steam_id":85568392925397960,"keywords":["nocrits","nodmgspread","payload","uncletopia"],"game_id":440,"stv_port":27066,"stv_name":"Uncletopia | Sydney | 6 | Community | STV","players":null},{"server_id":49,"name":"Uncletopia | Warsaw | 1 | All Maps","name_short":"waw-1","host":"waw-1.pl.uncletopia.com","port":27015,"enabled":true,"region":"eu","cc":"pl","latitude":52.2297,"longitude":21.017532,"reserved":0,"last_update":"0001-01-01T00:00:00Z","name_a2s":"","protocol":0,"map":"","folder":"","game":"","app_id":0,"player_count":0,"max_players":0,"Bots":0,"server_type":"","server_os":"","password":false,"vac":false,"version":"","steam_id":0,"keywords":null,"game_id":0,"stv_port":0,"stv_name":"","players":null},{"server_id":50,"name":"Uncletopia | Warsaw | 2 | All Maps","name_short":"waw-2","host":"waw-1.pl.uncletopia.com","port":27025,"enabled":true,"region":"eu","cc":"pl","latitude":52.2297,"longitude":21.017532,"reserved":0,"last_update":"0001-01-01T00:00:00Z","name_a2s":"Uncletopia | Warsaw | 2 | All Maps","protocol":17,"map":"koth_highpass","folder":"tf","game":"Team Fortress","app_id":440,"player_count":0,"max_players":24,"Bots":0,"server_type":"Dedicated","server_os":"Linux","password":true,"vac":true,"version":"7932396","steam_id":85568392925397851,"keywords":["cp","nocrits","nodmgspread","uncletopia"],"game_id":440,"stv_port":27026,"stv_name":"Uncletopia | Warsaw | 2 | All Maps | STV","players":null},{"server_id":51,"name":"Uncletopia | Warsaw | 3 | All Maps","name_short":"waw-3","host":"waw-1.pl.uncletopia.com","port":27035,"enabled":true,"region":"eu","cc":"pl","latitude":52.2297,"longitude":21.017532,"reserved":0,"last_update":"0001-01-01T00:00:00Z","name_a2s":"Uncletopia | Warsaw | 3 | All Maps","protocol":17,"map":"koth_viaduct","folder":"tf","game":"Team Fortress","app_id":440,"player_count":0,"max_players":24,"Bots":0,"server_type":"Dedicated","server_os":"Linux","password":true,"vac":true,"version":"7932396","steam_id":85568392925397852,"keywords":["cp","nocrits","nodmgspread","uncletopia"],"game_id":440,"stv_port":27036,"stv_name":"Uncletopia | Warsaw | 3 | All Maps | STV","players":null},{"server_id":52,"name":"Uncletopia | Warsaw | 4 | All Maps","name_short":"waw-4","host":"waw-1.pl.uncletopia.com","port":27045,"enabled":true,"region":"eu","cc":"pl","latitude":52.2297,"longitude":21.017532,"reserved":0,"last_update":"0001-01-01T00:00:00Z","name_a2s":"Uncletopia | Warsaw | 4 | All Maps","protocol":17,"map":"cp_dustbowl","folder":"tf","game":"Team Fortress","app_id":440,"player_count":0,"max_players":24,"Bots":0,"server_type":"Dedicated","server_os":"Linux","password":true,"vac":true,"version":"7932396","steam_id":85568392925397853,"keywords":["cp","nocrits","nodmgspread","uncletopia"],"game_id":440,"stv_port":27046,"stv_name":"Uncletopia | Warsaw | 4 | All Maps | STV","players":null},{"server_id":53,"name":"Uncletopia | Warsaw | 5 | Stopwatch Beta","name_short":"waw-5","host":"waw-1.pl.uncletopia.com","port":27055,"enabled":true,"region":"eu","cc":"pl","latitude":52.2297,"longitude":21.017532,"reserved":0,"last_update":"0001-01-01T00:00:00Z","name_a2s":"Uncletopia | Warsaw | 5 | Stopwatch Beta","protocol":17,"map":"koth_lakeside_final","folder":"tf","game":"Team Fortress","app_id":440,"player_count":0,"max_players":24,"Bots":0,"server_type":"Dedicated","server_os":"Linux","password":true,"vac":true,"version":"7932396","steam_id":85568392925397854,"keywords":["cp","nocrits","nodmgspread","uncletopia"],"game_id":440,"stv_port":27056,"stv_name":"Uncletopia | Warsaw | 5 | Stopwatch Beta | STV","players":null},{"server_id":54,"name":"Uncletopia | Warsaw | 6 | Community","name_short":"waw-6","host":"waw-1.pl.uncletopia.com","port":27065,"enabled":true,"region":"eu","cc":"pl","latitude":52.2297,"longitude":21.017532,"reserved":0,"last_update":"0001-01-01T00:00:00Z","name_a2s":"Uncletopia | Warsaw | 6 | Community","protocol":17,"map":"pl_upward","folder":"tf","game":"Team Fortress","app_id":440,"player_count":0,"max_players":24,"Bots":0,"server_type":"Dedicated","server_os":"Linux","password":true,"vac":true,"version":"7932396","steam_id":85568392925397856,"keywords":["nocrits","nodmgspread","payload","uncletopia"],"game_id":440,"stv_port":27066,"stv_name":"Uncletopia | Warsaw | 6 | Community | STV","players":null}]}