{"status":true,"message":"","result":[{"server_id":9,"name":"Uncletopia | Atlanta | 1 | All Maps","name_short":"atl-1","host":"atl-1.us.uncletopia.com","port":27015,"enabled":true,"region":"us-east","cc":"us","latitude":33.753746,"longitude":-84.38633,"reserved":0,"last_update":"0001-01-01T00:00:00Z","name_a2s":"Uncletopia | Atlanta | 1 | All Maps","protocol":17,"map":"cp_dustbowl","folder":"tf","game":"Team Fortress","app_id":440,"player_count":24,"max_players":24,"Bots":0,"server_type":"Dedicated","server_os":"Linux","password":true,"vac":true,"version":"7961495","steam_id":85568392924469982,"keywords":["cp","nocrits","nodmgspread","uncletopia"],"game_id":440,"stv_port":27016,"stv_name":"Uncletopia | Atlanta | 1 | All Maps | STV","players":null},{"server_id":104,"name":"Uncletopia | Atlanta | 2 | All Maps","name_short":"atl-2","host":"atl-1.us.uncletopia.com","port":27025,"enabled":true,"region":"us-east","cc":"us","latitude":33.753746,"longitude":-84.38633,"reserved":0,"last_update":"0001-01-01T00:00:00Z","name_a2s":"Uncletopia | Atlanta | 2 | All Maps","protocol":17,"map":"pl_badwater","folder":"tf","game":"Team Fortress","app_id":440,"player_count":19,"max_players":24,"Bots":0,"server_type":"Dedicated","server_os":"Linux","password":true,"vac":true,"version":"7961495","steam_id":85568392924469983,"keywords":["nocrits","nodmgspread","payload","uncletopia"],"game_id":440,"stv_port":27026,"stv_name":"Uncletopia | Atlanta | 2 | All Maps | STV","players":null},{"server_id":400,"name":"Uncletopia | Atlanta | 3 | All Maps","name_short":"atl-3","host":"atl-1.us.uncletopia.com","port":27035,"enabled":true,"region":"us-east","cc":"us","latitude":33.753746,"longitude":-84.38633,"reserved":0,"last_update":"0001-01-01T00:00:00Z","name_a2s":"Uncletopia | Atlanta | 3 | All Maps","protocol":17,"map":"koth_lakeside_final","folder":"tf","game":"Team Fortress","app_id":440,"player_count":0,"max_players":24,"Bots":0,"server_type":"Dedicated","server_os":"Linux","password":true,"vac":true,"version":"7961495","steam_id":85568392924515187,"keywords":["cp","nocrits","nodmgspread","uncletopia"],"game_id":440,"stv_port":27036,"stv_name":"Uncletopia | Atlanta | 3 | All Maps | STV","players":null},{"server_id":401,"name":"Uncletopia | Atlanta | 4 | Community","name_short":"atl-4","host":"atl-1.us.uncletopia.com","port":27045,"enabled":true,"region":"us-east","cc":"us","latitude":33.753746,"longitude":-84.38633,"reserved":0,"last_update":"0001-01-01T00:00:00Z","name_a2s":"Uncletopia | Atlanta | 4 | Community","protocol":17,"map":"cp_dustbowl","folder":"tf","game":"Team Fortress","app_id":440,"player_count":0,"max_players":24,"Bots":0,"server_type":"Dedicated","server_os":"Linux","password":true,"vac":true,"version":"7961495","steam_id":85568392924515188,"keywords":["cp","nocrits","nodmgspread","uncletopia"],"game_id":440,"stv_port":27046,"stv_name":"Uncletopia | Atlanta | 4 | Community | STV","players":null},{"server_id":2,"name":"Uncletopia | Chicago | 1 | All Maps","name_short":"chi-1","host":"chi-1.us.uncletopia.com","port":27015,"enabled":true,"region":"us-central","cc":"us","latitude":41.881832,"longitude":-87.62318,"reserved":0,"last_update":"0001-01-01T00:00:00Z","name_a2s":"Uncletopia | Chicago | 1 | All Maps","protocol":17,"map":"pl_upward","folder":"tf","game":"Team Fortress","app_id":440,"player_count":24,"max_players":24,"Bots":0,"server_type":"Dedicated","server_os":"Linux","password":true,"vac":true,"version":"7961495","steam_id":85568392924469984,"keywords":["nocrits","nodmgspread","payload","uncletopia"],"game_id":440,"stv_port":27016,"stv_name":"Uncletopia | Chicago | 1 | All Maps | STV","players":[{"user_id":115,"name":"brotalium","steam_id":76561198055439054,"connected_time":545000000000,"state":"active","ping":85},{"user_id":100,"name":"AppleTruffle","steam_id":76561198031299571,"connected_time":1661000000000,"state":"active","ping":62},{"user_id":112,"name":"Praise_to_the_Flashlight!","steam_id":76561199001728789,"connected_time":774000000000,"state":"active","ping":60},{"user_id":6,"name":"dirty tuna","steam_id":76561198021535785,"connected_time":5912000000000,"state":"active","ping":74},{"user_id":117,"name":"Lost","steam_id":76561198093713427,"connected_time":532000000000,"state":"active","ping":64},{"user_id":126,"name":"james may","steam_id":76561198043857339,"connected_time":174000000000,"state":"active","ping":97},{"user_id":99,"name":"SEER","steam_id":76561198075116015,"connected_time":1666000000000,"state":"active","ping":75},{"user_id":121,"name":"DoomedMakwa","steam_id":76561198167053158,"connected_time":440000000000,"state":"active","ping":74},{"user_id":94,"name":"myunicorn","steam_id":76561199391478575,"connected_time":2150000000000,"state":"active","ping":114},{"user_id":13,"name":"Clean Lines","steam_id":76561197960691518,"connected_time":5873000000000,"state":"active","ping":56},{"user_id":102,"name":"c/\\rbine","steam_id":76561198294739913,"connected_time":1641000000000,"state":"active","ping":90},{"user_id":113,"name":"k3ramb1t","steam_id":76561198097880352,"connected_time":556000000000,"state":"active","ping":73},{"user_id":127,"name":"Crazy Dave!","steam_id":76561198951414566,"connected_time":91000000000,"state":"active","ping":66},{"user_id":53,"name":"melon","steam_id":76561199014039702,"connected_time":4066000000000,"state":"active","ping":57},{"user_id":104,"name":"Astoriae!","steam_id":76561199090168858,"connected_time":1616000000000,"state":"active","ping":71},{"user_id":122,"name":"Kernel","steam_id":76561197970904678,"connected_time":325000000000,"state":"active","ping":103},{"user_id":103,"name":"twitch.tv/kegaman_","steam_id":76561198043632775,"connected_time":1637000000000,"state":"active","ping":102},{"user_id":119,"name":"vifi269","steam_id":76561198283749166,"connected_time":499000000000,"state":"active","ping":74},{"user_id":120,"name":"Mephistopheles","steam_id":76561198253731826,"connected_time":471000000000,"state":"active","ping":56},{"user_id":26,"name":"LittleFieryOne","steam_id":76561198107463724,"connected_time":5745000000000,"state":"active","ping":62},{"user_id":108,"name":"DrBadAim","steam_id":76561198382369742,"connected_time":1030000000000,"state":"active","ping":66},{"user_id":110,"name":"b","steam_id":76561198118211523,"connected_time":957000000000,"state":"active","ping":61},{"user_id":123,"name":"Biscipline","steam_id":76561198019206178,"connected_time":318000000000,"state":"active","ping":77},{"user_id":124,"name":"A Dodge Challenger","steam_id":76561198097978317,"connected_time":315000000000,"state":"active","ping":75}]},{"server_id":106,"name":"Uncletopia | Chicago | 2 | All Maps","name_short":"chi-2","host":"chi-1.us.uncletopia.com","port":27025,"enabled":true,"region":"us-central","cc":"us","latitude":41.881832,"longitude":-87.62318,"reserved":0,"last_update":"0001-01-01T00:00:00Z","name_a2s":"Uncletopia | Chicago | 2 | All Maps","protocol":17,"map":"pl_snowycoast","folder":"tf","game":"Team Fortress","app_id":440,"player_count":24,"max_players":24,"Bots":0,"server_type":"Dedicated","server_os":"Linux","password":true,"vac":true,"version":"7961495","steam_id":85568392924469985,"keywords":["nocrits","nodmgspread","payload","uncletopia"],"game_id":440,"stv_port":27026,"stv_name":"Uncletopia | Chicago | 2 | All Maps | STV","players":[{"user_id":87,"name":"GreatTimBones","steam_id":76561198409145748,"connected_time":1400000000000,"state":"active","ping":82},{"user_id":97,"name":"HanakoToast","steam_id":76561198045233131,"connected_time":42000000000,"state":"active","ping":101},{"user_id":91,"name":"Thequirka","steam_id":76561198968058652,"connected_time":821000000000,"state":"active","ping":104},{"user_id":50,"name":"Oh, it's Zach","steam_id":76561198103309672,"connected_time":3544000000000,"state":"active","ping":44},{"user_id":98,"name":"bojack from the show bojack hor","steam_id":76561198053006712,"connected_time":33000000000,"state":"active","ping":57},{"user_id":77,"name":"I shovel mayonnaise in mouth","steam_id":76561199123118241,"connected_time":1992000000000,"state":"active","ping":110},{"user_id":99,"name":"Tailsmonster12","steam_id":76561198399989261,"connected_time":13000000000,"state":"active","ping":61},{"user_id":66,"name":"Â≠´Â≠ê","steam_id":76561198083112681,"connected_time":2992000000000,"state":"active","ping":57},{"user_id":93,"name":"Orijinal","steam_id":76561198044709519,"connected_time":783000000000,"state":"active","ping":56},{"user_id":73,"name":"b4rry","steam_id":76561198365887154,"connected_time":2323000000000,"state":"active","ping":77},{"user_id":82,"name":"lushtakular","steam_id":76561198840080823,"connected_time":1693000000000,"state":"active","ping":62},{"user_id":100,"name":"NaselPopcorn","steam_id":76561199454333176,"connected_time":10000000000,"state":"active","ping":149},{"user_id":94,"name":"Jonah Hill from 21 Jump Street","steam_id":76561198811130843,"connected_time":669000000000,"state":"active","ping":74},{"user_id":85,"name":"West Coast Psycho","steam_id":76561198026737783,"connected_time":1608000000000,"state":"active","ping":123},{"user_id":78,"name":"Omochao Plush","steam_id":76561199031860890,"connected_time":1976000000000,"state":"active","ping":103},{"user_id":60,"name":"wack","steam_id":76561198095697330,"connected_time":3343000000000,"state":"active","ping":86},{"user_id":95,"name":"Galaxy_42","steam_id":76561198845514831,"connected_time":369000000000,"state":"active","ping":70},{"user_id":55,"name":"gritty 2024","steam_id":76561198165567310,"connected_time":3467000000000,"state":"active","ping":57},{"user_id":86,"name":"Sickmind33","steam_id":76561198036248611,"connected_time":1414000000000,"state":"active","ping":44}]},{"server_id":402,"name":"Uncletopia | Chicago | 3 | All Maps","name_short":"chi-3","host":"chi-1.us.uncletopia.com","port":27035,"enabled":true,"region":"us-central","cc":"us","latitude":41.881832,"longitude":-87.62318,"reserved":0,"last_update":"0001-01-01T00:00:00Z","name_a2s":"Uncletopia | Chicago | 3 | All Maps","protocol":17,"map":"pl_upward","folder":"tf","game":"Team Fortress","app_id":440,"player_count":24,"max_players":24,"Bots":0,"server_type":"Dedicated","server_os":"Linux","password":true,"vac":true,"version":"7961495","steam_id":85568392924515191,"keywords":["nocrits","nodmgspread","payload","uncletopia"],"game_id":440,"stv_port":27036,"stv_name":"Uncletopia | Chicago | 3 | All Maps | STV","players":[{"user_id":88,"name":"Big Sauce","steam_id":76561198046654750,"connected_time":445000000000,"state":"active","ping":65},{"user_id":89,"name":"manbearswineflu","steam_id":76561198083945137,"connected_time":437000000000,"state":"active","ping":89},{"user_id":5,"name":"corntent","steam_id":76561198824847948,"connected_time":5899000000000,"state":"active","ping":59},{"user_id":45,"name":"sibling bane üü† „ÉÑ","steam_id":76561198196769297,"connected_time":3959000000000,"state":"active","ping":54},{"user_id":90,"name":"Tanuki with a gun.","steam_id":76561198027487285,"connected_time":406000000000,"state":"active","ping":92},{"user_id":91,"name":"God's Drunkest Driver","steam_id":76561199174579733,"connected_time":219000000000,"state":"active","ping":81},{"user_id":49,"name":"Kantamoe","steam_id":76561198046661611,"connected_time":3861000000000,"state":"active","ping":92},{"user_id":92,"name":"TerrorOfTheSeas","steam_id":76561198388385659,"connected_time":215000000000,"state":"active","ping":75},{"user_id":93,"name":"Spurdo S. Perkele","steam_id":76561198032121669,"connected_time":134000000000,"state":"active","ping":76},{"user_id":72,"name":"Warmerfall","steam_id":76561198812218923,"connected_time":2026000000000,"state":"active","ping":85},{"user_id":94,"name":"swan","steam_id":76561198012569200,"connected_time":96000000000,"state":"active","ping":75},{"user_id":95,"name":"-W3E- grim10465","steam_id":76561198045698581,"connected_time":89000000000,"state":"active","ping":49},{"user_id":80,"name":"gods hungriest pitbull","steam_id":76561198111669774,"connected_time":1102000000000,"state":"active","ping":50},{"user_id":96,"name":"Novu","steam_id":76561198886997024,"connected_time":76000000000,"state":"active","ping":84},{"user_id":83,"name":"Johnny Lawrence #JohnnyMaxxing","steam_id":76561199367141671,"connected_time":915000000000,"state":"active","ping":66},{"user_id":97,"name":"minecraft","steam_id":76561198104345201,"connected_time":75000000000,"state":"active","ping":70},{"user_id":98,"name":"RuinLucky","steam_id":76561199481172481,"connected_time":63000000000,"state":"active","ping":82},{"user_id":99,"name":"HenryFromSkalitz!","steam_id":76561198062139190,"connected_time":33000000000,"state":"active","ping":73},{"user_id":61,"name":"Rat God","steam_id":76561198066161598,"connected_time":3604000000000,"state":"active","ping":60},{"user_id":100,"name":"creeeeeee","steam_id":76561198392539722,"connected_time":17000000000,"state":"active","ping":80},{"user_id":101,"name":"gendervoid gremlin","steam_id":76561198040260143,"connected_time":15000000000,"state":"active","ping":67},{"user_id":102,"name":"C. Auris","steam_id":76561198245103000,"connected_time":5000000000,"state":"spawning","ping":47},{"user_id":103,"name":"Liebestr√§ume","steam_id":76561198038862034,"connected_time":3000000000,"state":"spawning","ping":79},{"user_id":82,"name":"the keebler","steam_id":76561199486326945,"connected_time":1078000000000,"state":"active","ping":80}]},{"server_id":403,"name":"Uncletopia | Chicago | 4 | All Maps","name_short":"chi-4","host":"chi-1.us.uncletopia.com","port":27045,"enabled":true,"region":"us-central","cc":"us","latitude":41.881832,"longitude":-87.62318,"reserved":0,"last_update":"0001-01-01T00:00:00Z","name_a2s":"Uncletopia | Chicago | 4 | All Maps","protocol":17,"map":"pl_upward","folder":"tf","game":"Team Fortress","app_id":440,"player_count":24,"max_players":24,"Bots":0,"server_type":"Dedicated","server_os":"Linux","password":true,"vac":true,"version":"7961495","steam_id":85568392924515193,"keywords":["nocrits","nodmgspread","payload","uncletopia"],"game_id":440,"stv_port":27046,"stv_name":"Uncletopia | Chicago | 4 | All Maps | STV","players":[{"user_id":106,"name":"LikeASir","steam_id":76561198042209721,"connected_time":1049000000000,"state":"active","ping":49},{"user_id":119,"name":"Shrake","steam_id":76561198114379995,"connected_time":522000000000,"state":"active","ping":34},{"user_id":108,"name":"teegs","steam_id":76561198067905221,"connected_time":1031000000000,"state":"active","ping":53},{"user_id":116,"name":"CherryPieRed2023","steam_id":76561198998007496,"connected_time":783000000000,"state":"active","ping":159},{"user_id":101,"name":"_Lusty_","steam_id":76561198876948142,"connected_time":1324000000000,"state":"active","ping":63},{"user_id":109,"name":"orneps489","steam_id":76561199124755916,"connected_time":978000000000,"state":"active","ping":80},{"user_id":84,"name":"Willhelm","steam_id":76561198046569146,"connected_time":2797000000000,"state":"active","ping":129},{"user_id":124,"name":"Ellis McGruber","steam_id":76561198060739536,"connected_time":15000000000,"state":"active","ping":230},{"user_id":103,"name":"Keymaster","steam_id":76561198881514228,"connected_time":1235000000000,"state":"active","ping":79},{"user_id":111,"name":"Phoenixüå†","steam_id":76561198081109538,"connected_time":953000000000,"state":"active","ping":72},{"user_id":36,"name":"Okpar","steam_id":76561199221067945,"connected_time":5152000000000,"state":"active","ping":95},{"user_id":87,"name":"Lucon","steam_id":76561198067147724,"connected_time":2721000000000,"state":"active","ping":61},{"user_id":63,"name":"Unk","steam_id":76561198031717617,"connected_time":3636000000000,"state":"active","ping":58},{"user_id":113,"name":"Big Boy B-Franks","steam_id":76561198050292373,"connected_time":938000000000,"state":"active","ping":96},{"user_id":52,"name":"Hydroxianchaos","steam_id":76561198043786828,"connected_time":4369000000000,"state":"active","ping":68},{"user_id":121,"name":"Rango","steam_id":76561198104086771,"connected_time":478000000000,"state":"active","ping":98},{"user_id":118,"name":"M249 | Spectre","steam_id":76561198118334485,"connected_time":612000000000,"state":"active","ping":74},{"user_id":112,"name":"firstlastmcgee","steam_id":76561198170187989,"connected_time":949000000000,"state":"active","ping":67},{"user_id":122,"name":"Amari","steam_id":76561198272446730,"connected_time":391000000000,"state":"active","ping":113},{"user_id":70,"name":"guppy","steam_id":76561198041380190,"connected_time":3543000000000,"state":"active","ping":94},{"user_id":92,"name":"crystalgamerag","steam_id":76561198140553724,"connected_time":2673000000000,"state":"active","ping":72},{"user_id":67,"name":"Nak","steam_id":76561198058151893,"connected_time":3597000000000,"state":"active","ping":87},{"user_id":45,"name":"[El Fail] MR.BadassMCLee","steam_id":76561198043787818,"connected_time":4718000000000,"state":"active","ping":115},{"user_id":37,"name":"conner","steam_id":76561198052911241,"connected_time":5146000000000,"state":"active","ping":77}]},{"server_id":36,"name":"Uncletopia | Chicago | 5 | All Maps","name_short":"chi-5","host":"chi-2.us.uncletopia.com","port":27015,"enabled":true,"region":"us-central","cc":"us","latitude":41.881832,"longitude":-87.62318,"reserved":0,"last_update":"0001-01-01T00:00:00Z","name_a2s":"Uncletopia | Chicago | 5 | All Maps","protocol":17,"map":"pl_badwater","folder":"tf","game":"Team Fortress","app_id":440,"player_count":24,"max_players":24,"Bots":0,"server_type":"Dedicated","server_os":"Linux","password":true,"vac":true,"version":"7961495","steam_id":85568392924866362,"keywords":["nocrits","nodmgspread","payload","uncletopia"],"game_id":440,"stv_port":27016,"stv_name":"Uncletopia | Chicago | 5 | All Maps | STV","players":[{"user_id":39,"name":"p_picklelol","steam_id":76561198129434533,"connected_time":1523000000000,"state":"active","ping":67},{"user_id":9,"name":"Digitic","steam_id":76561198080295536,"connected_time":2998000000000,"state":"active","ping":79},{"user_id":10,"name":"DoubleX2000","steam_id":76561198164134387,"connected_time":2989000000000,"state":"active","ping":117},{"user_id":16,"name":"Professional Brohamad","steam_id":76561198824025210,"connected_time":2277000000000,"state":"active","ping":45},{"user_id":24,"name":"Artgrendadier","steam_id":76561198063305359,"connected_time":1904000000000,"state":"active","ping":77},{"user_id":15,"name":"The Fiend","steam_id":76561199229771413,"connected_time":2410000000000,"state":"active","ping":59},{"user_id":17,"name":"Ace Chromatica","steam_id":76561198042211131,"connected_time":2180000000000,"state":"active","ping":55},{"user_id":42,"name":"KSupes","steam_id":76561199131995067,"connected_time":1276000000000,"state":"active","ping":50},{"user_id":20,"name":"Yayifications","steam_id":76561198066227208,"connected_time":1991000000000,"state":"active","ping":59},{"user_id":43,"name":"DingDongAnalog","steam_id":76561198850181994,"connected_time":1175000000000,"state":"active","ping":107},{"user_id":22,"name":"Toa of Time","steam_id":76561198086867556,"connected_time":1971000000000,"state":"active","ping":102},{"user_id":23,"name":"SneakySneak","steam_id":76561198064847921,"connected_time":1969000000000,"state":"active","ping":77},{"user_id":46,"name":"[TF2Apples] Intense Green Apple","steam_id":76561198803561622,"connected_time":606000000000,"state":"active","ping":91},{"user_id":48,"name":"jolo","steam_id":76561198042831480,"connected_time":504000000000,"state":"active","ping":68},{"user_id":41,"name":"Seven","steam_id":76561198259947055,"connected_time":1290000000000,"state":"active","ping":42},{"user_id":47,"name":"moron","steam_id":76561198979187983,"connected_time":605000000000,"state":"active","ping":102},{"user_id":30,"name":"White_Wizard_Named_Corona","steam_id":76561198055652735,"connected_time":1745000000000,"state":"active","ping":89},{"user_id":31,"name":"Gravity","steam_id":76561198066875223,"connected_time":1738000000000,"state":"active","ping":80},{"user_id":32,"name":"Shrebbie","steam_id":76561198875230824,"connected_time":1716000000000,"state":"active","ping":62},{"user_id":37,"name":"GravyPouch","steam_id":76561198067539038,"connected_time":1608000000000,"state":"active","ping":59},{"user_id":40,"name":"Normalux","steam_id":76561198293891426,"connected_time":1469000000000,"state":"active","ping":91},{"user_id":35,"name":"UpInTheAir89","steam_id":76561198010851778,"connected_time":1645000000000,"state":"active","ping":72},{"user_id":36,"name":"RoFrogle","steam_id":76561199078941377,"connected_time":1624000000000,"state":"active","ping":58},{"user_id":38,"name":"Ket","steam_id":76561198241951244,"connected_time":1595000000000,"state":"active","ping":68}]},{"server_id":37,"name":"Uncletopia | Chicago | 6 | All Maps","name_short":"chi-6","host":"chi-2.us.uncletopia.com","port":27025,"enabled":true,"region":"us-central","cc":"us","latitude":41.881832,"longitude":-87.62318,"reserved":0,"last_update":"0001-01-01T00:00:00Z","name_a2s":"Uncletopia | Chicago | 6 | All Maps","protocol":17,"map":"pl_frontier_final","folder":"tf","game":"Team Fortress","app_id":440,"player_count":24,"max_players":24,"Bots":0,"server_type":"Dedicated","server_os":"Linux","password":true,"vac":true,"version":"7961495","steam_id":85568392924866363,"keywords":["nocrits","nodmgspread","payload","uncletopia"],"game_id":440,"stv_port":27026,"stv_name":"Uncletopia | Chicago | 6 | All Maps | STV","players":[{"user_id":87,"name":"Try Gardening","steam_id":76561198120311340,"connected_time":658000000000,"state":"active","ping":51},{"user_id":74,"name":"4 life","steam_id":76561198175961598,"connected_time":2102000000000,"state":"active","ping":114},{"user_id":96,"name":"maS","steam_id":76561198033846407,"connected_time":438000000000,"state":"active","ping":53},{"user_id":102,"name":"daveybullxxx","steam_id":76561198143826450,"connected_time":219000000000,"state":"active","ping":41},{"user_id":61,"name":"Ursus Ludius","steam_id":76561198025470722,"connected_time":2890000000000,"state":"active","ping":79},{"user_id":104,"name":"GotYourNose","steam_id":76561198803527852,"connected_time":94000000000,"state":"active","ping":64},{"user_id":67,"name":"CoolHandLuke","steam_id":76561198181647141,"connected_time":2450000000000,"state":"active","ping":67},{"user_id":101,"name":"Glue Gulper","steam_id":76561198158014525,"connected_time":238000000000,"state":"active","ping":64},{"user_id":65,"name":"Yam Jazzy Jim","steam_id":76561198000788950,"connected_time":2471000000000,"state":"active","ping":68},{"user_id":57,"name":"Zizen","steam_id":76561199011832069,"connected_time":3182000000000,"state":"active","ping":108},{"user_id":79,"name":"Piyono","steam_id":76561197962188504,"connected_time":1395000000000,"state":"active","ping":70},{"user_id":105,"name":"nemesis","steam_id":76561198115050507,"connected_time":32000000000,"state":"active","ping":73},{"user_id":47,"name":"Jack","steam_id":76561198254716942,"connected_time":4177000000000,"state":"active","ping":87},{"user_id":68,"name":"Dropped Dababi","steam_id":76561197990495205,"connected_time":2438000000000,"state":"active","ping":124},{"user_id":97,"name":"ImNotPete","steam_id":76561199354935347,"connected_time":427000000000,"state":"active","ping":84},{"user_id":100,"name":"McCambell","steam_id":76561198020194378,"connected_time":349000000000,"state":"active","ping":84},{"user_id":92,"name":"Old_Reluctant","steam_id":76561198018185967,"connected_time":593000000000,"state":"active","ping":73},{"user_id":90,"name":"Person","steam_id":76561198093244204,"connected_time":639000000000,"state":"active","ping":80},{"user_id":71,"name":"MagicCraftMaster","steam_id":76561198179156615,"connected_time":2400000000000,"state":"active","ping":79},{"user_id":98,"name":"voyager","steam_id":76561198169747517,"connected_time":425000000000,"state":"active","ping":106},{"user_id":103,"name":"im peeing","steam_id":76561198871765430,"connected_time":216000000000,"state":"active","ping":66},{"user_id":91,"name":"Cinabun","steam_id":76561198169144061,"connected_time":637000000000,"state":"active","ping":85},{"user_id":93,"name":"minigun","steam_id":76561198880487932,"connected_time":581000000000,"state":"active","ping":67},{"user_id":94,"name":"Ret","steam_id":76561198272398545,"connected_time":571000000000,"state":"active","ping":97}]},{"server_id":38,"name":"Uncletopia | Chicago | 7 | Stopwatch Beta","name_short":"chi-7","host":"chi-2.us.uncletopia.com","port":27035,"enabled":true,"region":"us-central","cc":"us","latitude":41.881832,"longitude":-87.62318,"reserved":0,"last_update":"0001-01-01T00:00:00Z","name_a2s":"Uncletopia | Chicago | 7 | Stopwatch Beta","protocol":17,"map":"cp_sunshine","folder":"tf","game":"Team Fortress","app_id":440,"player_count":0,"max_players":24,"Bots":0,"server_type":"Dedicated","server_os":"Linux","password":true,"vac":true,"version":"7961495","steam_id":85568392924866364,"keywords":["cp","nocrits","nodmgspread","uncletopia"],"game_id":440,"stv_port":27036,"stv_name":"Uncletopia | Chicago | 7 | Stopwatch Beta | STV","players":null},{"server_id":39,"name":"Uncletopia | Chicago | 8 | Community","name_short":"chi-8","host":"chi-2.us.uncletopia.com","port":27045,"enabled":true,"region":"us-central","cc":"us","latitude":41.881832,"longitude":-87.62318,"reserved":0,"last_update":"0001-01-01T00:00:00Z","name_a2s":"Uncletopia | Chicago | 8 | Community","protocol":17,"map":"workshop/koth_synthetic_rc6a.ugc1549817316","folder":"tf","game":"Team Fortress","app_id":440,"player_count":24,"max_players":24,"Bots":0,"server_type":"Dedicated","server_os":"Linux","password":true,"vac":true,"version":"7961495","steam_id":85568392924866365,"keywords":["cp","nocrits","nodmgspread","uncletopia"],"game_id":440,"stv_port":27046,"stv_name":"Uncletopia | Chicago | 8 | Community | STV","players":[{"user_id":15,"name":"daeboss03","steam_id":76561199074488696,"connected_time":2967000000000,"state":"active","ping":69},{"user_id":59,"name":"jaykay","steam_id":76561199013604285,"connected_time":373000000000,"state":"active","ping":64},{"user_id":60,"name":"Toast","steam_id":76561198401995265,"connected_time":337000000000,"state":"active","ping":59},{"user_id":43,"name":"Zen56","steam_id":76561198074554894,"connected_time":2000000000000,"state":"active","ping":85},{"user_id":57,"name":"Sveniven","steam_id":76561198118864411,"connected_time":510000000000,"state":"active","ping":72},{"user_id":20,"name":"Xrath","steam_id":76561198220741860,"connected_time":2750000000000,"state":"active","ping":69},{"user_id":17,"name":"dweamy","steam_id":76561198119181880,"connected_time":2872000000000,"state":"active","ping":73},{"user_id":56,"name":"You are next","steam_id":76561198142795677,"connected_time":528000000000,"state":"active","ping":90},{"user_id":61,"name":"average...","steam_id":76561199122716769,"connected_time":319000000000,"state":"active","ping":81},{"user_id":62,"name":"Jean Deere","steam_id":76561198105101309,"connected_time":295000000000,"state":"active","ping":82},{"user_id":23,"name":"Freedburger","steam_id":76561198053798028,"connected_time":2547000000000,"state":"active","ping":82},{"user_id":41,"name":"this","steam_id":76561198170195505,"connected_time":2038000000000,"state":"active","ping":86},{"user_id":25,"name":"wonderwall","steam_id":76561198027752497,"connected_time":2495000000000,"state":"active","ping":84},{"user_id":27,"name":"Purchase","steam_id":76561198821991700,"connected_time":2485000000000,"state":"active","ping":72},{"user_id":28,"name":"SneakyJayMLP","steam_id":76561198969565685,"connected_time":2479000000000,"state":"active","ping":82},{"user_id":29,"name":"Chiki","steam_id":76561198063590320,"connected_time":2478000000000,"state":"active","ping":73},{"user_id":63,"name":"Sunflower","steam_id":76561198081223793,"connected_time":281000000000,"state":"active","ping":57},{"user_id":31,"name":"Spookghetti![VF4-0]","steam_id":76561198105093153,"connected_time":2432000000000,"state":"active","ping":63},{"user_id":54,"name":"illious","steam_id":76561198169925494,"connected_time":623000000000,"state":"active","ping":73},{"user_id":64,"name":"GreekGoat_Coffee","steam_id":76561198129331088,"connected_time":257000000000,"state":"active","ping":48},{"user_id":65,"name":"green bean","steam_id":76561198113099204,"connected_time":255000000000,"state":"active","ping":83},{"user_id":53,"name":"KoolBucky","steam_id":76561198147927648,"connected_time":662000000000,"state":"active","ping":81},{"user_id":38,"name":"LILGI4THAW","steam_id":76561198403803842,"connected_time":2338000000000,"state":"active","ping":111},{"user_id":66,"name":"AudioMedic","steam_id":76561198333939032,"connected_time":202000000000,"state":"active","ping":63}]},{"server_id":8,"name":"Uncletopia | Dallas | 1 | All Maps","name_short":"dal-1","host":"dal-1.us.uncletopia.com","port":27015,"enabled":true,"region":"us-central","cc":"us","latitude":32.779167,"longitude":-96.80889,"reserved":0,"last_update":"0001-01-01T00:00:00Z","name_a2s":"Uncletopia | Dallas | 1 | All Maps","protocol":17,"map":"cp_dustbowl","folder":"tf","game":"Team Fortress","app_id":440,"player_count":24,"max_players":24,"Bots":0,"server_type":"Dedicated","server_os":"Linux","password":true,"vac":true,"version":"7961495","steam_id":85568392924469986,"keywords":["cp","nocrits","nodmgspread","uncletopia"],"game_id":440,"stv_port":27016,"stv_name":"Uncletopia | Dallas | 1 | All Maps | STV","players":[{"user_id":44,"name":"Spaceman","steam_id":76561198098025074,"connected_time":4241000000000,"state":"active","ping":56},{"user_id":60,"name":"Fightin Cow","steam_id":76561198080941486,"connected_time":3028000000000,"state":"active","ping":56},{"user_id":85,"name":"ZILICON","steam_id":76561199044705592,"connected_time":683000000000,"state":"active","ping":112},{"user_id":6,"name":"Levi","steam_id":76561198089832776,"connected_time":5831000000000,"state":"active","ping":55},{"user_id":59,"name":"Dr. House","steam_id":76561198052910702,"connected_time":3144000000000,"state":"active","ping":69},{"user_id":8,"name":"Moonflower ‚ú¶","steam_id":76561198191782483,"connected_time":5829000000000,"state":"active","ping":62},{"user_id":79,"name":"Alkimia","steam_id":76561198385763137,"connected_time":1647000000000,"state":"active","ping":117},{"user_id":90,"name":"GH578","steam_id":76561199493262585,"connected_time":336000000000,"state":"active","ping":91},{"user_id":93,"name":"The Coin Channel","steam_id":76561199043047342,"connected_time":202000000000,"state":"active","ping":93},{"user_id":12,"name":"JUCE","steam_id":76561198057835518,"connected_time":5823000000000,"state":"active","ping":57},{"user_id":69,"name":"HUGE destiny 2 guy","steam_id":76561198019643832,"connected_time":2177000000000,"state":"active","ping":88},{"user_id":67,"name":"Imrgrim","steam_id":76561198135866481,"connected_time":2204000000000,"state":"active","ping":69},{"user_id":15,"name":"WastefulTrash","steam_id":76561198119003597,"connected_time":5819000000000,"state":"active","ping":50},{"user_id":91,"name":"WiDam","steam_id":76561198005976631,"connected_time":242000000000,"state":"active","ping":80},{"user_id":17,"name":"Chilihuahua","steam_id":76561198004929152,"connected_time":5815000000000,"state":"active","ping":101},{"user_id":87,"name":"Tis_Me_Hacksoulslayer1","steam_id":76561198340064206,"connected_time":662000000000,"state":"active","ping":57},{"user_id":76,"name":"ExplosiveGamer21","steam_id":76561198132370955,"connected_time":2084000000000,"state":"active","ping":99},{"user_id":83,"name":"ducky","steam_id":76561198007764271,"connected_time":995000000000,"state":"active","ping":59},{"user_id":30,"name":"loser","steam_id":76561198259380127,"connected_time":5615000000000,"state":"active","ping":83},{"user_id":86,"name":"radicalPolio","steam_id":76561197961561855,"connected_time":679000000000,"state":"active","ping":46},{"user_id":92,"name":"Icewetalot","steam_id":76561199167985720,"connected_time":235000000000,"state":"active","ping":90},{"user_id":66,"name":"Angry Ginger","steam_id":76561198256929349,"connected_time":2209000000000,"state":"active","ping":81},{"user_id":82,"name":"BladeTheSaltyBeard","steam_id":76561198089468426,"connected_time":1431000000000,"state":"active","ping":77},{"user_id":72,"name":"G-G-G-GAMERSHOT","steam_id":76561198798980951,"connected_time":2158000000000,"state":"active","ping":77}]},{"server_id":108,"name":"Uncletopia | Dallas | 2 | All Maps","name_short":"dal-2","host":"dal-1.us.uncletopia.com","port":27025,"enabled":true,"region":"us-central","cc":"us","latitude":32.779167,"longitude":-96.80889,"reserved":0,"last_update":"0001-01-01T00:00:00Z","name_a2s":"Uncletopia | Dallas | 2 | All Maps","protocol":17,"map":"pl_swiftwater_final1","folder":"tf","game":"Team Fortress","app_id":440,"player_count":24,"max_players":24,"Bots":0,"server_type":"Dedicated","server_os":"Linux","password":true,"vac":true,"version":"7961495","steam_id":85568392924469988,"keywords":["nocrits","nodmgspread","payload","uncletopia"],"game_id":440,"stv_port":27026,"stv_name":"Uncletopia | Dallas | 2 | All Maps | STV","players":[{"user_id":76,"name":"KnifeySpoon","steam_id":76561198142442493,"connected_time":1067000000000,"state":"active","ping":101},{"user_id":58,"name":"google docs extraordinaire","steam_id":76561198124174061,"connected_time":2304000000000,"state":"active","ping":98},{"user_id":48,"name":"Sup m8","steam_id":76561198081659121,"connected_time":3505000000000,"state":"active","ping":41},{"user_id":81,"name":"Joepan","steam_id":76561198407219266,"connected_time":378000000000,"state":"active","ping":103},{"user_id":69,"name":"Suburban Wolf Dad","steam_id":76561198069234954,"connected_time":1232000000000,"state":"active","ping":66},{"user_id":70,"name":"Grand Piano Tuna","steam_id":76561198135137213,"connected_time":1229000000000,"state":"active","ping":48},{"user_id":79,"name":"7thelden","steam_id":76561198297428761,"connected_time":733000000000,"state":"active","ping":81},{"user_id":51,"name":"damiankiller1243","steam_id":76561198868885090,"connected_time":3201000000000,"state":"active","ping":69},{"user_id":82,"name":"‚òÖDeebo‚òÖ","steam_id":76561198060081522,"connected_time":376000000000,"state":"active","ping":75},{"user_id":71,"name":"catfish from toontown","steam_id":76561198060070002,"connected_time":1228000000000,"state":"active","ping":62},{"user_id":80,"name":"Abysa.","steam_id":76561198424398862,"connected_time":390000000000,"state":"active","ping":155},{"user_id":73,"name":"Ok then","steam_id":76561198891914787,"connected_time":1179000000000,"state":"active","ping":114},{"user_id":43,"name":"Mellou","steam_id":76561198212048740,"connected_time":3843000000000,"state":"active","ping":43},{"user_id":29,"name":"Kermit","steam_id":76561198034559979,"connected_time":4227000000000,"state":"active","ping":92},{"user_id":30,"name":"PintSized","steam_id":76561199077031492,"connected_time":4220000000000,"state":"active","ping":89},{"user_id":87,"name":"Invisorum","steam_id":76561198051902115,"connected_time":159000000000,"state":"active","ping":104},{"user_id":62,"name":"IHateThisMap","steam_id":76561197980597646,"connected_time":2253000000000,"state":"active","ping":86},{"user_id":84,"name":"Kng","steam_id":76561198993248203,"connected_time":324000000000,"state":"active","ping":84},{"user_id":85,"name":"zuzu","steam_id":76561198113607585,"connected_time":296000000000,"state":"active","ping":74},{"user_id":50,"name":"TheAilingSword","steam_id":76561198250350844,"connected_time":3225000000000,"state":"active","ping":47},{"user_id":36,"name":"CryshireWithAK","steam_id":76561198857908089,"connected_time":4136000000000,"state":"active","ping":107},{"user_id":55,"name":"Petebros","steam_id":76561198892196829,"connected_time":2775000000000,"state":"active","ping":84},{"user_id":57,"name":"cremeoner","steam_id":76561198372332251,"connected_time":2637000000000,"state":"active","ping":71},{"user_id":78,"name":"Your Local Florida Man","steam_id":76561199213763625,"connected_time":809000000000,"state":"active","ping":92}]},{"server_id":404,"name":"Uncletopia | Dallas | 3 | All Maps","name_short":"dal-3","host":"dal-1.us.uncletopia.com","port":27035,"enabled":true,"region":"us-central","cc":"us","latitude":32.779167,"longitude":-96.80889,"reserved":0,"last_update":"0001-01-01T00:00:00Z","name_a2s":"Uncletopia | Dallas | 3 | All Maps","protocol":17,"map":"pl_upward","folder":"tf","game":"Team Fortress","app_id":440,"player_count":24,"max_players":24,"Bots":0,"server_type":"Dedicated","server_os":"Linux","password":true,"vac":true,"version":"7961495","steam_id":85568392924515219,"keywords":["nocrits","nodmgspread","payload","uncletopia"],"game_id":440,"stv_port":27036,"stv_name":"Uncletopia | Dallas | 3 | All Maps | STV","players":[{"user_id":10,"name":"Snivy","steam_id":76561198135488292,"connected_time":2698000000000,"state":"active","ping":75},{"user_id":11,"name":"Kyobi","steam_id":76561197998985111,"connected_time":2688000000000,"state":"active","ping":89},{"user_id":36,"name":"Glar","steam_id":76561198341907150,"connected_time":1052000000000,"state":"active","ping":87},{"user_id":51,"name":"sniffyy!","steam_id":76561198129026588,"connected_time":266000000000,"state":"active","ping":88},{"user_id":39,"name":"Mike Bean Burritos","steam_id":76561198173430607,"connected_time":996000000000,"state":"active","ping":105},{"user_id":53,"name":"/ÃµÃ≥ÃøÃø/'Ãø'Ãø Ãø ( ‚Ä≤Ô∏µ‚Äµ","steam_id":76561198300550331,"connected_time":124000000000,"state":"active","ping":45},{"user_id":41,"name":"Balor","steam_id":76561198180926835,"connected_time":941000000000,"state":"active","ping":76},{"user_id":19,"name":"Cinnifox","steam_id":76561198068773971,"connected_time":1781000000000,"state":"active","ping":79},{"user_id":20,"name":"Gimli","steam_id":76561198153729934,"connected_time":1746000000000,"state":"active","ping":69},{"user_id":21,"name":"poopslapper33","steam_id":76561198294813506,"connected_time":1714000000000,"state":"active","ping":76},{"user_id":52,"name":"PissMaster^5","steam_id":76561198959576385,"connected_time":201000000000,"state":"active","ping":78},{"user_id":42,"name":"That Dude","steam_id":76561198980486227,"connected_time":929000000000,"state":"active","ping":79},{"user_id":24,"name":"serialkiller11","steam_id":76561198116821551,"connected_time":1451000000000,"state":"active","ping":76},{"user_id":25,"name":"BoyKisser","steam_id":76561199200969139,"connected_time":1425000000000,"state":"active","ping":602},{"user_id":37,"name":"Chicken","steam_id":76561198163690511,"connected_time":1026000000000,"state":"active","ping":69},{"user_id":27,"name":"Octafish","steam_id":76561198866038505,"connected_time":1346000000000,"state":"active","ping":71},{"user_id":48,"name":"shipwreck","steam_id":76561198129598363,"connected_time":536000000000,"state":"active","ping":88},{"user_id":29,"name":"Howell at the Moon","steam_id":76561198060827426,"connected_time":1314000000000,"state":"active","ping":80},{"user_id":44,"name":"bad ending","steam_id":76561198085451776,"connected_time":873000000000,"state":"active","ping":116},{"user_id":50,"name":"Nebe0","steam_id":76561199133770186,"connected_time":391000000000,"state":"active","ping":100},{"user_id":45,"name":"gayest MF DOOM fan","steam_id":76561198065801979,"connected_time":871000000000,"state":"active","ping":94},{"user_id":35,"name":"Cicada Orchestra","steam_id":76561199226839783,"connected_time":1084000000000,"state":"active","ping":64},{"user_id":38,"name":"MantisToboggan","steam_id":76561197969447887,"connected_time":1020000000000,"state":"active","ping":158},{"user_id":47,"name":"Cash MoneyBlue","steam_id":76561198934825927,"connected_time":816000000000,"state":"active","ping":87}]},{"server_id":405,"name":"Uncletopia | Dallas | 4 | Community","name_short":"dal-4","host":"dal-1.us.uncletopia.com","port":27045,"enabled":true,"region":"us-central","cc":"us","latitude":32.779167,"longitude":-96.80889,"reserved":0,"last_update":"0001-01-01T00:00:00Z","name_a2s":"Uncletopia | Dallas | 4 | Community","protocol":17,"map":"koth_lakeside_final","folder":"tf","game":"Team Fortress","app_id":440,"player_count":0,"max_players":24,"Bots":0,"server_type":"Dedicated","server_os":"Linux","password":true,"vac":true,"version":"7961495","steam_id":85568392924515220,"keywords":["cp","nocrits","nodmgspread","uncletopia"],"game_id":440,"stv_port":27046,"stv_name":"Uncletopia | Dallas | 4 | Community | STV","players":null},{"server_id":5,"name":"Uncletopia | Frankfurt | 1 | All Maps","name_short":"frk-1","host":"frk-1.de.uncletopia.com","port":27015,"enabled":true,"region":"eu","cc":"de","latitude":50.110924,"longitude":8.682127,"reserved":0,"last_update":"0001-01-01T00:00:00Z","name_a2s":"Uncletopia | Frankfurt | 1 | All Maps","protocol":17,"map":"pl_frontier_final","folder":"tf","game":"Team Fortress","app_id":440,"player_count":24,"max_players":24,"Bots":0,"server_type":"Dedicated","server_os":"Linux","password":true,"vac":true,"version":"7961495","steam_id":85568392924469989,"keywords":["nocrits","nodmgspread","payload","uncletopia"],"game_id":440,"stv_port":27016,"stv_name":"Uncletopia | Frankfurt | 1 | All Maps | STV","players":[{"user_id":122,"name":"Kieranite","steam_id":76561198059607762,"connected_time":339000000000,"state":"active","ping":59},{"user_id":115,"name":"npc","steam_id":76561198134507949,"connected_time":569000000000,"state":"active","ping":89},{"user_id":117,"name":"ArcunY","steam_id":76561198859200186,"connected_time":564000000000,"state":"active","ping":91},{"user_id":103,"name":"Sholunan","steam_id":76561198062435739,"connected_time":1551000000000,"state":"active","ping":69},{"user_id":114,"name":"Piss Lord Moose","steam_id":76561199027129554,"connected_time":600000000000,"state":"active","ping":144},{"user_id":118,"name":"biduf","steam_id":76561198115286235,"connected_time":496000000000,"state":"active","ping":90},{"user_id":51,"name":"DaiDaiMu :3","steam_id":76561198052794823,"connected_time":4335000000000,"state":"active","ping":65},{"user_id":128,"name":"Hussain_144","steam_id":76561198346029208,"connected_time":193000000000,"state":"active","ping":313},{"user_id":120,"name":"Jey Sus","steam_id":76561198129254533,"connected_time":437000000000,"state":"active","ping":173},{"user_id":119,"name":"[HOL] Solringen","steam_id":76561198003584681,"connected_time":451000000000,"state":"active","ping":70},{"user_id":126,"name":"Lemon","steam_id":76561198093765664,"connected_time":234000000000,"state":"active","ping":71},{"user_id":101,"name":"Cahl","steam_id":76561198980863125,"connected_time":1704000000000,"state":"active","ping":56},{"user_id":102,"name":"woop","steam_id":76561198985105074,"connected_time":1701000000000,"state":"active","ping":79},{"user_id":127,"name":"Lee","steam_id":76561198156912812,"connected_time":232000000000,"state":"active","ping":160},{"user_id":125,"name":"ÿßŸÑÿ¥ÿ¨ÿßÿπ","steam_id":76561198210249832,"connected_time":296000000000,"state":"active","ping":60},{"user_id":50,"name":"Nokah","steam_id":76561198973184361,"connected_time":4339000000000,"state":"active","ping":73},{"user_id":129,"name":"mr","steam_id":76561199037541925,"connected_time":180000000000,"state":"active","ping":75},{"user_id":90,"name":"Sabour","steam_id":76561197963965445,"connected_time":2177000000000,"state":"active","ping":57},{"user_id":130,"name":"ashley","steam_id":76561198448551449,"connected_time":147000000000,"state":"active","ping":49},{"user_id":132,"name":"I FuckinGG LOVEE BRAEADD","steam_id":76561198144896685,"connected_time":67000000000,"state":"active","ping":71},{"user_id":131,"name":"Spanishman","steam_id":76561198352596749,"connected_time":137000000000,"state":"active","ping":80},{"user_id":133,"name":"hardy","steam_id":76561198029228735,"connected_time":58000000000,"state":"active","ping":64},{"user_id":87,"name":"√áodar","steam_id":76561198235518444,"connected_time":2519000000000,"state":"active","ping":46},{"user_id":97,"name":"FlammenwerferPanzer","steam_id":76561199096682977,"connected_time":1871000000000,"state":"active","ping":71}]},{"server_id":110,"name":"Uncletopia | Frankfurt | 2 | All Maps","name_short":"frk-2","host":"frk-1.de.uncletopia.com","port":27025,"enabled":true,"region":"eu","cc":"de","latitude":50.110924,"longitude":8.682127,"reserved":0,"last_update":"0001-01-01T00:00:00Z","name_a2s":"Uncletopia | Frankfurt | 2 | All Maps","protocol":17,"map":"plr_hightower","folder":"tf","game":"Team Fortress","app_id":440,"player_count":0,"max_players":24,"Bots":0,"server_type":"Dedicated","server_os":"Linux","password":true,"vac":true,"version":"7961495","steam_id":85568392924469990,"keywords":["nocrits","nodmgspread","payload","uncletopia"],"game_id":440,"stv_port":27026,"stv_name":"Uncletopia | Frankfurt | 2 | All Maps | STV","players":null},{"server_id":308,"name":"Uncletopia | Frankfurt | 3 | All Maps","name_short":"frk-3","host":"frk-1.de.uncletopia.com","port":27035,"enabled":true,"region":"eu","cc":"de","latitude":50.110924,"longitude":8.682127,"reserved":0,"last_update":"0001-01-01T00:00:00Z","name_a2s":"Uncletopia | Frankfurt | 3 | All Maps","protocol":17,"map":"koth_viaduct","folder":"tf","game":"Team Fortress","app_id":440,"player_count":0,"max_players":24,"Bots":0,"server_type":"Dedicated","server_os":"Linux","password":true,"vac":true,"version":"7961495","steam_id":85568392924504274,"keywords":["cp","nocrits","nodmgspread","uncletopia"],"game_id":440,"stv_port":27036,"stv_name":"Uncletopia | Frankfurt | 3 | All Maps | STV","players":null},{"server_id":309,"name":"Uncletopia | Frankfurt | 4 | All Maps","name_short":"frk-4","host":"frk-1.de.uncletopia.com","port":27045,"enabled":true,"region":"eu","cc":"de","latitude":50.110924,"longitude":8.682127,"reserved":0,"last_update":"0001-01-01T00:00:00Z","name_a2s":"Uncletopia | Frankfurt | 4 | All Maps","protocol":17,"map":"pl_barnblitz","folder":"tf","game":"Team Fortress","app_id":440,"player_count":0,"max_players":24,"Bots":0,"server_type":"Dedicated","server_os":"Linux","password":true,"vac":true,"version":"7961495","steam_id":85568392924504275,"keywords":["nocrits","nodmgspread","payload","uncletopia"],"game_id":440,"stv_port":27046,"stv_name":"Uncletopia | Frankfurt | 4 | All Maps | STV","players":null},{"server_id":310,"name":"Uncletopia | Frankfurt | 5 | All Maps","name_short":"frk-5","host":"frk-1.de.uncletopia.com","port":27055,"enabled":true,"region":"eu","cc":"de","latitude":50.110924,"longitude":8.682127,"reserved":0,"last_update":"0001-01-01T00:00:00Z","name_a2s":"Uncletopia | Frankfurt | 5 | All Maps","protocol":17,"map":"pl_swiftwater_final1","folder":"tf","game":"Team Fortress","app_id":440,"player_count":0,"max_players":24,"Bots":0,"server_type":"Dedicated","server_os":"Linux","password":true,"vac":true,"version":"7961495","steam_id":85568392924504277,"keywords":["nocrits","nodmgspread","payload","uncletopia"],"game_id":440,"stv_port":27056,"stv_name":"Uncletopia | Frankfurt | 5 | All Maps | STV","players":null},{"server_id":311,"name":"Uncletopia | Frankfurt | 6 | All Maps","name_short":"frk-6","host":"frk-1.de.uncletopia.com","port":27065,"enabled":true,"region":"eu","cc":"de","latitude":50.110924,"longitude":8.682127,"reserved":0,"last_update":"0001-01-01T00:00:00Z","name_a2s":"Uncletopia | Frankfurt | 6 | All Maps","protocol":17,"map":"pl_frontier_final","folder":"tf","game":"Team Fortress","app_id":440,"player_count":22,"max_players":24,"Bots":0,"server_type":"Dedicated","server_os":"Linux","password":true,"vac":true,"version":"7961495","steam_id":85568392924504278,"keywords":["nocrits","nodmgspread","payload","uncletopia"],"game_id":440,"stv_port":27066,"stv_name":"Uncletopia | Frankfurt | 6 | All Maps | STV","players":[{"user_id":8,"name":"fp","steam_id":76561198817940142,"connected_time":5826000000000,"state":"active","ping":47},{"user_id":4,"name":"Jon (ebic gamer)","steam_id":76561199380849468,"connected_time":5871000000000,"state":"active","ping":61},{"user_id":5,"name":"Bill Carr","steam_id":76561198110033943,"connected_time":5871000000000,"state":"active","ping":46},{"user_id":22,"name":"tone","steam_id":76561197975301462,"connected_time":5556000000000,"state":"active","ping":89},{"user_id":9,"name":"coella","steam_id":76561198442803577,"connected_time":5823000000000,"state":"active","ping":80},{"user_id":59,"name":"Miss Bari (epik gamer)","steam_id":76561198365286092,"connected_time":3219000000000,"state":"active","ping":52},{"user_id":11,"name":"Marquis de Hoto","steam_id":76561198080687708,"connected_time":5813000000000,"state":"active","ping":65},{"user_id":49,"name":"Niyaah","steam_id":76561198110209191,"connected_time":4106000000000,"state":"active","ping":74},{"user_id":15,"name":"Macoda","steam_id":76561198061487030,"connected_time":5712000000000,"state":"active","ping":72},{"user_id":48,"name":"Doctor Marijuana","steam_id":76561198288289879,"connected_time":4136000000000,"state":"active","ping":61},{"user_id":47,"name":"gx71","steam_id":76561198035112358,"connected_time":4159000000000,"state":"active","ping":62},{"user_id":69,"name":"2BCD","steam_id":76561198178254946,"connected_time":2119000000000,"state":"active","ping":66},{"user_id":82,"name":"LuCroGi","steam_id":76561198057283891,"connected_time":941000000000,"state":"active","ping":52},{"user_id":84,"name":"‡πñ€£€úBarry_Fish3R","steam_id":76561198127543553,"connected_time":264000000000,"state":"active","ping":101},{"user_id":75,"name":"SuntanPikachu","steam_id":76561198121242476,"connected_time":1948000000000,"state":"active","ping":68},{"user_id":76,"name":"Dapper Pan Man","steam_id":76561197981874399,"connected_time":1767000000000,"state":"active","ping":85},{"user_id":73,"name":"noahjwarner09","steam_id":76561199444479988,"connected_time":2069000000000,"state":"active","ping":167},{"user_id":36,"name":"Flashback","steam_id":76561197973978552,"connected_time":5133000000000,"state":"active","ping":62},{"user_id":83,"name":"‚òûLaZe‚òú","steam_id":76561198202191400,"connected_time":549000000000,"state":"active","ping":65},{"user_id":63,"name":"Suetolog","steam_id":76561199053090212,"connected_time":3167000000000,"state":"active","ping":47},{"user_id":79,"name":"Mach","steam_id":76561198952487564,"connected_time":1302000000000,"state":"active","ping":137}]},{"server_id":23,"name":"Uncletopia | Frankfurt | 7 | Stopwatch Beta","name_short":"frk-7","host":"frk-1.de.uncletopia.com","port":27075,"enabled":true,"region":"eu","cc":"de","latitude":50.110924,"longitude":8.682127,"reserved":0,"last_update":"0001-01-01T00:00:00Z","name_a2s":"Uncletopia | Frankfurt | 7 | Stopwatch Beta","protocol":17,"map":"pl_frontier_final","folder":"tf","game":"Team Fortress","app_id":440,"player_count":0,"max_players":24,"Bots":0,"server_type":"Dedicated","server_os":"Linux","password":true,"vac":true,"version":"7961495","steam_id":85568392924742827,"keywords":["nocrits","nodmgspread","payload","uncletopia"],"game_id":440,"stv_port":27076,"stv_name":"Uncletopia | Frankfurt | 7 | Stopwatch Beta | STV","players":null},{"server_id":24,"name":"Uncletopia | Frankfurt | 8 | Community","name_short":"frk-8","host":"frk-1.de.uncletopia.com","port":27085,"enabled":true,"region":"eu","cc":"de","latitude":50.110924,"longitude":8.682127,"reserved":0,"last_update":"0001-01-01T00:00:00Z","name_a2s":"Uncletopia | Frankfurt | 8 | Community","protocol":17,"map":"koth_highpass","folder":"tf","game":"Team Fortress","app_id":440,"player_count":0,"max_players":24,"Bots":0,"server_type":"Dedicated","server_os":"Linux","password":true,"vac":true,"version":"7961495","steam_id":85568392924742828,"keywords":["cp","nocrits","nodmgspread","uncletopia"],"game_id":440,"stv_port":27086,"stv_name":"Uncletopia | Frankfurt | 8 | Community | STV","players":null},{"server_id":202,"name":"Uncletopia | Hong Kong | 1 | All Maps","name_short":"hgk-1","host":"hgk-1.hk.uncletopia.com","port":27015,"enabled":true,"region":"asia","cc":"hk","latitude":22.302711,"longitude":114.177216,"reserved":0,"last_update":"0001-01-01T00:00:00Z","name_a2s":"Uncletopia | Hong Kong | 1 | All Maps","protocol":17,"map":"pl_barnblitz","folder":"tf","game":"Team Fortress","app_id":440,"player_count":0,"max_players":24,"Bots":0,"server_type":"Dedicated","server_os":"Linux","password":true,"vac":true,"version":"7961495","steam_id":85568392924494504,"keywords":["nocrits","nodmgspread","payload","uncletopia"],"game_id":440,"stv_port":27016,"stv_name":"Uncletopia | Hong Kong | 1 | All Maps | STV","players":null},{"server_id":1,"name":"Uncletopia | Los Angeles | 1 | All Maps","name_short":"lax-1","host":"lax-1.us.uncletopia.com","port":27015,"enabled":true,"region":"us-west","cc":"us","latitude":33.94279,"longitude":-118.41004,"reserved":0,"last_update":"0001-01-01T00:00:00Z","name_a2s":"Uncletopia | Los Angeles | 1 | All Maps","protocol":17,"map":"pl_borneo","folder":"tf","game":"Team Fortress","app_id":440,"player_count":24,"max_players":24,"Bots":0,"server_type":"Dedicated","server_os":"Linux","password":true,"vac":true,"version":"7961495","steam_id":85568392924469991,"keywords":["nocrits","nodmgspread","payload","uncletopia"],"game_id":440,"stv_port":27016,"stv_name":"Uncletopia | Los Angeles | 1 | All Maps | STV","players":[{"user_id":107,"name":"incogsteevo","steam_id":76561198045264912,"connected_time":97000000000,"state":"active","ping":108},{"user_id":74,"name":"LeadButterTF2","steam_id":76561198260530863,"connected_time":2770000000000,"state":"active","ping":44},{"user_id":105,"name":"VoodooPapa","steam_id":76561199160439066,"connected_time":123000000000,"state":"active","ping":73},{"user_id":75,"name":"Meekz","steam_id":76561198012562373,"connected_time":2768000000000,"state":"active","ping":59},{"user_id":76,"name":"Lucas","steam_id":76561198399704604,"connected_time":2767000000000,"state":"active","ping":74},{"user_id":84,"name":"TTV/ChadMorningWood","steam_id":76561198139832291,"connected_time":1310000000000,"state":"active","ping":48},{"user_id":85,"name":"iStrava","steam_id":76561198088223717,"connected_time":1300000000000,"state":"active","ping":84},{"user_id":100,"name":"TheCockBaller","steam_id":76561198210452033,"connected_time":726000000000,"state":"active","ping":67},{"user_id":92,"name":"HiddenEgg","steam_id":76561199045105518,"connected_time":1197000000000,"state":"active","ping":56},{"user_id":87,"name":"Jolly Wolly","steam_id":76561198087571347,"connected_time":1281000000000,"state":"active","ping":60},{"user_id":95,"name":"NERV","steam_id":76561198111023744,"connected_time":1122000000000,"state":"active","ping":120},{"user_id":104,"name":"Big Jack","steam_id":76561198132755619,"connected_time":179000000000,"state":"active","ping":40},{"user_id":78,"name":"a chicken","steam_id":76561198313121580,"connected_time":2125000000000,"state":"active","ping":47},{"user_id":102,"name":"Daypire","steam_id":76561198088120472,"connected_time":463000000000,"state":"active","ping":71},{"user_id":19,"name":"riSygneD","steam_id":76561198331618687,"connected_time":6866000000000,"state":"active","ping":33},{"user_id":42,"name":"vee the fenn","steam_id":76561198049510832,"connected_time":5680000000000,"state":"active","ping":65},{"user_id":96,"name":"WaterFish","steam_id":76561198105766844,"connected_time":983000000000,"state":"active","ping":79},{"user_id":55,"name":"Loogus","steam_id":76561198811561721,"connected_time":3977000000000,"state":"active","ping":58},{"user_id":108,"name":"Infentdegree211","steam_id":76561198385234127,"connected_time":87000000000,"state":"active","ping":55},{"user_id":79,"name":"queer latinx pmc contractor","steam_id":76561198058617608,"connected_time":2120000000000,"state":"active","ping":50},{"user_id":80,"name":"Pybro's Day Off","steam_id":76561197996353534,"connected_time":1938000000000,"state":"active","ping":53},{"user_id":103,"name":"duncaidan","steam_id":76561199013510313,"connected_time":397000000000,"state":"active","ping":47},{"user_id":106,"name":"Toastedtoast222","steam_id":76561198120756409,"connected_time":118000000000,"state":"active","ping":125},{"user_id":83,"name":"Dingelsmurf the Orange","steam_id":76561198212489267,"connected_time":1313000000000,"state":"active","ping":114}]},{"server_id":112,"name":"Uncletopia | Los Angeles | 2 | All Maps","name_short":"lax-2","host":"lax-1.us.uncletopia.com","port":27025,"enabled":true,"region":"us-west","cc":"us","latitude":33.94279,"longitude":-118.41004,"reserved":0,"last_update":"0001-01-01T00:00:00Z","name_a2s":"Uncletopia | Los Angeles | 2 | All Maps","protocol":17,"map":"koth_cascade","folder":"tf","game":"Team Fortress","app_id":440,"player_count":0,"max_players":24,"Bots":0,"server_type":"Dedicated","server_os":"Linux","password":true,"vac":true,"version":"7961495","steam_id":85568392924469992,"keywords":["cp","nocrits","nodmgspread","uncletopia"],"game_id":440,"stv_port":27026,"stv_name":"Uncletopia | Los Angeles | 2 | All Maps | STV","players":null},{"server_id":324,"name":"Uncletopia | Los Angeles | 3 | All Maps","name_short":"lax-3","host":"lax-1.us.uncletopia.com","port":27035,"enabled":true,"region":"us-west","cc":"us","latitude":33.94279,"longitude":-118.41004,"reserved":0,"last_update":"0001-01-01T00:00:00Z","name_a2s":"Uncletopia | Los Angeles | 3 | All Maps","protocol":17,"map":"koth_viaduct","folder":"tf","game":"Team Fortress","app_id":440,"player_count":0,"max_players":24,"Bots":0,"server_type":"Dedicated","server_os":"Linux","password":true,"vac":true,"version":"7961495","steam_id":85568392924510198,"keywords":["cp","nocrits","nodmgspread","uncletopia"],"game_id":440,"stv_port":27036,"stv_name":"Uncletopia | Los Angeles | 3 | All Maps | STV","players":null},{"server_id":25,"name":"Uncletopia | Los Angeles | 4 | Stopwatch","name_short":"lax-4","host":"lax-1.us.uncletopia.com","port":27045,"enabled":true,"region":"us-west","cc":"us","latitude":33.94279,"longitude":-118.41004,"reserved":0,"last_update":"0001-01-01T00:00:00Z","name_a2s":"Uncletopia | Los Angeles | 4 | Stopwatch","protocol":17,"map":"koth_cascade","folder":"tf","game":"Team Fortress","app_id":440,"player_count":0,"max_players":24,"Bots":0,"server_type":"Dedicated","server_os":"Linux","password":true,"vac":true,"version":"7961495","steam_id":85568392924510199,"keywords":["cp","nocrits","nodmgspread","uncletopia"],"game_id":440,"stv_port":27046,"stv_name":"Uncletopia | Los Angeles | 4 | Stopwatch | STV","players":null},{"server_id":11,"name":"Uncletopia | London | 1 | All Maps","name_short":"lon-1","host":"lon-1.uk.uncletopia.com","port":27015,"enabled":true,"region":"eu","cc":"gb","latitude":51.509865,"longitude":-0.118092,"reserved":0,"last_update":"0001-01-01T00:00:00Z","name_a2s":"Uncletopia | London | 1 | All Maps","protocol":17,"map":"cp_mossrock","folder":"tf","game":"Team Fortress","app_id":440,"player_count":24,"max_players":24,"Bots":0,"server_type":"Dedicated","server_os":"Linux","password":true,"vac":true,"version":"7961495","steam_id":85568392924367362,"keywords":["cp","nocrits","nodmgspread","uncletopia"],"game_id":440,"stv_port":27016,"stv_name":"Uncletopia | London | 1 | All Maps | STV","players":[{"user_id":85,"name":"King's Disease","steam_id":76561198076639682,"connected_time":72000000000,"state":"active","ping":134},{"user_id":74,"name":"Without warning","steam_id":76561199383437138,"connected_time":1048000000000,"state":"active","ping":117},{"user_id":78,"name":"sora","steam_id":76561198096547662,"connected_time":621000000000,"state":"active","ping":51},{"user_id":81,"name":"Keke","steam_id":76561198042032908,"connected_time":533000000000,"state":"active","ping":99},{"user_id":7,"name":"teddy","steam_id":76561198007436837,"connected_time":5943000000000,"state":"active","ping":38},{"user_id":58,"name":"jonesy","steam_id":76561198073975078,"connected_time":2646000000000,"state":"active","ping":54},{"user_id":9,"name":"The Subway Scientist","steam_id":76561198193757646,"connected_time":5933000000000,"state":"active","ping":45},{"user_id":62,"name":"Smiffy","steam_id":76561198094911581,"connected_time":2600000000000,"state":"active","ping":49},{"user_id":11,"name":"Sandshee","steam_id":76561198088574666,"connected_time":5927000000000,"state":"active","ping":45},{"user_id":64,"name":"Skinny101","steam_id":76561197985599360,"connected_time":2299000000000,"state":"active","ping":55},{"user_id":84,"name":"hedon/","steam_id":76561198249832770,"connected_time":219000000000,"state":"active","ping":45},{"user_id":72,"name":"bowchika wowa #SlavaUkraine","steam_id":76561198159564550,"connected_time":1128000000000,"state":"active","ping":70},{"user_id":54,"name":"OceanMan","steam_id":76561198391833371,"connected_time":4051000000000,"state":"active","ping":45},{"user_id":69,"name":"el mencho","steam_id":76561198413012473,"connected_time":1706000000000,"state":"active","ping":44},{"user_id":53,"name":"remi, she wrote.","steam_id":76561198044045655,"connected_time":4059000000000,"state":"active","ping":76},{"user_id":80,"name":"Dimonki","steam_id":76561198821015001,"connected_time":564000000000,"state":"active","ping":86},{"user_id":71,"name":"gibb (official)","steam_id":76561198074097655,"connected_time":1142000000000,"state":"active","ping":44},{"user_id":68,"name":"Purps","steam_id":76561198053886680,"connected_time":1796000000000,"state":"active","ping":46},{"user_id":42,"name":"Minimi","steam_id":76561198873850443,"connected_time":5001000000000,"state":"active","ping":45},{"user_id":47,"name":"Pinkchup","steam_id":76561198106802803,"connected_time":4823000000000,"state":"active","ping":75},{"user_id":86,"name":"RedZone","steam_id":76561197973665180,"connected_time":14000000000,"state":"active","ping":167},{"user_id":82,"name":"Splendorous","steam_id":76561198880320499,"connected_time":513000000000,"state":"active","ping":51},{"user_id":66,"name":"SuperBob103","steam_id":76561199175360012,"connected_time":2036000000000,"state":"active","ping":45},{"user_id":83,"name":"Genki","steam_id":76561198073759201,"connected_time":511000000000,"state":"active","ping":42}]},{"server_id":114,"name":"Uncletopia | London | 2 | All Maps","name_short":"lon-2","host":"lon-1.uk.uncletopia.com","port":27025,"enabled":true,"region":"eu","cc":"gb","latitude":51.509865,"longitude":-0.118092,"reserved":0,"last_update":"0001-01-01T00:00:00Z","name_a2s":"Uncletopia | London | 2 | All Maps","protocol":17,"map":"pl_pier","folder":"tf","game":"Team Fortress","app_id":440,"player_count":0,"max_players":24,"Bots":0,"server_type":"Dedicated","server_os":"Linux","password":true,"vac":true,"version":"7961495","steam_id":85568392924470941,"keywords":["nocrits","nodmgspread","payload","uncletopia"],"game_id":440,"stv_port":27026,"stv_name":"Uncletopia | London | 2 | All Maps | STV","players":null},{"server_id":320,"name":"Uncletopia | London | 3 | All Maps","name_short":"lon-3","host":"lon-1.uk.uncletopia.com","port":27035,"enabled":true,"region":"eu","cc":"gb","latitude":51.509865,"longitude":-0.118092,"reserved":0,"last_update":"0001-01-01T00:00:00Z","name_a2s":"Uncletopia | London | 3 | All Maps","protocol":17,"map":"koth_lakeside_final","folder":"tf","game":"Team Fortress","app_id":440,"player_count":4,"max_players":24,"Bots":0,"server_type":"Dedicated","server_os":"Linux","password":true,"vac":true,"version":"7961495","steam_id":85568392924510192,"keywords":["cp","nocrits","nodmgspread","uncletopia"],"game_id":440,"stv_port":27036,"stv_name":"Uncletopia | London | 3 | All Maps | STV","players":[{"user_id":48,"name":"DJ_Not_Guilty","steam_id":76561198074369317,"connected_time":1705000000000,"state":"active","ping":54},{"user_id":49,"name":"Sealboy","steam_id":76561199063067842,"connected_time":1645000000000,"state":"active","ping":150},{"user_id":53,"name":"mush","steam_id":76561198310089797,"connected_time":475000000000,"state":"active","ping":156},{"user_id":54,"name":"MacAndCheese69","steam_id":76561199013464592,"connected_time":326000000000,"state":"active","ping":128}]},{"server_id":321,"name":"Uncletopia | London | 4 | All Maps","name_short":"lon-4","host":"lon-1.uk.uncletopia.com","port":27045,"enabled":true,"region":"eu","cc":"gb","latitude":51.509865,"longitude":-0.118092,"reserved":0,"last_update":"0001-01-01T00:00:00Z","name_a2s":"Uncletopia | London | 4 | All Maps","protocol":17,"map":"pl_badwater","folder":"tf","game":"Team Fortress","app_id":440,"player_count":24,"max_players":24,"Bots":0,"server_type":"Dedicated","server_os":"Linux","password":true,"vac":true,"version":"7961495","steam_id":85568392924510193,"keywords":["nocrits","nodmgspread","payload","uncletopia"],"game_id":440,"stv_port":27046,"stv_name":"Uncletopia | London | 4 | All Maps | STV","players":[{"user_id":100,"name":"Carbon Monoxide Detector","steam_id":76561198055608801,"connected_time":2519000000000,"state":"active","ping":69},{"user_id":118,"name":"Neil Breen","steam_id":76561198132625124,"connected_time":917000000000,"state":"active","ping":142},{"user_id":110,"name":"SkidMarxist","steam_id":76561199164687578,"connected_time":1342000000000,"state":"active","ping":54},{"user_id":104,"name":"cinny","steam_id":76561198832112629,"connected_time":2224000000000,"state":"active","ping":81},{"user_id":107,"name":"fanno shh sul mio hrr","steam_id":76561198048250715,"connected_time":1764000000000,"state":"active","ping":60},{"user_id":62,"name":"Klorophyte","steam_id":76561198885112655,"connected_time":3863000000000,"state":"active","ping":95},{"user_id":88,"name":"FNF","steam_id":76561199151422826,"connected_time":3048000000000,"state":"active","ping":120},{"user_id":119,"name":"Deemask√©","steam_id":76561199225833593,"connected_time":900000000000,"state":"active","ping":48},{"user_id":28,"name":"j√π xiƒì","steam_id":76561198096189399,"connected_time":5028000000000,"state":"active","ping":62},{"user_id":125,"name":"marcus.subaru@subarumotors.jp","steam_id":76561198104896547,"connected_time":327000000000,"state":"active","ping":78},{"user_id":108,"name":"Slooshie","steam_id":76561198008749909,"connected_time":1634000000000,"state":"active","ping":68},{"user_id":103,"name":"sbagasser","steam_id":76561198051283300,"connected_time":2391000000000,"state":"active","ping":84},{"user_id":36,"name":"debil","steam_id":76561198160047415,"connected_time":4686000000000,"state":"active","ping":73},{"user_id":111,"name":"Cabbage Eyes","steam_id":76561198056584830,"connected_time":1342000000000,"state":"active","ping":63},{"user_id":129,"name":"Minnie","steam_id":76561198091052019,"connected_time":78000000000,"state":"active","ping":124},{"user_id":38,"name":"wes","steam_id":76561198067000117,"connected_time":4658000000000,"state":"active","ping":78},{"user_id":109,"name":"Hyperion","steam_id":76561198043716162,"connected_time":1566000000000,"state":"active","ping":64},{"user_id":126,"name":"Owenter","steam_id":76561198083201886,"connected_time":319000000000,"state":"active","ping":36},{"user_id":127,"name":"lidl","steam_id":76561198895235231,"connected_time":309000000000,"state":"active","ping":57},{"user_id":97,"name":"ScampSixteen","steam_id":76561198021771000,"connected_time":2736000000000,"state":"active","ping":48},{"user_id":124,"name":"Darkmaen","steam_id":76561198060543390,"connected_time":701000000000,"state":"active","ping":62},{"user_id":115,"name":"caramelldancin'","steam_id":76561198193357946,"connected_time":1099000000000,"state":"active","ping":104},{"user_id":106,"name":"shankz","steam_id":76561198128803260,"connected_time":2046000000000,"state":"active","ping":46},{"user_id":128,"name":"Churo","steam_id":76561198016542134,"connected_time":228000000000,"state":"active","ping":56}]},{"server_id":21,"name":"Uncletopia | London | 5 | All Maps","name_short":"lon-5","host":"lon-1.uk.uncletopia.com","port":27055,"enabled":true,"region":"eu","cc":"gb","latitude":51.509865,"longitude":-0.118092,"reserved":0,"last_update":"0001-01-01T00:00:00Z","name_a2s":"Uncletopia | London | 5 | All Maps","protocol":17,"map":"pl_borneo","folder":"tf","game":"Team Fortress","app_id":440,"player_count":24,"max_players":24,"Bots":0,"server_type":"Dedicated","server_os":"Linux","password":true,"vac":true,"version":"7961495","steam_id":85568392924742829,"keywords":["nocrits","nodmgspread","payload","uncletopia"],"game_id":440,"stv_port":27056,"stv_name":"Uncletopia | London | 5 | All Maps | STV","players":[{"user_id":105,"name":"Max","steam_id":76561198138959361,"connected_time":171000000000,"state":"active","ping":60},{"user_id":104,"name":"Bread„ÉÑ","steam_id":76561198330072356,"connected_time":272000000000,"state":"active","ping":48},{"user_id":61,"name":"DoomerDodie","steam_id":76561198177853490,"connected_time":2419000000000,"state":"active","ping":65},{"user_id":52,"name":"Saul Quiz-Man","steam_id":76561198353226972,"connected_time":4191000000000,"state":"active","ping":55},{"user_id":106,"name":"Critless","steam_id":76561198133968184,"connected_time":141000000000,"state":"active","ping":47},{"user_id":73,"name":"James!","steam_id":76561198328443797,"connected_time":1765000000000,"state":"active","ping":145},{"user_id":74,"name":"Elon Musk's Last Braincell","steam_id":76561198846784757,"connected_time":1707000000000,"state":"active","ping":56},{"user_id":86,"name":"DistantJragon","steam_id":76561198117563641,"connected_time":1339000000000,"state":"active","ping":140},{"user_id":94,"name":"Tummy","steam_id":76561198045654910,"connected_time":948000000000,"state":"active","ping":47},{"user_id":76,"name":"Real (Real)","steam_id":76561198323425034,"connected_time":1653000000000,"state":"active","ping":84},{"user_id":87,"name":"Intimatt","steam_id":76561198066393546,"connected_time":1278000000000,"state":"active","ping":55},{"user_id":107,"name":"yeetyfreety","steam_id":76561198882735886,"connected_time":77000000000,"state":"active","ping":123},{"user_id":101,"name":"The Groundhog","steam_id":76561198881037607,"connected_time":538000000000,"state":"active","ping":55},{"user_id":16,"name":"CCPodz","steam_id":76561199143506502,"connected_time":5865000000000,"state":"active","ping":145},{"user_id":97,"name":"Cheezime","steam_id":76561198154740835,"connected_time":852000000000,"state":"active","ping":54},{"user_id":78,"name":"Milkman","steam_id":76561199089290269,"connected_time":1625000000000,"state":"active","ping":56},{"user_id":79,"name":"qrm","steam_id":76561199061345151,"connected_time":1603000000000,"state":"active","ping":81},{"user_id":108,"name":"A new Player(F2p)","steam_id":76561199388826335,"connected_time":76000000000,"state":"active","ping":137},{"user_id":103,"name":"Abby","steam_id":76561198170528489,"connected_time":294000000000,"state":"active","ping":64},{"user_id":81,"name":"NotChloe","steam_id":76561198080658092,"connected_time":1595000000000,"state":"active","ping":60},{"user_id":55,"name":"The Pissquisitor","steam_id":76561199177598615,"connected_time":4164000000000,"state":"active","ping":71},{"user_id":83,"name":"Xerp","steam_id":76561198325049769,"connected_time":1544000000000,"state":"active","ping":66},{"user_id":100,"name":"Wodaz","steam_id":76561198043263557,"connected_time":549000000000,"state":"active","ping":63},{"user_id":102,"name":"Spore","steam_id":76561198889433116,"connected_time":537000000000,"state":"active","ping":76}]},{"server_id":22,"name":"Uncletopia | London | 6 | All Maps","name_short":"lon-6","host":"lon-1.uk.uncletopia.com","port":27065,"enabled":true,"region":"eu","cc":"gb","latitude":51.509865,"longitude":-0.118092,"reserved":0,"last_update":"0001-01-01T00:00:00Z","name_a2s":"Uncletopia | London | 6 | All Maps","protocol":17,"map":"koth_lakeside_final","folder":"tf","game":"Team Fortress","app_id":440,"player_count":0,"max_players":24,"Bots":0,"server_type":"Dedicated","server_os":"Linux","password":true,"vac":true,"version":"7961495","steam_id":85568392924742830,"keywords":["cp","nocrits","nodmgspread","uncletopia"],"game_id":440,"stv_port":27066,"stv_name":"Uncletopia | London | 6 | All Maps | STV","players":null},{"server_id":40,"name":"Uncletopia | London | 7 | No Payload","name_short":"lon-7","host":"lon-1.uk.uncletopia.com","port":27075,"enabled":true,"region":"eu","cc":"gb","latitude":51.509865,"longitude":-0.118092,"reserved":0,"last_update":"0001-01-01T00:00:00Z","name_a2s":"Uncletopia | London | 7 | No Payload","protocol":17,"map":"cp_altitude","folder":"tf","game":"Team Fortress","app_id":440,"player_count":0,"max_players":24,"Bots":0,"server_type":"Dedicated","server_os":"Linux","password":true,"vac":true,"version":"7961495","steam_id":85568392924964314,"keywords":["cp","nocrits","nodmgspread","uncletopia"],"game_id":440,"stv_port":27076,"stv_name":"Uncletopia | London | 7 | No Payload | STV","players":null},{"server_id":41,"name":"Uncletopia | London | 8 | Community","name_short":"lon-8","host":"lon-1.uk.uncletopia.com","port":27085,"enabled":true,"region":"eu","cc":"gb","latitude":51.509865,"longitude":-0.118092,"reserved":0,"last_update":"0001-01-01T00:00:00Z","name_a2s":"Uncletopia | London | 8 | Community","protocol":17,"map":"workshop/pl_emerge_rc2.ugc888027758","folder":"tf","game":"Team Fortress","app_id":440,"player_count":0,"max_players":24,"Bots":0,"server_type":"Dedicated","server_os":"Linux","password":true,"vac":true,"version":"7961495","steam_id":85568392924964315,"keywords":["nocrits","nodmgspread","payload","uncletopia"],"game_id":440,"stv_port":27086,"stv_name":"Uncletopia | London | 8 | Community | STV","players":null},{"server_id":300,"name":"Uncletopia | Montr√©al | 1 | All Maps","name_short":"mtl-1","host":"mtl-1.ca.uncletopia.com","port":27015,"enabled":true,"region":"us-east","cc":"ca","latitude":45.50889,"longitude":-73.56167,"reserved":0,"last_update":"0001-01-01T00:00:00Z","name_a2s":"","protocol":0,"map":"","folder":"","game":"","app_id":0,"player_count":5,"max_players":0,"Bots":0,"server_type":"","server_os":"","password":false,"vac":false,"version":"","steam_id":0,"keywords":null,"game_id":0,"stv_port":0,"stv_name":"","players":[{"user_id":5,"name":"ThePyroCone","steam_id":76561199217854104,"connected_time":1217000000000,"state":"active","ping":71},{"user_id":6,"name":"CarpenetoClan","steam_id":76561198038973518,"connected_time":1114000000000,"state":"active","ping":59},{"user_id":11,"name":"Pyrovision Distributor","steam_id":76561198242118240,"connected_time":70000000000,"state":"active","ping":60},{"user_id":9,"name":"tucker","steam_id":76561198348308711,"connected_time":515000000000,"state":"active","ping":69},{"user_id":12,"name":"SS. sheep","steam_id":76561198172943006,"connected_time":23000000000,"state":"active","ping":64}]},{"server_id":301,"name":"Uncletopia | Montr√©al | 2 | All Maps","name_short":"mtl-2","host":"mtl-1.ca.uncletopia.com","port":27025,"enabled":true,"region":"us-east","cc":"ca","latitude":45.50889,"longitude":-73.56167,"reserved":0,"last_update":"0001-01-01T00:00:00Z","name_a2s":"","protocol":0,"map":"","folder":"","game":"","app_id":0,"player_count":0,"max_players":0,"Bots":0,"server_type":"","server_os":"","password":false,"vac":false,"version":"","steam_id":0,"keywords":null,"game_id":0,"stv_port":0,"stv_name":"","players":null},{"server_id":302,"name":"Uncletopia | Montr√©al | 3 | All Maps","name_short":"mtl-3","host":"mtl-1.ca.uncletopia.com","port":27035,"enabled":true,"region":"us-east","cc":"ca","latitude":45.50889,"longitude":-73.56167,"reserved":0,"last_update":"0001-01-01T00:00:00Z","name_a2s":"","protocol":0,"map":"","folder":"","game":"","app_id":0,"player_count":0,"max_players":0,"Bots":0,"server_type":"","server_os":"","password":false,"vac":false,"version":"","steam_id":0,"keywords":null,"game_id":0,"stv_port":0,"stv_name":"","players":null},{"server_id":303,"name":"Uncletopia | Montr√©al | 4 | No Payload","name_short":"mtl-4","host":"mtl-1.ca.uncletopia.com","port":27045,"enabled":true,"region":"us-east","cc":"ca","latitude":45.50889,"longitude":-73.56167,"reserved":0,"last_update":"0001-01-01T00:00:00Z","name_a2s":"","protocol":0,"map":"","folder":"","game":"","app_id":0,"player_count":0,"max_players":0,"Bots":0,"server_type":"","server_os":"","password":false,"vac":false,"version":"","steam_id":0,"keywords":null,"game_id":0,"stv_port":0,"stv_name":"","players":null},{"server_id":13,"name":"Uncletopia | New York City | 1 | All Maps","name_short":"nyc-1","host":"nyc-1.us.uncletopia.com","port":27015,"enabled":true,"region":"us-east","cc":"us","latitude":40.73061,"longitude":-73.93524,"reserved":0,"last_update":"0001-01-01T00:00:00Z","name_a2s":"Uncletopia | New York City | 1 | All Maps","protocol":17,"map":"cp_steel","folder":"tf","game":"Team Fortress","app_id":440,"player_count":24,"max_players":24,"Bots":0,"server_type":"Dedicated","server_os":"Linux","password":true,"vac":true,"version":"7961495","steam_id":85568392924469993,"keywords":["cp","nocrits","nodmgspread","uncletopia"],"game_id":440,"stv_port":27016,"stv_name":"Uncletopia | New York City | 1 | All Maps | STV","players":[{"user_id":59,"name":"Im Groot","steam_id":76561198294943420,"connected_time":3753000000000,"state":"active","ping":84},{"user_id":78,"name":"Queso2469","steam_id":76561197993024580,"connected_time":2485000000000,"state":"active","ping":49},{"user_id":99,"name":"toucer","steam_id":76561198986534519,"connected_time":388000000000,"state":"active","ping":105},{"user_id":107,"name":"Trigger!","steam_id":76561198061514186,"connected_time":83000000000,"state":"active","ping":85},{"user_id":102,"name":"Hyd","steam_id":76561198064680410,"connected_time":352000000000,"state":"active","ping":74},{"user_id":70,"name":"-Extreme-","steam_id":76561198013900127,"connected_time":3146000000000,"state":"active","ping":159},{"user_id":97,"name":"antoniov00gaming","steam_id":76561198364632073,"connected_time":423000000000,"state":"active","ping":85},{"user_id":72,"name":"Chris P. Bacon","steam_id":76561198000851038,"connected_time":2780000000000,"state":"active","ping":53},{"user_id":58,"name":"crying","steam_id":76561198337783795,"connected_time":3760000000000,"state":"active","ping":53},{"user_id":12,"name":"High School Nudical","steam_id":76561198172120615,"connected_time":5944000000000,"state":"active","ping":36},{"user_id":106,"name":"SwaggerEggs","steam_id":76561199057357191,"connected_time":242000000000,"state":"active","ping":124},{"user_id":104,"name":"GoodleShoes/ttv","steam_id":76561198030993521,"connected_time":322000000000,"state":"active","ping":72},{"user_id":105,"name":"cumbia stud gaming","steam_id":76561198963282079,"connected_time":286000000000,"state":"active","ping":134},{"user_id":95,"name":"Dieu-Sama","steam_id":76561198002075862,"connected_time":461000000000,"state":"active","ping":73},{"user_id":84,"name":"A Puppy","steam_id":76561198828184456,"connected_time":1394000000000,"state":"active","ping":46},{"user_id":87,"name":"Gentoo Linux Gaming","steam_id":76561197999657118,"connected_time":1294000000000,"state":"active","ping":68},{"user_id":48,"name":"Bajanga.co","steam_id":76561199122049654,"connected_time":4387000000000,"state":"active","ping":62},{"user_id":89,"name":"TopHatWearingKoala","steam_id":76561198068192599,"connected_time":919000000000,"state":"active","ping":62},{"user_id":98,"name":"Mrs.Frizzle","steam_id":76561198117157085,"connected_time":409000000000,"state":"active","ping":59},{"user_id":101,"name":"[NAME-REDACTED]","steam_id":76561198035682975,"connected_time":366000000000,"state":"active","ping":54},{"user_id":91,"name":"Goomby","steam_id":76561198079416561,"connected_time":516000000000,"state":"active","ping":92},{"user_id":86,"name":"screaming","steam_id":76561198050523315,"connected_time":1371000000000,"state":"active","ping":131},{"user_id":81,"name":"Joy","steam_id":76561198073690173,"connected_time":2459000000000,"state":"active","ping":55},{"user_id":57,"name":"Nerrrd_","steam_id":76561198870129960,"connected_time":3890000000000,"state":"active","ping":44}]},{"server_id":14,"name":"Uncletopia | New York City | 2 | All Maps","name_short":"nyc-2","host":"nyc-1.us.uncletopia.com","port":27025,"enabled":true,"region":"us-east","cc":"us","latitude":40.73061,"longitude":-73.93524,"reserved":0,"last_update":"0001-01-01T00:00:00Z","name_a2s":"Uncletopia | New York City | 2 | All Maps","protocol":17,"map":"cp_gravelpit","folder":"tf","game":"Team Fortress","app_id":440,"player_count":24,"max_players":24,"Bots":0,"server_type":"Dedicated","server_os":"Linux","password":true,"vac":true,"version":"7961495","steam_id":85568392924469994,"keywords":["cp","nocrits","nodmgspread","uncletopia"],"game_id":440,"stv_port":27026,"stv_name":"Uncletopia | New York City | 2 | All Maps | STV","players":[{"user_id":88,"name":"Soull","steam_id":76561199188088471,"connected_time":907000000000,"state":"active","ping":81},{"user_id":66,"name":"DJ Chalice","steam_id":76561197974872458,"connected_time":2154000000000,"state":"active","ping":61},{"user_id":75,"name":"King Sans","steam_id":76561198294198517,"connected_time":1638000000000,"state":"active","ping":45},{"user_id":92,"name":"Braamklauw","steam_id":76561198283287697,"connected_time":696000000000,"state":"active","ping":148},{"user_id":93,"name":"xX_HimboSwallower_Xx","steam_id":76561198016029965,"connected_time":679000000000,"state":"active","ping":56},{"user_id":99,"name":"BeerPowder","steam_id":76561198058129400,"connected_time":141000000000,"state":"active","ping":51},{"user_id":10,"name":"2cats_2curious","steam_id":76561198027143149,"connected_time":5582000000000,"state":"active","ping":62},{"user_id":65,"name":"bInky","steam_id":76561198968337022,"connected_time":2401000000000,"state":"active","ping":55},{"user_id":90,"name":"PapaPatrick","steam_id":76561199017975241,"connected_time":870000000000,"state":"active","ping":106},{"user_id":91,"name":"nhbiker","steam_id":76561198081277675,"connected_time":867000000000,"state":"active","ping":44},{"user_id":98,"name":"OKAY","steam_id":76561198091980659,"connected_time":193000000000,"state":"active","ping":60},{"user_id":54,"name":"Chernov","steam_id":76561198014463424,"connected_time":3400000000000,"state":"active","ping":31},{"user_id":55,"name":"bran","steam_id":76561199028457134,"connected_time":3255000000000,"state":"active","ping":45},{"user_id":78,"name":"bobbymcbobington","steam_id":76561199089411172,"connected_time":1590000000000,"state":"active","ping":121},{"user_id":79,"name":"Vaudeville Villain","steam_id":76561199212093339,"connected_time":1577000000000,"state":"active","ping":93},{"user_id":84,"name":"Sir Quacksalot","steam_id":76561198048942777,"connected_time":1113000000000,"state":"active","ping":96},{"user_id":48,"name":"Vee (very cool)","steam_id":76561198330432889,"connected_time":4061000000000,"state":"active","ping":78},{"user_id":97,"name":"x","steam_id":76561198966980576,"connected_time":381000000000,"state":"active","ping":40},{"user_id":46,"name":"Decolour","steam_id":76561199045608372,"connected_time":4278000000000,"state":"active","ping":55},{"user_id":25,"name":"Dum_Bass(Fish)","steam_id":76561197988105207,"connected_time":5110000000000,"state":"active","ping":60},{"user_id":71,"name":"rattlin' bog","steam_id":76561198224551028,"connected_time":1721000000000,"state":"active","ping":56},{"user_id":59,"name":"Sinno","steam_id":76561198144974589,"connected_time":2821000000000,"state":"active","ping":45},{"user_id":96,"name":"Tokyo_Timeshift_","steam_id":76561198048677523,"connected_time":408000000000,"state":"active","ping":67},{"user_id":81,"name":"Afloatingshopinglist","steam_id":76561198128283728,"connected_time":1570000000000,"state":"active","ping":70}]},{"server_id":15,"name":"Uncletopia | New York City | 3 | Stopwatch Beta","name_short":"nyc-3","host":"nyc-1.us.uncletopia.com","port":27035,"enabled":true,"region":"us-east","cc":"us","latitude":40.73061,"longitude":-73.93524,"reserved":0,"last_update":"0001-01-01T00:00:00Z","name_a2s":"Uncletopia | New York City | 3 | Stopwatch Beta","protocol":17,"map":"workshop/koth_bagel_rc6.ugc2514036946","folder":"tf","game":"Team Fortress","app_id":440,"player_count":1,"max_players":24,"Bots":0,"server_type":"Dedicated","server_os":"Linux","password":true,"vac":true,"version":"7961495","steam_id":85568392924742820,"keywords":["cp","nocrits","nodmgspread","uncletopia"],"game_id":440,"stv_port":27036,"stv_name":"Uncletopia | New York City | 3 | Stopwatch Beta | STV","players":[{"user_id":21,"name":"charleslanzillottoiii","steam_id":76561199484768104,"connected_time":16000000000,"state":"active","ping":51}]},{"server_id":16,"name":"Uncletopia | New York City | 4 | Community","name_short":"nyc-4","host":"nyc-1.us.uncletopia.com","port":27045,"enabled":true,"region":"us-east","cc":"us","latitude":40.73061,"longitude":-73.93524,"reserved":0,"last_update":"0001-01-01T00:00:00Z","name_a2s":"Uncletopia | New York City | 4 | Community","protocol":17,"map":"workshop/cp_glacier_rc6.ugc2905735376","folder":"tf","game":"Team Fortress","app_id":440,"player_count":0,"max_players":24,"Bots":0,"server_type":"Dedicated","server_os":"Linux","password":true,"vac":true,"version":"7961495","steam_id":85568392924742821,"keywords":["cp","nocrits","nodmgspread","uncletopia"],"game_id":440,"stv_port":27046,"stv_name":"Uncletopia | New York City | 4 | Community | STV","players":null},{"server_id":142,"name":"Uncletopia | S√£o Paulo | 1 | All Maps","name_short":"sao-1","host":"sao-1.br.uncletopia.com","port":27015,"enabled":true,"region":"sa","cc":"br","latitude":-23.533773,"longitude":-46.62529,"reserved":0,"last_update":"0001-01-01T00:00:00Z","name_a2s":"Uncletopia | S√£o Paulo | 1 | All Maps","protocol":17,"map":"koth_highpass","folder":"tf","game":"Team Fortress","app_id":440,"player_count":0,"max_players":24,"Bots":0,"server_type":"Dedicated","server_os":"Linux","password":true,"vac":true,"version":"7961495","steam_id":85568392924469996,"keywords":["cp","nocrits","nodmgspread","uncletopia"],"game_id":440,"stv_port":27016,"stv_name":"Uncletopia | S√£o Paulo | 1 | All Maps | STV","players":null},{"server_id":143,"name":"Uncletopia | S√£o Paulo | 2 | Community","name_short":"sao-2","host":"sao-2.br.uncletopia.com","port":27015,"enabled":true,"region":"sa","cc":"br","latitude":-23.533773,"longitude":-46.62529,"reserved":0,"last_update":"0001-01-01T00:00:00Z","name_a2s":"Uncletopia | S√£o Paulo | 2 | Community","protocol":17,"map":"workshop/pl_divulgence_b4b.ugc2884808746","folder":"tf","game":"Team Fortress","app_id":440,"player_count":0,"max_players":24,"Bots":0,"server_type":"Dedicated","server_os":"Linux","password":true,"vac":true,"version":"7961495","steam_id":85568392924485349,"keywords":["nocrits","nodmgspread","payload","uncletopia"],"game_id":440,"stv_port":27016,"stv_name":"Uncletopia | S√£o Paulo | 2 | Community | STV","players":null},{"server_id":7,"name":"Uncletopia | Seattle | 1 | All Maps","name_short":"sea-1","host":"sea-1.us.uncletopia.com","port":27015,"enabled":true,"region":"us-west","cc":"us","latitude":47.608013,"longitude":-122.33517,"reserved":0,"last_update":"0001-01-01T00:00:00Z","name_a2s":"Uncletopia | Seattle | 1 | All Maps","protocol":17,"map":"plr_nightfall_final","folder":"tf","game":"Team Fortress","app_id":440,"player_count":24,"max_players":24,"Bots":0,"server_type":"Dedicated","server_os":"Linux","password":true,"vac":true,"version":"7961495","steam_id":85568392924469997,"keywords":["nocrits","nodmgspread","payload","uncletopia"],"game_id":440,"stv_port":27016,"stv_name":"Uncletopia | Seattle | 1 | All Maps | STV","players":[{"user_id":97,"name":"Rhutebeer","steam_id":76561198018302761,"connected_time":860000000000,"state":"active","ping":141},{"user_id":71,"name":"Google","steam_id":76561198857237473,"connected_time":3450000000000,"state":"active","ping":51},{"user_id":91,"name":"jayeskae","steam_id":76561198144220801,"connected_time":1176000000000,"state":"active","ping":46},{"user_id":75,"name":"NeptuneÀñ‚Å∫ÔΩ°Àö‚ãÜÀô‚ô•","steam_id":76561199054203198,"connected_time":2821000000000,"state":"active","ping":126},{"user_id":56,"name":"Retesaurus","steam_id":76561198045189319,"connected_time":4513000000000,"state":"active","ping":81},{"user_id":85,"name":"TikoTF2","steam_id":76561199066864469,"connected_time":1566000000000,"state":"active","ping":75},{"user_id":62,"name":"Saint Pablo","steam_id":76561198083300159,"connected_time":3776000000000,"state":"active","ping":68},{"user_id":57,"name":"ed LFB","steam_id":76561198080475712,"connected_time":4512000000000,"state":"active","ping":72},{"user_id":83,"name":"rat gets the cheese","steam_id":76561198031234032,"connected_time":1580000000000,"state":"active","ping":90},{"user_id":93,"name":"CheesyPoofs","steam_id":76561197998650617,"connected_time":1105000000000,"state":"active","ping":54},{"user_id":96,"name":"fried water","steam_id":76561198360311110,"connected_time":970000000000,"state":"active","ping":48},{"user_id":76,"name":"jacix3 [silly doggie :3]","steam_id":76561198205004165,"connected_time":2819000000000,"state":"active","ping":64},{"user_id":80,"name":"Strikerbolt","steam_id":76561199095622897,"connected_time":2443000000000,"state":"active","ping":77},{"user_id":95,"name":"Rabblerouser","steam_id":76561198127930963,"connected_time":1047000000000,"state":"active","ping":69},{"user_id":87,"name":"BlazedBunny","steam_id":76561198243610560,"connected_time":1552000000000,"state":"active","ping":82},{"user_id":99,"name":"Konnor","steam_id":76561199136300254,"connected_time":404000000000,"state":"active","ping":73},{"user_id":58,"name":"evilOlive","steam_id":76561198106222025,"connected_time":4153000000000,"state":"active","ping":86},{"user_id":88,"name":"Kc","steam_id":76561198210734407,"connected_time":1487000000000,"state":"active","ping":110},{"user_id":89,"name":"YINGBING43","steam_id":76561198166141576,"connected_time":1476000000000,"state":"active","ping":136},{"user_id":98,"name":"NEBULA","steam_id":76561198086878595,"connected_time":819000000000,"state":"active","ping":74},{"user_id":53,"name":"hatsune miku","steam_id":76561199445009981,"connected_time":5049000000000,"state":"active","ping":49},{"user_id":54,"name":"WalkedInPoisonIvyNowImIt/She","steam_id":76561198085813708,"connected_time":5047000000000,"state":"active","ping":116},{"user_id":29,"name":"BL√òRG","steam_id":76561198036126673,"connected_time":6793000000000,"state":"active","ping":89},{"user_id":35,"name":"toes","steam_id":76561198221151676,"connected_time":6498000000000,"state":"active","ping":57}]},{"server_id":119,"name":"Uncletopia | Seattle | 2 | All Maps","name_short":"sea-2","host":"sea-1.us.uncletopia.com","port":27025,"enabled":true,"region":"us-west","cc":"us","latitude":47.608013,"longitude":-122.33517,"reserved":0,"last_update":"0001-01-01T00:00:00Z","name_a2s":"Uncletopia | Seattle | 2 | All Maps","protocol":17,"map":"pl_upward","folder":"tf","game":"Team Fortress","app_id":440,"player_count":24,"max_players":24,"Bots":0,"server_type":"Dedicated","server_os":"Linux","password":true,"vac":true,"version":"7961495","steam_id":85568392924469998,"keywords":["nocrits","nodmgspread","payload","uncletopia"],"game_id":440,"stv_port":27026,"stv_name":"Uncletopia | Seattle | 2 | All Maps | STV","players":[{"user_id":96,"name":"hapi bananuh","steam_id":76561198091547092,"connected_time":22000000000,"state":"spawning","ping":94},{"user_id":73,"name":"Petrivus","steam_id":76561198202152453,"connected_time":2490000000000,"state":"active","ping":54},{"user_id":43,"name":"Green eggs and ham","steam_id":76561198043507340,"connected_time":3897000000000,"state":"active","ping":61},{"user_id":92,"name":"CashGordon","steam_id":76561197975594096,"connected_time":277000000000,"state":"active","ping":35},{"user_id":88,"name":"Big-Time Tommy","steam_id":76561198354094084,"connected_time":1151000000000,"state":"active","ping":91},{"user_id":25,"name":"MxProf","steam_id":76561198044519572,"connected_time":4423000000000,"state":"active","ping":50},{"user_id":82,"name":"Borri","steam_id":76561198094827584,"connected_time":1641000000000,"state":"active","ping":47},{"user_id":69,"name":"paypur -rng","steam_id":76561198214370515,"connected_time":2809000000000,"state":"active","ping":99},{"user_id":20,"name":"rad killl raccoon","steam_id":76561198980975595,"connected_time":4706000000000,"state":"active","ping":61},{"user_id":90,"name":"ms. anthrope","steam_id":76561198063533082,"connected_time":485000000000,"state":"active","ping":31},{"user_id":95,"name":"Ompaloompa","steam_id":76561199022594810,"connected_time":59000000000,"state":"active","ping":55},{"user_id":91,"name":"squart guy","steam_id":76561199411560141,"connected_time":298000000000,"state":"active","ping":46},{"user_id":98,"name":"Bob Lettuce","steam_id":76561198126830902,"connected_time":5000000000,"state":"spawning","ping":105},{"user_id":70,"name":"cool beans","steam_id":76561198045758072,"connected_time":2739000000000,"state":"active","ping":59},{"user_id":71,"name":"Tripll-L","steam_id":76561197998077437,"connected_time":2729000000000,"state":"active","ping":59},{"user_id":52,"name":"notpanmanmemes","steam_id":76561199168536547,"connected_time":3422000000000,"state":"active","ping":99},{"user_id":94,"name":"Rude Dog","steam_id":76561197980385816,"connected_time":94000000000,"state":"active","ping":64},{"user_id":77,"name":"Furious George","steam_id":76561198405111646,"connected_time":2041000000000,"state":"active","ping":69},{"user_id":83,"name":"Marcy (She/Her)","steam_id":76561198097413073,"connected_time":1396000000000,"state":"active","ping":46},{"user_id":54,"name":"my mom","steam_id":76561199225201569,"connected_time":3398000000000,"state":"active","ping":117},{"user_id":86,"name":"Shadow Wizard Money Gang","steam_id":76561199487351992,"connected_time":1276000000000,"state":"active","ping":98},{"user_id":60,"name":"‚òÖ dane","steam_id":76561198354081121,"connected_time":3215000000000,"state":"active","ping":107},{"user_id":61,"name":"white sumo wrestler","steam_id":76561198207881077,"connected_time":3210000000000,"state":"active","ping":105},{"user_id":89,"name":"exephur","steam_id":76561198135763234,"connected_time":715000000000,"state":"active","ping":57}]},{"server_id":406,"name":"Uncletopia | Seattle | 3 | Stopwatch","name_short":"sea-3","host":"sea-1.us.uncletopia.com","port":27035,"enabled":true,"region":"us-west","cc":"us","latitude":47.608013,"longitude":-122.33517,"reserved":0,"last_update":"0001-01-01T00:00:00Z","name_a2s":"Uncletopia | Seattle | 3 | Stopwatch","protocol":17,"map":"cp_dustbowl","folder":"tf","game":"Team Fortress","app_id":440,"player_count":0,"max_players":24,"Bots":0,"server_type":"Dedicated","server_os":"Linux","password":true,"vac":true,"version":"7961495","steam_id":85568392924515217,"keywords":["cp","nocrits","nodmgspread","uncletopia"],"game_id":440,"stv_port":27036,"stv_name":"Uncletopia | Seattle | 3 | Stopwatch | STV","players":null},{"server_id":17,"name":"Uncletopia | San Francisco | 1 | All Maps","name_short":"sfo-1","host":"sfo-1.us.uncletopia.com","port":27015,"enabled":true,"region":"us-west","cc":"us","latitude":37.77397,"longitude":-122.4313,"reserved":0,"last_update":"0001-01-01T00:00:00Z","name_a2s":"Uncletopia | San Francisco | 1 | All Maps","protocol":17,"map":"pl_badwater","folder":"tf","game":"Team Fortress","app_id":440,"player_count":24,"max_players":24,"Bots":0,"server_type":"Dedicated","server_os":"Linux","password":true,"vac":true,"version":"7961495","steam_id":85568392924469999,"keywords":["nocrits","nodmgspread","payload","uncletopia"],"game_id":440,"stv_port":27016,"stv_name":"Uncletopia | San Francisco | 1 | All Maps | STV","players":[{"user_id":86,"name":"kiwi","steam_id":76561198052177917,"connected_time":939000000000,"state":"active","ping":65},{"user_id":72,"name":"Dov-Ah-Bob","steam_id":76561198147798338,"connected_time":1662000000000,"state":"active","ping":64},{"user_id":92,"name":"Fribbo","steam_id":76561198373295660,"connected_time":696000000000,"state":"active","ping":68},{"user_id":30,"name":"Rusty_Cheech","steam_id":76561198808236778,"connected_time":4127000000000,"state":"active","ping":76},{"user_id":85,"name":"Mario","steam_id":76561198321794277,"connected_time":1031000000000,"state":"active","ping":115},{"user_id":35,"name":"TheLogannator","steam_id":76561198141957314,"connected_time":3833000000000,"state":"active","ping":89},{"user_id":98,"name":"Keamy","steam_id":76561199471434875,"connected_time":44000000000,"state":"active","ping":54},{"user_id":81,"name":"Kazoo","steam_id":76561199229748300,"connected_time":1181000000000,"state":"active","ping":72},{"user_id":60,"name":"cc","steam_id":76561199215821942,"connected_time":3081000000000,"state":"active","ping":88},{"user_id":96,"name":"Obrodai","steam_id":76561199465783209,"connected_time":356000000000,"state":"active","ping":60},{"user_id":78,"name":"Taco+Taco=Burrito","steam_id":76561198063128663,"connected_time":1515000000000,"state":"active","ping":58},{"user_id":33,"name":"imng","steam_id":76561198014988031,"connected_time":3922000000000,"state":"active","ping":109},{"user_id":36,"name":"Fran√ßois Vi√®te","steam_id":76561198072975518,"connected_time":3759000000000,"state":"active","ping":102},{"user_id":90,"name":"jerma but crying and lesbian","steam_id":76561198110661425,"connected_time":756000000000,"state":"active","ping":90},{"user_id":74,"name":"NE–ØO","steam_id":76561197965450216,"connected_time":1625000000000,"state":"active","ping":78},{"user_id":97,"name":"CPTforever","steam_id":76561198237767198,"connected_time":164000000000,"state":"active","ping":45},{"user_id":94,"name":"Lucxs707","steam_id":76561198260136009,"connected_time":606000000000,"state":"active","ping":113},{"user_id":59,"name":"MrMind","steam_id":76561199321657653,"connected_time":3127000000000,"state":"active","ping":71},{"user_id":49,"name":"Mongoose88","steam_id":76561197961442445,"connected_time":3264000000000,"state":"active","ping":114},{"user_id":88,"name":"tooru_hagakure, exhibitionism","steam_id":76561198097330521,"connected_time":862000000000,"state":"active","ping":105},{"user_id":89,"name":"DeathcatThor","steam_id":76561199179982061,"connected_time":841000000000,"state":"active","ping":80},{"user_id":71,"name":"tomato","steam_id":76561198007867721,"connected_time":1742000000000,"state":"active","ping":56},{"user_id":93,"name":"cult","steam_id":76561198046278452,"connected_time":690000000000,"state":"active","ping":66},{"user_id":95,"name":"Sidiain357","steam_id":76561198408865378,"connected_time":420000000000,"state":"active","ping":59}]},{"server_id":18,"name":"Uncletopia | San Francisco | 2 | All Maps","name_short":"sfo-2","host":"sfo-1.us.uncletopia.com","port":27025,"enabled":true,"region":"us-west","cc":"us","latitude":37.77397,"longitude":-122.4313,"reserved":0,"last_update":"0001-01-01T00:00:00Z","name_a2s":"Uncletopia | San Francisco | 2 | All Maps","protocol":17,"map":"ctf_2fort","folder":"tf","game":"Team Fortress","app_id":440,"player_count":22,"max_players":24,"Bots":0,"server_type":"Dedicated","server_os":"Linux","password":true,"vac":true,"version":"7961495","steam_id":85568392924470000,"keywords":["ctf","nocrits","nodmgspread","uncletopia"],"game_id":440,"stv_port":27026,"stv_name":"Uncletopia | San Francisco | 2 | All Maps | STV","players":[{"user_id":101,"name":"Jones","steam_id":76561198046037216,"connected_time":83000000000,"state":"active","ping":109},{"user_id":94,"name":"Ninjalion245","steam_id":76561198376605350,"connected_time":959000000000,"state":"active","ping":153},{"user_id":88,"name":"Villchip","steam_id":76561198198599982,"connected_time":1167000000000,"state":"active","ping":69},{"user_id":96,"name":"I Love Engineers","steam_id":76561199186496740,"connected_time":756000000000,"state":"active","ping":131},{"user_id":93,"name":"Yackaboi","steam_id":76561199444911765,"connected_time":1003000000000,"state":"active","ping":86},{"user_id":81,"name":"Quon Grene for Vice Prez","steam_id":76561198127545817,"connected_time":1998000000000,"state":"active","ping":58},{"user_id":100,"name":"Mint Widget","steam_id":76561198036875245,"connected_time":347000000000,"state":"active","ping":81},{"user_id":86,"name":"crispy","steam_id":76561198971106376,"connected_time":1492000000000,"state":"active","ping":88},{"user_id":102,"name":"GoldtoothFour","steam_id":76561198055529332,"connected_time":65000000000,"state":"active","ping":100},{"user_id":103,"name":"Jopar","steam_id":76561198892206410,"connected_time":46000000000,"state":"active","ping":117},{"user_id":69,"name":"StockLlama","steam_id":76561199155283653,"connected_time":2997000000000,"state":"active","ping":83},{"user_id":73,"name":"mountainkug","steam_id":76561199491802535,"connected_time":2929000000000,"state":"active","ping":149},{"user_id":52,"name":"Risky","steam_id":76561198231029328,"connected_time":4003000000000,"state":"active","ping":52},{"user_id":19,"name":"Zomwashroomz","steam_id":76561198131316167,"connected_time":6707000000000,"state":"active","ping":59},{"user_id":22,"name":"Excalibrine","steam_id":76561198129312118,"connected_time":6687000000000,"state":"active","ping":59},{"user_id":59,"name":"Mr.Pan","steam_id":76561198069030613,"connected_time":3797000000000,"state":"active","ping":78},{"user_id":90,"name":"Quigi","steam_id":76561198144645874,"connected_time":1059000000000,"state":"active","ping":70},{"user_id":95,"name":"La()VaJ()86","steam_id":76561198247547042,"connected_time":823000000000,"state":"active","ping":61},{"user_id":99,"name":"miguelrodriguez2013","steam_id":76561198269253587,"connected_time":555000000000,"state":"active","ping":45},{"user_id":92,"name":"Addy \u003c3","steam_id":76561198045819723,"connected_time":1025000000000,"state":"active","ping":127},{"user_id":65,"name":"Karg","steam_id":76561198091387866,"connected_time":3631000000000,"state":"active","ping":80},{"user_id":62,"name":"xfinitycablebox","steam_id":76561198317433700,"connected_time":3790000000000,"state":"active","ping":98}]},{"server_id":19,"name":"Uncletopia | San Francisco | 3 | Stopwatch","name_short":"sfo-3","host":"sfo-1.us.uncletopia.com","port":27035,"enabled":true,"region":"us-west","cc":"us","latitude":37.77397,"longitude":-122.4313,"reserved":0,"last_update":"0001-01-01T00:00:00Z","name_a2s":"Uncletopia | San Francisco | 3 | Stopwatch","protocol":17,"map":"pl_barnblitz","folder":"tf","game":"Team Fortress","app_id":440,"player_count":0,"max_players":24,"Bots":0,"server_type":"Dedicated","server_os":"Linux","password":true,"vac":true,"version":"7961495","steam_id":85568392924742824,"keywords":["nocrits","nodmgspread","payload","uncletopia"],"game_id":440,"stv_port":27036,"stv_name":"Uncletopia | San Francisco | 3 | Stopwatch | STV","players":null},{"server_id":20,"name":"Uncletopia | San Francisco | 4 | Community","name_short":"sfo-4","host":"sfo-1.us.uncletopia.com","port":27045,"enabled":true,"region":"us-west","cc":"us","latitude":37.77397,"longitude":-122.4313,"reserved":0,"last_update":"0001-01-01T00:00:00Z","name_a2s":"Uncletopia | San Francisco | 4 | Community","protocol":17,"map":"cp_snakewater_final1","folder":"tf","game":"Team Fortress","app_id":440,"player_count":0,"max_players":24,"Bots":0,"server_type":"Dedicated","server_os":"Linux","password":true,"vac":true,"version":"7961495","steam_id":85568392924742826,"keywords":["cp","nocrits","nodmgspread","uncletopia"],"game_id":440,"stv_port":27046,"stv_name":"Uncletopia | San Francisco | 4 | Community | STV","players":null},{"server_id":141,"name":"Uncletopia | Sydney | 1 | All Maps","name_short":"syd-1","host":"syd-1.au.uncletopia.com","port":27015,"enabled":true,"region":"au","cc":"au","latitude":-33.865143,"longitude":151.2099,"reserved":0,"last_update":"0001-01-01T00:00:00Z","name_a2s":"Uncletopia | Sydney | 1 | All Maps","protocol":17,"map":"koth_viaduct","folder":"tf","game":"Team Fortress","app_id":440,"player_count":0,"max_players":24,"Bots":0,"server_type":"Dedicated","server_os":"Linux","password":true,"vac":true,"version":"7961495","steam_id":85568392924470001,"keywords":["cp","nocrits","nodmgspread","uncletopia"],"game_id":440,"stv_port":27016,"stv_name":"Uncletopia | Sydney | 1 | All Maps | STV","players":null},{"server_id":123,"name":"Uncletopia | Sydney | 2 | All Maps","name_short":"syd-2","host":"syd-1.au.uncletopia.com","port":27025,"enabled":true,"region":"au","cc":"au","latitude":-33.865143,"longitude":151.2099,"reserved":0,"last_update":"0001-01-01T00:00:00Z","name_a2s":"Uncletopia | Sydney | 2 | All Maps","protocol":17,"map":"koth_viaduct","folder":"tf","game":"Team Fortress","app_id":440,"player_count":0,"max_players":24,"Bots":0,"server_type":"Dedicated","server_os":"Linux","password":true,"vac":true,"version":"7961495","steam_id":85568392924470002,"keywords":["cp","nocrits","nodmgspread","uncletopia"],"game_id":440,"stv_port":27026,"stv_name":"Uncletopia | Sydney | 2 | All Maps | STV","players":null},{"server_id":395,"name":"Uncletopia | Sydney | 3 | All Maps","name_short":"syd-3","host":"syd-1.au.uncletopia.com","port":27035,"enabled":true,"region":"au","cc":"au","latitude":-33.865143,"longitude":151.2099,"reserved":0,"last_update":"0001-01-01T00:00:00Z","name_a2s":"Uncletopia | Sydney | 3 | All Maps","protocol":17,"map":"pl_borneo","folder":"tf","game":"Team Fortress","app_id":440,"player_count":0,"max_players":24,"Bots":0,"server_type":"Dedicated","server_os":"Linux","password":true,"vac":true,"version":"7961495","steam_id":85568392925194467,"keywords":["nocrits","nodmgspread","payload","uncletopia"],"game_id":440,"stv_port":27036,"stv_name":"Uncletopia | Sydney | 3 | All Maps | STV","players":null},{"server_id":396,"name":"Uncletopia | Sydney | 4 | All Maps","name_short":"syd-4","host":"syd-1.au.uncletopia.com","port":27045,"enabled":true,"region":"au","cc":"au","latitude":-33.865143,"longitude":151.2099,"reserved":0,"last_update":"0001-01-01T00:00:00Z","name_a2s":"Uncletopia | Sydney | 4 | All Maps","protocol":17,"map":"pl_barnblitz","folder":"tf","game":"Team Fortress","app_id":440,"player_count":0,"max_players":24,"Bots":0,"server_type":"Dedicated","server_os":"Linux","password":true,"vac":true,"version":"7961495","steam_id":85568392925397958,"keywords":["nocrits","nodmgspread","payload","uncletopia"],"game_id":440,"stv_port":27046,"stv_name":"Uncletopia | Sydney | 4 | All Maps | STV","players":null},{"server_id":58,"name":"Uncletopia | Sydney | 5 | Stopwatch Beta","name_short":"syd-5","host":"syd-1.au.uncletopia.com","port":27055,"enabled":true,"region":"au","cc":"au","latitude":-33.865143,"longitude":151.2099,"reserved":0,"last_update":"0001-01-01T00:00:00Z","name_a2s":"Uncletopia | Sydney | 5 | Stopwatch Beta","protocol":17,"map":"pl_frontier_final","folder":"tf","game":"Team Fortress","app_id":440,"player_count":0,"max_players":24,"Bots":0,"server_type":"Dedicated","server_os":"Linux","password":true,"vac":true,"version":"7961495","steam_id":85568392925397959,"keywords":["nocrits","nodmgspread","payload","uncletopia"],"game_id":440,"stv_port":27056,"stv_name":"Uncletopia | Sydney | 5 | Stopwatch Beta | STV","players":null},{"server_id":59,"name":"Uncletopia | Sydney | 6 | Community","name_short":"syd-6","host":"syd-1.au.uncletopia.com","port":27065,"enabled":true,"region":"au","cc":"au","latitude":-33.865143,"longitude":151.2099,"reserved":0,"last_update":"0001-01-01T00:00:00Z","name_a2s":"Uncletopia | Sydney | 6 | Community","protocol":17,"map":"pl_swiftwater_final1","folder":"tf","game":"Team Fortress","app_id":440,"player_count":0,"max_players":24,"Bots":0,"server_type":"Dedicated","server_os":"Linux","password":true,"vac":true,"version":"7961495","steam_id":85568392925397960,"keywords":["nocrits","nodmgspread","payload","uncletopia"],"game_id":440,"stv_port":27066,"stv_name":"Uncletopia | Sydney | 6 | Community | STV","players":null},{"server_id":49,"name":"Uncletopia | Warsaw | 1 | All Maps","name_short":"waw-1","host":"waw-1.pl.uncletopia.com","port":27015,"enabled":true,"region":"eu","cc":"pl","latitude":52.2297,"longitude":21.017532,"reserved":0,"last_update":"0001-01-01T00:00:00Z","name_a2s":"Uncletopia | Warsaw | 1 | All Maps","protocol":17,"map":"pl_upward","folder":"tf","game":"Team Fortress","app_id":440,"player_count":0,"max_players":24,"Bots":0,"server_type":"Dedicated","server_os":"Linux","password":true,"vac":true,"version":"7961495","steam_id":85568392925397850,"keywords":["nocrits","nodmgspread","payload","uncletopia"],"game_id":440,"stv_port":27016,"stv_name":"Uncletopia | Warsaw | 1 | All Maps | STV","players":null},{"server_id":50,"name":"Uncletopia | Warsaw | 2 | All Maps","name_short":"waw-2","host":"waw-1.pl.uncletopia.com","port":27025,"enabled":true,"region":"eu","cc":"pl","latitude":52.2297,"longitude":21.017532,"reserved":0,"last_update":"0001-01-01T00:00:00Z","name_a2s":"Uncletopia | Warsaw | 2 | All Maps","protocol":17,"map":"pl_badwater","folder":"tf","game":"Team Fortress","app_id":440,"player_count":0,"max_players":24,"Bots":0,"server_type":"Dedicated","server_os":"Linux","password":true,"vac":true,"version":"7961495","steam_id":85568392925397851,"keywords":["nocrits","nodmgspread","payload","uncletopia"],"game_id":440,"stv_port":27026,"stv_name":"Uncletopia | Warsaw | 2 | All Maps | STV","players":null},{"server_id":51,"name":"Uncletopia | Warsaw | 3 | All Maps","name_short":"waw-3","host":"waw-1.pl.uncletopia.com","port":27035,"enabled":true,"region":"eu","cc":"pl","latitude":52.2297,"longitude":21.017532,"reserved":0,"last_update":"0001-01-01T00:00:00Z","name_a2s":"Uncletopia | Warsaw | 3 | All Maps","protocol":17,"map":"cp_mountainlab","folder":"tf","game":"Team Fortress","app_id":440,"player_count":0,"max_players":24,"Bots":0,"server_type":"Dedicated","server_os":"Linux","password":true,"vac":true,"version":"7961495","steam_id":85568392925397852,"keywords":["cp","nocrits","nodmgspread","uncletopia"],"game_id":440,"stv_port":27036,"stv_name":"Uncletopia | Warsaw | 3 | All Maps | STV","players":null},{"server_id":52,"name":"Uncletopia | Warsaw | 4 | All Maps","name_short":"waw-4","host":"waw-1.pl.uncletopia.com","port":27045,"enabled":true,"region":"eu","cc":"pl","latitude":52.2297,"longitude":21.017532,"reserved":0,"last_update":"0001-01-01T00:00:00Z","name_a2s":"Uncletopia | Warsaw | 4 | All Maps","protocol":17,"map":"pl_badwater","folder":"tf","game":"Team Fortress","app_id":440,"player_count":0,"max_players":24,"Bots":0,"server_type":"Dedicated","server_os":"Linux","password":true,"vac":true,"version":"7961495","steam_id":85568392925397853,"keywords":["nocrits","nodmgspread","payload","uncletopia"],"game_id":440,"stv_port":27046,"stv_name":"Uncletopia | Warsaw | 4 | All Maps | STV","players":null},{"server_id":53,"name":"Uncletopia | Warsaw | 5 | Stopwatch Beta","name_short":"waw-5","host":"waw-1.pl.uncletopia.com","port":27055,"enabled":true,"region":"eu","cc":"pl","latitude":52.2297,"longitude":21.017532,"reserved":0,"last_update":"0001-01-01T00:00:00Z","name_a2s":"Uncletopia | Warsaw | 5 | Stopwatch Beta","protocol":17,"map":"pl_snowycoast","folder":"tf","game":"Team Fortress","app_id":440,"player_count":0,"max_players":24,"Bots":0,"server_type":"Dedicated","server_os":"Linux","password":true,"vac":true,"version":"7961495","steam_id":85568392925397854,"keywords":["nocrits","nodmgspread","payload","uncletopia"],"game_id":440,"stv_port":27056,"stv_name":"Uncletopia | Warsaw | 5 | Stopwatch Beta | STV","players":null},{"server_id":54,"name":"Uncletopia | Warsaw | 6 | Community","name_short":"waw-6","host":"waw-1.pl.uncletopia.com","port":27065,"enabled":true,"region":"eu","cc":"pl","latitude":52.2297,"longitude":21.017532,"reserved":0,"last_update":"0001-01-01T00:00:00Z","name_a2s":"Uncletopia | Warsaw | 6 | Community","protocol":17,"map":"pl_borneo","folder":"tf","game":"Team Fortress","app_id":440,"player_count":0,"max_players":24,"Bots":0,"server_type":"Dedicated","server_os":"Linux","password":true,"vac":true,"version":"7961495","steam_id":85568392925397856,"keywords":["nocrits","nodmgspread","payload","uncletopia"],"game_id":440,"stv_port":27066,"stv_name":"Uncletopia | Warsaw | 6 | Community | STV","players":null}]}