{"status":true,"message":"","result":[{"server_id":9,"name":"Uncletopia | Atlanta | 1 | All Maps","name_short":"atl-1","host":"atl-1.us.uncletopia.com","port":27015,"enabled":true,"region":"us-east","cc":"us","latitude":33.753746,"longitude":-84.38633,"reserved":0,"last_update":"0001-01-01T00:00:00Z","name_a2s":"Uncletopia | Atlanta | 1 | All Maps","protocol":17,"map":"pl_borneo","folder":"tf","game":"Team Fortress","app_id":440,"player_count":24,"max_players":24,"Bots":0,"server_type":"Dedicated","server_os":"Linux","password":true,"vac":true,"version":"7961495","steam_id":85568392924469982,"keywords":["nocrits","nodmgspread","payload","uncletopia"],"game_id":440,"stv_port":27016,"stv_name":"Uncletopia | Atlanta | 1 | All Maps | STV","players":[{"user_id":10,"name":"tgirl swag","steam_id":76561198128164970,"connected_time":5727000000000,"state":"active","ping":99},{"user_id":81,"name":"xX_HimboSwallower_Xx","steam_id":76561198016029965,"connected_time":984000000000,"state":"active","ping":60},{"user_id":12,"name":"Albino Jellyfish","steam_id":76561198208561097,"connected_time":5727000000000,"state":"active","ping":59},{"user_id":71,"name":"Lilith","steam_id":76561198125102885,"connected_time":1852000000000,"state":"active","ping":61},{"user_id":85,"name":"coc","steam_id":76561198079668789,"connected_time":801000000000,"state":"active","ping":61},{"user_id":61,"name":"Heathcliff","steam_id":76561198044288534,"connected_time":2773000000000,"state":"active","ping":73},{"user_id":69,"name":"CrowTheSchizo","steam_id":76561198837804866,"connected_time":1859000000000,"state":"active","ping":127},{"user_id":62,"name":"dr. chungy","steam_id":76561198215559840,"connected_time":2603000000000,"state":"active","ping":45},{"user_id":57,"name":"Young-OG","steam_id":76561198058800479,"connected_time":3340000000000,"state":"active","ping":57},{"user_id":84,"name":"Manna","steam_id":76561198172298563,"connected_time":813000000000,"state":"active","ping":64},{"user_id":72,"name":"NotoriousThicc","steam_id":76561198244650474,"connected_time":1851000000000,"state":"active","ping":105},{"user_id":47,"name":"Sckuish","steam_id":76561198297216345,"connected_time":4180000000000,"state":"active","ping":61},{"user_id":51,"name":"John Calibur","steam_id":76561197999986606,"connected_time":4067000000000,"state":"active","ping":92},{"user_id":53,"name":"ndvr (femboy (REAL))","steam_id":76561199379200102,"connected_time":4044000000000,"state":"active","ping":69},{"user_id":79,"name":"Voodo133","steam_id":76561198042670351,"connected_time":1619000000000,"state":"active","ping":82},{"user_id":78,"name":"sansa musa","steam_id":76561198163723555,"connected_time":1637000000000,"state":"active","ping":61},{"user_id":33,"name":"Es el martillo","steam_id":76561198043924650,"connected_time":4853000000000,"state":"active","ping":177},{"user_id":65,"name":" é å…ê«ù…•","steam_id":76561199468748840,"connected_time":2257000000000,"state":"active","ping":64},{"user_id":36,"name":"ryanzandorLX","steam_id":76561199068623664,"connected_time":4702000000000,"state":"active","ping":110},{"user_id":80,"name":"pontiff","steam_id":76561198304265800,"connected_time":1324000000000,"state":"active","ping":100},{"user_id":86,"name":"TheBrocklobster","steam_id":76561198039682984,"connected_time":72000000000,"state":"active","ping":104},{"user_id":83,"name":"Oxygen User","steam_id":76561199111975528,"connected_time":868000000000,"state":"active","ping":68},{"user_id":43,"name":"ATL1 | cola","steam_id":76561198374390458,"connected_time":4378000000000,"state":"active","ping":60},{"user_id":44,"name":"ATL 1 | Save your wifi","steam_id":76561198286147372,"connected_time":4368000000000,"state":"active","ping":60}]},{"server_id":104,"name":"Uncletopia | Atlanta | 2 | All Maps","name_short":"atl-2","host":"atl-1.us.uncletopia.com","port":27025,"enabled":true,"region":"us-east","cc":"us","latitude":33.753746,"longitude":-84.38633,"reserved":0,"last_update":"0001-01-01T00:00:00Z","name_a2s":"Uncletopia | Atlanta | 2 | All Maps","protocol":17,"map":"pl_snowycoast","folder":"tf","game":"Team Fortress","app_id":440,"player_count":14,"max_players":24,"Bots":0,"server_type":"Dedicated","server_os":"Linux","password":true,"vac":true,"version":"7961495","steam_id":85568392924469983,"keywords":["nocrits","nodmgspread","payload","uncletopia"],"game_id":440,"stv_port":27026,"stv_name":"Uncletopia | Atlanta | 2 | All Maps | STV","players":[{"user_id":20,"name":"Aisforlike","steam_id":76561199482110668,"connected_time":237000000000,"state":"spawning","ping":64},{"user_id":13,"name":"Erchius","steam_id":76561198256892300,"connected_time":778000000000,"state":"spawning","ping":29},{"user_id":15,"name":"pHsHy","steam_id":76561198013195018,"connected_time":646000000000,"state":"spawning","ping":85},{"user_id":11,"name":"Grandpa","steam_id":76561198153625939,"connected_time":866000000000,"state":"spawning","ping":78},{"user_id":17,"name":"dark souls boss","steam_id":76561198316610724,"connected_time":485000000000,"state":"spawning","ping":93},{"user_id":19,"name":"rivera","steam_id":76561198051058706,"connected_time":411000000000,"state":"spawning","ping":62},{"user_id":21,"name":"Shmebulock","steam_id":76561198046941925,"connected_time":188000000000,"state":"spawning","ping":83},{"user_id":22,"name":"Kamin","steam_id":76561198255299559,"connected_time":146000000000,"state":"spawning","ping":55},{"user_id":23,"name":"Gluppo","steam_id":76561198379320087,"connected_time":138000000000,"state":"spawning","ping":54},{"user_id":24,"name":"[ 7 ]","steam_id":76561199229668733,"connected_time":136000000000,"state":"spawning","ping":87},{"user_id":25,"name":"All Tomorrow's Parties","steam_id":76561197995936212,"connected_time":126000000000,"state":"spawning","ping":66},{"user_id":26,"name":"Grease Magician","steam_id":76561198285410854,"connected_time":123000000000,"state":"spawning","ping":76},{"user_id":27,"name":"Psychosis","steam_id":76561198078659070,"connected_time":67000000000,"state":"spawning","ping":67},{"user_id":28,"name":"Speedy","steam_id":76561198080761661,"connected_time":55000000000,"state":"spawning","ping":76}]},{"server_id":400,"name":"Uncletopia | Atlanta | 3 | Stopwatch","name_short":"atl-3","host":"atl-1.us.uncletopia.com","port":27035,"enabled":true,"region":"us-east","cc":"us","latitude":33.753746,"longitude":-84.38633,"reserved":0,"last_update":"0001-01-01T00:00:00Z","name_a2s":"Uncletopia | Atlanta | 3 | Stopwatch","protocol":17,"map":"pl_badwater","folder":"tf","game":"Team Fortress","app_id":440,"player_count":0,"max_players":24,"Bots":0,"server_type":"Dedicated","server_os":"Linux","password":true,"vac":true,"version":"7961495","steam_id":85568392924515187,"keywords":["nocrits","nodmgspread","payload","uncletopia"],"game_id":440,"stv_port":27036,"stv_name":"Uncletopia | Atlanta | 3 | Stopwatch | STV","players":null},{"server_id":401,"name":"Uncletopia | Atlanta | 4 | Community","name_short":"atl-4","host":"atl-1.us.uncletopia.com","port":27045,"enabled":true,"region":"us-east","cc":"us","latitude":33.753746,"longitude":-84.38633,"reserved":0,"last_update":"0001-01-01T00:00:00Z","name_a2s":"Uncletopia | Atlanta | 4 | Community","protocol":17,"map":"workshop/cp_overgrown_rc8.ugc503939302","folder":"tf","game":"Team Fortress","app_id":440,"player_count":0,"max_players":24,"Bots":0,"server_type":"Dedicated","server_os":"Linux","password":true,"vac":true,"version":"7961495","steam_id":85568392924515188,"keywords":["cp","nocrits","nodmgspread","uncletopia"],"game_id":440,"stv_port":27046,"stv_name":"Uncletopia | Atlanta | 4 | Community | STV","players":null},{"server_id":2,"name":"Uncletopia | Chicago | 1 | All Maps","name_short":"chi-1","host":"chi-1.us.uncletopia.com","port":27015,"enabled":true,"region":"us-central","cc":"us","latitude":41.881832,"longitude":-87.62318,"reserved":0,"last_update":"0001-01-01T00:00:00Z","name_a2s":"Uncletopia | Chicago | 1 | All Maps","protocol":17,"map":"pl_badwater","folder":"tf","game":"Team Fortress","app_id":440,"player_count":24,"max_players":24,"Bots":0,"server_type":"Dedicated","server_os":"Linux","password":true,"vac":true,"version":"7961495","steam_id":85568392924469984,"keywords":["nocrits","nodmgspread","payload","uncletopia"],"game_id":440,"stv_port":27016,"stv_name":"Uncletopia | Chicago | 1 | All Maps | STV","players":[{"user_id":75,"name":"Kiss Master","steam_id":76561198289572271,"connected_time":5152000000000,"state":"active","ping":71},{"user_id":115,"name":"kasane defender","steam_id":76561199294792123,"connected_time":680000000000,"state":"active","ping":54},{"user_id":110,"name":"Beta Fish","steam_id":76561198073504861,"connected_time":713000000000,"state":"active","ping":62},{"user_id":64,"name":"Sergeant Snowflake","steam_id":76561198041474489,"connected_time":5281000000000,"state":"active","ping":57},{"user_id":103,"name":"EvilStickGuy","steam_id":76561197985379320,"connected_time":2229000000000,"state":"active","ping":71},{"user_id":85,"name":"keysandrew","steam_id":76561198077178683,"connected_time":3816000000000,"state":"active","ping":78},{"user_id":14,"name":"Nassu","steam_id":76561198147367577,"connected_time":7856000000000,"state":"active","ping":65},{"user_id":100,"name":"glue eater","steam_id":76561198858155238,"connected_time":2501000000000,"state":"active","ping":110},{"user_id":16,"name":"dansci","steam_id":76561198269530717,"connected_time":7665000000000,"state":"active","ping":77},{"user_id":112,"name":"UwU","steam_id":76561198971629959,"connected_time":707000000000,"state":"active","ping":135},{"user_id":113,"name":"Townze","steam_id":76561198081827165,"connected_time":698000000000,"state":"active","ping":54},{"user_id":106,"name":"thrompo","steam_id":76561197996845059,"connected_time":1406000000000,"state":"active","ping":60},{"user_id":84,"name":"ThatGamingKiwi","steam_id":76561199170522237,"connected_time":3819000000000,"state":"active","ping":74},{"user_id":96,"name":"Chad MorningWood","steam_id":76561198139832291,"connected_time":2787000000000,"state":"active","ping":89},{"user_id":120,"name":"Beau","steam_id":76561198162587622,"connected_time":92000000000,"state":"active","ping":66},{"user_id":117,"name":"aiden","steam_id":76561198449527009,"connected_time":292000000000,"state":"active","ping":89},{"user_id":99,"name":"MrMineHeads","steam_id":76561198129344936,"connected_time":2583000000000,"state":"active","ping":82},{"user_id":69,"name":"He rolls his own","steam_id":76561198058162684,"connected_time":5272000000000,"state":"active","ping":79},{"user_id":80,"name":"T√ñZI","steam_id":76561198045268695,"connected_time":4925000000000,"state":"active","ping":88},{"user_id":119,"name":"Kritzburgh","steam_id":76561198149466938,"connected_time":290000000000,"state":"active","ping":61},{"user_id":86,"name":"femboy gaming","steam_id":76561199084226553,"connected_time":3786000000000,"state":"active","ping":65},{"user_id":114,"name":"Rornir","steam_id":76561198081829615,"connected_time":696000000000,"state":"active","ping":43},{"user_id":51,"name":"who ate the cheese","steam_id":76561198275408467,"connected_time":6431000000000,"state":"active","ping":52},{"user_id":105,"name":"Tala\u003c3","steam_id":76561198169200739,"connected_time":1896000000000,"state":"active","ping":55}]},{"server_id":106,"name":"Uncletopia | Chicago | 2 | All Maps","name_short":"chi-2","host":"chi-1.us.uncletopia.com","port":27025,"enabled":true,"region":"us-central","cc":"us","latitude":41.881832,"longitude":-87.62318,"reserved":0,"last_update":"0001-01-01T00:00:00Z","name_a2s":"Uncletopia | Chicago | 2 | All Maps","protocol":17,"map":"pl_badwater","folder":"tf","game":"Team Fortress","app_id":440,"player_count":0,"max_players":24,"Bots":0,"server_type":"Dedicated","server_os":"Linux","password":true,"vac":true,"version":"7961495","steam_id":85568392924469985,"keywords":["nocrits","nodmgspread","payload","uncletopia"],"game_id":440,"stv_port":27026,"stv_name":"Uncletopia | Chicago | 2 | All Maps | STV","players":null},{"server_id":402,"name":"Uncletopia | Chicago | 3 | All Maps","name_short":"chi-3","host":"chi-1.us.uncletopia.com","port":27035,"enabled":true,"region":"us-central","cc":"us","latitude":41.881832,"longitude":-87.62318,"reserved":0,"last_update":"0001-01-01T00:00:00Z","name_a2s":"Uncletopia | Chicago | 3 | All Maps","protocol":17,"map":"pl_upward","folder":"tf","game":"Team Fortress","app_id":440,"player_count":0,"max_players":24,"Bots":0,"server_type":"Dedicated","server_os":"Linux","password":true,"vac":true,"version":"7961495","steam_id":85568392924515191,"keywords":["nocrits","nodmgspread","payload","uncletopia"],"game_id":440,"stv_port":27036,"stv_name":"Uncletopia | Chicago | 3 | All Maps | STV","players":null},{"server_id":403,"name":"Uncletopia | Chicago | 4 | All Maps","name_short":"chi-4","host":"chi-1.us.uncletopia.com","port":27045,"enabled":true,"region":"us-central","cc":"us","latitude":41.881832,"longitude":-87.62318,"reserved":0,"last_update":"0001-01-01T00:00:00Z","name_a2s":"Uncletopia | Chicago | 4 | All Maps","protocol":17,"map":"koth_cascade","folder":"tf","game":"Team Fortress","app_id":440,"player_count":4,"max_players":24,"Bots":0,"server_type":"Dedicated","server_os":"Linux","password":true,"vac":true,"version":"7961495","steam_id":85568392924515193,"keywords":["cp","nocrits","nodmgspread","uncletopia"],"game_id":440,"stv_port":27046,"stv_name":"Uncletopia | Chicago | 4 | All Maps | STV","players":[{"user_id":7,"name":"general soilder main","steam_id":76561199388134754,"connected_time":929000000000,"state":"active","ping":172},{"user_id":8,"name":"Franston","steam_id":76561198253365247,"connected_time":744000000000,"state":"active","ping":160},{"user_id":9,"name":"On The Bright Side...","steam_id":76561198168785883,"connected_time":51000000000,"state":"active","ping":35},{"user_id":10,"name":"jxh300","steam_id":76561199196579894,"connected_time":39000000000,"state":"spawning","ping":53}]},{"server_id":36,"name":"Uncletopia | Chicago | 5 | All Maps","name_short":"chi-5","host":"chi-2.us.uncletopia.com","port":27015,"enabled":true,"region":"us-central","cc":"us","latitude":41.881832,"longitude":-87.62318,"reserved":0,"last_update":"0001-01-01T00:00:00Z","name_a2s":"Uncletopia | Chicago | 5 | All Maps","protocol":17,"map":"koth_viaduct","folder":"tf","game":"Team Fortress","app_id":440,"player_count":0,"max_players":24,"Bots":0,"server_type":"Dedicated","server_os":"Linux","password":true,"vac":true,"version":"7961495","steam_id":85568392924866362,"keywords":["cp","nocrits","nodmgspread","uncletopia"],"game_id":440,"stv_port":27016,"stv_name":"Uncletopia | Chicago | 5 | All Maps | STV","players":null},{"server_id":37,"name":"Uncletopia | Chicago | 6 | All Maps","name_short":"chi-6","host":"chi-2.us.uncletopia.com","port":27025,"enabled":true,"region":"us-central","cc":"us","latitude":41.881832,"longitude":-87.62318,"reserved":0,"last_update":"0001-01-01T00:00:00Z","name_a2s":"Uncletopia | Chicago | 6 | All Maps","protocol":17,"map":"pl_pier","folder":"tf","game":"Team Fortress","app_id":440,"player_count":0,"max_players":24,"Bots":0,"server_type":"Dedicated","server_os":"Linux","password":true,"vac":true,"version":"7961495","steam_id":85568392924866363,"keywords":["nocrits","nodmgspread","payload","uncletopia"],"game_id":440,"stv_port":27026,"stv_name":"Uncletopia | Chicago | 6 | All Maps | STV","players":null},{"server_id":38,"name":"Uncletopia | Chicago | 7 | Stopwatch","name_short":"chi-7","host":"chi-2.us.uncletopia.com","port":27035,"enabled":true,"region":"us-central","cc":"us","latitude":41.881832,"longitude":-87.62318,"reserved":0,"last_update":"0001-01-01T00:00:00Z","name_a2s":"Uncletopia | Chicago | 7 | Stopwatch","protocol":17,"map":"pl_badwater","folder":"tf","game":"Team Fortress","app_id":440,"player_count":0,"max_players":24,"Bots":0,"server_type":"Dedicated","server_os":"Linux","password":true,"vac":true,"version":"7961495","steam_id":85568392924866364,"keywords":["nocrits","nodmgspread","payload","uncletopia"],"game_id":440,"stv_port":27036,"stv_name":"Uncletopia | Chicago | 7 | Stopwatch | STV","players":null},{"server_id":39,"name":"Uncletopia | Chicago | 8 | Community","name_short":"chi-8","host":"chi-2.us.uncletopia.com","port":27045,"enabled":true,"region":"us-central","cc":"us","latitude":41.881832,"longitude":-87.62318,"reserved":0,"last_update":"0001-01-01T00:00:00Z","name_a2s":"Uncletopia | Chicago | 8 | Community","protocol":17,"map":"pl_pier","folder":"tf","game":"Team Fortress","app_id":440,"player_count":0,"max_players":24,"Bots":0,"server_type":"Dedicated","server_os":"Linux","password":true,"vac":true,"version":"7961495","steam_id":85568392924866365,"keywords":["nocrits","nodmgspread","payload","uncletopia"],"game_id":440,"stv_port":27046,"stv_name":"Uncletopia | Chicago | 8 | Community | STV","players":null},{"server_id":8,"name":"Uncletopia | Dallas | 1 | All Maps","name_short":"dal-1","host":"dal-1.us.uncletopia.com","port":27015,"enabled":true,"region":"us-central","cc":"us","latitude":32.779167,"longitude":-96.80889,"reserved":0,"last_update":"0001-01-01T00:00:00Z","name_a2s":"Uncletopia | Dallas | 1 | All Maps","protocol":17,"map":"koth_suijin","folder":"tf","game":"Team Fortress","app_id":440,"player_count":0,"max_players":24,"Bots":0,"server_type":"Dedicated","server_os":"Linux","password":true,"vac":true,"version":"7961495","steam_id":85568392924469986,"keywords":["cp","nocrits","nodmgspread","uncletopia"],"game_id":440,"stv_port":27016,"stv_name":"Uncletopia | Dallas | 1 | All Maps | STV","players":null},{"server_id":108,"name":"Uncletopia | Dallas | 2 | All Maps","name_short":"dal-2","host":"dal-1.us.uncletopia.com","port":27025,"enabled":true,"region":"us-central","cc":"us","latitude":32.779167,"longitude":-96.80889,"reserved":0,"last_update":"0001-01-01T00:00:00Z","name_a2s":"Uncletopia | Dallas | 2 | All Maps","protocol":17,"map":"cp_dustbowl","folder":"tf","game":"Team Fortress","app_id":440,"player_count":24,"max_players":24,"Bots":0,"server_type":"Dedicated","server_os":"Linux","password":true,"vac":true,"version":"7961495","steam_id":85568392924469988,"keywords":["cp","nocrits","nodmgspread","uncletopia"],"game_id":440,"stv_port":27026,"stv_name":"Uncletopia | Dallas | 2 | All Maps | STV","players":[{"user_id":10,"name":"shadowtaco69","steam_id":76561198112453714,"connected_time":2097000000000,"state":"active","ping":62},{"user_id":11,"name":"dicksnip","steam_id":76561198356515396,"connected_time":2082000000000,"state":"active","ping":72},{"user_id":12,"name":"men kisser","steam_id":76561199026721822,"connected_time":1970000000000,"state":"active","ping":86},{"user_id":46,"name":"Kid named download","steam_id":76561199192074448,"connected_time":527000000000,"state":"active","ping":95},{"user_id":50,"name":"the.land.of.avalon","steam_id":76561198245431668,"connected_time":288000000000,"state":"active","ping":69},{"user_id":48,"name":"MajorPlatinum","steam_id":76561198204291936,"connected_time":412000000000,"state":"active","ping":30},{"user_id":53,"name":"Carson","steam_id":76561198068551867,"connected_time":192000000000,"state":"active","ping":60},{"user_id":19,"name":"Petrivus","steam_id":76561198202152453,"connected_time":1576000000000,"state":"active","ping":106},{"user_id":51,"name":"AWGER (don't uber)","steam_id":76561198284683624,"connected_time":244000000000,"state":"active","ping":79},{"user_id":44,"name":"GuyGoom","steam_id":76561198254522178,"connected_time":647000000000,"state":"active","ping":64},{"user_id":22,"name":"That One Guy","steam_id":76561198945646560,"connected_time":1300000000000,"state":"active","ping":122},{"user_id":57,"name":"Sweet Tooth","steam_id":76561198830158092,"connected_time":72000000000,"state":"active","ping":78},{"user_id":24,"name":"PoisonNatascha","steam_id":76561198101353460,"connected_time":1243000000000,"state":"active","ping":81},{"user_id":25,"name":"Killerfish360","steam_id":76561198115029584,"connected_time":1234000000000,"state":"active","ping":76},{"user_id":31,"name":"CWCLONE","steam_id":76561198132459460,"connected_time":1166000000000,"state":"active","ping":76},{"user_id":56,"name":"Engideer","steam_id":76561198145733164,"connected_time":153000000000,"state":"active","ping":40},{"user_id":28,"name":"Boot Mcstink","steam_id":76561199226873917,"connected_time":1194000000000,"state":"active","ping":86},{"user_id":55,"name":"Nubert","steam_id":76561198990445167,"connected_time":181000000000,"state":"active","ping":77},{"user_id":45,"name":"SubWay #SaveTf2","steam_id":76561198336722096,"connected_time":631000000000,"state":"active","ping":76},{"user_id":32,"name":"kiso","steam_id":76561198141026844,"connected_time":1148000000000,"state":"active","ping":131},{"user_id":34,"name":"ihave80hp","steam_id":76561199251621911,"connected_time":1113000000000,"state":"active","ping":110},{"user_id":35,"name":"dudeguypersonmanhombre","steam_id":76561198052016845,"connected_time":1101000000000,"state":"active","ping":75},{"user_id":43,"name":"hatchetax","steam_id":76561199013337543,"connected_time":746000000000,"state":"active","ping":62},{"user_id":42,"name":"Pvt. Dimitri Petrenko","steam_id":76561198078040091,"connected_time":758000000000,"state":"active","ping":53}]},{"server_id":404,"name":"Uncletopia | Dallas | 3 | All Maps","name_short":"dal-3","host":"dal-1.us.uncletopia.com","port":27035,"enabled":true,"region":"us-central","cc":"us","latitude":32.779167,"longitude":-96.80889,"reserved":0,"last_update":"0001-01-01T00:00:00Z","name_a2s":"Uncletopia | Dallas | 3 | All Maps","protocol":17,"map":"koth_viaduct","folder":"tf","game":"Team Fortress","app_id":440,"player_count":0,"max_players":24,"Bots":0,"server_type":"Dedicated","server_os":"Linux","password":true,"vac":true,"version":"7961495","steam_id":85568392924515219,"keywords":["cp","nocrits","nodmgspread","uncletopia"],"game_id":440,"stv_port":27036,"stv_name":"Uncletopia | Dallas | 3 | All Maps | STV","players":null},{"server_id":405,"name":"Uncletopia | Dallas | 4 | Community","name_short":"dal-4","host":"dal-1.us.uncletopia.com","port":27045,"enabled":true,"region":"us-central","cc":"us","latitude":32.779167,"longitude":-96.80889,"reserved":0,"last_update":"0001-01-01T00:00:00Z","name_a2s":"Uncletopia | Dallas | 4 | Community","protocol":17,"map":"pl_pier","folder":"tf","game":"Team Fortress","app_id":440,"player_count":0,"max_players":24,"Bots":0,"server_type":"Dedicated","server_os":"Linux","password":true,"vac":true,"version":"7961495","steam_id":85568392924515220,"keywords":["nocrits","nodmgspread","payload","uncletopia"],"game_id":440,"stv_port":27046,"stv_name":"Uncletopia | Dallas | 4 | Community | STV","players":null},{"server_id":5,"name":"Uncletopia | Frankfurt | 1 | All Maps","name_short":"frk-1","host":"frk-1.de.uncletopia.com","port":27015,"enabled":true,"region":"eu","cc":"de","latitude":50.110924,"longitude":8.682127,"reserved":0,"last_update":"0001-01-01T00:00:00Z","name_a2s":"Uncletopia | Frankfurt | 1 | All Maps","protocol":17,"map":"pl_swiftwater_final1","folder":"tf","game":"Team Fortress","app_id":440,"player_count":25,"max_players":24,"Bots":0,"server_type":"Dedicated","server_os":"Linux","password":true,"vac":true,"version":"7961495","steam_id":85568392924469989,"keywords":["nocrits","nodmgspread","payload","uncletopia"],"game_id":440,"stv_port":27016,"stv_name":"Uncletopia | Frankfurt | 1 | All Maps | STV","players":[{"user_id":516,"name":"socaramel","steam_id":76561197984480336,"connected_time":718000000000,"state":"active","ping":78},{"user_id":463,"name":"A moon goose","steam_id":76561198064734905,"connected_time":3859000000000,"state":"active","ping":94},{"user_id":520,"name":"onixed766","steam_id":76561198995478547,"connected_time":657000000000,"state":"active","ping":61},{"user_id":492,"name":"Vi100 Dol7","steam_id":76561198118137461,"connected_time":1636000000000,"state":"active","ping":80},{"user_id":517,"name":"Killroywashere","steam_id":76561198169854979,"connected_time":712000000000,"state":"active","ping":106},{"user_id":499,"name":"Kalivero üêç CEO of SNEKS","steam_id":76561198244148206,"connected_time":1440000000000,"state":"active","ping":89},{"user_id":521,"name":"Nobody","steam_id":76561199113947978,"connected_time":594000000000,"state":"active","ping":71},{"user_id":514,"name":"cookie","steam_id":76561198259270903,"connected_time":939000000000,"state":"active","ping":75},{"user_id":500,"name":"IS3BITEL","steam_id":76561199178060325,"connected_time":1417000000000,"state":"active","ping":69},{"user_id":523,"name":"xarks","steam_id":76561198026236701,"connected_time":334000000000,"state":"active","ping":74},{"user_id":444,"name":"Shogg","steam_id":76561198056382237,"connected_time":4507000000000,"state":"active","ping":75},{"user_id":487,"name":"poovy","steam_id":76561198334992772,"connected_time":1966000000000,"state":"active","ping":98},{"user_id":518,"name":"After8","steam_id":76561198090750865,"connected_time":678000000000,"state":"active","ping":60},{"user_id":522,"name":"koji","steam_id":76561198051636999,"connected_time":493000000000,"state":"active","ping":59},{"user_id":524,"name":"Wardruna96","steam_id":76561199057083828,"connected_time":192000000000,"state":"active","ping":75},{"user_id":504,"name":"Titut11","steam_id":76561198392505656,"connected_time":1342000000000,"state":"active","ping":68},{"user_id":473,"name":"6'11\" Jaden Smith","steam_id":76561198059674196,"connected_time":3023000000000,"state":"active","ping":57},{"user_id":380,"name":"KrAk3rs","steam_id":76561198298179344,"connected_time":9112000000000,"state":"active","ping":68},{"user_id":505,"name":"chmo4ka)","steam_id":76561198382643679,"connected_time":1340000000000,"state":"active","ping":76},{"user_id":507,"name":"–õ—ã—Å–∞—è —Ç–æ—Ä–ø–µ–¥–∞","steam_id":76561199050773293,"connected_time":1306000000000,"state":"active","ping":58},{"user_id":486,"name":"michalstrach13","steam_id":76561199004687217,"connected_time":1973000000000,"state":"active","ping":71},{"user_id":474,"name":"Family Disser","steam_id":76561198278967055,"connected_time":3004000000000,"state":"active","ping":75},{"user_id":513,"name":"Open Mailbox","steam_id":76561198051933580,"connected_time":1047000000000,"state":"active","ping":158},{"user_id":519,"name":"Villdjack","steam_id":76561197999480096,"connected_time":676000000000,"state":"active","ping":74},{"user_id":525,"name":"Porta","steam_id":76561198298292261,"connected_time":22000000000,"state":"spawning","ping":94}]},{"server_id":110,"name":"Uncletopia | Frankfurt | 2 | All Maps","name_short":"frk-2","host":"frk-1.de.uncletopia.com","port":27025,"enabled":true,"region":"eu","cc":"de","latitude":50.110924,"longitude":8.682127,"reserved":0,"last_update":"0001-01-01T00:00:00Z","name_a2s":"Uncletopia | Frankfurt | 2 | All Maps","protocol":17,"map":"pl_frontier_final","folder":"tf","game":"Team Fortress","app_id":440,"player_count":24,"max_players":24,"Bots":0,"server_type":"Dedicated","server_os":"Linux","password":true,"vac":true,"version":"7961495","steam_id":85568392924469990,"keywords":["nocrits","nodmgspread","payload","uncletopia"],"game_id":440,"stv_port":27026,"stv_name":"Uncletopia | Frankfurt | 2 | All Maps | STV","players":[{"user_id":87,"name":"else1","steam_id":76561197996558319,"connected_time":5775000000000,"state":"active","ping":78},{"user_id":125,"name":"warforge3","steam_id":76561199276024310,"connected_time":1965000000000,"state":"active","ping":96},{"user_id":149,"name":"Porkkis","steam_id":76561198102523042,"connected_time":487000000000,"state":"active","ping":84},{"user_id":116,"name":"KV-1593","steam_id":76561198105757568,"connected_time":3123000000000,"state":"active","ping":62},{"user_id":86,"name":"pau≈Ç√≥","steam_id":76561198286747891,"connected_time":6261000000000,"state":"active","ping":83},{"user_id":150,"name":"aja","steam_id":76561198972253395,"connected_time":336000000000,"state":"active","ping":61},{"user_id":146,"name":"TheOxideGamer","steam_id":76561199445897326,"connected_time":633000000000,"state":"active","ping":98},{"user_id":153,"name":"Fischer101","steam_id":76561198301481739,"connected_time":124000000000,"state":"active","ping":47},{"user_id":105,"name":"Spinya","steam_id":76561198086653667,"connected_time":4044000000000,"state":"active","ping":65},{"user_id":154,"name":"Hann√º","steam_id":76561197969886128,"connected_time":95000000000,"state":"active","ping":60},{"user_id":52,"name":"mr.resetti","steam_id":76561198974520642,"connected_time":8610000000000,"state":"active","ping":70},{"user_id":112,"name":"I have no duck and I must quack","steam_id":76561198061920656,"connected_time":3482000000000,"state":"active","ping":74},{"user_id":118,"name":"incarnation of paul ball","steam_id":76561198076219289,"connected_time":2966000000000,"state":"active","ping":59},{"user_id":127,"name":"useless windows applications","steam_id":76561198410066304,"connected_time":1892000000000,"state":"active","ping":47},{"user_id":147,"name":"Joe","steam_id":76561198145639903,"connected_time":566000000000,"state":"active","ping":91},{"user_id":144,"name":"nerazzurri","steam_id":76561198150060767,"connected_time":784000000000,"state":"active","ping":60},{"user_id":128,"name":"üóªüé¥Hadrian Maloneüé¥üóª","steam_id":76561198036151103,"connected_time":1884000000000,"state":"active","ping":59},{"user_id":122,"name":"paul ball in the flesh","steam_id":76561198046873337,"connected_time":2216000000000,"state":"active","ping":70},{"user_id":129,"name":"ThiccSkin Detective","steam_id":76561198989449047,"connected_time":1852000000000,"state":"active","ping":119},{"user_id":148,"name":"Swift","steam_id":76561197998799889,"connected_time":564000000000,"state":"active","ping":57},{"user_id":120,"name":"cock fucker pussy smacker","steam_id":76561198097515215,"connected_time":2923000000000,"state":"active","ping":70},{"user_id":131,"name":"GogsCrunchyNuts","steam_id":76561198150599213,"connected_time":1734000000000,"state":"active","ping":103},{"user_id":151,"name":"hasky","steam_id":76561197986052798,"connected_time":320000000000,"state":"active","ping":76},{"user_id":121,"name":"≈†tƒõp√°n","steam_id":76561198275742101,"connected_time":2646000000000,"state":"active","ping":58}]},{"server_id":308,"name":"Uncletopia | Frankfurt | 3 | All Maps","name_short":"frk-3","host":"frk-1.de.uncletopia.com","port":27035,"enabled":true,"region":"eu","cc":"de","latitude":50.110924,"longitude":8.682127,"reserved":0,"last_update":"0001-01-01T00:00:00Z","name_a2s":"Uncletopia | Frankfurt | 3 | All Maps","protocol":17,"map":"cp_snakewater_final1","folder":"tf","game":"Team Fortress","app_id":440,"player_count":19,"max_players":24,"Bots":0,"server_type":"Dedicated","server_os":"Linux","password":true,"vac":true,"version":"7961495","steam_id":85568392924504274,"keywords":["cp","nocrits","nodmgspread","uncletopia"],"game_id":440,"stv_port":27036,"stv_name":"Uncletopia | Frankfurt | 3 | All Maps | STV","players":[{"user_id":267,"name":"CRITICAL_HIT!","steam_id":76561198349330393,"connected_time":121000000000,"state":"active","ping":64},{"user_id":268,"name":"Gabriel","steam_id":76561198183609875,"connected_time":88000000000,"state":"active","ping":58},{"user_id":269,"name":"JC","steam_id":76561198029213352,"connected_time":84000000000,"state":"active","ping":50},{"user_id":252,"name":"COMPOTE","steam_id":76561198985222555,"connected_time":1302000000000,"state":"active","ping":59},{"user_id":253,"name":"aku [HF]","steam_id":76561199110566094,"connected_time":1265000000000,"state":"active","ping":125},{"user_id":259,"name":"Irbynx","steam_id":76561197980421195,"connected_time":829000000000,"state":"active","ping":77},{"user_id":260,"name":"Rlanser","steam_id":76561199071682473,"connected_time":748000000000,"state":"active","ping":82},{"user_id":265,"name":"michael","steam_id":76561198214063660,"connected_time":144000000000,"state":"active","ping":81},{"user_id":270,"name":"shaunrq","steam_id":76561199136585297,"connected_time":78000000000,"state":"active","ping":71},{"user_id":271,"name":"Jethro Tull","steam_id":76561199034041634,"connected_time":57000000000,"state":"active","ping":64},{"user_id":272,"name":"tokss","steam_id":76561198033084982,"connected_time":55000000000,"state":"active","ping":90},{"user_id":249,"name":"Mr. Cheesey","steam_id":76561198153462183,"connected_time":1734000000000,"state":"active","ping":165},{"user_id":273,"name":"Carrot Arc","steam_id":76561198164957006,"connected_time":54000000000,"state":"active","ping":83},{"user_id":274,"name":"Peskyplumber64","steam_id":76561198044458330,"connected_time":50000000000,"state":"active","ping":57},{"user_id":275,"name":"brtaba","steam_id":76561198796334790,"connected_time":38000000000,"state":"active","ping":56},{"user_id":276,"name":"thwee","steam_id":76561199133739473,"connected_time":30000000000,"state":"active","ping":80},{"user_id":277,"name":"elio","steam_id":76561198142662131,"connected_time":23000000000,"state":"active","ping":70},{"user_id":278,"name":"GGabe","steam_id":76561198117199068,"connected_time":5000000000,"state":"spawning","ping":61},{"user_id":247,"name":"NouNours-a-poual","steam_id":76561198873607763,"connected_time":2003000000000,"state":"active","ping":61}]},{"server_id":309,"name":"Uncletopia | Frankfurt | 4 | All Maps","name_short":"frk-4","host":"frk-1.de.uncletopia.com","port":27045,"enabled":true,"region":"eu","cc":"de","latitude":50.110924,"longitude":8.682127,"reserved":0,"last_update":"0001-01-01T00:00:00Z","name_a2s":"Uncletopia | Frankfurt | 4 | All Maps","protocol":17,"map":"pl_borneo","folder":"tf","game":"Team Fortress","app_id":440,"player_count":24,"max_players":24,"Bots":0,"server_type":"Dedicated","server_os":"Linux","password":true,"vac":true,"version":"7961495","steam_id":85568392924504275,"keywords":["nocrits","nodmgspread","payload","uncletopia"],"game_id":440,"stv_port":27046,"stv_name":"Uncletopia | Frankfurt | 4 | All Maps | STV","players":[{"user_id":34,"name":"tyroksi :D","steam_id":76561198103875245,"connected_time":4564000000000,"state":"active","ping":107},{"user_id":114,"name":"Gregor Samsa","steam_id":76561198973069177,"connected_time":520000000000,"state":"active","ping":45},{"user_id":98,"name":"slippin jimmy","steam_id":76561198090788590,"connected_time":1105000000000,"state":"active","ping":51},{"user_id":99,"name":"Burgoo_King","steam_id":76561198133572225,"connected_time":1088000000000,"state":"active","ping":72},{"user_id":109,"name":"Chill Spirit","steam_id":76561198845001725,"connected_time":865000000000,"state":"active","ping":44},{"user_id":118,"name":"kallerannar","steam_id":76561199095701143,"connected_time":337000000000,"state":"active","ping":77},{"user_id":120,"name":"Mr. Awki","steam_id":76561198061676496,"connected_time":196000000000,"state":"active","ping":69},{"user_id":71,"name":"FNF","steam_id":76561199151422826,"connected_time":2504000000000,"state":"active","ping":127},{"user_id":72,"name":"Storm","steam_id":76561198313933163,"connected_time":2468000000000,"state":"active","ping":68},{"user_id":115,"name":"three rats in a trenchcoat","steam_id":76561197983889333,"connected_time":447000000000,"state":"active","ping":60},{"user_id":87,"name":"JepCabestany","steam_id":76561198123812578,"connected_time":1736000000000,"state":"active","ping":97},{"user_id":73,"name":"Neok04","steam_id":76561198023199263,"connected_time":2440000000000,"state":"active","ping":57},{"user_id":103,"name":"Pyrolander","steam_id":76561198050785450,"connected_time":993000000000,"state":"active","ping":47},{"user_id":105,"name":"SodaHead13","steam_id":76561198202990635,"connected_time":974000000000,"state":"active","ping":60},{"user_id":111,"name":"lillunya ‚ô°","steam_id":76561198330418866,"connected_time":766000000000,"state":"active","ping":60},{"user_id":106,"name":"Fedm","steam_id":76561199020090514,"connected_time":940000000000,"state":"active","ping":77},{"user_id":91,"name":"Jeffrey Harpen","steam_id":76561199073314677,"connected_time":1563000000000,"state":"active","ping":69},{"user_id":92,"name":"Iris","steam_id":76561198430295815,"connected_time":1550000000000,"state":"active","ping":59},{"user_id":122,"name":"timmy.27","steam_id":76561198063296613,"connected_time":23000000000,"state":"active","ping":77},{"user_id":94,"name":"cockroach","steam_id":76561198841841656,"connected_time":1485000000000,"state":"active","ping":69},{"user_id":95,"name":"Wang of Wall St","steam_id":76561198047460598,"connected_time":1405000000000,"state":"active","ping":147},{"user_id":112,"name":"TreatFly","steam_id":76561198069707362,"connected_time":724000000000,"state":"active","ping":69},{"user_id":117,"name":"‚ìÖ‚ìÅ‚ìà | Pink Panther","steam_id":76561198046434381,"connected_time":361000000000,"state":"active","ping":50}]},{"server_id":310,"name":"Uncletopia | Frankfurt | 5 | All Maps","name_short":"frk-5","host":"frk-1.de.uncletopia.com","port":27055,"enabled":true,"region":"eu","cc":"de","latitude":50.110924,"longitude":8.682127,"reserved":0,"last_update":"0001-01-01T00:00:00Z","name_a2s":"Uncletopia | Frankfurt | 5 | All Maps","protocol":17,"map":"pl_snowycoast","folder":"tf","game":"Team Fortress","app_id":440,"player_count":20,"max_players":24,"Bots":0,"server_type":"Dedicated","server_os":"Linux","password":true,"vac":true,"version":"7961495","steam_id":85568392924504277,"keywords":["nocrits","nodmgspread","payload","uncletopia"],"game_id":440,"stv_port":27056,"stv_name":"Uncletopia | Frankfurt | 5 | All Maps | STV","players":[{"user_id":345,"name":"Mitrixie","steam_id":76561198842023498,"connected_time":2879000000000,"state":"spawning","ping":77},{"user_id":361,"name":"romov","steam_id":76561199182288871,"connected_time":1469000000000,"state":"active","ping":129},{"user_id":372,"name":"Boi","steam_id":76561198387049078,"connected_time":1306000000000,"state":"active","ping":94},{"user_id":329,"name":"TheEventGuy","steam_id":76561197972797744,"connected_time":4321000000000,"state":"active","ping":63},{"user_id":388,"name":"Burgarnils","steam_id":76561198122854061,"connected_time":41000000000,"state":"active","ping":74},{"user_id":384,"name":"alfus","steam_id":76561198071003109,"connected_time":398000000000,"state":"spawning","ping":301},{"user_id":381,"name":"Swegumbre","steam_id":76561198253855048,"connected_time":535000000000,"state":"active","ping":35},{"user_id":389,"name":"laser","steam_id":76561198036030697,"connected_time":36000000000,"state":"connecting","ping":98},{"user_id":377,"name":"s a i","steam_id":76561197970379754,"connected_time":851000000000,"state":"active","ping":48},{"user_id":352,"name":"Tekky‚òª","steam_id":76561197990987315,"connected_time":2529000000000,"state":"active","ping":49},{"user_id":382,"name":"The Cool Ice Guy","steam_id":76561198146194820,"connected_time":530000000000,"state":"active","ping":49},{"user_id":374,"name":"VIN WEASEL","steam_id":76561198014387066,"connected_time":1166000000000,"state":"active","ping":46},{"user_id":369,"name":"waluigi","steam_id":76561198215809251,"connected_time":1375000000000,"state":"active","ping":59},{"user_id":362,"name":"jmp","steam_id":76561198168283286,"connected_time":1468000000000,"state":"active","ping":69},{"user_id":380,"name":"thussu","steam_id":76561198890409949,"connected_time":605000000000,"state":"active","ping":89},{"user_id":376,"name":"donutbodega17","steam_id":76561199211254746,"connected_time":1066000000000,"state":"active","ping":157},{"user_id":370,"name":"necatiekmen","steam_id":76561198859023103,"connected_time":1369000000000,"state":"active","ping":91},{"user_id":385,"name":"Shelly1052","steam_id":76561199043551053,"connected_time":343000000000,"state":"active","ping":52},{"user_id":373,"name":"NeuTroN","steam_id":76561198255123694,"connected_time":1246000000000,"state":"active","ping":65},{"user_id":387,"name":"TJ1212","steam_id":76561199013575313,"connected_time":176000000000,"state":"active","ping":64}]},{"server_id":311,"name":"Uncletopia | Frankfurt | 6 | All Maps","name_short":"frk-6","host":"frk-1.de.uncletopia.com","port":27065,"enabled":true,"region":"eu","cc":"de","latitude":50.110924,"longitude":8.682127,"reserved":0,"last_update":"0001-01-01T00:00:00Z","name_a2s":"Uncletopia | Frankfurt | 6 | All Maps","protocol":17,"map":"koth_suijin","folder":"tf","game":"Team Fortress","app_id":440,"player_count":24,"max_players":24,"Bots":0,"server_type":"Dedicated","server_os":"Linux","password":true,"vac":true,"version":"7961495","steam_id":85568392924504278,"keywords":["cp","nocrits","nodmgspread","uncletopia"],"game_id":440,"stv_port":27066,"stv_name":"Uncletopia | Frankfurt | 6 | All Maps | STV","players":[{"user_id":256,"name":"Creamy","steam_id":76561198063907478,"connected_time":741000000000,"state":"active","ping":77},{"user_id":258,"name":"Dr. Livesey","steam_id":76561198256814108,"connected_time":583000000000,"state":"active","ping":134},{"user_id":246,"name":"SeeNz-","steam_id":76561198161274062,"connected_time":933000000000,"state":"active","ping":86},{"user_id":183,"name":"Davdus","steam_id":76561198066957579,"connected_time":5580000000000,"state":"active","ping":60},{"user_id":266,"name":"mud","steam_id":76561198141497461,"connected_time":198000000000,"state":"active","ping":59},{"user_id":259,"name":"puffled","steam_id":76561198894774140,"connected_time":572000000000,"state":"active","ping":83},{"user_id":200,"name":"Nikt Wa≈ºny (F2P)","steam_id":76561199273293257,"connected_time":4202000000000,"state":"active","ping":123},{"user_id":250,"name":"Several geollos screaming","steam_id":76561198291326102,"connected_time":843000000000,"state":"active","ping":74},{"user_id":251,"name":"FoxyTheFish","steam_id":76561199074190919,"connected_time":835000000000,"state":"active","ping":56},{"user_id":263,"name":"Josh","steam_id":76561198155863376,"connected_time":375000000000,"state":"active","ping":51},{"user_id":227,"name":"ilovebabo","steam_id":76561199506233173,"connected_time":2036000000000,"state":"active","ping":62},{"user_id":244,"name":"The Holy Bible","steam_id":76561197967683724,"connected_time":1021000000000,"state":"active","ping":60},{"user_id":252,"name":"Amandus","steam_id":76561198036281079,"connected_time":831000000000,"state":"active","ping":59},{"user_id":229,"name":"el gato","steam_id":76561199236826264,"connected_time":1976000000000,"state":"active","ping":88},{"user_id":219,"name":"Abrorius","steam_id":76561198095889014,"connected_time":2620000000000,"state":"active","ping":76},{"user_id":233,"name":"---","steam_id":76561198092283741,"connected_time":1821000000000,"state":"active","ping":60},{"user_id":265,"name":"Marley","steam_id":76561198067663021,"connected_time":307000000000,"state":"active","ping":54},{"user_id":234,"name":"staecold","steam_id":76561199488752503,"connected_time":1818000000000,"state":"active","ping":56},{"user_id":253,"name":"Kaestal","steam_id":76561198033174157,"connected_time":819000000000,"state":"active","ping":169},{"user_id":254,"name":"sgt Bytheway","steam_id":76561198094169965,"connected_time":800000000000,"state":"active","ping":64},{"user_id":261,"name":"Thunder Humper","steam_id":76561197988549488,"connected_time":543000000000,"state":"active","ping":82},{"user_id":167,"name":"Rjay","steam_id":76561198026151229,"connected_time":6225000000000,"state":"active","ping":103},{"user_id":220,"name":"üå≠ 0mger","steam_id":76561198053615827,"connected_time":2599000000000,"state":"active","ping":72},{"user_id":264,"name":"I-I","steam_id":76561198267969436,"connected_time":333000000000,"state":"active","ping":65}]},{"server_id":23,"name":"Uncletopia | Frankfurt | 7 | Stopwatch","name_short":"frk-7","host":"frk-1.de.uncletopia.com","port":27075,"enabled":true,"region":"eu","cc":"de","latitude":50.110924,"longitude":8.682127,"reserved":0,"last_update":"0001-01-01T00:00:00Z","name_a2s":"Uncletopia | Frankfurt | 7 | Stopwatch","protocol":17,"map":"workshop/koth_ramjam_rc1.ugc459778887","folder":"tf","game":"Team Fortress","app_id":440,"player_count":0,"max_players":24,"Bots":0,"server_type":"Dedicated","server_os":"Linux","password":true,"vac":true,"version":"7961495","steam_id":85568392924742827,"keywords":["cp","nocrits","nodmgspread","uncletopia"],"game_id":440,"stv_port":27076,"stv_name":"Uncletopia | Frankfurt | 7 | Stopwatch | STV","players":null},{"server_id":24,"name":"Uncletopia | Frankfurt | 8 | Community","name_short":"frk-8","host":"frk-1.de.uncletopia.com","port":27085,"enabled":true,"region":"eu","cc":"de","latitude":50.110924,"longitude":8.682127,"reserved":0,"last_update":"0001-01-01T00:00:00Z","name_a2s":"Uncletopia | Frankfurt | 8 | Community","protocol":17,"map":"workshop/cp_reckoner_rc6.ugc674719999","folder":"tf","game":"Team Fortress","app_id":440,"player_count":3,"max_players":24,"Bots":0,"server_type":"Dedicated","server_os":"Linux","password":true,"vac":true,"version":"7961495","steam_id":85568392924742828,"keywords":["cp","nocrits","nodmgspread","uncletopia"],"game_id":440,"stv_port":27086,"stv_name":"Uncletopia | Frankfurt | 8 | Community | STV","players":[{"user_id":6,"name":"Leafy","steam_id":76561199219653853,"connected_time":1565000000000,"state":"active","ping":52},{"user_id":7,"name":"sasy baka","steam_id":76561199236890536,"connected_time":1557000000000,"state":"active","ping":66},{"user_id":9,"name":"GH578","steam_id":76561199493262585,"connected_time":441000000000,"state":"active","ping":204}]},{"server_id":202,"name":"Uncletopia | Hong Kong | 1 | All Maps","name_short":"hgk-1","host":"hgk-1.hk.uncletopia.com","port":27015,"enabled":true,"region":"asia","cc":"hk","latitude":22.302711,"longitude":114.177216,"reserved":0,"last_update":"0001-01-01T00:00:00Z","name_a2s":"Uncletopia | Hong Kong | 1 | All Maps","protocol":17,"map":"pl_barnblitz","folder":"tf","game":"Team Fortress","app_id":440,"player_count":13,"max_players":24,"Bots":0,"server_type":"Dedicated","server_os":"Linux","password":true,"vac":true,"version":"7961495","steam_id":85568392924494504,"keywords":["nocrits","nodmgspread","payload","uncletopia"],"game_id":440,"stv_port":27016,"stv_name":"Uncletopia | Hong Kong | 1 | All Maps | STV","players":[{"user_id":356,"name":"Ashura","steam_id":76561199068011542,"connected_time":716000000000,"state":"active","ping":184},{"user_id":357,"name":"Izayio","steam_id":76561198379080588,"connected_time":655000000000,"state":"active","ping":104},{"user_id":349,"name":"17","steam_id":76561198241530712,"connected_time":1375000000000,"state":"active","ping":79},{"user_id":358,"name":"DaBoi","steam_id":76561199235171429,"connected_time":622000000000,"state":"active","ping":117},{"user_id":361,"name":"MEDIC!","steam_id":76561198238067374,"connected_time":238000000000,"state":"active","ping":135},{"user_id":362,"name":"110 ping demoman","steam_id":76561199137927625,"connected_time":133000000000,"state":"active","ping":89},{"user_id":339,"name":"domjni","steam_id":76561198287931508,"connected_time":2878000000000,"state":"active","ping":66},{"user_id":279,"name":"ÊØç„ÅÆËÇâÂõ£Â≠ê@hao123.com","steam_id":76561198069561896,"connected_time":9060000000000,"state":"active","ping":31},{"user_id":351,"name":"twotime!","steam_id":76561199506054797,"connected_time":1001000000000,"state":"active","ping":57},{"user_id":341,"name":"tomato","steam_id":76561198378829574,"connected_time":2450000000000,"state":"active","ping":54},{"user_id":343,"name":"killman47","steam_id":76561198348487408,"connected_time":1707000000000,"state":"active","ping":39},{"user_id":325,"name":"WILLY-WANCHAI-QQ.COM","steam_id":76561198413116920,"connected_time":3946000000000,"state":"active","ping":92},{"user_id":353,"name":"nolifenate","steam_id":76561199098311696,"connected_time":925000000000,"state":"active","ping":67}]},{"server_id":1,"name":"Uncletopia | Los Angeles | 1 | All Maps","name_short":"lax-1","host":"lax-1.us.uncletopia.com","port":27015,"enabled":true,"region":"us-west","cc":"us","latitude":33.94279,"longitude":-118.41004,"reserved":0,"last_update":"0001-01-01T00:00:00Z","name_a2s":"Uncletopia | Los Angeles | 1 | All Maps","protocol":17,"map":"cp_snakewater_final1","folder":"tf","game":"Team Fortress","app_id":440,"player_count":0,"max_players":24,"Bots":0,"server_type":"Dedicated","server_os":"Linux","password":true,"vac":true,"version":"7961495","steam_id":85568392924469991,"keywords":["cp","nocrits","nodmgspread","uncletopia"],"game_id":440,"stv_port":27016,"stv_name":"Uncletopia | Los Angeles | 1 | All Maps | STV","players":null},{"server_id":112,"name":"Uncletopia | Los Angeles | 2 | All Maps","name_short":"lax-2","host":"lax-1.us.uncletopia.com","port":27025,"enabled":true,"region":"us-west","cc":"us","latitude":33.94279,"longitude":-118.41004,"reserved":0,"last_update":"0001-01-01T00:00:00Z","name_a2s":"Uncletopia | Los Angeles | 2 | All Maps","protocol":17,"map":"koth_viaduct","folder":"tf","game":"Team Fortress","app_id":440,"player_count":0,"max_players":24,"Bots":0,"server_type":"Dedicated","server_os":"Linux","password":true,"vac":true,"version":"7961495","steam_id":85568392924469992,"keywords":["cp","nocrits","nodmgspread","uncletopia"],"game_id":440,"stv_port":27026,"stv_name":"Uncletopia | Los Angeles | 2 | All Maps | STV","players":null},{"server_id":324,"name":"Uncletopia | Los Angeles | 3 | All Maps","name_short":"lax-3","host":"lax-1.us.uncletopia.com","port":27035,"enabled":true,"region":"us-west","cc":"us","latitude":33.94279,"longitude":-118.41004,"reserved":0,"last_update":"0001-01-01T00:00:00Z","name_a2s":"Uncletopia | Los Angeles | 3 | All Maps","protocol":17,"map":"pl_barnblitz","folder":"tf","game":"Team Fortress","app_id":440,"player_count":0,"max_players":24,"Bots":0,"server_type":"Dedicated","server_os":"Linux","password":true,"vac":true,"version":"7961495","steam_id":85568392924510198,"keywords":["nocrits","nodmgspread","payload","uncletopia"],"game_id":440,"stv_port":27036,"stv_name":"Uncletopia | Los Angeles | 3 | All Maps | STV","players":null},{"server_id":25,"name":"Uncletopia | Los Angeles | 4 | Stopwatch","name_short":"lax-4","host":"lax-1.us.uncletopia.com","port":27045,"enabled":true,"region":"us-west","cc":"us","latitude":33.94279,"longitude":-118.41004,"reserved":0,"last_update":"0001-01-01T00:00:00Z","name_a2s":"Uncletopia | Los Angeles | 4 | Stopwatch","protocol":17,"map":"pl_barnblitz","folder":"tf","game":"Team Fortress","app_id":440,"player_count":0,"max_players":24,"Bots":0,"server_type":"Dedicated","server_os":"Linux","password":true,"vac":true,"version":"7961495","steam_id":85568392924510199,"keywords":["nocrits","nodmgspread","payload","uncletopia"],"game_id":440,"stv_port":27046,"stv_name":"Uncletopia | Los Angeles | 4 | Stopwatch | STV","players":null},{"server_id":11,"name":"Uncletopia | London | 1 | All Maps","name_short":"lon-1","host":"lon-1.uk.uncletopia.com","port":27015,"enabled":true,"region":"eu","cc":"gb","latitude":51.509865,"longitude":-0.118092,"reserved":0,"last_update":"0001-01-01T00:00:00Z","name_a2s":"Uncletopia | London | 1 | All Maps","protocol":17,"map":"cp_fastlane","folder":"tf","game":"Team Fortress","app_id":440,"player_count":24,"max_players":24,"Bots":0,"server_type":"Dedicated","server_os":"Linux","password":true,"vac":true,"version":"7961495","steam_id":85568392924367362,"keywords":["cp","nocrits","nodmgspread","uncletopia"],"game_id":440,"stv_port":27016,"stv_name":"Uncletopia | London | 1 | All Maps | STV","players":[{"user_id":454,"name":"Finkaksu Devourer of Sour Candy","steam_id":76561198201389163,"connected_time":2552000000000,"state":"active","ping":69},{"user_id":501,"name":"Michael","steam_id":76561198003146906,"connected_time":89000000000,"state":"active","ping":36},{"user_id":476,"name":"Imperial City Guard","steam_id":76561198083355845,"connected_time":1586000000000,"state":"active","ping":51},{"user_id":494,"name":"Lupine Primogen","steam_id":76561198028921204,"connected_time":785000000000,"state":"active","ping":86},{"user_id":478,"name":"CAA Agent 02","steam_id":76561198088727093,"connected_time":1452000000000,"state":"active","ping":37},{"user_id":496,"name":"Ville","steam_id":76561198137424821,"connected_time":411000000000,"state":"active","ping":61},{"user_id":487,"name":"D4NTheProtogen","steam_id":76561198206460789,"connected_time":1190000000000,"state":"active","ping":55},{"user_id":491,"name":"Kahvi","steam_id":76561198723244199,"connected_time":859000000000,"state":"active","ping":75},{"user_id":482,"name":"Slifer the Furry","steam_id":76561198062255803,"connected_time":1306000000000,"state":"active","ping":68},{"user_id":457,"name":"Warrior555MainsGanon","steam_id":76561198388627786,"connected_time":2454000000000,"state":"active","ping":64},{"user_id":410,"name":"Keyboss1Tona","steam_id":76561199212039138,"connected_time":5885000000000,"state":"active","ping":61},{"user_id":500,"name":"Fearly","steam_id":76561198798684016,"connected_time":120000000000,"state":"active","ping":52},{"user_id":490,"name":"nappo","steam_id":76561198060105180,"connected_time":1013000000000,"state":"active","ping":60},{"user_id":497,"name":"SKY_","steam_id":76561198080980508,"connected_time":387000000000,"state":"active","ping":69},{"user_id":471,"name":"Chicken Golem","steam_id":76561198138995247,"connected_time":1906000000000,"state":"active","ping":140},{"user_id":465,"name":"BELADIT","steam_id":76561198011911501,"connected_time":2240000000000,"state":"active","ping":89},{"user_id":493,"name":"Watereaters","steam_id":76561198165489058,"connected_time":794000000000,"state":"active","ping":56},{"user_id":475,"name":"RedCo","steam_id":76561198335366889,"connected_time":1772000000000,"state":"active","ping":125},{"user_id":402,"name":"Lartsa","steam_id":76561198275690230,"connected_time":6231000000000,"state":"active","ping":106},{"user_id":484,"name":"Saint","steam_id":76561198003296382,"connected_time":1256000000000,"state":"active","ping":71},{"user_id":502,"name":"Ismael Ahmad Kanabawi","steam_id":76561198066295629,"connected_time":84000000000,"state":"active","ping":60},{"user_id":495,"name":"Archer","steam_id":76561197994239444,"connected_time":738000000000,"state":"active","ping":110},{"user_id":467,"name":"Imperialis","steam_id":76561198453956039,"connected_time":2173000000000,"state":"active","ping":57},{"user_id":480,"name":"marvi444","steam_id":76561198431534139,"connected_time":1412000000000,"state":"active","ping":60}]},{"server_id":114,"name":"Uncletopia | London | 2 | All Maps","name_short":"lon-2","host":"lon-1.uk.uncletopia.com","port":27025,"enabled":true,"region":"eu","cc":"gb","latitude":51.509865,"longitude":-0.118092,"reserved":0,"last_update":"0001-01-01T00:00:00Z","name_a2s":"Uncletopia | London | 2 | All Maps","protocol":17,"map":"cp_dustbowl","folder":"tf","game":"Team Fortress","app_id":440,"player_count":24,"max_players":24,"Bots":0,"server_type":"Dedicated","server_os":"Linux","password":true,"vac":true,"version":"7961495","steam_id":85568392924470941,"keywords":["cp","nocrits","nodmgspread","uncletopia"],"game_id":440,"stv_port":27026,"stv_name":"Uncletopia | London | 2 | All Maps | STV","players":[{"user_id":149,"name":"yuno appreciator","steam_id":76561198083286511,"connected_time":1104000000000,"state":"active","ping":36},{"user_id":146,"name":"James","steam_id":76561198168882012,"connected_time":1920000000000,"state":"active","ping":54},{"user_id":170,"name":"Lyell","steam_id":76561198350329389,"connected_time":259000000000,"state":"active","ping":66},{"user_id":150,"name":"K.V. #RemoveRandomCrits","steam_id":76561197994832993,"connected_time":1011000000000,"state":"active","ping":77},{"user_id":151,"name":"IcelandicDeath","steam_id":76561199134588214,"connected_time":1000000000000,"state":"active","ping":55},{"user_id":171,"name":"souli","steam_id":76561198820206418,"connected_time":146000000000,"state":"active","ping":47},{"user_id":172,"name":"machineshot","steam_id":76561198035661903,"connected_time":137000000000,"state":"active","ping":75},{"user_id":154,"name":"JOL_MAX","steam_id":76561199196047539,"connected_time":959000000000,"state":"active","ping":123},{"user_id":148,"name":"Topia","steam_id":76561198163571788,"connected_time":1155000000000,"state":"active","ping":98},{"user_id":173,"name":"Thors","steam_id":76561197968739075,"connected_time":133000000000,"state":"active","ping":44},{"user_id":178,"name":"saul goodmen","steam_id":76561199395002401,"connected_time":94000000000,"state":"active","ping":163},{"user_id":174,"name":"DRAGONFLY","steam_id":76561198104896547,"connected_time":125000000000,"state":"active","ping":80},{"user_id":168,"name":"Markein","steam_id":76561198360754280,"connected_time":433000000000,"state":"active","ping":47},{"user_id":141,"name":"Zaster","steam_id":76561198207862755,"connected_time":2339000000000,"state":"active","ping":47},{"user_id":162,"name":"Neko","steam_id":76561198075690128,"connected_time":764000000000,"state":"active","ping":65},{"user_id":177,"name":"Piquesque","steam_id":76561198286763046,"connected_time":100000000000,"state":"active","ping":108},{"user_id":163,"name":"justify","steam_id":76561199227541378,"connected_time":732000000000,"state":"active","ping":152},{"user_id":175,"name":"twitch.tv/hazzett","steam_id":76561198171041063,"connected_time":107000000000,"state":"active","ping":75},{"user_id":164,"name":"cp lover","steam_id":76561198413275515,"connected_time":723000000000,"state":"active","ping":76},{"user_id":169,"name":"CreepyYellowDuck","steam_id":76561198000479387,"connected_time":393000000000,"state":"active","ping":31},{"user_id":117,"name":"Kippe vor berufsschule","steam_id":76561199042470246,"connected_time":4829000000000,"state":"active","ping":77},{"user_id":179,"name":"[Eating Bacon] Pink Ninja","steam_id":76561198047896540,"connected_time":49000000000,"state":"active","ping":77},{"user_id":159,"name":"david zaydullin (Charles McGill","steam_id":76561198965191846,"connected_time":869000000000,"state":"active","ping":95},{"user_id":180,"name":"G_raff","steam_id":76561199048512726,"connected_time":4000000000,"state":"spawning","ping":85}]},{"server_id":320,"name":"Uncletopia | London | 3 | All Maps","name_short":"lon-3","host":"lon-1.uk.uncletopia.com","port":27035,"enabled":true,"region":"eu","cc":"gb","latitude":51.509865,"longitude":-0.118092,"reserved":0,"last_update":"0001-01-01T00:00:00Z","name_a2s":"Uncletopia | London | 3 | All Maps","protocol":17,"map":"pl_badwater","folder":"tf","game":"Team Fortress","app_id":440,"player_count":6,"max_players":24,"Bots":0,"server_type":"Dedicated","server_os":"Linux","password":true,"vac":true,"version":"7961495","steam_id":85568392924510192,"keywords":["nocrits","nodmgspread","payload","uncletopia"],"game_id":440,"stv_port":27036,"stv_name":"Uncletopia | London | 3 | All Maps | STV","players":[{"user_id":32,"name":"C√∂ffee","steam_id":76561198115131952,"connected_time":973000000000,"state":"active","ping":97},{"user_id":34,"name":"Mr. Gaming","steam_id":76561198419023824,"connected_time":75000000000,"state":"active","ping":55},{"user_id":33,"name":"the blitzkrieg revolver","steam_id":76561198853417597,"connected_time":534000000000,"state":"active","ping":47},{"user_id":26,"name":"autumn memories","steam_id":76561198000946450,"connected_time":2107000000000,"state":"active","ping":47},{"user_id":29,"name":"Thabt","steam_id":76561198089386929,"connected_time":1552000000000,"state":"active","ping":42},{"user_id":30,"name":"Kamikrazy","steam_id":76561198044254918,"connected_time":1212000000000,"state":"active","ping":53}]},{"server_id":321,"name":"Uncletopia | London | 4 | All Maps","name_short":"lon-4","host":"lon-1.uk.uncletopia.com","port":27045,"enabled":true,"region":"eu","cc":"gb","latitude":51.509865,"longitude":-0.118092,"reserved":0,"last_update":"0001-01-01T00:00:00Z","name_a2s":"Uncletopia | London | 4 | All Maps","protocol":17,"map":"koth_cascade","folder":"tf","game":"Team Fortress","app_id":440,"player_count":0,"max_players":24,"Bots":0,"server_type":"Dedicated","server_os":"Linux","password":true,"vac":true,"version":"7961495","steam_id":85568392924510193,"keywords":["cp","nocrits","nodmgspread","uncletopia"],"game_id":440,"stv_port":27046,"stv_name":"Uncletopia | London | 4 | All Maps | STV","players":null},{"server_id":21,"name":"Uncletopia | London | 5 | All Maps","name_short":"lon-5","host":"lon-1.uk.uncletopia.com","port":27055,"enabled":true,"region":"eu","cc":"gb","latitude":51.509865,"longitude":-0.118092,"reserved":0,"last_update":"0001-01-01T00:00:00Z","name_a2s":"Uncletopia | London | 5 | All Maps","protocol":17,"map":"koth_lakeside_final","folder":"tf","game":"Team Fortress","app_id":440,"player_count":0,"max_players":24,"Bots":0,"server_type":"Dedicated","server_os":"Linux","password":true,"vac":true,"version":"7961495","steam_id":85568392924742829,"keywords":["cp","nocrits","nodmgspread","uncletopia"],"game_id":440,"stv_port":27056,"stv_name":"Uncletopia | London | 5 | All Maps | STV","players":null},{"server_id":22,"name":"Uncletopia | London | 6 | All Maps","name_short":"lon-6","host":"lon-1.uk.uncletopia.com","port":27065,"enabled":true,"region":"eu","cc":"gb","latitude":51.509865,"longitude":-0.118092,"reserved":0,"last_update":"0001-01-01T00:00:00Z","name_a2s":"Uncletopia | London | 6 | All Maps","protocol":17,"map":"koth_lakeside_final","folder":"tf","game":"Team Fortress","app_id":440,"player_count":0,"max_players":24,"Bots":0,"server_type":"Dedicated","server_os":"Linux","password":true,"vac":true,"version":"7961495","steam_id":85568392924742830,"keywords":["cp","nocrits","nodmgspread","uncletopia"],"game_id":440,"stv_port":27066,"stv_name":"Uncletopia | London | 6 | All Maps | STV","players":null},{"server_id":40,"name":"Uncletopia | London | 7 | Stopwatch","name_short":"lon-7","host":"lon-1.uk.uncletopia.com","port":27075,"enabled":true,"region":"eu","cc":"gb","latitude":51.509865,"longitude":-0.118092,"reserved":0,"last_update":"0001-01-01T00:00:00Z","name_a2s":"Uncletopia | London | 7 | Stopwatch","protocol":17,"map":"koth_lakeside_final","folder":"tf","game":"Team Fortress","app_id":440,"player_count":0,"max_players":24,"Bots":0,"server_type":"Dedicated","server_os":"Linux","password":true,"vac":true,"version":"7961495","steam_id":85568392924964314,"keywords":["cp","nocrits","nodmgspread","uncletopia"],"game_id":440,"stv_port":27076,"stv_name":"Uncletopia | London | 7 | Stopwatch | STV","players":null},{"server_id":41,"name":"Uncletopia | London | 8 | Community","name_short":"lon-8","host":"lon-1.uk.uncletopia.com","port":27085,"enabled":true,"region":"eu","cc":"gb","latitude":51.509865,"longitude":-0.118092,"reserved":0,"last_update":"0001-01-01T00:00:00Z","name_a2s":"Uncletopia | London | 8 | Community","protocol":17,"map":"cp_snakewater_final1","folder":"tf","game":"Team Fortress","app_id":440,"player_count":0,"max_players":24,"Bots":0,"server_type":"Dedicated","server_os":"Linux","password":true,"vac":true,"version":"7961495","steam_id":85568392924964315,"keywords":["cp","nocrits","nodmgspread","uncletopia"],"game_id":440,"stv_port":27086,"stv_name":"Uncletopia | London | 8 | Community | STV","players":null},{"server_id":300,"name":"Uncletopia | Montr√©al | 1 | One Thousand Uncles","name_short":"mtl-1","host":"mtl-1.ca.uncletopia.com","port":27015,"enabled":true,"region":"us-east","cc":"ca","latitude":45.50889,"longitude":-73.56167,"reserved":0,"last_update":"0001-01-01T00:00:00Z","name_a2s":"","protocol":0,"map":"","folder":"","game":"","app_id":0,"player_count":0,"max_players":0,"Bots":0,"server_type":"","server_os":"","password":false,"vac":false,"version":"","steam_id":0,"keywords":null,"game_id":0,"stv_port":0,"stv_name":"","players":null},{"server_id":301,"name":"Uncletopia | Montr√©al | 2 | One Thousand Uncles","name_short":"mtl-2","host":"mtl-1.ca.uncletopia.com","port":27025,"enabled":true,"region":"us-east","cc":"ca","latitude":45.50889,"longitude":-73.56167,"reserved":0,"last_update":"0001-01-01T00:00:00Z","name_a2s":"","protocol":0,"map":"","folder":"","game":"","app_id":0,"player_count":0,"max_players":0,"Bots":0,"server_type":"","server_os":"","password":false,"vac":false,"version":"","steam_id":0,"keywords":null,"game_id":0,"stv_port":0,"stv_name":"","players":null},{"server_id":302,"name":"Uncletopia | Montr√©al | 3 | One Thousand Uncles","name_short":"mtl-3","host":"mtl-1.ca.uncletopia.com","port":27035,"enabled":true,"region":"us-east","cc":"ca","latitude":45.50889,"longitude":-73.56167,"reserved":0,"last_update":"0001-01-01T00:00:00Z","name_a2s":"","protocol":0,"map":"","folder":"","game":"","app_id":0,"player_count":0,"max_players":0,"Bots":0,"server_type":"","server_os":"","password":false,"vac":false,"version":"","steam_id":0,"keywords":null,"game_id":0,"stv_port":0,"stv_name":"","players":null},{"server_id":13,"name":"Uncletopia | New York City | 1 | All Maps","name_short":"nyc-1","host":"nyc-1.us.uncletopia.com","port":27015,"enabled":true,"region":"us-east","cc":"us","latitude":40.73061,"longitude":-73.93524,"reserved":0,"last_update":"0001-01-01T00:00:00Z","name_a2s":"Uncletopia | New York City | 1 | All Maps","protocol":17,"map":"cp_sunshine","folder":"tf","game":"Team Fortress","app_id":440,"player_count":0,"max_players":24,"Bots":0,"server_type":"Dedicated","server_os":"Linux","password":true,"vac":true,"version":"7961495","steam_id":85568392924469993,"keywords":["cp","nocrits","nodmgspread","uncletopia"],"game_id":440,"stv_port":27016,"stv_name":"Uncletopia | New York City | 1 | All Maps | STV","players":null},{"server_id":14,"name":"Uncletopia | New York City | 2 | All Maps","name_short":"nyc-2","host":"nyc-1.us.uncletopia.com","port":27025,"enabled":true,"region":"us-east","cc":"us","latitude":40.73061,"longitude":-73.93524,"reserved":0,"last_update":"0001-01-01T00:00:00Z","name_a2s":"Uncletopia | New York City | 2 | All Maps","protocol":17,"map":"pl_snowycoast","folder":"tf","game":"Team Fortress","app_id":440,"player_count":0,"max_players":24,"Bots":0,"server_type":"Dedicated","server_os":"Linux","password":true,"vac":true,"version":"7961495","steam_id":85568392924469994,"keywords":["nocrits","nodmgspread","payload","uncletopia"],"game_id":440,"stv_port":27026,"stv_name":"Uncletopia | New York City | 2 | All Maps | STV","players":null},{"server_id":15,"name":"Uncletopia | New York City | 3 | Stopwatch","name_short":"nyc-3","host":"nyc-1.us.uncletopia.com","port":27035,"enabled":true,"region":"us-east","cc":"us","latitude":40.73061,"longitude":-73.93524,"reserved":0,"last_update":"0001-01-01T00:00:00Z","name_a2s":"Uncletopia | New York City | 3 | Stopwatch","protocol":17,"map":"pl_snowycoast","folder":"tf","game":"Team Fortress","app_id":440,"player_count":0,"max_players":24,"Bots":0,"server_type":"Dedicated","server_os":"Linux","password":true,"vac":true,"version":"7961495","steam_id":85568392924742820,"keywords":["nocrits","nodmgspread","payload","uncletopia"],"game_id":440,"stv_port":27036,"stv_name":"Uncletopia | New York City | 3 | Stopwatch | STV","players":null},{"server_id":16,"name":"Uncletopia | New York City | 4 | Community","name_short":"nyc-4","host":"nyc-1.us.uncletopia.com","port":27045,"enabled":true,"region":"us-east","cc":"us","latitude":40.73061,"longitude":-73.93524,"reserved":0,"last_update":"0001-01-01T00:00:00Z","name_a2s":"Uncletopia | New York City | 4 | Community","protocol":17,"map":"workshop/koth_synthetic_rc6a.ugc1549817316","folder":"tf","game":"Team Fortress","app_id":440,"player_count":0,"max_players":24,"Bots":0,"server_type":"Dedicated","server_os":"Linux","password":true,"vac":true,"version":"7961495","steam_id":85568392924742821,"keywords":["cp","nocrits","nodmgspread","uncletopia"],"game_id":440,"stv_port":27046,"stv_name":"Uncletopia | New York City | 4 | Community | STV","players":null},{"server_id":142,"name":"Uncletopia | S√£o Paulo | 1 | All Maps","name_short":"sao-1","host":"sao-1.br.uncletopia.com","port":27015,"enabled":true,"region":"sa","cc":"br","latitude":-23.533773,"longitude":-46.62529,"reserved":0,"last_update":"0001-01-01T00:00:00Z","name_a2s":"Uncletopia | S√£o Paulo | 1 | All Maps","protocol":17,"map":"koth_lakeside_final","folder":"tf","game":"Team Fortress","app_id":440,"player_count":0,"max_players":24,"Bots":0,"server_type":"Dedicated","server_os":"Linux","password":true,"vac":true,"version":"7961495","steam_id":85568392924469996,"keywords":["cp","nocrits","nodmgspread","uncletopia"],"game_id":440,"stv_port":27016,"stv_name":"Uncletopia | S√£o Paulo | 1 | All Maps | STV","players":null},{"server_id":143,"name":"Uncletopia | S√£o Paulo | 2 | Community","name_short":"sao-2","host":"sao-2.br.uncletopia.com","port":27015,"enabled":true,"region":"sa","cc":"br","latitude":-23.533773,"longitude":-46.62529,"reserved":0,"last_update":"0001-01-01T00:00:00Z","name_a2s":"Uncletopia | S√£o Paulo | 2 | Community","protocol":17,"map":"workshop/cp_reckoner_rc6.ugc674719999","folder":"tf","game":"Team Fortress","app_id":440,"player_count":0,"max_players":24,"Bots":0,"server_type":"Dedicated","server_os":"Linux","password":true,"vac":true,"version":"7961495","steam_id":85568392924485349,"keywords":["cp","nocrits","nodmgspread","uncletopia"],"game_id":440,"stv_port":27016,"stv_name":"Uncletopia | S√£o Paulo | 2 | Community | STV","players":null},{"server_id":7,"name":"Uncletopia | Seattle | 1 | All Maps","name_short":"sea-1","host":"sea-1.us.uncletopia.com","port":27015,"enabled":true,"region":"us-west","cc":"us","latitude":47.608013,"longitude":-122.33517,"reserved":0,"last_update":"0001-01-01T00:00:00Z","name_a2s":"Uncletopia | Seattle | 1 | All Maps","protocol":17,"map":"pl_badwater","folder":"tf","game":"Team Fortress","app_id":440,"player_count":0,"max_players":24,"Bots":0,"server_type":"Dedicated","server_os":"Linux","password":true,"vac":true,"version":"7961495","steam_id":85568392924469997,"keywords":["nocrits","nodmgspread","payload","uncletopia"],"game_id":440,"stv_port":27016,"stv_name":"Uncletopia | Seattle | 1 | All Maps | STV","players":null},{"server_id":119,"name":"Uncletopia | Seattle | 2 | All Maps","name_short":"sea-2","host":"sea-1.us.uncletopia.com","port":27025,"enabled":true,"region":"us-west","cc":"us","latitude":47.608013,"longitude":-122.33517,"reserved":0,"last_update":"0001-01-01T00:00:00Z","name_a2s":"Uncletopia | Seattle | 2 | All Maps","protocol":17,"map":"cp_process_final","folder":"tf","game":"Team Fortress","app_id":440,"player_count":0,"max_players":24,"Bots":0,"server_type":"Dedicated","server_os":"Linux","password":true,"vac":true,"version":"7961495","steam_id":85568392924469998,"keywords":["cp","nocrits","nodmgspread","uncletopia"],"game_id":440,"stv_port":27026,"stv_name":"Uncletopia | Seattle | 2 | All Maps | STV","players":null},{"server_id":406,"name":"Uncletopia | Seattle | 3 | Stopwatch","name_short":"sea-3","host":"sea-1.us.uncletopia.com","port":27035,"enabled":true,"region":"us-west","cc":"us","latitude":47.608013,"longitude":-122.33517,"reserved":0,"last_update":"0001-01-01T00:00:00Z","name_a2s":"Uncletopia | Seattle | 3 | Stopwatch","protocol":17,"map":"pl_pier","folder":"tf","game":"Team Fortress","app_id":440,"player_count":0,"max_players":24,"Bots":0,"server_type":"Dedicated","server_os":"Linux","password":true,"vac":true,"version":"7961495","steam_id":85568392924515217,"keywords":["nocrits","nodmgspread","payload","uncletopia"],"game_id":440,"stv_port":27036,"stv_name":"Uncletopia | Seattle | 3 | Stopwatch | STV","players":null},{"server_id":17,"name":"Uncletopia | San Francisco | 1 | All Maps","name_short":"sfo-1","host":"sfo-1.us.uncletopia.com","port":27015,"enabled":true,"region":"us-west","cc":"us","latitude":37.77397,"longitude":-122.4313,"reserved":0,"last_update":"0001-01-01T00:00:00Z","name_a2s":"Uncletopia | San Francisco | 1 | All Maps","protocol":17,"map":"koth_cascade","folder":"tf","game":"Team Fortress","app_id":440,"player_count":0,"max_players":24,"Bots":0,"server_type":"Dedicated","server_os":"Linux","password":true,"vac":true,"version":"7961495","steam_id":85568392924469999,"keywords":["cp","nocrits","nodmgspread","uncletopia"],"game_id":440,"stv_port":27016,"stv_name":"Uncletopia | San Francisco | 1 | All Maps | STV","players":null},{"server_id":18,"name":"Uncletopia | San Francisco | 2 | All Maps","name_short":"sfo-2","host":"sfo-1.us.uncletopia.com","port":27025,"enabled":true,"region":"us-west","cc":"us","latitude":37.77397,"longitude":-122.4313,"reserved":0,"last_update":"0001-01-01T00:00:00Z","name_a2s":"Uncletopia | San Francisco | 2 | All Maps","protocol":17,"map":"pl_frontier_final","folder":"tf","game":"Team Fortress","app_id":440,"player_count":0,"max_players":24,"Bots":0,"server_type":"Dedicated","server_os":"Linux","password":true,"vac":true,"version":"7961495","steam_id":85568392924470000,"keywords":["nocrits","nodmgspread","payload","uncletopia"],"game_id":440,"stv_port":27026,"stv_name":"Uncletopia | San Francisco | 2 | All Maps | STV","players":null},{"server_id":19,"name":"Uncletopia | San Francisco | 3 | Stopwatch","name_short":"sfo-3","host":"sfo-1.us.uncletopia.com","port":27035,"enabled":true,"region":"us-west","cc":"us","latitude":37.77397,"longitude":-122.4313,"reserved":0,"last_update":"0001-01-01T00:00:00Z","name_a2s":"Uncletopia | San Francisco | 3 | Stopwatch","protocol":17,"map":"pl_pier","folder":"tf","game":"Team Fortress","app_id":440,"player_count":0,"max_players":24,"Bots":0,"server_type":"Dedicated","server_os":"Linux","password":true,"vac":true,"version":"7961495","steam_id":85568392924742824,"keywords":["nocrits","nodmgspread","payload","uncletopia"],"game_id":440,"stv_port":27036,"stv_name":"Uncletopia | San Francisco | 3 | Stopwatch | STV","players":null},{"server_id":20,"name":"Uncletopia | San Francisco | 4 | Community","name_short":"sfo-4","host":"sfo-1.us.uncletopia.com","port":27045,"enabled":true,"region":"us-west","cc":"us","latitude":37.77397,"longitude":-122.4313,"reserved":0,"last_update":"0001-01-01T00:00:00Z","name_a2s":"Uncletopia | San Francisco | 4 | Community","protocol":17,"map":"pl_pier","folder":"tf","game":"Team Fortress","app_id":440,"player_count":0,"max_players":24,"Bots":0,"server_type":"Dedicated","server_os":"Linux","password":true,"vac":true,"version":"7961495","steam_id":85568392924742826,"keywords":["nocrits","nodmgspread","payload","uncletopia"],"game_id":440,"stv_port":27046,"stv_name":"Uncletopia | San Francisco | 4 | Community | STV","players":null},{"server_id":141,"name":"Uncletopia | Sydney | 1 | All Maps","name_short":"syd-1","host":"syd-1.au.uncletopia.com","port":27015,"enabled":true,"region":"au","cc":"au","latitude":-33.865143,"longitude":151.2099,"reserved":0,"last_update":"0001-01-01T00:00:00Z","name_a2s":"Uncletopia | Sydney | 1 | All Maps","protocol":17,"map":"ctf_2fort","folder":"tf","game":"Team Fortress","app_id":440,"player_count":0,"max_players":24,"Bots":0,"server_type":"Dedicated","server_os":"Linux","password":true,"vac":true,"version":"7961495","steam_id":85568392924470001,"keywords":["ctf","nocrits","nodmgspread","uncletopia"],"game_id":440,"stv_port":27016,"stv_name":"Uncletopia | Sydney | 1 | All Maps | STV","players":null},{"server_id":123,"name":"Uncletopia | Sydney | 2 | All Maps","name_short":"syd-2","host":"syd-1.au.uncletopia.com","port":27025,"enabled":true,"region":"au","cc":"au","latitude":-33.865143,"longitude":151.2099,"reserved":0,"last_update":"0001-01-01T00:00:00Z","name_a2s":"Uncletopia | Sydney | 2 | All Maps","protocol":17,"map":"cp_mountainlab","folder":"tf","game":"Team Fortress","app_id":440,"player_count":0,"max_players":24,"Bots":0,"server_type":"Dedicated","server_os":"Linux","password":true,"vac":true,"version":"7961495","steam_id":85568392924470002,"keywords":["cp","nocrits","nodmgspread","uncletopia"],"game_id":440,"stv_port":27026,"stv_name":"Uncletopia | Sydney | 2 | All Maps | STV","players":null},{"server_id":395,"name":"Uncletopia | Sydney | 3 | All Maps","name_short":"syd-3","host":"syd-1.au.uncletopia.com","port":27035,"enabled":true,"region":"au","cc":"au","latitude":-33.865143,"longitude":151.2099,"reserved":0,"last_update":"0001-01-01T00:00:00Z","name_a2s":"Uncletopia | Sydney | 3 | All Maps","protocol":17,"map":"koth_cascade","folder":"tf","game":"Team Fortress","app_id":440,"player_count":0,"max_players":24,"Bots":0,"server_type":"Dedicated","server_os":"Linux","password":true,"vac":true,"version":"7961495","steam_id":85568392925194467,"keywords":["cp","nocrits","nodmgspread","uncletopia"],"game_id":440,"stv_port":27036,"stv_name":"Uncletopia | Sydney | 3 | All Maps | STV","players":null},{"server_id":396,"name":"Uncletopia | Sydney | 4 | All Maps","name_short":"syd-4","host":"syd-1.au.uncletopia.com","port":27045,"enabled":true,"region":"au","cc":"au","latitude":-33.865143,"longitude":151.2099,"reserved":0,"last_update":"0001-01-01T00:00:00Z","name_a2s":"Uncletopia | Sydney | 4 | All Maps","protocol":17,"map":"cp_snakewater_final1","folder":"tf","game":"Team Fortress","app_id":440,"player_count":0,"max_players":24,"Bots":0,"server_type":"Dedicated","server_os":"Linux","password":true,"vac":true,"version":"7961495","steam_id":85568392925397958,"keywords":["cp","nocrits","nodmgspread","uncletopia"],"game_id":440,"stv_port":27046,"stv_name":"Uncletopia | Sydney | 4 | All Maps | STV","players":null},{"server_id":58,"name":"Uncletopia | Sydney | 5 | Stopwatch","name_short":"syd-5","host":"syd-1.au.uncletopia.com","port":27055,"enabled":true,"region":"au","cc":"au","latitude":-33.865143,"longitude":151.2099,"reserved":0,"last_update":"0001-01-01T00:00:00Z","name_a2s":"Uncletopia | Sydney | 5 | Stopwatch","protocol":17,"map":"pl_frontier_final","folder":"tf","game":"Team Fortress","app_id":440,"player_count":0,"max_players":24,"Bots":0,"server_type":"Dedicated","server_os":"Linux","password":true,"vac":true,"version":"7961495","steam_id":85568392925397959,"keywords":["nocrits","nodmgspread","payload","uncletopia"],"game_id":440,"stv_port":27056,"stv_name":"Uncletopia | Sydney | 5 | Stopwatch | STV","players":null},{"server_id":59,"name":"Uncletopia | Sydney | 6 | Community","name_short":"syd-6","host":"syd-1.au.uncletopia.com","port":27065,"enabled":true,"region":"au","cc":"au","latitude":-33.865143,"longitude":151.2099,"reserved":0,"last_update":"0001-01-01T00:00:00Z","name_a2s":"Uncletopia | Sydney | 6 | Community","protocol":17,"map":"workshop/koth_product_final.ugc454272353","folder":"tf","game":"Team Fortress","app_id":440,"player_count":0,"max_players":24,"Bots":0,"server_type":"Dedicated","server_os":"Linux","password":true,"vac":true,"version":"7961495","steam_id":85568392925397960,"keywords":["cp","nocrits","nodmgspread","uncletopia"],"game_id":440,"stv_port":27066,"stv_name":"Uncletopia | Sydney | 6 | Community | STV","players":null},{"server_id":49,"name":"Uncletopia | Warsaw | 1 | One Thousand Uncles","name_short":"waw-1","host":"waw-1.pl.uncletopia.com","port":27015,"enabled":true,"region":"eu","cc":"pl","latitude":52.2297,"longitude":21.017532,"reserved":0,"last_update":"0001-01-01T00:00:00Z","name_a2s":"Uncletopia | Warsaw | 1 | One Thousand Uncles","protocol":17,"map":"cp_mossrock","folder":"tf","game":"Team Fortress","app_id":440,"player_count":23,"max_players":32,"Bots":16,"server_type":"Dedicated","server_os":"Linux","password":true,"vac":true,"version":"7961495","steam_id":85568392925397850,"keywords":["alltalk","bots","cp","danepve","increased_maxplayers","nocrits","norespawntime","uncletopia"],"game_id":440,"stv_port":0,"stv_name":"","players":[{"user_id":417,"name":"banana milkshake","steam_id":76561198439914445,"connected_time":1266000000000,"state":"active","ping":42},{"user_id":371,"name":"[HK]Êàë‰øÇÈ¶ôÊ∏Ø‰∫∫","steam_id":76561198165376815,"connected_time":5476000000000,"state":"active","ping":104},{"user_id":421,"name":"dimavokijbum","steam_id":76561199235847588,"connected_time":683000000000,"state":"active","ping":45},{"user_id":398,"name":"Gamer_X","steam_id":76561198085349286,"connected_time":1914000000000,"state":"active","ping":90},{"user_id":422,"name":"Ukr–•–ª—î–±","steam_id":76561198388896707,"connected_time":435000000000,"state":"active","ping":70},{"user_id":420,"name":"Kretes","steam_id":76561198982786431,"connected_time":872000000000,"state":"active","ping":43},{"user_id":382,"name":"KipxSateee","steam_id":76561198149158137,"connected_time":4542000000000,"state":"active","ping":71}]},{"server_id":50,"name":"Uncletopia | Warsaw | 2 | One Thousand Uncles","name_short":"waw-2","host":"waw-1.pl.uncletopia.com","port":27025,"enabled":true,"region":"eu","cc":"pl","latitude":52.2297,"longitude":21.017532,"reserved":0,"last_update":"0001-01-01T00:00:00Z","name_a2s":"Uncletopia | Warsaw | 2 | One Thousand Uncles","protocol":17,"map":"pl_thundermountain","folder":"tf","game":"Team Fortress","app_id":440,"player_count":0,"max_players":32,"Bots":0,"server_type":"Dedicated","server_os":"Linux","password":true,"vac":true,"version":"7961495","steam_id":85568392925397851,"keywords":["alltalk","danepve","increased_maxplayers","nocrits","norespawntime","payload","uncletopia"],"game_id":440,"stv_port":0,"stv_name":"","players":null},{"server_id":51,"name":"Uncletopia | Warsaw | 3 | All Maps","name_short":"waw-3","host":"waw-1.pl.uncletopia.com","port":27035,"enabled":true,"region":"eu","cc":"pl","latitude":52.2297,"longitude":21.017532,"reserved":0,"last_update":"0001-01-01T00:00:00Z","name_a2s":"Uncletopia | Warsaw | 3 | All Maps","protocol":17,"map":"pl_swiftwater_final1","folder":"tf","game":"Team Fortress","app_id":440,"player_count":0,"max_players":24,"Bots":0,"server_type":"Dedicated","server_os":"Linux","password":true,"vac":true,"version":"7961495","steam_id":85568392925397852,"keywords":["nocrits","nodmgspread","payload","uncletopia"],"game_id":440,"stv_port":27036,"stv_name":"Uncletopia | Warsaw | 3 | All Maps | STV","players":null},{"server_id":52,"name":"Uncletopia | Warsaw | 4 | All Maps","name_short":"waw-4","host":"waw-1.pl.uncletopia.com","port":27045,"enabled":true,"region":"eu","cc":"pl","latitude":52.2297,"longitude":21.017532,"reserved":0,"last_update":"0001-01-01T00:00:00Z","name_a2s":"Uncletopia | Warsaw | 4 | All Maps","protocol":17,"map":"pl_frontier_final","folder":"tf","game":"Team Fortress","app_id":440,"player_count":3,"max_players":24,"Bots":0,"server_type":"Dedicated","server_os":"Linux","password":true,"vac":true,"version":"7961495","steam_id":85568392925397853,"keywords":["nocrits","nodmgspread","payload","uncletopia"],"game_id":440,"stv_port":27046,"stv_name":"Uncletopia | Warsaw | 4 | All Maps | STV","players":[{"user_id":11,"name":"„Éü„É™","steam_id":76561199026655532,"connected_time":2637000000000,"state":"active","ping":52},{"user_id":12,"name":"Kudesn1k","steam_id":76561199110935216,"connected_time":2614000000000,"state":"active","ping":54},{"user_id":13,"name":"nianka8416","steam_id":76561199158895622,"connected_time":250000000000,"state":"spawning","ping":72}]},{"server_id":53,"name":"Uncletopia | Warsaw | 5 | Stopwatch","name_short":"waw-5","host":"waw-1.pl.uncletopia.com","port":27055,"enabled":true,"region":"eu","cc":"pl","latitude":52.2297,"longitude":21.017532,"reserved":0,"last_update":"0001-01-01T00:00:00Z","name_a2s":"Uncletopia | Warsaw | 5 | Stopwatch","protocol":17,"map":"cp_snakewater_final1","folder":"tf","game":"Team Fortress","app_id":440,"player_count":0,"max_players":24,"Bots":0,"server_type":"Dedicated","server_os":"Linux","password":true,"vac":true,"version":"7961495","steam_id":85568392925397854,"keywords":["cp","nocrits","nodmgspread","uncletopia"],"game_id":440,"stv_port":27056,"stv_name":"Uncletopia | Warsaw | 5 | Stopwatch | STV","players":null},{"server_id":54,"name":"Uncletopia | Warsaw | 6 | Community","name_short":"waw-6","host":"waw-1.pl.uncletopia.com","port":27065,"enabled":true,"region":"eu","cc":"pl","latitude":52.2297,"longitude":21.017532,"reserved":0,"last_update":"0001-01-01T00:00:00Z","name_a2s":"Uncletopia | Warsaw | 6 | Community","protocol":17,"map":"workshop/pl_badwater_pro_v12.ugc2142942074","folder":"tf","game":"Team Fortress","app_id":440,"player_count":0,"max_players":24,"Bots":0,"server_type":"Dedicated","server_os":"Linux","password":true,"vac":true,"version":"7961495","steam_id":85568392925397856,"keywords":["nocrits","nodmgspread","payload","uncletopia"],"game_id":440,"stv_port":27066,"stv_name":"Uncletopia | Warsaw | 6 | Community | STV","players":null}]}