{"status":true,"message":"","result":[{"server_id":9,"name":"Uncletopia | Atlanta | 1 | All Maps","name_short":"atl-1","host":"atl-1.us.uncletopia.com","port":27015,"enabled":true,"region":"us-east","cc":"us","latitude":33.753746,"longitude":-84.38633,"reserved":0,"last_update":"0001-01-01T00:00:00Z","name_a2s":"Uncletopia | Atlanta | 1 | All Maps","protocol":17,"map":"cp_dustbowl","folder":"tf","game":"Team Fortress","app_id":440,"player_count":23,"max_players":24,"Bots":0,"server_type":"Dedicated","server_os":"Linux","password":true,"vac":true,"version":"7961495","steam_id":85568392924469982,"keywords":["cp","nocrits","nodmgspread","uncletopia"],"game_id":440,"stv_port":27016,"stv_name":"Uncletopia | Atlanta | 1 | All Maps | STV","players":[{"user_id":316,"name":"thomasdee725???","steam_id":76561199189526173,"connected_time":881000000000,"state":"active","ping":83},{"user_id":336,"name":"ryann","steam_id":76561198042996639,"connected_time":24000000000,"state":"active","ping":72},{"user_id":234,"name":"trianamarco780","steam_id":76561199084319677,"connected_time":7744000000000,"state":"active","ping":106},{"user_id":317,"name":"stink","steam_id":76561198099318923,"connected_time":849000000000,"state":"active","ping":78},{"user_id":318,"name":"Pango","steam_id":76561198069811545,"connected_time":843000000000,"state":"active","ping":45},{"user_id":220,"name":"Albino Jellyfish","steam_id":76561198208561097,"connected_time":8756000000000,"state":"active","ping":53},{"user_id":334,"name":"Mog","steam_id":76561198025575870,"connected_time":182000000000,"state":"active","ping":77},{"user_id":294,"name":"metalfan666","steam_id":76561198386344068,"connected_time":3859000000000,"state":"active","ping":76},{"user_id":322,"name":"shinon","steam_id":76561198373626848,"connected_time":662000000000,"state":"active","ping":61},{"user_id":325,"name":"cbv djopiikvh, l;qep[voj","steam_id":76561198304661367,"connected_time":574000000000,"state":"active","ping":47},{"user_id":302,"name":"Avo","steam_id":76561197993340494,"connected_time":2402000000000,"state":"active","ping":55},{"user_id":324,"name":"Dr. Virus","steam_id":76561198045723452,"connected_time":636000000000,"state":"active","ping":61},{"user_id":303,"name":"Kc","steam_id":76561198210734407,"connected_time":2336000000000,"state":"active","ping":52},{"user_id":335,"name":"Ghost","steam_id":76561198038317862,"connected_time":147000000000,"state":"active","ping":137},{"user_id":230,"name":"Night time Dan","steam_id":76561199022178492,"connected_time":7950000000000,"state":"active","ping":50},{"user_id":306,"name":"YUNG NASTYMAN","steam_id":76561198039710677,"connected_time":2086000000000,"state":"active","ping":66},{"user_id":298,"name":"feverish fragger","steam_id":76561198968337022,"connected_time":3023000000000,"state":"active","ping":54},{"user_id":329,"name":"sansa musa","steam_id":76561198163723555,"connected_time":422000000000,"state":"active","ping":64},{"user_id":308,"name":"Vee (very cool)","steam_id":76561198330432889,"connected_time":2035000000000,"state":"active","ping":60},{"user_id":314,"name":"lu","steam_id":76561198080731872,"connected_time":1066000000000,"state":"active","ping":74},{"user_id":330,"name":"ash","steam_id":76561198127890645,"connected_time":401000000000,"state":"active","ping":69},{"user_id":296,"name":"Le4n!!!","steam_id":76561198045522596,"connected_time":3302000000000,"state":"active","ping":68},{"user_id":295,"name":"Nyle","steam_id":76561198045652639,"connected_time":3662000000000,"state":"active","ping":137}]},{"server_id":104,"name":"Uncletopia | Atlanta | 2 | All Maps","name_short":"atl-2","host":"atl-1.us.uncletopia.com","port":27025,"enabled":true,"region":"us-east","cc":"us","latitude":33.753746,"longitude":-84.38633,"reserved":0,"last_update":"0001-01-01T00:00:00Z","name_a2s":"Uncletopia | Atlanta | 2 | All Maps","protocol":17,"map":"pl_borneo","folder":"tf","game":"Team Fortress","app_id":440,"player_count":25,"max_players":24,"Bots":0,"server_type":"Dedicated","server_os":"Linux","password":true,"vac":true,"version":"7961495","steam_id":85568392924469983,"keywords":["nocrits","nodmgspread","payload","uncletopia"],"game_id":440,"stv_port":27026,"stv_name":"Uncletopia | Atlanta | 2 | All Maps | STV","players":[{"user_id":226,"name":"custodian","steam_id":76561198058793778,"connected_time":1894000000000,"state":"active","ping":80},{"user_id":242,"name":"Copland OS","steam_id":76561198041800378,"connected_time":1049000000000,"state":"active","ping":71},{"user_id":248,"name":"Boongadoonga","steam_id":76561198058525763,"connected_time":360000000000,"state":"active","ping":77},{"user_id":229,"name":"El Bondin","steam_id":76561198820792434,"connected_time":1779000000000,"state":"active","ping":92},{"user_id":223,"name":"sammy","steam_id":76561199001307670,"connected_time":2307000000000,"state":"active","ping":118},{"user_id":187,"name":"Daisy Le Nerd","steam_id":76561198149350087,"connected_time":4213000000000,"state":"active","ping":165},{"user_id":253,"name":"jjvthou(NOtdRuNkMeswEaRss)","steam_id":76561199403071554,"connected_time":182000000000,"state":"active","ping":93},{"user_id":213,"name":"SkkiterSkkater","steam_id":76561198410579054,"connected_time":2980000000000,"state":"active","ping":82},{"user_id":228,"name":"Skitz","steam_id":76561198079588236,"connected_time":1852000000000,"state":"active","ping":56},{"user_id":218,"name":"Dosux2","steam_id":76561198390916062,"connected_time":2543000000000,"state":"active","ping":130},{"user_id":249,"name":"Smams","steam_id":76561198262368084,"connected_time":332000000000,"state":"active","ping":67},{"user_id":243,"name":"Cartroner","steam_id":76561198041060296,"connected_time":1018000000000,"state":"active","ping":52},{"user_id":236,"name":"Mayo Monkey","steam_id":76561198090023039,"connected_time":1414000000000,"state":"active","ping":85},{"user_id":89,"name":"Notorious H.R.T.","steam_id":76561198104012115,"connected_time":10601000000000,"state":"active","ping":60},{"user_id":252,"name":"duBstep","steam_id":76561198353928965,"connected_time":228000000000,"state":"active","ping":61},{"user_id":250,"name":"Novu","steam_id":76561198886997024,"connected_time":294000000000,"state":"active","ping":100},{"user_id":244,"name":"CheetoSmoke7","steam_id":76561198095217273,"connected_time":988000000000,"state":"active","ping":58},{"user_id":220,"name":"suger1316","steam_id":76561199079999423,"connected_time":2421000000000,"state":"active","ping":74},{"user_id":217,"name":"Anyar","steam_id":76561198160174097,"connected_time":2598000000000,"state":"active","ping":88},{"user_id":247,"name":"Octomal800","steam_id":76561199453595616,"connected_time":407000000000,"state":"active","ping":73},{"user_id":224,"name":"I have no enemies","steam_id":76561198127039453,"connected_time":2044000000000,"state":"active","ping":88},{"user_id":232,"name":"Duncan","steam_id":76561198042148095,"connected_time":1599000000000,"state":"active","ping":70},{"user_id":251,"name":"S25","steam_id":76561198424979656,"connected_time":271000000000,"state":"active","ping":110},{"user_id":194,"name":"Radium","steam_id":76561198195881339,"connected_time":4087000000000,"state":"active","ping":60},{"user_id":255,"name":"wakeupdorothy","steam_id":76561199081051146,"connected_time":4000000000,"state":"spawning","ping":56}]},{"server_id":400,"name":"Uncletopia | Atlanta | 3 | Stopwatch","name_short":"atl-3","host":"atl-1.us.uncletopia.com","port":27035,"enabled":true,"region":"us-east","cc":"us","latitude":33.753746,"longitude":-84.38633,"reserved":0,"last_update":"0001-01-01T00:00:00Z","name_a2s":"Uncletopia | Atlanta | 3 | Stopwatch","protocol":17,"map":"workshop/pl_vigil_rc10.ugc1266210012","folder":"tf","game":"Team Fortress","app_id":440,"player_count":5,"max_players":24,"Bots":0,"server_type":"Dedicated","server_os":"Linux","password":true,"vac":true,"version":"7961495","steam_id":85568392924515187,"keywords":["nocrits","nodmgspread","payload","uncletopia"],"game_id":440,"stv_port":27036,"stv_name":"Uncletopia | Atlanta | 3 | Stopwatch | STV","players":[{"user_id":510,"name":"OWEENIE","steam_id":76561198083135927,"connected_time":556000000000,"state":"active","ping":55},{"user_id":516,"name":"OniriqueAce","steam_id":76561199509665890,"connected_time":174000000000,"state":"active","ping":99},{"user_id":514,"name":"agent chubo","steam_id":76561199029137789,"connected_time":362000000000,"state":"active","ping":67},{"user_id":509,"name":"CreateADebate","steam_id":76561198115760035,"connected_time":579000000000,"state":"active","ping":44},{"user_id":506,"name":"wghpoah","steam_id":76561198215437797,"connected_time":1092000000000,"state":"active","ping":104}]},{"server_id":401,"name":"Uncletopia | Atlanta | 4 | Community","name_short":"atl-4","host":"atl-1.us.uncletopia.com","port":27045,"enabled":true,"region":"us-east","cc":"us","latitude":33.753746,"longitude":-84.38633,"reserved":0,"last_update":"0001-01-01T00:00:00Z","name_a2s":"Uncletopia | Atlanta | 4 | Community","protocol":17,"map":"workshop/cp_coilblaze_rc7.ugc1272700588","folder":"tf","game":"Team Fortress","app_id":440,"player_count":0,"max_players":24,"Bots":0,"server_type":"Dedicated","server_os":"Linux","password":true,"vac":true,"version":"7961495","steam_id":85568392924515188,"keywords":["cp","nocrits","nodmgspread","uncletopia"],"game_id":440,"stv_port":27046,"stv_name":"Uncletopia | Atlanta | 4 | Community | STV","players":null},{"server_id":2,"name":"Uncletopia | Chicago | 1 | All Maps","name_short":"chi-1","host":"chi-1.us.uncletopia.com","port":27015,"enabled":true,"region":"us-central","cc":"us","latitude":41.881832,"longitude":-87.62318,"reserved":0,"last_update":"0001-01-01T00:00:00Z","name_a2s":"Uncletopia | Chicago | 1 | All Maps","protocol":17,"map":"pl_barnblitz","folder":"tf","game":"Team Fortress","app_id":440,"player_count":24,"max_players":24,"Bots":0,"server_type":"Dedicated","server_os":"Linux","password":true,"vac":true,"version":"7961495","steam_id":85568392924469984,"keywords":["nocrits","nodmgspread","payload","uncletopia"],"game_id":440,"stv_port":27016,"stv_name":"Uncletopia | Chicago | 1 | All Maps | STV","players":[{"user_id":292,"name":"Riko","steam_id":76561198028097118,"connected_time":814000000000,"state":"active","ping":79},{"user_id":300,"name":"Rode hard, put away wet","steam_id":76561198062764039,"connected_time":645000000000,"state":"active","ping":48},{"user_id":293,"name":"Ferrit","steam_id":76561197975844259,"connected_time":787000000000,"state":"active","ping":73},{"user_id":305,"name":"Lighter","steam_id":76561199190664822,"connected_time":405000000000,"state":"active","ping":57},{"user_id":259,"name":"Senator Armstrong","steam_id":76561198141479053,"connected_time":3273000000000,"state":"active","ping":63},{"user_id":306,"name":"nathanderweise","steam_id":76561198043511018,"connected_time":402000000000,"state":"active","ping":56},{"user_id":296,"name":"Nitty (the cool one)","steam_id":76561198032274284,"connected_time":707000000000,"state":"active","ping":58},{"user_id":240,"name":"blob","steam_id":76561198122375328,"connected_time":5244000000000,"state":"active","ping":57},{"user_id":307,"name":"Kaiju","steam_id":76561198243774754,"connected_time":278000000000,"state":"active","ping":74},{"user_id":269,"name":"GatorAIDS","steam_id":76561198043220092,"connected_time":2812000000000,"state":"active","ping":86},{"user_id":311,"name":"Welp","steam_id":76561198199440742,"connected_time":73000000000,"state":"active","ping":109},{"user_id":236,"name":"momlovie","steam_id":76561198843933742,"connected_time":5567000000000,"state":"active","ping":100},{"user_id":278,"name":"mrbeast109385079350229083479082","steam_id":76561198370687830,"connected_time":2654000000000,"state":"active","ping":74},{"user_id":304,"name":"cruky","steam_id":76561199097185897,"connected_time":549000000000,"state":"active","ping":61},{"user_id":299,"name":"Demockno","steam_id":76561197996955601,"connected_time":686000000000,"state":"active","ping":85},{"user_id":273,"name":"Magma","steam_id":76561198108261173,"connected_time":2706000000000,"state":"active","ping":53},{"user_id":312,"name":"Squigly","steam_id":76561198084811625,"connected_time":72000000000,"state":"active","ping":77},{"user_id":313,"name":"epic cheeseburger","steam_id":76561198041995180,"connected_time":46000000000,"state":"active","ping":93},{"user_id":314,"name":"GOD of SEX","steam_id":76561198209689295,"connected_time":30000000000,"state":"active","ping":91},{"user_id":315,"name":"garfin","steam_id":76561198063618643,"connected_time":2000000000,"state":"spawning","ping":308},{"user_id":290,"name":"Reed the Flame Shadow","steam_id":76561198348354629,"connected_time":908000000000,"state":"active","ping":92},{"user_id":279,"name":"Neformdot","steam_id":76561198065384925,"connected_time":2213000000000,"state":"active","ping":60},{"user_id":308,"name":"June","steam_id":76561198026219706,"connected_time":175000000000,"state":"active","ping":51},{"user_id":239,"name":"Big Donnie","steam_id":76561198396789061,"connected_time":5388000000000,"state":"active","ping":77}]},{"server_id":106,"name":"Uncletopia | Chicago | 2 | All Maps","name_short":"chi-2","host":"chi-1.us.uncletopia.com","port":27025,"enabled":true,"region":"us-central","cc":"us","latitude":41.881832,"longitude":-87.62318,"reserved":0,"last_update":"0001-01-01T00:00:00Z","name_a2s":"Uncletopia | Chicago | 2 | All Maps","protocol":17,"map":"pl_frontier_final","folder":"tf","game":"Team Fortress","app_id":440,"player_count":24,"max_players":24,"Bots":0,"server_type":"Dedicated","server_os":"Linux","password":true,"vac":true,"version":"7961495","steam_id":85568392924469985,"keywords":["nocrits","nodmgspread","payload","uncletopia"],"game_id":440,"stv_port":27026,"stv_name":"Uncletopia | Chicago | 2 | All Maps | STV","players":[{"user_id":500,"name":"Trepidpotato","steam_id":76561199230865007,"connected_time":5239000000000,"state":"active","ping":63},{"user_id":542,"name":"heck","steam_id":76561198308547958,"connected_time":1987000000000,"state":"active","ping":51},{"user_id":556,"name":"Kiss Master","steam_id":76561198289572271,"connected_time":1710000000000,"state":"active","ping":77},{"user_id":543,"name":"olivia","steam_id":76561198288130849,"connected_time":1982000000000,"state":"active","ping":73},{"user_id":579,"name":"ol' musty","steam_id":76561198081075865,"connected_time":313000000000,"state":"active","ping":62},{"user_id":580,"name":"P.C. Baby","steam_id":76561198067011379,"connected_time":297000000000,"state":"active","ping":115},{"user_id":538,"name":"Satori Komeiji","steam_id":76561198158211423,"connected_time":2640000000000,"state":"active","ping":90},{"user_id":550,"name":"Phat Cat","steam_id":76561198123017274,"connected_time":1805000000000,"state":"active","ping":49},{"user_id":564,"name":"Mug Moment Gaming","steam_id":76561198233098136,"connected_time":1195000000000,"state":"active","ping":62},{"user_id":576,"name":"Descenso","steam_id":76561198059290812,"connected_time":332000000000,"state":"active","ping":138},{"user_id":577,"name":"Walmart Employee","steam_id":76561198840373909,"connected_time":330000000000,"state":"active","ping":82},{"user_id":592,"name":"leaf","steam_id":76561198061516523,"connected_time":51000000000,"state":"active","ping":52},{"user_id":591,"name":"sidhaktheguy","steam_id":76561198306006593,"connected_time":145000000000,"state":"active","ping":54},{"user_id":583,"name":"A Mysterious Gift","steam_id":76561198077838946,"connected_time":261000000000,"state":"active","ping":66},{"user_id":584,"name":"garfield","steam_id":76561198114119308,"connected_time":250000000000,"state":"active","ping":62},{"user_id":588,"name":"Spy","steam_id":76561199170079739,"connected_time":184000000000,"state":"active","ping":197},{"user_id":590,"name":"Sickmind33","steam_id":76561198036248611,"connected_time":154000000000,"state":"active","ping":46},{"user_id":587,"name":"john","steam_id":76561198892528359,"connected_time":221000000000,"state":"active","ping":43},{"user_id":593,"name":"Zombie Icarus","steam_id":76561198066505696,"connected_time":33000000000,"state":"spawning","ping":54},{"user_id":594,"name":"haileywestbrook123@gmail.com","steam_id":76561199169445769,"connected_time":25000000000,"state":"spawning","ping":74},{"user_id":412,"name":"Creatine Drinker","steam_id":76561199111336393,"connected_time":12132000000000,"state":"active","ping":144},{"user_id":595,"name":"Paulie Walnuts","steam_id":76561198148078451,"connected_time":18000000000,"state":"spawning","ping":71},{"user_id":563,"name":"SlurpyTheDog","steam_id":76561198799733154,"connected_time":1252000000000,"state":"active","ping":65},{"user_id":596,"name":"yoshido","steam_id":76561198846313229,"connected_time":0,"state":"spawning","ping":0}]},{"server_id":402,"name":"Uncletopia | Chicago | 3 | All Maps","name_short":"chi-3","host":"chi-1.us.uncletopia.com","port":27035,"enabled":true,"region":"us-central","cc":"us","latitude":41.881832,"longitude":-87.62318,"reserved":0,"last_update":"0001-01-01T00:00:00Z","name_a2s":"Uncletopia | Chicago | 3 | All Maps","protocol":17,"map":"pl_badwater","folder":"tf","game":"Team Fortress","app_id":440,"player_count":24,"max_players":24,"Bots":0,"server_type":"Dedicated","server_os":"Linux","password":true,"vac":true,"version":"7961495","steam_id":85568392924515191,"keywords":["nocrits","nodmgspread","payload","uncletopia"],"game_id":440,"stv_port":27036,"stv_name":"Uncletopia | Chicago | 3 | All Maps | STV","players":[{"user_id":95,"name":"elmao","steam_id":76561198100691433,"connected_time":1593000000000,"state":"active","ping":58},{"user_id":114,"name":"Drake from State Farm","steam_id":76561199069029812,"connected_time":295000000000,"state":"active","ping":106},{"user_id":113,"name":"Gibus","steam_id":76561198822957889,"connected_time":333000000000,"state":"active","ping":157},{"user_id":96,"name":"kwrzrguy445","steam_id":76561198137124492,"connected_time":1590000000000,"state":"active","ping":65},{"user_id":88,"name":"Grumpy Bird","steam_id":76561198819881664,"connected_time":2034000000000,"state":"active","ping":97},{"user_id":107,"name":"the doubters never saw it comin","steam_id":76561199389283507,"connected_time":841000000000,"state":"active","ping":71},{"user_id":108,"name":"vekinuma","steam_id":76561198946972267,"connected_time":659000000000,"state":"active","ping":74},{"user_id":115,"name":"Some Guy","steam_id":76561199090075731,"connected_time":275000000000,"state":"active","ping":88},{"user_id":116,"name":"Gabeyboy321","steam_id":76561199379213615,"connected_time":274000000000,"state":"active","ping":72},{"user_id":97,"name":"Mamas Texas Chicken","steam_id":76561199156409732,"connected_time":1582000000000,"state":"active","ping":70},{"user_id":117,"name":"micjacklin","steam_id":76561199383619549,"connected_time":273000000000,"state":"active","ping":64},{"user_id":118,"name":"AkaDoggo","steam_id":76561198968291063,"connected_time":236000000000,"state":"active","ping":49},{"user_id":98,"name":"G-Ray","steam_id":76561199118107649,"connected_time":1556000000000,"state":"active","ping":121},{"user_id":119,"name":"Chumpy","steam_id":76561198010169419,"connected_time":206000000000,"state":"active","ping":84},{"user_id":120,"name":"LordOfTheNoobs","steam_id":76561197962697523,"connected_time":203000000000,"state":"active","ping":55},{"user_id":48,"name":"Drake the Pixel","steam_id":76561198131824401,"connected_time":5483000000000,"state":"active","ping":48},{"user_id":121,"name":"Oni","steam_id":76561198112066584,"connected_time":182000000000,"state":"active","ping":64},{"user_id":122,"name":"supreme champion","steam_id":76561198072112905,"connected_time":182000000000,"state":"active","ping":59},{"user_id":104,"name":"âœ§.*Remzyâœ§.*","steam_id":76561199239412094,"connected_time":1364000000000,"state":"active","ping":147},{"user_id":123,"name":"crouton.net","steam_id":76561198068374646,"connected_time":180000000000,"state":"active","ping":97},{"user_id":124,"name":"Laa-Laa","steam_id":76561198104943072,"connected_time":167000000000,"state":"active","ping":67},{"user_id":125,"name":"Ekohtwo","steam_id":76561198067994868,"connected_time":166000000000,"state":"active","ping":63},{"user_id":69,"name":"She got that strap (on)","steam_id":76561198057745131,"connected_time":3742000000000,"state":"active","ping":52},{"user_id":86,"name":"goombinus","steam_id":76561198136164826,"connected_time":2202000000000,"state":"active","ping":44}]},{"server_id":403,"name":"Uncletopia | Chicago | 4 | All Maps","name_short":"chi-4","host":"chi-1.us.uncletopia.com","port":27045,"enabled":true,"region":"us-central","cc":"us","latitude":41.881832,"longitude":-87.62318,"reserved":0,"last_update":"0001-01-01T00:00:00Z","name_a2s":"Uncletopia | Chicago | 4 | All Maps","protocol":17,"map":"koth_cascade","folder":"tf","game":"Team Fortress","app_id":440,"player_count":0,"max_players":24,"Bots":0,"server_type":"Dedicated","server_os":"Linux","password":true,"vac":true,"version":"7961495","steam_id":85568392924515193,"keywords":["cp","nocrits","nodmgspread","uncletopia"],"game_id":440,"stv_port":27046,"stv_name":"Uncletopia | Chicago | 4 | All Maps | STV","players":null},{"server_id":36,"name":"Uncletopia | Chicago | 5 | All Maps","name_short":"chi-5","host":"chi-2.us.uncletopia.com","port":27015,"enabled":true,"region":"us-central","cc":"us","latitude":41.881832,"longitude":-87.62318,"reserved":0,"last_update":"0001-01-01T00:00:00Z","name_a2s":"Uncletopia | Chicago | 5 | All Maps","protocol":17,"map":"cp_mercenarypark","folder":"tf","game":"Team Fortress","app_id":440,"player_count":0,"max_players":24,"Bots":0,"server_type":"Dedicated","server_os":"Linux","password":true,"vac":true,"version":"7961495","steam_id":85568392924866362,"keywords":["cp","nocrits","nodmgspread","uncletopia"],"game_id":440,"stv_port":27016,"stv_name":"Uncletopia | Chicago | 5 | All Maps | STV","players":null},{"server_id":37,"name":"Uncletopia | Chicago | 6 | All Maps","name_short":"chi-6","host":"chi-2.us.uncletopia.com","port":27025,"enabled":true,"region":"us-central","cc":"us","latitude":41.881832,"longitude":-87.62318,"reserved":0,"last_update":"0001-01-01T00:00:00Z","name_a2s":"Uncletopia | Chicago | 6 | All Maps","protocol":17,"map":"pl_borneo","folder":"tf","game":"Team Fortress","app_id":440,"player_count":3,"max_players":24,"Bots":0,"server_type":"Dedicated","server_os":"Linux","password":true,"vac":true,"version":"7961495","steam_id":85568392924866363,"keywords":["nocrits","nodmgspread","payload","uncletopia"],"game_id":440,"stv_port":27026,"stv_name":"Uncletopia | Chicago | 6 | All Maps | STV","players":[{"user_id":162,"name":"Hovg9000","steam_id":76561199191556710,"connected_time":114000000000,"state":"active","ping":86},{"user_id":130,"name":"botato","steam_id":76561198079925551,"connected_time":2867000000000,"state":"active","ping":66},{"user_id":77,"name":"SpyzWhyz","steam_id":76561198366071482,"connected_time":6988000000000,"state":"active","ping":45}]},{"server_id":38,"name":"Uncletopia | Chicago | 7 | Stopwatch","name_short":"chi-7","host":"chi-2.us.uncletopia.com","port":27035,"enabled":true,"region":"us-central","cc":"us","latitude":41.881832,"longitude":-87.62318,"reserved":0,"last_update":"0001-01-01T00:00:00Z","name_a2s":"Uncletopia | Chicago | 7 | Stopwatch","protocol":17,"map":"pl_borneo","folder":"tf","game":"Team Fortress","app_id":440,"player_count":0,"max_players":24,"Bots":0,"server_type":"Dedicated","server_os":"Linux","password":true,"vac":true,"version":"7961495","steam_id":85568392924866364,"keywords":["nocrits","nodmgspread","payload","uncletopia"],"game_id":440,"stv_port":27036,"stv_name":"Uncletopia | Chicago | 7 | Stopwatch | STV","players":null},{"server_id":39,"name":"Uncletopia | Chicago | 8 | Community","name_short":"chi-8","host":"chi-2.us.uncletopia.com","port":27045,"enabled":true,"region":"us-central","cc":"us","latitude":41.881832,"longitude":-87.62318,"reserved":0,"last_update":"0001-01-01T00:00:00Z","name_a2s":"Uncletopia | Chicago | 8 | Community","protocol":17,"map":"workshop/cp_caldera_rc3.ugc2834196889","folder":"tf","game":"Team Fortress","app_id":440,"player_count":0,"max_players":24,"Bots":0,"server_type":"Dedicated","server_os":"Linux","password":true,"vac":true,"version":"7961495","steam_id":85568392924866365,"keywords":["cp","nocrits","nodmgspread","uncletopia"],"game_id":440,"stv_port":27046,"stv_name":"Uncletopia | Chicago | 8 | Community | STV","players":null},{"server_id":8,"name":"Uncletopia | Dallas | 1 | All Maps","name_short":"dal-1","host":"dal-1.us.uncletopia.com","port":27015,"enabled":true,"region":"us-central","cc":"us","latitude":32.779167,"longitude":-96.80889,"reserved":0,"last_update":"0001-01-01T00:00:00Z","name_a2s":"Uncletopia | Dallas | 1 | All Maps","protocol":17,"map":"pl_pier","folder":"tf","game":"Team Fortress","app_id":440,"player_count":25,"max_players":24,"Bots":0,"server_type":"Dedicated","server_os":"Linux","password":true,"vac":true,"version":"7961495","steam_id":85568392924469986,"keywords":["nocrits","nodmgspread","payload","uncletopia"],"game_id":440,"stv_port":27016,"stv_name":"Uncletopia | Dallas | 1 | All Maps | STV","players":[{"user_id":151,"name":"SoftAvocado","steam_id":76561198278375987,"connected_time":6354000000000,"state":"active","ping":49},{"user_id":258,"name":"Charlie","steam_id":76561198798127908,"connected_time":59000000000,"state":"active","ping":92},{"user_id":250,"name":"yeen","steam_id":76561198105359319,"connected_time":263000000000,"state":"active","ping":73},{"user_id":225,"name":"Inkspot","steam_id":76561199003790541,"connected_time":2066000000000,"state":"active","ping":51},{"user_id":183,"name":"thai tea","steam_id":76561198308290211,"connected_time":3955000000000,"state":"active","ping":93},{"user_id":241,"name":"Mr.Rogers","steam_id":76561198043878683,"connected_time":1288000000000,"state":"active","ping":74},{"user_id":227,"name":"Monte","steam_id":76561198097499917,"connected_time":1987000000000,"state":"active","ping":61},{"user_id":213,"name":"Chad MorningWood","steam_id":76561198139832291,"connected_time":2806000000000,"state":"active","ping":74},{"user_id":111,"name":"Ranger","steam_id":76561198064096654,"connected_time":9859000000000,"state":"active","ping":75},{"user_id":262,"name":"RC","steam_id":76561198048127881,"connected_time":2000000000,"state":"spawning","ping":60},{"user_id":234,"name":"valake","steam_id":76561198058015552,"connected_time":1838000000000,"state":"active","ping":76},{"user_id":208,"name":"oncologist","steam_id":76561197997321386,"connected_time":3411000000000,"state":"active","ping":54},{"user_id":253,"name":"hep","steam_id":76561197965764717,"connected_time":114000000000,"state":"active","ping":68},{"user_id":254,"name":"ugly.","steam_id":76561198016826181,"connected_time":113000000000,"state":"active","ping":77},{"user_id":233,"name":"schmuck","steam_id":76561198143789773,"connected_time":1865000000000,"state":"active","ping":57},{"user_id":240,"name":"Anthid","steam_id":76561198074493797,"connected_time":1658000000000,"state":"active","ping":52},{"user_id":248,"name":"PROJ","steam_id":76561197996737046,"connected_time":443000000000,"state":"active","ping":74},{"user_id":255,"name":"BigBubble42","steam_id":76561198136286123,"connected_time":93000000000,"state":"active","ping":40},{"user_id":236,"name":"â„³â˜¯â—‰â‚­â‚¤Yâ„³â˜®â˜¼","steam_id":76561198077870114,"connected_time":1823000000000,"state":"active","ping":117},{"user_id":237,"name":"no vc no c","steam_id":76561197989503095,"connected_time":1819000000000,"state":"active","ping":172},{"user_id":259,"name":"Ã¶Â¿rÃ¶  Ã¹ Ï€ (NGÃ¯â—‹Ã¡ x 21","steam_id":76561198069589278,"connected_time":47000000000,"state":"active","ping":125},{"user_id":180,"name":"Srg-Waffle","steam_id":76561198204555116,"connected_time":4700000000000,"state":"active","ping":100},{"user_id":204,"name":"a chicken","steam_id":76561198313121580,"connected_time":3565000000000,"state":"active","ping":77},{"user_id":261,"name":"Bogey","steam_id":76561198096227944,"connected_time":38000000000,"state":"active","ping":50},{"user_id":218,"name":"jojobinks613","steam_id":76561198841293111,"connected_time":2616000000000,"state":"active","ping":88}]},{"server_id":108,"name":"Uncletopia | Dallas | 2 | All Maps","name_short":"dal-2","host":"dal-1.us.uncletopia.com","port":27025,"enabled":true,"region":"us-central","cc":"us","latitude":32.779167,"longitude":-96.80889,"reserved":0,"last_update":"0001-01-01T00:00:00Z","name_a2s":"Uncletopia | Dallas | 2 | All Maps","protocol":17,"map":"koth_viaduct","folder":"tf","game":"Team Fortress","app_id":440,"player_count":24,"max_players":24,"Bots":0,"server_type":"Dedicated","server_os":"Linux","password":true,"vac":true,"version":"7961495","steam_id":85568392924469988,"keywords":["cp","nocrits","nodmgspread","uncletopia"],"game_id":440,"stv_port":27026,"stv_name":"Uncletopia | Dallas | 2 | All Maps | STV","players":[{"user_id":204,"name":"trucksforducks","steam_id":76561198122970888,"connected_time":787000000000,"state":"active","ping":45},{"user_id":208,"name":"[SAW] Lost Darkrai","steam_id":76561198021034873,"connected_time":517000000000,"state":"active","ping":49},{"user_id":220,"name":"certified pipe climber","steam_id":76561198369172364,"connected_time":39000000000,"state":"active","ping":89},{"user_id":133,"name":"rhsiegetank","steam_id":76561198359829118,"connected_time":6236000000000,"state":"active","ping":84},{"user_id":200,"name":"Olitude","steam_id":76561199238964574,"connected_time":1197000000000,"state":"active","ping":80},{"user_id":209,"name":"Omegalite","steam_id":76561198796787101,"connected_time":449000000000,"state":"active","ping":56},{"user_id":125,"name":"MineOpal","steam_id":76561198044716407,"connected_time":6612000000000,"state":"active","ping":66},{"user_id":202,"name":"ellie ðŸŽ€","steam_id":76561198325980914,"connected_time":1144000000000,"state":"active","ping":68},{"user_id":206,"name":"Grumby","steam_id":76561198149175262,"connected_time":590000000000,"state":"active","ping":59},{"user_id":161,"name":"My Tummy Hurts :(","steam_id":76561198168976029,"connected_time":4520000000000,"state":"active","ping":99},{"user_id":185,"name":"Mellou","steam_id":76561198212048740,"connected_time":2562000000000,"state":"active","ping":44},{"user_id":215,"name":"bigchungusgaming(real)","steam_id":76561198273392037,"connected_time":288000000000,"state":"active","ping":86},{"user_id":182,"name":"Pure","steam_id":76561198074468889,"connected_time":2818000000000,"state":"active","ping":93},{"user_id":143,"name":"Futanari of the Amazon Enjoyer","steam_id":76561198074294849,"connected_time":5925000000000,"state":"active","ping":103},{"user_id":207,"name":"RaspberryKetchup","steam_id":76561198397331700,"connected_time":581000000000,"state":"active","ping":76},{"user_id":203,"name":"Master Of Whales","steam_id":76561198349104889,"connected_time":936000000000,"state":"active","ping":83},{"user_id":218,"name":"breaking bad dies in part 5","steam_id":76561199232873994,"connected_time":143000000000,"state":"active","ping":56},{"user_id":198,"name":"mkl","steam_id":76561197986401685,"connected_time":1460000000000,"state":"active","ping":55},{"user_id":221,"name":"MrHappyMAg","steam_id":76561198060359133,"connected_time":38000000000,"state":"spawning","ping":44},{"user_id":144,"name":"walting white","steam_id":76561198072156623,"connected_time":5803000000000,"state":"active","ping":122},{"user_id":212,"name":"dynam_ic554","steam_id":76561199068623664,"connected_time":370000000000,"state":"active","ping":117},{"user_id":213,"name":"Chadmander","steam_id":76561197974136337,"connected_time":349000000000,"state":"active","ping":75},{"user_id":214,"name":"weezer pinkerton album","steam_id":76561198884033358,"connected_time":342000000000,"state":"active","ping":68},{"user_id":219,"name":"Penguinodle","steam_id":76561199082347306,"connected_time":132000000000,"state":"active","ping":45}]},{"server_id":404,"name":"Uncletopia | Dallas | 3 | All Maps","name_short":"dal-3","host":"dal-1.us.uncletopia.com","port":27035,"enabled":true,"region":"us-central","cc":"us","latitude":32.779167,"longitude":-96.80889,"reserved":0,"last_update":"0001-01-01T00:00:00Z","name_a2s":"Uncletopia | Dallas | 3 | All Maps","protocol":17,"map":"cp_dustbowl","folder":"tf","game":"Team Fortress","app_id":440,"player_count":0,"max_players":24,"Bots":0,"server_type":"Dedicated","server_os":"Linux","password":true,"vac":true,"version":"7961495","steam_id":85568392924515219,"keywords":["cp","nocrits","nodmgspread","uncletopia"],"game_id":440,"stv_port":27036,"stv_name":"Uncletopia | Dallas | 3 | All Maps | STV","players":null},{"server_id":405,"name":"Uncletopia | Dallas | 4 | Community","name_short":"dal-4","host":"dal-1.us.uncletopia.com","port":27045,"enabled":true,"region":"us-central","cc":"us","latitude":32.779167,"longitude":-96.80889,"reserved":0,"last_update":"0001-01-01T00:00:00Z","name_a2s":"Uncletopia | Dallas | 4 | Community","protocol":17,"map":"workshop/koth_rotunda_rc10w.ugc2964421291","folder":"tf","game":"Team Fortress","app_id":440,"player_count":0,"max_players":24,"Bots":0,"server_type":"Dedicated","server_os":"Linux","password":true,"vac":true,"version":"7961495","steam_id":85568392924515220,"keywords":["cp","nocrits","nodmgspread","uncletopia"],"game_id":440,"stv_port":27046,"stv_name":"Uncletopia | Dallas | 4 | Community | STV","players":null},{"server_id":5,"name":"Uncletopia | Frankfurt | 1 | All Maps","name_short":"frk-1","host":"frk-1.de.uncletopia.com","port":27015,"enabled":true,"region":"eu","cc":"de","latitude":50.110924,"longitude":8.682127,"reserved":0,"last_update":"0001-01-01T00:00:00Z","name_a2s":"Uncletopia | Frankfurt | 1 | All Maps","protocol":17,"map":"cp_gorge","folder":"tf","game":"Team Fortress","app_id":440,"player_count":0,"max_players":24,"Bots":0,"server_type":"Dedicated","server_os":"Linux","password":true,"vac":true,"version":"7961495","steam_id":85568392924469989,"keywords":["cp","nocrits","nodmgspread","uncletopia"],"game_id":440,"stv_port":27016,"stv_name":"Uncletopia | Frankfurt | 1 | All Maps | STV","players":null},{"server_id":110,"name":"Uncletopia | Frankfurt | 2 | All Maps","name_short":"frk-2","host":"frk-1.de.uncletopia.com","port":27025,"enabled":true,"region":"eu","cc":"de","latitude":50.110924,"longitude":8.682127,"reserved":0,"last_update":"0001-01-01T00:00:00Z","name_a2s":"Uncletopia | Frankfurt | 2 | All Maps","protocol":17,"map":"pl_rumford_event","folder":"tf","game":"Team Fortress","app_id":440,"player_count":24,"max_players":24,"Bots":0,"server_type":"Dedicated","server_os":"Linux","password":true,"vac":true,"version":"7961495","steam_id":85568392924469990,"keywords":["nocrits","nodmgspread","payload","uncletopia"],"game_id":440,"stv_port":27026,"stv_name":"Uncletopia | Frankfurt | 2 | All Maps | STV","players":[{"user_id":545,"name":"Jotun","steam_id":76561199015161498,"connected_time":396000000000,"state":"active","ping":93},{"user_id":491,"name":"FoOzTV","steam_id":76561197998636728,"connected_time":2942000000000,"state":"active","ping":59},{"user_id":516,"name":"ifre3","steam_id":76561198052545817,"connected_time":1056000000000,"state":"active","ping":97},{"user_id":449,"name":"AhYesItsLarry","steam_id":76561198113895325,"connected_time":5789000000000,"state":"active","ping":68},{"user_id":494,"name":"xva","steam_id":76561198969286813,"connected_time":2769000000000,"state":"active","ping":63},{"user_id":512,"name":"xxfishymemesxx","steam_id":76561199021497492,"connected_time":1849000000000,"state":"active","ping":145},{"user_id":541,"name":"tone","steam_id":76561197975301462,"connected_time":457000000000,"state":"active","ping":74},{"user_id":495,"name":"Lukero","steam_id":76561198301594341,"connected_time":2758000000000,"state":"active","ping":56},{"user_id":489,"name":"_Alonso","steam_id":76561198041893314,"connected_time":3462000000000,"state":"active","ping":59},{"user_id":513,"name":"else1","steam_id":76561197996558319,"connected_time":1510000000000,"state":"active","ping":76},{"user_id":526,"name":"â™¥ Cirno â™¥","steam_id":76561198834982738,"connected_time":770000000000,"state":"active","ping":73},{"user_id":497,"name":"Step back","steam_id":76561198063855616,"connected_time":2693000000000,"state":"active","ping":75},{"user_id":479,"name":"BriLLz","steam_id":76561198142440806,"connected_time":4333000000000,"state":"active","ping":70},{"user_id":565,"name":"Gsus","steam_id":76561198819979852,"connected_time":31000000000,"state":"active","ping":118},{"user_id":519,"name":"Kenny","steam_id":76561198994898206,"connected_time":1028000000000,"state":"active","ping":70},{"user_id":529,"name":"Aftiks","steam_id":76561198875182686,"connected_time":681000000000,"state":"active","ping":89},{"user_id":530,"name":"Hamakaze","steam_id":76561198151906547,"connected_time":668000000000,"state":"active","ping":98},{"user_id":535,"name":"Alex","steam_id":76561198119409874,"connected_time":577000000000,"state":"active","ping":47},{"user_id":483,"name":"The Lady","steam_id":76561198029895809,"connected_time":4070000000000,"state":"active","ping":75},{"user_id":536,"name":"kernstjean97","steam_id":76561199216661045,"connected_time":575000000000,"state":"active","ping":175},{"user_id":550,"name":"mugshot","steam_id":76561198363841749,"connected_time":269000000000,"state":"active","ping":60},{"user_id":503,"name":"chronos","steam_id":76561199077776159,"connected_time":2485000000000,"state":"active","ping":100},{"user_id":539,"name":"janga","steam_id":76561197977643629,"connected_time":527000000000,"state":"active","ping":52},{"user_id":546,"name":"Frust","steam_id":76561198009785922,"connected_time":385000000000,"state":"active","ping":101}]},{"server_id":308,"name":"Uncletopia | Frankfurt | 3 | All Maps","name_short":"frk-3","host":"frk-1.de.uncletopia.com","port":27035,"enabled":true,"region":"eu","cc":"de","latitude":50.110924,"longitude":8.682127,"reserved":0,"last_update":"0001-01-01T00:00:00Z","name_a2s":"Uncletopia | Frankfurt | 3 | All Maps","protocol":17,"map":"koth_lakeside_final","folder":"tf","game":"Team Fortress","app_id":440,"player_count":0,"max_players":24,"Bots":0,"server_type":"Dedicated","server_os":"Linux","password":true,"vac":true,"version":"7961495","steam_id":85568392924504274,"keywords":["cp","nocrits","nodmgspread","uncletopia"],"game_id":440,"stv_port":27036,"stv_name":"Uncletopia | Frankfurt | 3 | All Maps | STV","players":null},{"server_id":309,"name":"Uncletopia | Frankfurt | 4 | All Maps","name_short":"frk-4","host":"frk-1.de.uncletopia.com","port":27045,"enabled":true,"region":"eu","cc":"de","latitude":50.110924,"longitude":8.682127,"reserved":0,"last_update":"0001-01-01T00:00:00Z","name_a2s":"Uncletopia | Frankfurt | 4 | All Maps","protocol":17,"map":"koth_highpass","folder":"tf","game":"Team Fortress","app_id":440,"player_count":0,"max_players":24,"Bots":0,"server_type":"Dedicated","server_os":"Linux","password":true,"vac":true,"version":"7961495","steam_id":85568392924504275,"keywords":["cp","nocrits","nodmgspread","uncletopia"],"game_id":440,"stv_port":27046,"stv_name":"Uncletopia | Frankfurt | 4 | All Maps | STV","players":null},{"server_id":310,"name":"Uncletopia | Frankfurt | 5 | All Maps","name_short":"frk-5","host":"frk-1.de.uncletopia.com","port":27055,"enabled":true,"region":"eu","cc":"de","latitude":50.110924,"longitude":8.682127,"reserved":0,"last_update":"0001-01-01T00:00:00Z","name_a2s":"Uncletopia | Frankfurt | 5 | All Maps","protocol":17,"map":"cp_snakewater_final1","folder":"tf","game":"Team Fortress","app_id":440,"player_count":0,"max_players":24,"Bots":0,"server_type":"Dedicated","server_os":"Linux","password":true,"vac":true,"version":"7961495","steam_id":85568392924504277,"keywords":["cp","nocrits","nodmgspread","uncletopia"],"game_id":440,"stv_port":27056,"stv_name":"Uncletopia | Frankfurt | 5 | All Maps | STV","players":null},{"server_id":311,"name":"Uncletopia | Frankfurt | 6 | All Maps","name_short":"frk-6","host":"frk-1.de.uncletopia.com","port":27065,"enabled":true,"region":"eu","cc":"de","latitude":50.110924,"longitude":8.682127,"reserved":0,"last_update":"0001-01-01T00:00:00Z","name_a2s":"Uncletopia | Frankfurt | 6 | All Maps","protocol":17,"map":"koth_viaduct","folder":"tf","game":"Team Fortress","app_id":440,"player_count":0,"max_players":24,"Bots":0,"server_type":"Dedicated","server_os":"Linux","password":true,"vac":true,"version":"7961495","steam_id":85568392924504278,"keywords":["cp","nocrits","nodmgspread","uncletopia"],"game_id":440,"stv_port":27066,"stv_name":"Uncletopia | Frankfurt | 6 | All Maps | STV","players":null},{"server_id":23,"name":"Uncletopia | Frankfurt | 7 | Stopwatch","name_short":"frk-7","host":"frk-1.de.uncletopia.com","port":27075,"enabled":true,"region":"eu","cc":"de","latitude":50.110924,"longitude":8.682127,"reserved":0,"last_update":"0001-01-01T00:00:00Z","name_a2s":"Uncletopia | Frankfurt | 7 | Stopwatch","protocol":17,"map":"workshop/pl_vigil_rc10.ugc1266210012","folder":"tf","game":"Team Fortress","app_id":440,"player_count":0,"max_players":24,"Bots":0,"server_type":"Dedicated","server_os":"Linux","password":true,"vac":true,"version":"7961495","steam_id":85568392924742827,"keywords":["nocrits","nodmgspread","payload","uncletopia"],"game_id":440,"stv_port":27076,"stv_name":"Uncletopia | Frankfurt | 7 | Stopwatch | STV","players":null},{"server_id":24,"name":"Uncletopia | Frankfurt | 8 | Community","name_short":"frk-8","host":"frk-1.de.uncletopia.com","port":27085,"enabled":true,"region":"eu","cc":"de","latitude":50.110924,"longitude":8.682127,"reserved":0,"last_update":"0001-01-01T00:00:00Z","name_a2s":"Uncletopia | Frankfurt | 8 | Community","protocol":17,"map":"workshop/koth_kemptown_rc1.ugc767410655","folder":"tf","game":"Team Fortress","app_id":440,"player_count":0,"max_players":24,"Bots":0,"server_type":"Dedicated","server_os":"Linux","password":true,"vac":true,"version":"7961495","steam_id":85568392924742828,"keywords":["cp","nocrits","nodmgspread","uncletopia"],"game_id":440,"stv_port":27086,"stv_name":"Uncletopia | Frankfurt | 8 | Community | STV","players":null},{"server_id":202,"name":"Uncletopia | Hong Kong | 1 | All Maps","name_short":"hgk-1","host":"hgk-1.hk.uncletopia.com","port":27015,"enabled":true,"region":"asia","cc":"hk","latitude":22.302711,"longitude":114.177216,"reserved":0,"last_update":"0001-01-01T00:00:00Z","name_a2s":"Uncletopia | Hong Kong | 1 | All Maps","protocol":17,"map":"cp_metalworks","folder":"tf","game":"Team Fortress","app_id":440,"player_count":0,"max_players":24,"Bots":0,"server_type":"Dedicated","server_os":"Linux","password":true,"vac":true,"version":"7961495","steam_id":85568392924494504,"keywords":["cp","nocrits","nodmgspread","uncletopia"],"game_id":440,"stv_port":27016,"stv_name":"Uncletopia | Hong Kong | 1 | All Maps | STV","players":null},{"server_id":1,"name":"Uncletopia | Los Angeles | 1 | All Maps","name_short":"lax-1","host":"lax-1.us.uncletopia.com","port":27015,"enabled":true,"region":"us-west","cc":"us","latitude":33.94279,"longitude":-118.41004,"reserved":0,"last_update":"0001-01-01T00:00:00Z","name_a2s":"Uncletopia | Los Angeles | 1 | All Maps","protocol":17,"map":"koth_viaduct","folder":"tf","game":"Team Fortress","app_id":440,"player_count":0,"max_players":24,"Bots":0,"server_type":"Dedicated","server_os":"Linux","password":true,"vac":true,"version":"7961495","steam_id":85568392924469991,"keywords":["cp","nocrits","nodmgspread","uncletopia"],"game_id":440,"stv_port":27016,"stv_name":"Uncletopia | Los Angeles | 1 | All Maps | STV","players":null},{"server_id":112,"name":"Uncletopia | Los Angeles | 2 | All Maps","name_short":"lax-2","host":"lax-1.us.uncletopia.com","port":27025,"enabled":true,"region":"us-west","cc":"us","latitude":33.94279,"longitude":-118.41004,"reserved":0,"last_update":"0001-01-01T00:00:00Z","name_a2s":"Uncletopia | Los Angeles | 2 | All Maps","protocol":17,"map":"cp_altitude","folder":"tf","game":"Team Fortress","app_id":440,"player_count":0,"max_players":24,"Bots":0,"server_type":"Dedicated","server_os":"Linux","password":true,"vac":true,"version":"7961495","steam_id":85568392924469992,"keywords":["cp","nocrits","nodmgspread","uncletopia"],"game_id":440,"stv_port":27026,"stv_name":"Uncletopia | Los Angeles | 2 | All Maps | STV","players":null},{"server_id":324,"name":"Uncletopia | Los Angeles | 3 | All Maps","name_short":"lax-3","host":"lax-1.us.uncletopia.com","port":27035,"enabled":true,"region":"us-west","cc":"us","latitude":33.94279,"longitude":-118.41004,"reserved":0,"last_update":"0001-01-01T00:00:00Z","name_a2s":"Uncletopia | Los Angeles | 3 | All Maps","protocol":17,"map":"pl_badwater","folder":"tf","game":"Team Fortress","app_id":440,"player_count":0,"max_players":24,"Bots":0,"server_type":"Dedicated","server_os":"Linux","password":true,"vac":true,"version":"7961495","steam_id":85568392924510198,"keywords":["nocrits","nodmgspread","payload","uncletopia"],"game_id":440,"stv_port":27036,"stv_name":"Uncletopia | Los Angeles | 3 | All Maps | STV","players":null},{"server_id":25,"name":"Uncletopia | Los Angeles | 4 | Stopwatch","name_short":"lax-4","host":"lax-1.us.uncletopia.com","port":27045,"enabled":true,"region":"us-west","cc":"us","latitude":33.94279,"longitude":-118.41004,"reserved":0,"last_update":"0001-01-01T00:00:00Z","name_a2s":"Uncletopia | Los Angeles | 4 | Stopwatch","protocol":17,"map":"workshop/cp_reckoner_rc6.ugc674719999","folder":"tf","game":"Team Fortress","app_id":440,"player_count":0,"max_players":24,"Bots":0,"server_type":"Dedicated","server_os":"Linux","password":true,"vac":true,"version":"7961495","steam_id":85568392924510199,"keywords":["cp","nocrits","nodmgspread","uncletopia"],"game_id":440,"stv_port":27046,"stv_name":"Uncletopia | Los Angeles | 4 | Stopwatch | STV","players":null},{"server_id":11,"name":"Uncletopia | London | 1 | All Maps","name_short":"lon-1","host":"lon-1.uk.uncletopia.com","port":27015,"enabled":true,"region":"eu","cc":"gb","latitude":51.509865,"longitude":-0.118092,"reserved":0,"last_update":"0001-01-01T00:00:00Z","name_a2s":"Uncletopia | London | 1 | All Maps","protocol":17,"map":"cp_snakewater_final1","folder":"tf","game":"Team Fortress","app_id":440,"player_count":24,"max_players":24,"Bots":0,"server_type":"Dedicated","server_os":"Linux","password":true,"vac":true,"version":"7961495","steam_id":85568392924367362,"keywords":["cp","nocrits","nodmgspread","uncletopia"],"game_id":440,"stv_port":27016,"stv_name":"Uncletopia | London | 1 | All Maps | STV","players":[{"user_id":671,"name":"Steve Chores","steam_id":76561198060426885,"connected_time":1904000000000,"state":"active","ping":79},{"user_id":689,"name":"Bajas","steam_id":76561198179339326,"connected_time":633000000000,"state":"active","ping":85},{"user_id":669,"name":"meow meow meow","steam_id":76561199510115679,"connected_time":2012000000000,"state":"active","ping":36},{"user_id":672,"name":"Eternally Blazed Banana","steam_id":76561198069703284,"connected_time":1859000000000,"state":"active","ping":58},{"user_id":673,"name":"76561193786316845","steam_id":76561198081284141,"connected_time":1845000000000,"state":"active","ping":51},{"user_id":679,"name":"Depressed","steam_id":76561198154405093,"connected_time":1364000000000,"state":"active","ping":77},{"user_id":692,"name":"SteveyJJ","steam_id":76561198083505031,"connected_time":439000000000,"state":"active","ping":45},{"user_id":647,"name":"Ninjeg","steam_id":76561197995307947,"connected_time":3396000000000,"state":"active","ping":70},{"user_id":597,"name":"TL071 op-amp","steam_id":76561198397024973,"connected_time":7366000000000,"state":"active","ping":41},{"user_id":682,"name":"Purps","steam_id":76561198053886680,"connected_time":1156000000000,"state":"active","ping":41},{"user_id":709,"name":"sora","steam_id":76561198096547662,"connected_time":174000000000,"state":"active","ping":53},{"user_id":694,"name":"elijah","steam_id":76561198093936708,"connected_time":428000000000,"state":"active","ping":45},{"user_id":655,"name":"nudjura","steam_id":76561198281986139,"connected_time":3003000000000,"state":"active","ping":38},{"user_id":592,"name":"gamerkiddo","steam_id":76561198047380360,"connected_time":7519000000000,"state":"active","ping":53},{"user_id":677,"name":"Paulo Doutor","steam_id":76561198168674032,"connected_time":1671000000000,"state":"active","ping":70},{"user_id":678,"name":"gitlitwitit","steam_id":76561197980019054,"connected_time":1664000000000,"state":"active","ping":66},{"user_id":648,"name":"MustangCricket","steam_id":76561197963408317,"connected_time":3388000000000,"state":"active","ping":63},{"user_id":630,"name":"\u003e\u003c\u003e","steam_id":76561198152392309,"connected_time":5135000000000,"state":"active","ping":46},{"user_id":687,"name":"Kahvi","steam_id":76561198723244199,"connected_time":643000000000,"state":"active","ping":89},{"user_id":641,"name":"That hamster has been dead for ","steam_id":76561198346638308,"connected_time":3728000000000,"state":"active","ping":53},{"user_id":695,"name":"Biglet","steam_id":76561198077243439,"connected_time":428000000000,"state":"active","ping":44},{"user_id":619,"name":"golfmastr","steam_id":76561198993144124,"connected_time":6151000000000,"state":"active","ping":63},{"user_id":652,"name":"T/5. Cernuno [16th IR]","steam_id":76561197977897110,"connected_time":3300000000000,"state":"active","ping":74},{"user_id":696,"name":"Aaron","steam_id":76561197990046953,"connected_time":426000000000,"state":"active","ping":56}]},{"server_id":114,"name":"Uncletopia | London | 2 | All Maps","name_short":"lon-2","host":"lon-1.uk.uncletopia.com","port":27025,"enabled":true,"region":"eu","cc":"gb","latitude":51.509865,"longitude":-0.118092,"reserved":0,"last_update":"0001-01-01T00:00:00Z","name_a2s":"Uncletopia | London | 2 | All Maps","protocol":17,"map":"pl_upward","folder":"tf","game":"Team Fortress","app_id":440,"player_count":24,"max_players":24,"Bots":0,"server_type":"Dedicated","server_os":"Linux","password":true,"vac":true,"version":"7961495","steam_id":85568392924470941,"keywords":["nocrits","nodmgspread","payload","uncletopia"],"game_id":440,"stv_port":27026,"stv_name":"Uncletopia | London | 2 | All Maps | STV","players":[{"user_id":363,"name":"AneveX","steam_id":76561198111905804,"connected_time":2966000000000,"state":"active","ping":61},{"user_id":414,"name":"Cynosure","steam_id":76561198121286517,"connected_time":1310000000000,"state":"active","ping":44},{"user_id":424,"name":"Sabour","steam_id":76561197963965445,"connected_time":860000000000,"state":"active","ping":66},{"user_id":314,"name":"Blern","steam_id":76561198180275345,"connected_time":4518000000000,"state":"active","ping":48},{"user_id":349,"name":"Monid","steam_id":76561198009912863,"connected_time":3382000000000,"state":"active","ping":67},{"user_id":401,"name":"Lemon","steam_id":76561198188535947,"connected_time":1542000000000,"state":"active","ping":74},{"user_id":432,"name":"Dougie","steam_id":76561198079567499,"connected_time":351000000000,"state":"active","ping":49},{"user_id":434,"name":"Dei Genetrix","steam_id":76561198305678122,"connected_time":75000000000,"state":"active","ping":57},{"user_id":405,"name":"UJAGaming","steam_id":76561198147959101,"connected_time":1463000000000,"state":"active","ping":92},{"user_id":400,"name":"Oaky Leaf","steam_id":76561198162821920,"connected_time":1577000000000,"state":"active","ping":96},{"user_id":402,"name":"Arseni","steam_id":76561198042602892,"connected_time":1520000000000,"state":"active","ping":50},{"user_id":429,"name":"(All Muted) Visphiric","steam_id":76561198071938027,"connected_time":474000000000,"state":"active","ping":44},{"user_id":337,"name":"Hank J Wimbleton","steam_id":76561198408623293,"connected_time":3583000000000,"state":"active","ping":59},{"user_id":433,"name":"Dr Bondus Bolongus Dongus","steam_id":76561198378657692,"connected_time":348000000000,"state":"active","ping":53},{"user_id":355,"name":"Gnarville","steam_id":76561198006373329,"connected_time":3186000000000,"state":"active","ping":46},{"user_id":374,"name":"Barbs","steam_id":76561198257965854,"connected_time":2433000000000,"state":"active","ping":51},{"user_id":380,"name":"Sam","steam_id":76561198273913888,"connected_time":2360000000000,"state":"active","ping":74},{"user_id":340,"name":"HilldogGamingâ™›","steam_id":76561198082209322,"connected_time":3565000000000,"state":"active","ping":85},{"user_id":309,"name":"dools18","steam_id":76561198880768062,"connected_time":5068000000000,"state":"active","ping":58},{"user_id":422,"name":"amen_break","steam_id":76561198059782462,"connected_time":929000000000,"state":"active","ping":70},{"user_id":385,"name":"robouki","steam_id":76561198168265569,"connected_time":2023000000000,"state":"active","ping":43},{"user_id":377,"name":"TurnaJ","steam_id":76561198189223495,"connected_time":2395000000000,"state":"active","ping":72},{"user_id":413,"name":"Melon","steam_id":76561198085630318,"connected_time":1342000000000,"state":"active","ping":56},{"user_id":415,"name":"tomydjoh","steam_id":76561198077421906,"connected_time":1261000000000,"state":"active","ping":46}]},{"server_id":320,"name":"Uncletopia | London | 3 | All Maps","name_short":"lon-3","host":"lon-1.uk.uncletopia.com","port":27035,"enabled":true,"region":"eu","cc":"gb","latitude":51.509865,"longitude":-0.118092,"reserved":0,"last_update":"0001-01-01T00:00:00Z","name_a2s":"Uncletopia | London | 3 | All Maps","protocol":17,"map":"pl_snowycoast","folder":"tf","game":"Team Fortress","app_id":440,"player_count":23,"max_players":24,"Bots":0,"server_type":"Dedicated","server_os":"Linux","password":true,"vac":true,"version":"7961495","steam_id":85568392924510192,"keywords":["nocrits","nodmgspread","payload","uncletopia"],"game_id":440,"stv_port":27036,"stv_name":"Uncletopia | London | 3 | All Maps | STV","players":[{"user_id":563,"name":"Luuk","steam_id":76561198088266026,"connected_time":5702000000000,"state":"active","ping":44},{"user_id":615,"name":"Niyaah","steam_id":76561198110209191,"connected_time":1592000000000,"state":"active","ping":60},{"user_id":613,"name":"XFACTOR | {Moshik Roth}","steam_id":76561198352842114,"connected_time":1693000000000,"state":"active","ping":112},{"user_id":629,"name":"Doctor Marijuana","steam_id":76561198288289879,"connected_time":1255000000000,"state":"active","ping":45},{"user_id":637,"name":"Venwood","steam_id":76561198126973175,"connected_time":852000000000,"state":"active","ping":56},{"user_id":644,"name":"Pats (Gifted items Collector)","steam_id":76561198418538887,"connected_time":399000000000,"state":"active","ping":81},{"user_id":645,"name":"etc","steam_id":76561197998394797,"connected_time":4000000000,"state":"spawning","ping":49},{"user_id":619,"name":"taffer","steam_id":76561199480942903,"connected_time":1573000000000,"state":"active","ping":74},{"user_id":618,"name":"Mammut","steam_id":76561198056773933,"connected_time":1586000000000,"state":"active","ping":53},{"user_id":610,"name":"swagmeester","steam_id":76561198045828392,"connected_time":2343000000000,"state":"active","ping":64},{"user_id":638,"name":"Windows Vista Cruiser","steam_id":76561198064102233,"connected_time":851000000000,"state":"active","ping":53},{"user_id":624,"name":"Moto Guzzi Trident","steam_id":76561198031861286,"connected_time":1384000000000,"state":"active","ping":150},{"user_id":509,"name":"finbar","steam_id":76561198056812396,"connected_time":9460000000000,"state":"active","ping":73},{"user_id":597,"name":"BenteBent","steam_id":76561198297920637,"connected_time":3612000000000,"state":"active","ping":36},{"user_id":639,"name":"Isaac Boush","steam_id":76561198179746529,"connected_time":778000000000,"state":"active","ping":81},{"user_id":592,"name":"A Table","steam_id":76561198056456470,"connected_time":4213000000000,"state":"active","ping":75},{"user_id":642,"name":"R@DIO","steam_id":76561197995533046,"connected_time":624000000000,"state":"active","ping":88},{"user_id":627,"name":"hi","steam_id":76561198042844908,"connected_time":1350000000000,"state":"active","ping":164},{"user_id":578,"name":"hipster_doofus","steam_id":76561197970902697,"connected_time":4897000000000,"state":"active","ping":61},{"user_id":636,"name":"cisgender clown","steam_id":76561199469909295,"connected_time":973000000000,"state":"active","ping":67},{"user_id":646,"name":"SimonMarge","steam_id":76561198156442749,"connected_time":4000000000,"state":"spawning","ping":69},{"user_id":641,"name":"wingo","steam_id":76561198254576930,"connected_time":713000000000,"state":"active","ping":71},{"user_id":643,"name":"Baba Foss","steam_id":76561198002302019,"connected_time":609000000000,"state":"active","ping":54}]},{"server_id":321,"name":"Uncletopia | London | 4 | All Maps","name_short":"lon-4","host":"lon-1.uk.uncletopia.com","port":27045,"enabled":true,"region":"eu","cc":"gb","latitude":51.509865,"longitude":-0.118092,"reserved":0,"last_update":"0001-01-01T00:00:00Z","name_a2s":"Uncletopia | London | 4 | All Maps","protocol":17,"map":"pl_badwater","folder":"tf","game":"Team Fortress","app_id":440,"player_count":23,"max_players":24,"Bots":0,"server_type":"Dedicated","server_os":"Linux","password":true,"vac":true,"version":"7961495","steam_id":85568392924510193,"keywords":["nocrits","nodmgspread","payload","uncletopia"],"game_id":440,"stv_port":27046,"stv_name":"Uncletopia | London | 4 | All Maps | STV","players":[{"user_id":535,"name":"Limber","steam_id":76561198406320611,"connected_time":1568000000000,"state":"active","ping":77},{"user_id":505,"name":"Chiers","steam_id":76561198073461642,"connected_time":3622000000000,"state":"active","ping":60},{"user_id":558,"name":"Qdarks","steam_id":76561198013391340,"connected_time":270000000000,"state":"active","ping":137},{"user_id":544,"name":"Reyviix","steam_id":76561198268216386,"connected_time":743000000000,"state":"active","ping":59},{"user_id":547,"name":"AsuX","steam_id":76561197990333289,"connected_time":658000000000,"state":"active","ping":60},{"user_id":519,"name":"Ozzie","steam_id":76561197992915315,"connected_time":2548000000000,"state":"active","ping":60},{"user_id":545,"name":"Sibola","steam_id":76561198065337688,"connected_time":706000000000,"state":"active","ping":48},{"user_id":546,"name":"Desnot","steam_id":76561198862581894,"connected_time":676000000000,"state":"active","ping":74},{"user_id":537,"name":"Mingo","steam_id":76561198057377305,"connected_time":1393000000000,"state":"active","ping":45},{"user_id":556,"name":"ChPerette ðŸŽ®","steam_id":76561198060004887,"connected_time":295000000000,"state":"active","ping":45},{"user_id":552,"name":"birchy","steam_id":76561198166697295,"connected_time":411000000000,"state":"active","ping":41},{"user_id":527,"name":"Vylonic","steam_id":76561198068190114,"connected_time":2069000000000,"state":"active","ping":54},{"user_id":554,"name":"Ò“Ã‰ire","steam_id":76561199174322517,"connected_time":386000000000,"state":"active","ping":51},{"user_id":495,"name":"osvaldo","steam_id":76561198088600319,"connected_time":4153000000000,"state":"active","ping":43},{"user_id":516,"name":"Your honor Freebird was playing","steam_id":76561198017513012,"connected_time":2789000000000,"state":"active","ping":61},{"user_id":507,"name":"fichey S","steam_id":76561198035380064,"connected_time":3598000000000,"state":"active","ping":59},{"user_id":485,"name":"jeff","steam_id":76561198272815746,"connected_time":4767000000000,"state":"active","ping":47},{"user_id":559,"name":"ãƒ ngelâ˜¯","steam_id":76561198009888169,"connected_time":249000000000,"state":"active","ping":63},{"user_id":562,"name":"Bouuuulic","steam_id":76561198053731110,"connected_time":74000000000,"state":"active","ping":73},{"user_id":448,"name":"McAtka","steam_id":76561198019759329,"connected_time":7217000000000,"state":"active","ping":59},{"user_id":493,"name":"the beast","steam_id":76561198115505914,"connected_time":4339000000000,"state":"active","ping":46},{"user_id":541,"name":"Neeeiks","steam_id":76561198009156801,"connected_time":1098000000000,"state":"active","ping":79},{"user_id":543,"name":"le kd de mes soucis","steam_id":76561198033396021,"connected_time":806000000000,"state":"active","ping":76}]},{"server_id":21,"name":"Uncletopia | London | 5 | All Maps","name_short":"lon-5","host":"lon-1.uk.uncletopia.com","port":27055,"enabled":true,"region":"eu","cc":"gb","latitude":51.509865,"longitude":-0.118092,"reserved":0,"last_update":"0001-01-01T00:00:00Z","name_a2s":"Uncletopia | London | 5 | All Maps","protocol":17,"map":"koth_lakeside_final","folder":"tf","game":"Team Fortress","app_id":440,"player_count":0,"max_players":24,"Bots":0,"server_type":"Dedicated","server_os":"Linux","password":true,"vac":true,"version":"7961495","steam_id":85568392924742829,"keywords":["cp","nocrits","nodmgspread","uncletopia"],"game_id":440,"stv_port":27056,"stv_name":"Uncletopia | London | 5 | All Maps | STV","players":null},{"server_id":22,"name":"Uncletopia | London | 6 | All Maps","name_short":"lon-6","host":"lon-1.uk.uncletopia.com","port":27065,"enabled":true,"region":"eu","cc":"gb","latitude":51.509865,"longitude":-0.118092,"reserved":0,"last_update":"0001-01-01T00:00:00Z","name_a2s":"Uncletopia | London | 6 | All Maps","protocol":17,"map":"pl_borneo","folder":"tf","game":"Team Fortress","app_id":440,"player_count":22,"max_players":24,"Bots":0,"server_type":"Dedicated","server_os":"Linux","password":true,"vac":true,"version":"7961495","steam_id":85568392924742830,"keywords":["nocrits","nodmgspread","payload","uncletopia"],"game_id":440,"stv_port":27066,"stv_name":"Uncletopia | London | 6 | All Maps | STV","players":[{"user_id":63,"name":"Ryan Gosling (Literally me)","steam_id":76561198438150893,"connected_time":3995000000000,"state":"active","ping":102},{"user_id":85,"name":"David Penus","steam_id":76561198091245948,"connected_time":1880000000000,"state":"active","ping":44},{"user_id":93,"name":"Laru","steam_id":76561197998838438,"connected_time":915000000000,"state":"active","ping":89},{"user_id":88,"name":"meeper","steam_id":76561199131260257,"connected_time":1787000000000,"state":"active","ping":42},{"user_id":86,"name":"FJADL","steam_id":76561198237008214,"connected_time":1852000000000,"state":"active","ping":75},{"user_id":96,"name":"Tero","steam_id":76561198073147972,"connected_time":614000000000,"state":"active","ping":73},{"user_id":94,"name":"Crystal Kerosene","steam_id":76561198963378933,"connected_time":794000000000,"state":"active","ping":34},{"user_id":98,"name":"bored","steam_id":76561198041993514,"connected_time":430000000000,"state":"active","ping":60},{"user_id":43,"name":"dochris.2","steam_id":76561198026478625,"connected_time":4579000000000,"state":"active","ping":57},{"user_id":89,"name":"flave","steam_id":76561198056372101,"connected_time":1739000000000,"state":"active","ping":74},{"user_id":41,"name":"sareena","steam_id":76561198810194062,"connected_time":4600000000000,"state":"active","ping":68},{"user_id":68,"name":"Germanium_Ge","steam_id":76561198130561775,"connected_time":3608000000000,"state":"active","ping":58},{"user_id":45,"name":"Larry Penus","steam_id":76561198207546233,"connected_time":4561000000000,"state":"active","ping":39},{"user_id":102,"name":"GogsCrunchyNuts","steam_id":76561198150599213,"connected_time":161000000000,"state":"active","ping":79},{"user_id":90,"name":"Sage-Bong","steam_id":76561198132968103,"connected_time":1700000000000,"state":"active","ping":38},{"user_id":78,"name":"H-say","steam_id":76561198177400362,"connected_time":2665000000000,"state":"active","ping":98},{"user_id":80,"name":"Vershal Smershal","steam_id":76561198116223995,"connected_time":2533000000000,"state":"active","ping":54},{"user_id":58,"name":"mean \u0026 gene","steam_id":76561198088201976,"connected_time":4256000000000,"state":"active","ping":39},{"user_id":95,"name":"joachym (vc muted)","steam_id":76561198428579761,"connected_time":715000000000,"state":"active","ping":99},{"user_id":84,"name":"Edsuedi","steam_id":76561198074722832,"connected_time":2152000000000,"state":"active","ping":60},{"user_id":57,"name":"w+m1","steam_id":76561198010428082,"connected_time":4309000000000,"state":"active","ping":62},{"user_id":92,"name":"Chez","steam_id":76561198148913229,"connected_time":1335000000000,"state":"active","ping":44}]},{"server_id":40,"name":"Uncletopia | London | 7 | Stopwatch","name_short":"lon-7","host":"lon-1.uk.uncletopia.com","port":27075,"enabled":true,"region":"eu","cc":"gb","latitude":51.509865,"longitude":-0.118092,"reserved":0,"last_update":"0001-01-01T00:00:00Z","name_a2s":"Uncletopia | London | 7 | Stopwatch","protocol":17,"map":"cp_gullywash_final1","folder":"tf","game":"Team Fortress","app_id":440,"player_count":0,"max_players":24,"Bots":0,"server_type":"Dedicated","server_os":"Linux","password":true,"vac":true,"version":"7961495","steam_id":85568392924964314,"keywords":["cp","nocrits","nodmgspread","uncletopia"],"game_id":440,"stv_port":27076,"stv_name":"Uncletopia | London | 7 | Stopwatch | STV","players":null},{"server_id":41,"name":"Uncletopia | London | 8 | Community","name_short":"lon-8","host":"lon-1.uk.uncletopia.com","port":27085,"enabled":true,"region":"eu","cc":"gb","latitude":51.509865,"longitude":-0.118092,"reserved":0,"last_update":"0001-01-01T00:00:00Z","name_a2s":"Uncletopia | London | 8 | Community","protocol":17,"map":"workshop/pl_phoenix_b4a.ugc2969509359","folder":"tf","game":"Team Fortress","app_id":440,"player_count":0,"max_players":24,"Bots":0,"server_type":"Dedicated","server_os":"Linux","password":true,"vac":true,"version":"7961495","steam_id":85568392924964315,"keywords":["nocrits","nodmgspread","payload","uncletopia"],"game_id":440,"stv_port":27086,"stv_name":"Uncletopia | London | 8 | Community | STV","players":null},{"server_id":300,"name":"Uncletopia | MontrÃ©al | 1 | One Thousand Uncles","name_short":"mtl-1","host":"mtl-1.ca.uncletopia.com","port":27015,"enabled":true,"region":"us-east","cc":"ca","latitude":45.50889,"longitude":-73.56167,"reserved":0,"last_update":"0001-01-01T00:00:00Z","name_a2s":"Uncletopia | MontrÃ©al | 1 | One Thousand Uncles","protocol":17,"map":"cp_altitude","folder":"tf","game":"Team Fortress","app_id":440,"player_count":23,"max_players":32,"Bots":20,"server_type":"Dedicated","server_os":"Linux","password":true,"vac":true,"version":"7961495","steam_id":85568392924500087,"keywords":["alltalk","bots","cp","danepve","increased_maxplayers","norespawntime","uncletopia"],"game_id":440,"stv_port":0,"stv_name":"","players":[{"user_id":293,"name":"melon soda","steam_id":76561198066748230,"connected_time":345000000000,"state":"active","ping":74},{"user_id":296,"name":"Berlioz","steam_id":76561198040532757,"connected_time":163000000000,"state":"active","ping":97},{"user_id":270,"name":"aofi the flat tgirl","steam_id":76561199172110503,"connected_time":1631000000000,"state":"active","ping":78}]},{"server_id":301,"name":"Uncletopia | MontrÃ©al | 2 | One Thousand Uncles","name_short":"mtl-2","host":"mtl-1.ca.uncletopia.com","port":27025,"enabled":true,"region":"us-east","cc":"ca","latitude":45.50889,"longitude":-73.56167,"reserved":0,"last_update":"0001-01-01T00:00:00Z","name_a2s":"Uncletopia | MontrÃ©al | 2 | One Thousand Uncles","protocol":17,"map":"cp_mossrock","folder":"tf","game":"Team Fortress","app_id":440,"player_count":0,"max_players":32,"Bots":0,"server_type":"Dedicated","server_os":"Linux","password":true,"vac":true,"version":"7961495","steam_id":85568392924500088,"keywords":["alltalk","cp","danepve","increased_maxplayers","norespawntime","uncletopia"],"game_id":440,"stv_port":0,"stv_name":"","players":null},{"server_id":302,"name":"Uncletopia | MontrÃ©al | 3 | One Thousand Uncles","name_short":"mtl-3","host":"mtl-1.ca.uncletopia.com","port":27035,"enabled":true,"region":"us-east","cc":"ca","latitude":45.50889,"longitude":-73.56167,"reserved":0,"last_update":"0001-01-01T00:00:00Z","name_a2s":"Uncletopia | MontrÃ©al | 3 | One Thousand Uncles","protocol":17,"map":"pl_pier","folder":"tf","game":"Team Fortress","app_id":440,"player_count":0,"max_players":32,"Bots":0,"server_type":"Dedicated","server_os":"Linux","password":true,"vac":true,"version":"7961495","steam_id":85568392924500089,"keywords":["alltalk","danepve","increased_maxplayers","norespawntime","payload","uncletopia"],"game_id":440,"stv_port":0,"stv_name":"","players":null},{"server_id":13,"name":"Uncletopia | New York City | 1 | All Maps","name_short":"nyc-1","host":"nyc-1.us.uncletopia.com","port":27015,"enabled":true,"region":"us-east","cc":"us","latitude":40.73061,"longitude":-73.93524,"reserved":0,"last_update":"0001-01-01T00:00:00Z","name_a2s":"Uncletopia | New York City | 1 | All Maps","protocol":17,"map":"pl_swiftwater_final1","folder":"tf","game":"Team Fortress","app_id":440,"player_count":23,"max_players":24,"Bots":0,"server_type":"Dedicated","server_os":"Linux","password":true,"vac":true,"version":"7961495","steam_id":85568392924469993,"keywords":["nocrits","nodmgspread","payload","uncletopia"],"game_id":440,"stv_port":27016,"stv_name":"Uncletopia | New York City | 1 | All Maps | STV","players":[{"user_id":251,"name":"[DataRefracted]","steam_id":76561199262579270,"connected_time":3661000000000,"state":"active","ping":67},{"user_id":277,"name":"sir.lagsalot","steam_id":76561199092203976,"connected_time":1937000000000,"state":"active","ping":52},{"user_id":249,"name":"WibbyOne","steam_id":76561198052843846,"connected_time":3732000000000,"state":"active","ping":38},{"user_id":302,"name":"EVRY0N1","steam_id":76561199507783621,"connected_time":526000000000,"state":"active","ping":153},{"user_id":291,"name":"unripe banana","steam_id":76561198083652447,"connected_time":1219000000000,"state":"active","ping":43},{"user_id":297,"name":"Colgate Connoisseur","steam_id":76561198872596963,"connected_time":680000000000,"state":"active","ping":54},{"user_id":259,"name":"Ramblet","steam_id":76561199026783260,"connected_time":2825000000000,"state":"active","ping":51},{"user_id":296,"name":"cavemanDv","steam_id":76561198111927196,"connected_time":767000000000,"state":"active","ping":78},{"user_id":310,"name":"ExtraSoap","steam_id":76561198008712409,"connected_time":128000000000,"state":"active","ping":52},{"user_id":298,"name":"asu","steam_id":76561197994492154,"connected_time":611000000000,"state":"active","ping":137},{"user_id":268,"name":"FLiP aSiAN coNneCtioNz+-","steam_id":76561198120757569,"connected_time":2455000000000,"state":"active","ping":59},{"user_id":312,"name":"worgeral","steam_id":76561198050781898,"connected_time":32000000000,"state":"active","ping":162},{"user_id":288,"name":"sock","steam_id":76561199117597830,"connected_time":1379000000000,"state":"active","ping":65},{"user_id":301,"name":"bobbymcbobington","steam_id":76561199089411172,"connected_time":539000000000,"state":"active","ping":120},{"user_id":258,"name":"Tony","steam_id":76561198169799653,"connected_time":2927000000000,"state":"active","ping":85},{"user_id":190,"name":"Markus Velafi","steam_id":76561198063193924,"connected_time":8967000000000,"state":"active","ping":64},{"user_id":278,"name":"N4G4S4K1 1S K4RK4L1C1OUS","steam_id":76561199031772797,"connected_time":1853000000000,"state":"active","ping":81},{"user_id":294,"name":"Mork","steam_id":76561197995982863,"connected_time":1105000000000,"state":"active","ping":61},{"user_id":311,"name":"Vitamin","steam_id":76561199375848363,"connected_time":60000000000,"state":"active","ping":53},{"user_id":273,"name":"Artemis","steam_id":76561198973786805,"connected_time":2393000000000,"state":"active","ping":64},{"user_id":281,"name":"Cobalt-60","steam_id":76561199121908507,"connected_time":1633000000000,"state":"active","ping":58},{"user_id":274,"name":"TRANSGENDER ROBOTNIK","steam_id":76561198371941425,"connected_time":2380000000000,"state":"active","ping":54},{"user_id":276,"name":"The Mighty ReeN","steam_id":76561198155114268,"connected_time":2096000000000,"state":"active","ping":76}]},{"server_id":14,"name":"Uncletopia | New York City | 2 | All Maps","name_short":"nyc-2","host":"nyc-1.us.uncletopia.com","port":27025,"enabled":true,"region":"us-east","cc":"us","latitude":40.73061,"longitude":-73.93524,"reserved":0,"last_update":"0001-01-01T00:00:00Z","name_a2s":"Uncletopia | New York City | 2 | All Maps","protocol":17,"map":"pl_badwater","folder":"tf","game":"Team Fortress","app_id":440,"player_count":24,"max_players":24,"Bots":0,"server_type":"Dedicated","server_os":"Linux","password":true,"vac":true,"version":"7961495","steam_id":85568392924469994,"keywords":["nocrits","nodmgspread","payload","uncletopia"],"game_id":440,"stv_port":27026,"stv_name":"Uncletopia | New York City | 2 | All Maps | STV","players":[{"user_id":86,"name":"Reese","steam_id":76561198044035968,"connected_time":4818000000000,"state":"active","ping":76},{"user_id":135,"name":"MR DADDY","steam_id":76561198350794663,"connected_time":795000000000,"state":"active","ping":50},{"user_id":117,"name":"The Washer of Dishes","steam_id":76561198028157625,"connected_time":2829000000000,"state":"active","ping":89},{"user_id":136,"name":"Vayribu","steam_id":76561198104353730,"connected_time":643000000000,"state":"active","ping":80},{"user_id":151,"name":"BigDoinks","steam_id":76561198081816884,"connected_time":120000000000,"state":"active","ping":56},{"user_id":142,"name":"A Cat","steam_id":76561198221549132,"connected_time":443000000000,"state":"active","ping":116},{"user_id":130,"name":"âœªType_Alpha","steam_id":76561198122780598,"connected_time":1162000000000,"state":"active","ping":51},{"user_id":140,"name":"Cat_Man","steam_id":76561198351634599,"connected_time":505000000000,"state":"active","ping":56},{"user_id":138,"name":"ButYouDisagree","steam_id":76561198044128052,"connected_time":571000000000,"state":"active","ping":50},{"user_id":141,"name":"Nerf Clean Hit","steam_id":76561198257691881,"connected_time":492000000000,"state":"active","ping":79},{"user_id":126,"name":"Berb","steam_id":76561198193911899,"connected_time":1452000000000,"state":"active","ping":79},{"user_id":143,"name":"yumyum","steam_id":76561198150567198,"connected_time":437000000000,"state":"active","ping":42},{"user_id":150,"name":"horsie áƒ¦","steam_id":76561198323217150,"connected_time":260000000000,"state":"active","ping":75},{"user_id":152,"name":"Kritzburgh","steam_id":76561198149466938,"connected_time":97000000000,"state":"active","ping":51},{"user_id":134,"name":"xZoroarkgaming","steam_id":76561199199302865,"connected_time":891000000000,"state":"active","ping":70},{"user_id":131,"name":"[DD] | Serial Designation N","steam_id":76561198445739792,"connected_time":1157000000000,"state":"active","ping":49},{"user_id":144,"name":"mojarotho","steam_id":76561199408837308,"connected_time":400000000000,"state":"active","ping":180},{"user_id":145,"name":"Poopisviel Von Einzbern","steam_id":76561198259260433,"connected_time":377000000000,"state":"active","ping":81},{"user_id":146,"name":"diegoCTM","steam_id":76561199374455727,"connected_time":365000000000,"state":"active","ping":156},{"user_id":118,"name":"Scooter O'Boyl","steam_id":76561197971687069,"connected_time":2135000000000,"state":"active","ping":55},{"user_id":147,"name":"MurpAMurp","steam_id":76561198374437261,"connected_time":354000000000,"state":"active","ping":94},{"user_id":148,"name":"BRONY POWER","steam_id":76561198075510786,"connected_time":351000000000,"state":"active","ping":105},{"user_id":123,"name":"kairOs.fk","steam_id":76561197972421260,"connected_time":1742000000000,"state":"active","ping":44},{"user_id":149,"name":"Jae","steam_id":76561198042030231,"connected_time":344000000000,"state":"active","ping":89}]},{"server_id":15,"name":"Uncletopia | New York City | 3 | Stopwatch","name_short":"nyc-3","host":"nyc-1.us.uncletopia.com","port":27035,"enabled":true,"region":"us-east","cc":"us","latitude":40.73061,"longitude":-73.93524,"reserved":0,"last_update":"0001-01-01T00:00:00Z","name_a2s":"Uncletopia | New York City | 3 | Stopwatch","protocol":17,"map":"workshop/koth_bagel_rc6.ugc2514036946","folder":"tf","game":"Team Fortress","app_id":440,"player_count":0,"max_players":24,"Bots":0,"server_type":"Dedicated","server_os":"Linux","password":true,"vac":true,"version":"7961495","steam_id":85568392924742820,"keywords":["cp","nocrits","nodmgspread","uncletopia"],"game_id":440,"stv_port":27036,"stv_name":"Uncletopia | New York City | 3 | Stopwatch | STV","players":null},{"server_id":16,"name":"Uncletopia | New York City | 4 | Community","name_short":"nyc-4","host":"nyc-1.us.uncletopia.com","port":27045,"enabled":true,"region":"us-east","cc":"us","latitude":40.73061,"longitude":-73.93524,"reserved":0,"last_update":"0001-01-01T00:00:00Z","name_a2s":"Uncletopia | New York City | 4 | Community","protocol":17,"map":"workshop/koth_ashville_final.ugc2130459942","folder":"tf","game":"Team Fortress","app_id":440,"player_count":0,"max_players":24,"Bots":0,"server_type":"Dedicated","server_os":"Linux","password":true,"vac":true,"version":"7961495","steam_id":85568392924742821,"keywords":["cp","nocrits","nodmgspread","uncletopia"],"game_id":440,"stv_port":27046,"stv_name":"Uncletopia | New York City | 4 | Community | STV","players":null},{"server_id":142,"name":"Uncletopia | SÃ£o Paulo | 1 | All Maps","name_short":"sao-1","host":"sao-1.br.uncletopia.com","port":27015,"enabled":true,"region":"sa","cc":"br","latitude":-23.533773,"longitude":-46.62529,"reserved":0,"last_update":"0001-01-01T00:00:00Z","name_a2s":"Uncletopia | SÃ£o Paulo | 1 | All Maps","protocol":17,"map":"cp_mountainlab","folder":"tf","game":"Team Fortress","app_id":440,"player_count":1,"max_players":24,"Bots":0,"server_type":"Dedicated","server_os":"Linux","password":true,"vac":true,"version":"7961495","steam_id":85568392924469996,"keywords":["cp","nocrits","nodmgspread","uncletopia"],"game_id":440,"stv_port":27016,"stv_name":"Uncletopia | SÃ£o Paulo | 1 | All Maps | STV","players":[{"user_id":8,"name":"Thompy, o cactoriano","steam_id":76561199409024712,"connected_time":206000000000,"state":"active","ping":61}]},{"server_id":143,"name":"Uncletopia | SÃ£o Paulo | 2 | Community","name_short":"sao-2","host":"sao-2.br.uncletopia.com","port":27015,"enabled":true,"region":"sa","cc":"br","latitude":-23.533773,"longitude":-46.62529,"reserved":0,"last_update":"0001-01-01T00:00:00Z","name_a2s":"Uncletopia | SÃ£o Paulo | 2 | Community","protocol":17,"map":"workshop/koth_slaughter_rc1.ugc1712845210","folder":"tf","game":"Team Fortress","app_id":440,"player_count":0,"max_players":24,"Bots":0,"server_type":"Dedicated","server_os":"Linux","password":true,"vac":true,"version":"7961495","steam_id":85568392924485349,"keywords":["cp","nocrits","nodmgspread","uncletopia"],"game_id":440,"stv_port":27016,"stv_name":"Uncletopia | SÃ£o Paulo | 2 | Community | STV","players":null},{"server_id":7,"name":"Uncletopia | Seattle | 1 | All Maps","name_short":"sea-1","host":"sea-1.us.uncletopia.com","port":27015,"enabled":true,"region":"us-west","cc":"us","latitude":47.608013,"longitude":-122.33517,"reserved":0,"last_update":"0001-01-01T00:00:00Z","name_a2s":"Uncletopia | Seattle | 1 | All Maps","protocol":17,"map":"ctf_landfall","folder":"tf","game":"Team Fortress","app_id":440,"player_count":24,"max_players":24,"Bots":0,"server_type":"Dedicated","server_os":"Linux","password":true,"vac":true,"version":"7961495","steam_id":85568392924469997,"keywords":["nocrits","nodmgspread","payload","uncletopia"],"game_id":440,"stv_port":27016,"stv_name":"Uncletopia | Seattle | 1 | All Maps | STV","players":[{"user_id":472,"name":"jayeskae","steam_id":76561198144220801,"connected_time":317000000000,"state":"connecting","ping":64},{"user_id":468,"name":"Tomplaysgames","steam_id":76561198936527316,"connected_time":380000000000,"state":"connecting","ping":102},{"user_id":465,"name":"jack_airshots","steam_id":76561198252328518,"connected_time":791000000000,"state":"connecting","ping":113},{"user_id":446,"name":"thunderous prophet","steam_id":76561198131166135,"connected_time":2630000000000,"state":"connecting","ping":41},{"user_id":460,"name":"Callahan","steam_id":76561197976928457,"connected_time":1176000000000,"state":"connecting","ping":60},{"user_id":422,"name":"dust | it/she","steam_id":76561198045218909,"connected_time":5338000000000,"state":"connecting","ping":56},{"user_id":403,"name":"Cheezbeargur","steam_id":76561198164702899,"connected_time":7080000000000,"state":"connecting","ping":76},{"user_id":435,"name":"Sasha The Foxgirl","steam_id":76561198018403555,"connected_time":3395000000000,"state":"connecting","ping":51},{"user_id":425,"name":"DaddyGalaxy","steam_id":76561198139697796,"connected_time":4799000000000,"state":"connecting","ping":78},{"user_id":469,"name":"UnReLinked","steam_id":76561199366044663,"connected_time":358000000000,"state":"connecting","ping":125},{"user_id":419,"name":"Preston","steam_id":76561198255721392,"connected_time":5500000000000,"state":"connecting","ping":157},{"user_id":456,"name":"Hannah!","steam_id":76561198405865400,"connected_time":1236000000000,"state":"connecting","ping":114},{"user_id":475,"name":"Greskrendtregk","steam_id":76561197969553142,"connected_time":57000000000,"state":"connecting","ping":60},{"user_id":408,"name":"Shit (REAL)","steam_id":76561198206490352,"connected_time":6821000000000,"state":"connecting","ping":91},{"user_id":466,"name":"fishtank.live","steam_id":76561198280085840,"connected_time":714000000000,"state":"connecting","ping":87},{"user_id":454,"name":"zinnk","steam_id":76561198092081825,"connected_time":1251000000000,"state":"connecting","ping":63},{"user_id":461,"name":"goos  e","steam_id":76561198036774894,"connected_time":1125000000000,"state":"connecting","ping":68},{"user_id":453,"name":"-_-","steam_id":76561199190800520,"connected_time":1318000000000,"state":"connecting","ping":47},{"user_id":474,"name":"jello","steam_id":76561199274158922,"connected_time":176000000000,"state":"connecting","ping":67},{"user_id":452,"name":"Wavelengths","steam_id":76561197997621320,"connected_time":1539000000000,"state":"connecting","ping":95},{"user_id":477,"name":"the pizza","steam_id":76561198221331476,"connected_time":18000000000,"state":"connecting","ping":54},{"user_id":473,"name":"MORE BOUNCE TO THE OUNCE","steam_id":76561198243399336,"connected_time":297000000000,"state":"connecting","ping":93},{"user_id":459,"name":"Trips","steam_id":76561198054581597,"connected_time":1201000000000,"state":"connecting","ping":79},{"user_id":471,"name":"Imitation Caucasian","steam_id":76561198320536166,"connected_time":350000000000,"state":"connecting","ping":122}]},{"server_id":119,"name":"Uncletopia | Seattle | 2 | All Maps","name_short":"sea-2","host":"sea-1.us.uncletopia.com","port":27025,"enabled":true,"region":"us-west","cc":"us","latitude":47.608013,"longitude":-122.33517,"reserved":0,"last_update":"0001-01-01T00:00:00Z","name_a2s":"Uncletopia | Seattle | 2 | All Maps","protocol":17,"map":"pl_borneo","folder":"tf","game":"Team Fortress","app_id":440,"player_count":3,"max_players":24,"Bots":0,"server_type":"Dedicated","server_os":"Linux","password":true,"vac":true,"version":"7961495","steam_id":85568392924469998,"keywords":["nocrits","nodmgspread","payload","uncletopia"],"game_id":440,"stv_port":27026,"stv_name":"Uncletopia | Seattle | 2 | All Maps | STV","players":[{"user_id":38,"name":"sofa   king","steam_id":76561198106849547,"connected_time":2235000000000,"state":"active","ping":101},{"user_id":39,"name":"artemisjackson2","steam_id":76561199094686268,"connected_time":2128000000000,"state":"active","ping":140},{"user_id":42,"name":"DocValentyne (Dr. Coomer)","steam_id":76561199217303810,"connected_time":245000000000,"state":"active","ping":52}]},{"server_id":406,"name":"Uncletopia | Seattle | 3 | Stopwatch","name_short":"sea-3","host":"sea-1.us.uncletopia.com","port":27035,"enabled":true,"region":"us-west","cc":"us","latitude":47.608013,"longitude":-122.33517,"reserved":0,"last_update":"0001-01-01T00:00:00Z","name_a2s":"Uncletopia | Seattle | 3 | Stopwatch","protocol":17,"map":"cp_gullywash_final1","folder":"tf","game":"Team Fortress","app_id":440,"player_count":0,"max_players":24,"Bots":0,"server_type":"Dedicated","server_os":"Linux","password":true,"vac":true,"version":"7961495","steam_id":85568392924515217,"keywords":["cp","nocrits","nodmgspread","uncletopia"],"game_id":440,"stv_port":27036,"stv_name":"Uncletopia | Seattle | 3 | Stopwatch | STV","players":null},{"server_id":17,"name":"Uncletopia | San Francisco | 1 | All Maps","name_short":"sfo-1","host":"sfo-1.us.uncletopia.com","port":27015,"enabled":true,"region":"us-west","cc":"us","latitude":37.77397,"longitude":-122.4313,"reserved":0,"last_update":"0001-01-01T00:00:00Z","name_a2s":"Uncletopia | San Francisco | 1 | All Maps","protocol":17,"map":"cp_altitude","folder":"tf","game":"Team Fortress","app_id":440,"player_count":0,"max_players":24,"Bots":0,"server_type":"Dedicated","server_os":"Linux","password":true,"vac":true,"version":"7961495","steam_id":85568392924469999,"keywords":["cp","nocrits","nodmgspread","uncletopia"],"game_id":440,"stv_port":27016,"stv_name":"Uncletopia | San Francisco | 1 | All Maps | STV","players":null},{"server_id":18,"name":"Uncletopia | San Francisco | 2 | All Maps","name_short":"sfo-2","host":"sfo-1.us.uncletopia.com","port":27025,"enabled":true,"region":"us-west","cc":"us","latitude":37.77397,"longitude":-122.4313,"reserved":0,"last_update":"0001-01-01T00:00:00Z","name_a2s":"Uncletopia | San Francisco | 2 | All Maps","protocol":17,"map":"cp_mountainlab","folder":"tf","game":"Team Fortress","app_id":440,"player_count":0,"max_players":24,"Bots":0,"server_type":"Dedicated","server_os":"Linux","password":true,"vac":true,"version":"7961495","steam_id":85568392924470000,"keywords":["cp","nocrits","nodmgspread","uncletopia"],"game_id":440,"stv_port":27026,"stv_name":"Uncletopia | San Francisco | 2 | All Maps | STV","players":null},{"server_id":19,"name":"Uncletopia | San Francisco | 3 | Stopwatch","name_short":"sfo-3","host":"sfo-1.us.uncletopia.com","port":27035,"enabled":true,"region":"us-west","cc":"us","latitude":37.77397,"longitude":-122.4313,"reserved":0,"last_update":"0001-01-01T00:00:00Z","name_a2s":"Uncletopia | San Francisco | 3 | Stopwatch","protocol":17,"map":"workshop/koth_clearcut_b15.ugc2107050255","folder":"tf","game":"Team Fortress","app_id":440,"player_count":0,"max_players":24,"Bots":0,"server_type":"Dedicated","server_os":"Linux","password":true,"vac":true,"version":"7961495","steam_id":85568392924742824,"keywords":["cp","nocrits","nodmgspread","uncletopia"],"game_id":440,"stv_port":27036,"stv_name":"Uncletopia | San Francisco | 3 | Stopwatch | STV","players":null},{"server_id":20,"name":"Uncletopia | San Francisco | 4 | Community","name_short":"sfo-4","host":"sfo-1.us.uncletopia.com","port":27045,"enabled":true,"region":"us-west","cc":"us","latitude":37.77397,"longitude":-122.4313,"reserved":0,"last_update":"0001-01-01T00:00:00Z","name_a2s":"Uncletopia | San Francisco | 4 | Community","protocol":17,"map":"workshop/cp_reckoner_rc6.ugc674719999","folder":"tf","game":"Team Fortress","app_id":440,"player_count":0,"max_players":24,"Bots":0,"server_type":"Dedicated","server_os":"Linux","password":true,"vac":true,"version":"7961495","steam_id":85568392924742826,"keywords":["cp","nocrits","nodmgspread","uncletopia"],"game_id":440,"stv_port":27046,"stv_name":"Uncletopia | San Francisco | 4 | Community | STV","players":null},{"server_id":141,"name":"Uncletopia | Sydney | 1 | All Maps","name_short":"syd-1","host":"syd-1.au.uncletopia.com","port":27015,"enabled":true,"region":"au","cc":"au","latitude":-33.865143,"longitude":151.2099,"reserved":0,"last_update":"0001-01-01T00:00:00Z","name_a2s":"Uncletopia | Sydney | 1 | All Maps","protocol":17,"map":"cp_altitude","folder":"tf","game":"Team Fortress","app_id":440,"player_count":0,"max_players":24,"Bots":0,"server_type":"Dedicated","server_os":"Linux","password":true,"vac":true,"version":"7961495","steam_id":85568392924470001,"keywords":["cp","nocrits","nodmgspread","uncletopia"],"game_id":440,"stv_port":27016,"stv_name":"Uncletopia | Sydney | 1 | All Maps | STV","players":null},{"server_id":123,"name":"Uncletopia | Sydney | 2 | All Maps","name_short":"syd-2","host":"syd-1.au.uncletopia.com","port":27025,"enabled":true,"region":"au","cc":"au","latitude":-33.865143,"longitude":151.2099,"reserved":0,"last_update":"0001-01-01T00:00:00Z","name_a2s":"Uncletopia | Sydney | 2 | All Maps","protocol":17,"map":"cp_mercenarypark","folder":"tf","game":"Team Fortress","app_id":440,"player_count":0,"max_players":24,"Bots":0,"server_type":"Dedicated","server_os":"Linux","password":true,"vac":true,"version":"7961495","steam_id":85568392924470002,"keywords":["cp","nocrits","nodmgspread","uncletopia"],"game_id":440,"stv_port":27026,"stv_name":"Uncletopia | Sydney | 2 | All Maps | STV","players":null},{"server_id":395,"name":"Uncletopia | Sydney | 3 | All Maps","name_short":"syd-3","host":"syd-1.au.uncletopia.com","port":27035,"enabled":true,"region":"au","cc":"au","latitude":-33.865143,"longitude":151.2099,"reserved":0,"last_update":"0001-01-01T00:00:00Z","name_a2s":"Uncletopia | Sydney | 3 | All Maps","protocol":17,"map":"koth_brazil","folder":"tf","game":"Team Fortress","app_id":440,"player_count":0,"max_players":24,"Bots":0,"server_type":"Dedicated","server_os":"Linux","password":true,"vac":true,"version":"7961495","steam_id":85568392925194467,"keywords":["cp","nocrits","nodmgspread","uncletopia"],"game_id":440,"stv_port":27036,"stv_name":"Uncletopia | Sydney | 3 | All Maps | STV","players":null},{"server_id":396,"name":"Uncletopia | Sydney | 4 | All Maps","name_short":"syd-4","host":"syd-1.au.uncletopia.com","port":27045,"enabled":true,"region":"au","cc":"au","latitude":-33.865143,"longitude":151.2099,"reserved":0,"last_update":"0001-01-01T00:00:00Z","name_a2s":"Uncletopia | Sydney | 4 | All Maps","protocol":17,"map":"cp_standin_final","folder":"tf","game":"Team Fortress","app_id":440,"player_count":0,"max_players":24,"Bots":0,"server_type":"Dedicated","server_os":"Linux","password":true,"vac":true,"version":"7961495","steam_id":85568392925397958,"keywords":["cp","nocrits","nodmgspread","uncletopia"],"game_id":440,"stv_port":27046,"stv_name":"Uncletopia | Sydney | 4 | All Maps | STV","players":null},{"server_id":58,"name":"Uncletopia | Sydney | 5 | Stopwatch","name_short":"syd-5","host":"syd-1.au.uncletopia.com","port":27055,"enabled":true,"region":"au","cc":"au","latitude":-33.865143,"longitude":151.2099,"reserved":0,"last_update":"0001-01-01T00:00:00Z","name_a2s":"Uncletopia | Sydney | 5 | Stopwatch","protocol":17,"map":"koth_highpass","folder":"tf","game":"Team Fortress","app_id":440,"player_count":0,"max_players":24,"Bots":0,"server_type":"Dedicated","server_os":"Linux","password":true,"vac":true,"version":"7961495","steam_id":85568392925397959,"keywords":["cp","nocrits","nodmgspread","uncletopia"],"game_id":440,"stv_port":27056,"stv_name":"Uncletopia | Sydney | 5 | Stopwatch | STV","players":null},{"server_id":59,"name":"Uncletopia | Sydney | 6 | Community","name_short":"syd-6","host":"syd-1.au.uncletopia.com","port":27065,"enabled":true,"region":"au","cc":"au","latitude":-33.865143,"longitude":151.2099,"reserved":0,"last_update":"0001-01-01T00:00:00Z","name_a2s":"Uncletopia | Sydney | 6 | Community","protocol":17,"map":"workshop/koth_soot_final1.ugc2969540689","folder":"tf","game":"Team Fortress","app_id":440,"player_count":0,"max_players":24,"Bots":0,"server_type":"Dedicated","server_os":"Linux","password":true,"vac":true,"version":"7961495","steam_id":85568392925397960,"keywords":["cp","nocrits","nodmgspread","uncletopia"],"game_id":440,"stv_port":27066,"stv_name":"Uncletopia | Sydney | 6 | Community | STV","players":null},{"server_id":49,"name":"Uncletopia | Warsaw | 1 | One Thousand Uncles","name_short":"waw-1","host":"waw-1.pl.uncletopia.com","port":27015,"enabled":true,"region":"eu","cc":"pl","latitude":52.2297,"longitude":21.017532,"reserved":0,"last_update":"0001-01-01T00:00:00Z","name_a2s":"Uncletopia | Warsaw | 1 | One Thousand Uncles","protocol":17,"map":"pl_goldrush","folder":"tf","game":"Team Fortress","app_id":440,"player_count":28,"max_players":32,"Bots":20,"server_type":"Dedicated","server_os":"Linux","password":true,"vac":true,"version":"7961495","steam_id":85568392925397850,"keywords":["alltalk","bots","danepve","increased_maxplayers","norespawntime","payload","uncletopia"],"game_id":440,"stv_port":0,"stv_name":"","players":[{"user_id":226,"name":"Rayco","steam_id":76561198048013129,"connected_time":401000000000,"state":"active","ping":70},{"user_id":211,"name":"ChaosCadence","steam_id":76561198446324621,"connected_time":5408000000000,"state":"active","ping":77},{"user_id":220,"name":"slimcake07","steam_id":76561198826766828,"connected_time":2195000000000,"state":"active","ping":87},{"user_id":223,"name":"The Fire Pyro","steam_id":76561198300296457,"connected_time":987000000000,"state":"active","ping":78},{"user_id":224,"name":"CyberMat","steam_id":76561198043598646,"connected_time":536000000000,"state":"active","ping":50},{"user_id":225,"name":"cheesecake hunter","steam_id":76561198097769060,"connected_time":416000000000,"state":"active","ping":79},{"user_id":227,"name":"Uncle Foreskin","steam_id":76561199044887226,"connected_time":277000000000,"state":"active","ping":31},{"user_id":228,"name":"G.L.O.R.I.","steam_id":76561198134414380,"connected_time":214000000000,"state":"active","ping":74}]},{"server_id":50,"name":"Uncletopia | Warsaw | 2 | One Thousand Uncles","name_short":"waw-2","host":"waw-1.pl.uncletopia.com","port":27025,"enabled":true,"region":"eu","cc":"pl","latitude":52.2297,"longitude":21.017532,"reserved":0,"last_update":"0001-01-01T00:00:00Z","name_a2s":"Uncletopia | Warsaw | 2 | One Thousand Uncles","protocol":17,"map":"pl_goldrush","folder":"tf","game":"Team Fortress","app_id":440,"player_count":22,"max_players":32,"Bots":20,"server_type":"Dedicated","server_os":"Linux","password":true,"vac":true,"version":"7961495","steam_id":85568392925397851,"keywords":["alltalk","bots","danepve","increased_maxplayers","norespawntime","payload","uncletopia"],"game_id":440,"stv_port":0,"stv_name":"","players":[{"user_id":472,"name":"Poacher :D","steam_id":76561199215988218,"connected_time":176000000000,"state":"active","ping":101},{"user_id":513,"name":"Meerkat","steam_id":76561199245435539,"connected_time":52000000000,"state":"spawning","ping":225}]},{"server_id":51,"name":"Uncletopia | Warsaw | 3 | All Maps","name_short":"waw-3","host":"waw-1.pl.uncletopia.com","port":27035,"enabled":true,"region":"eu","cc":"pl","latitude":52.2297,"longitude":21.017532,"reserved":0,"last_update":"0001-01-01T00:00:00Z","name_a2s":"Uncletopia | Warsaw | 3 | All Maps","protocol":17,"map":"koth_viaduct","folder":"tf","game":"Team Fortress","app_id":440,"player_count":0,"max_players":24,"Bots":0,"server_type":"Dedicated","server_os":"Linux","password":true,"vac":true,"version":"7961495","steam_id":85568392925397852,"keywords":["cp","nocrits","nodmgspread","uncletopia"],"game_id":440,"stv_port":27036,"stv_name":"Uncletopia | Warsaw | 3 | All Maps | STV","players":null},{"server_id":52,"name":"Uncletopia | Warsaw | 4 | All Maps","name_short":"waw-4","host":"waw-1.pl.uncletopia.com","port":27045,"enabled":true,"region":"eu","cc":"pl","latitude":52.2297,"longitude":21.017532,"reserved":0,"last_update":"0001-01-01T00:00:00Z","name_a2s":"Uncletopia | Warsaw | 4 | All Maps","protocol":17,"map":"pl_pier","folder":"tf","game":"Team Fortress","app_id":440,"player_count":0,"max_players":24,"Bots":0,"server_type":"Dedicated","server_os":"Linux","password":true,"vac":true,"version":"7961495","steam_id":85568392925397853,"keywords":["nocrits","nodmgspread","payload","uncletopia"],"game_id":440,"stv_port":27046,"stv_name":"Uncletopia | Warsaw | 4 | All Maps | STV","players":null},{"server_id":53,"name":"Uncletopia | Warsaw | 5 | Stopwatch","name_short":"waw-5","host":"waw-1.pl.uncletopia.com","port":27055,"enabled":true,"region":"eu","cc":"pl","latitude":52.2297,"longitude":21.017532,"reserved":0,"last_update":"0001-01-01T00:00:00Z","name_a2s":"Uncletopia | Warsaw | 5 | Stopwatch","protocol":17,"map":"koth_lakeside_final","folder":"tf","game":"Team Fortress","app_id":440,"player_count":0,"max_players":24,"Bots":0,"server_type":"Dedicated","server_os":"Linux","password":true,"vac":true,"version":"7961495","steam_id":85568392925397854,"keywords":["cp","nocrits","nodmgspread","uncletopia"],"game_id":440,"stv_port":27056,"stv_name":"Uncletopia | Warsaw | 5 | Stopwatch | STV","players":null},{"server_id":54,"name":"Uncletopia | Warsaw | 6 | Community","name_short":"waw-6","host":"waw-1.pl.uncletopia.com","port":27065,"enabled":true,"region":"eu","cc":"pl","latitude":52.2297,"longitude":21.017532,"reserved":0,"last_update":"0001-01-01T00:00:00Z","name_a2s":"Uncletopia | Warsaw | 6 | Community","protocol":17,"map":"workshop/koth_bagel_rc6.ugc2514036946","folder":"tf","game":"Team Fortress","app_id":440,"player_count":0,"max_players":24,"Bots":0,"server_type":"Dedicated","server_os":"Linux","password":true,"vac":true,"version":"7961495","steam_id":85568392925397856,"keywords":["cp","nocrits","nodmgspread","uncletopia"],"game_id":440,"stv_port":27066,"stv_name":"Uncletopia | Warsaw | 6 | Community | STV","players":null}]}