{"status":true,"message":"","result":[{"server_id":9,"name":"Uncletopia | Atlanta | 1 | All Maps","name_short":"atl-1","host":"atl-1.us.uncletopia.com","port":27015,"enabled":true,"region":"us-east","cc":"us","latitude":33.753746,"longitude":-84.38633,"reserved":0,"last_update":"0001-01-01T00:00:00Z","name_a2s":"Uncletopia | Atlanta | 1 | All Maps","protocol":17,"map":"pl_swiftwater_final1","folder":"tf","game":"Team Fortress","app_id":440,"player_count":24,"max_players":24,"Bots":0,"server_type":"Dedicated","server_os":"Linux","password":true,"vac":true,"version":"7757534","steam_id":85568392924469982,"keywords":["nocrits","nodmgspread","payload","uncletopia"],"game_id":440,"stv_port":27016,"stv_name":"Uncletopia | Atlanta | 1 | All Maps | STV","players":[{"user_id":265,"name":"kite","steam_id":76561198346516392,"connected_time":280000000000,"state":"active","ping":102},{"user_id":269,"name":"BLU1 l Epifiny","steam_id":76561198027958086,"connected_time":269000000000,"state":"active","ping":86},{"user_id":259,"name":"Coffee with a Stranger","steam_id":76561198307422313,"connected_time":1397000000000,"state":"active","ping":65},{"user_id":264,"name":"General Jimbo","steam_id":76561198075426735,"connected_time":420000000000,"state":"active","ping":83},{"user_id":274,"name":"wonkytookthethrone","steam_id":76561199190356691,"connected_time":158000000000,"state":"active","ping":85},{"user_id":212,"name":"Towns","steam_id":76561198984662863,"connected_time":4838000000000,"state":"active","ping":60},{"user_id":270,"name":"Taco","steam_id":76561198158621392,"connected_time":247000000000,"state":"active","ping":75},{"user_id":246,"name":"Nyx","steam_id":76561198046768602,"connected_time":2660000000000,"state":"active","ping":70},{"user_id":271,"name":"Hertz","steam_id":76561198245322982,"connected_time":240000000000,"state":"active","ping":37},{"user_id":201,"name":"DrBenjas","steam_id":76561198345883103,"connected_time":6087000000000,"state":"active","ping":117},{"user_id":258,"name":"The Undead Knight","steam_id":76561198010654500,"connected_time":1511000000000,"state":"active","ping":74},{"user_id":257,"name":"ATL1 | Kramer","steam_id":76561198083595936,"connected_time":1612000000000,"state":"active","ping":73},{"user_id":230,"name":"Phupperbat","steam_id":76561198098441032,"connected_time":3913000000000,"state":"active","ping":73},{"user_id":267,"name":"Dreszerg","steam_id":76561198838757422,"connected_time":279000000000,"state":"active","ping":80},{"user_id":272,"name":"Jeff Pesos","steam_id":76561198086379892,"connected_time":221000000000,"state":"active","ping":91},{"user_id":253,"name":"RED1 | p4ka","steam_id":76561198315291317,"connected_time":1964000000000,"state":"active","ping":74},{"user_id":252,"name":"RED1 | ma0re","steam_id":76561199231971506,"connected_time":2359000000000,"state":"active","ping":65},{"user_id":184,"name":"Bottom Trans Cowgirl","steam_id":76561198304239680,"connected_time":7856000000000,"state":"active","ping":69},{"user_id":262,"name":"Scrawny Cannibal","steam_id":76561198019695394,"connected_time":915000000000,"state":"active","ping":66},{"user_id":260,"name":"blu lil hog","steam_id":76561199230929836,"connected_time":1390000000000,"state":"active","ping":74},{"user_id":273,"name":"A Getaway Submarine","steam_id":76561199145662306,"connected_time":221000000000,"state":"active","ping":81},{"user_id":254,"name":"Dude bro","steam_id":76561198249916746,"connected_time":1870000000000,"state":"active","ping":60},{"user_id":261,"name":"gNarNar","steam_id":76561197994505205,"connected_time":1372000000000,"state":"active","ping":73},{"user_id":256,"name":"RED1 | Lylith!!!","steam_id":76561198386687546,"connected_time":1798000000000,"state":"active","ping":50}]},{"server_id":400,"name":"Uncletopia | Atlanta | 3 | Community","name_short":"atl-3","host":"atl-1.us.uncletopia.com","port":27035,"enabled":true,"region":"us-east","cc":"us","latitude":33.753746,"longitude":-84.38633,"reserved":0,"last_update":"0001-01-01T00:00:00Z","name_a2s":"Uncletopia | Atlanta | 3 | Community","protocol":17,"map":"workshop/pl_emerge_rc2.ugc888027758","folder":"tf","game":"Team Fortress","app_id":440,"player_count":0,"max_players":24,"Bots":0,"server_type":"Dedicated","server_os":"Linux","password":true,"vac":true,"version":"7757534","steam_id":85568392924515187,"keywords":["nocrits","nodmgspread","payload","uncletopia"],"game_id":440,"stv_port":27036,"stv_name":"Uncletopia | Atlanta | 3 | Community | STV","players":null},{"server_id":401,"name":"Uncletopia | Atlanta | 4 | No Payload","name_short":"atl-4","host":"atl-1.us.uncletopia.com","port":27045,"enabled":true,"region":"us-east","cc":"us","latitude":33.753746,"longitude":-84.38633,"reserved":0,"last_update":"0001-01-01T00:00:00Z","name_a2s":"","protocol":0,"map":"","folder":"","game":"","app_id":0,"player_count":0,"max_players":0,"Bots":0,"server_type":"","server_os":"","password":false,"vac":false,"version":"","steam_id":0,"keywords":null,"game_id":0,"stv_port":0,"stv_name":"","players":null},{"server_id":2,"name":"Uncletopia | Chicago | 1 | All Maps","name_short":"chi-1","host":"chi-1.us.uncletopia.com","port":27015,"enabled":true,"region":"us-central","cc":"us","latitude":41.881832,"longitude":-87.62318,"reserved":0,"last_update":"0001-01-01T00:00:00Z","name_a2s":"Uncletopia | Chicago | 1 | All Maps","protocol":17,"map":"pl_barnblitz","folder":"tf","game":"Team Fortress","app_id":440,"player_count":24,"max_players":24,"Bots":0,"server_type":"Dedicated","server_os":"Linux","password":true,"vac":true,"version":"7757534","steam_id":85568392924469984,"keywords":["nocrits","nodmgspread","payload","uncletopia"],"game_id":440,"stv_port":27016,"stv_name":"Uncletopia | Chicago | 1 | All Maps | STV","players":[{"user_id":511,"name":"Ciaphas Cain","steam_id":76561198185598330,"connected_time":263000000000,"state":"active","ping":83},{"user_id":480,"name":"IDKonnie","steam_id":76561198317602350,"connected_time":2375000000000,"state":"active","ping":89},{"user_id":491,"name":"Candy Sparkles","steam_id":76561198126871264,"connected_time":2079000000000,"state":"active","ping":85},{"user_id":513,"name":"Animal Slices","steam_id":76561198137545511,"connected_time":89000000000,"state":"active","ping":50},{"user_id":510,"name":"Sheppy","steam_id":76561198295126940,"connected_time":434000000000,"state":"active","ping":65},{"user_id":503,"name":"an inebriated newt fancier","steam_id":76561197985428155,"connected_time":1622000000000,"state":"active","ping":59},{"user_id":508,"name":"Real Pete the cat","steam_id":76561199153114723,"connected_time":561000000000,"state":"active","ping":97},{"user_id":455,"name":"stop","steam_id":76561198268686419,"connected_time":5094000000000,"state":"active","ping":56},{"user_id":477,"name":"bird","steam_id":76561199144340440,"connected_time":2449000000000,"state":"active","ping":66},{"user_id":499,"name":"Frost","steam_id":76561198953970191,"connected_time":1681000000000,"state":"active","ping":62},{"user_id":506,"name":"Steadman Slick","steam_id":76561198092633444,"connected_time":1045000000000,"state":"active","ping":42},{"user_id":496,"name":"Hylic","steam_id":76561199051314589,"connected_time":1729000000000,"state":"active","ping":60},{"user_id":512,"name":"Fallbourn","steam_id":76561197994851732,"connected_time":173000000000,"state":"active","ping":65},{"user_id":509,"name":"Queen Frau the Round","steam_id":76561197999942134,"connected_time":486000000000,"state":"active","ping":46},{"user_id":474,"name":"bhop","steam_id":76561198064885639,"connected_time":3315000000000,"state":"active","ping":83},{"user_id":487,"name":"Wallish","steam_id":76561198057175636,"connected_time":2211000000000,"state":"active","ping":104},{"user_id":501,"name":"Lavender","steam_id":76561198142770666,"connected_time":1667000000000,"state":"active","ping":61},{"user_id":469,"name":"Antknee","steam_id":76561198263793809,"connected_time":4058000000000,"state":"active","ping":77},{"user_id":504,"name":"Perfume Department","steam_id":76561198128299594,"connected_time":1444000000000,"state":"active","ping":103},{"user_id":505,"name":"All 24 Pok√©mon movies at once","steam_id":76561198164738311,"connected_time":1436000000000,"state":"active","ping":61},{"user_id":507,"name":"cosmik","steam_id":76561198071193180,"connected_time":945000000000,"state":"active","ping":76},{"user_id":467,"name":"floppy muppet","steam_id":76561198003076261,"connected_time":4086000000000,"state":"active","ping":81},{"user_id":486,"name":"superx","steam_id":76561198044976613,"connected_time":2344000000000,"state":"active","ping":73},{"user_id":494,"name":"Tostada","steam_id":76561198383206211,"connected_time":1875000000000,"state":"active","ping":659}]},{"server_id":106,"name":"Uncletopia | Chicago | 2 | All Maps","name_short":"chi-2","host":"chi-1.us.uncletopia.com","port":27025,"enabled":true,"region":"us-central","cc":"us","latitude":41.881832,"longitude":-87.62318,"reserved":0,"last_update":"0001-01-01T00:00:00Z","name_a2s":"Uncletopia | Chicago | 2 | All Maps","protocol":17,"map":"pl_upward","folder":"tf","game":"Team Fortress","app_id":440,"player_count":24,"max_players":24,"Bots":0,"server_type":"Dedicated","server_os":"Linux","password":true,"vac":true,"version":"7757534","steam_id":85568392924469985,"keywords":["nocrits","nodmgspread","payload","uncletopia"],"game_id":440,"stv_port":27026,"stv_name":"Uncletopia | Chicago | 2 | All Maps | STV","players":[{"user_id":12,"name":"username","steam_id":76561198130826890,"connected_time":9489000000000,"state":"active","ping":85},{"user_id":13,"name":"SR388","steam_id":76561199172178689,"connected_time":9438000000000,"state":"active","ping":106},{"user_id":107,"name":"Dylanardo","steam_id":76561198294726950,"connected_time":3266000000000,"state":"active","ping":79},{"user_id":108,"name":"White Noiz","steam_id":76561198116408865,"connected_time":3259000000000,"state":"active","ping":70},{"user_id":159,"name":"Smeller","steam_id":76561198041767882,"connected_time":772000000000,"state":"active","ping":58},{"user_id":143,"name":"swissy","steam_id":76561198806135761,"connected_time":1511000000000,"state":"active","ping":60},{"user_id":149,"name":"Phos","steam_id":76561198117237068,"connected_time":1164000000000,"state":"active","ping":72},{"user_id":141,"name":"Getting sloppy at High Hrothgar","steam_id":76561198202195792,"connected_time":1546000000000,"state":"active","ping":58},{"user_id":162,"name":"Cinderace:)","steam_id":76561198132899671,"connected_time":212000000000,"state":"active","ping":48},{"user_id":155,"name":"Bronze Age GRINDSET","steam_id":76561198859118263,"connected_time":1039000000000,"state":"active","ping":60},{"user_id":81,"name":"Sunvaar","steam_id":76561198852679851,"connected_time":5278000000000,"state":"active","ping":69},{"user_id":157,"name":"Satori Komeiji","steam_id":76561198158211423,"connected_time":937000000000,"state":"active","ping":103},{"user_id":57,"name":"Hernandez$","steam_id":76561198019324588,"connected_time":7261000000000,"state":"active","ping":91},{"user_id":72,"name":"McGangBang","steam_id":76561198862379865,"connected_time":6065000000000,"state":"active","ping":60},{"user_id":129,"name":"Pheasant President","steam_id":76561198315295873,"connected_time":2267000000000,"state":"active","ping":105},{"user_id":160,"name":"David De Bergerac","steam_id":76561198010306294,"connected_time":771000000000,"state":"active","ping":83},{"user_id":153,"name":"Lesbian Chungus","steam_id":76561198055964295,"connected_time":1075000000000,"state":"active","ping":74},{"user_id":163,"name":"forgetmenot","steam_id":76561198078395002,"connected_time":23000000000,"state":"active","ping":62},{"user_id":164,"name":"help","steam_id":76561198085206684,"connected_time":21000000000,"state":"spawning","ping":73},{"user_id":84,"name":"Pennis the Menace","steam_id":76561198254878037,"connected_time":5260000000000,"state":"active","ping":70},{"user_id":165,"name":"Booker","steam_id":76561198065120639,"connected_time":3000000000,"state":"spawning","ping":122},{"user_id":158,"name":"Back with the milk","steam_id":76561199020105501,"connected_time":799000000000,"state":"active","ping":61},{"user_id":145,"name":"Dokkibai","steam_id":76561198355935693,"connected_time":1308000000000,"state":"active","ping":91},{"user_id":154,"name":"Seller of Waffles","steam_id":76561198296018138,"connected_time":1071000000000,"state":"active","ping":74}]},{"server_id":402,"name":"Uncletopia | Chicago | 3 | All Maps","name_short":"chi-3","host":"chi-1.us.uncletopia.com","port":27035,"enabled":true,"region":"us-central","cc":"us","latitude":41.881832,"longitude":-87.62318,"reserved":0,"last_update":"0001-01-01T00:00:00Z","name_a2s":"Uncletopia | Chicago | 3 | All Maps","protocol":17,"map":"koth_lakeside_final","folder":"tf","game":"Team Fortress","app_id":440,"player_count":0,"max_players":24,"Bots":0,"server_type":"Dedicated","server_os":"Linux","password":true,"vac":true,"version":"7757534","steam_id":85568392924515191,"keywords":["cp","nocrits","nodmgspread","uncletopia"],"game_id":440,"stv_port":27036,"stv_name":"Uncletopia | Chicago | 3 | All Maps | STV","players":null},{"server_id":403,"name":"Uncletopia | Chicago | 4 | All Maps","name_short":"chi-4","host":"chi-1.us.uncletopia.com","port":27045,"enabled":true,"region":"us-central","cc":"us","latitude":41.881832,"longitude":-87.62318,"reserved":0,"last_update":"0001-01-01T00:00:00Z","name_a2s":"Uncletopia | Chicago | 4 | All Maps","protocol":17,"map":"pl_pier","folder":"tf","game":"Team Fortress","app_id":440,"player_count":24,"max_players":24,"Bots":0,"server_type":"Dedicated","server_os":"Linux","password":true,"vac":true,"version":"7757534","steam_id":85568392924515193,"keywords":["nocrits","nodmgspread","payload","uncletopia"],"game_id":440,"stv_port":27046,"stv_name":"Uncletopia | Chicago | 4 | All Maps | STV","players":[{"user_id":223,"name":"Glad","steam_id":76561199388372220,"connected_time":304000000000,"state":"active","ping":69},{"user_id":190,"name":"november","steam_id":76561198042748172,"connected_time":2191000000000,"state":"active","ping":34},{"user_id":220,"name":"weewa","steam_id":76561198064876090,"connected_time":495000000000,"state":"active","ping":73},{"user_id":226,"name":"Carbine God","steam_id":76561198807349782,"connected_time":212000000000,"state":"active","ping":83},{"user_id":206,"name":"Captain Bug","steam_id":76561198137763878,"connected_time":1394000000000,"state":"active","ping":85},{"user_id":162,"name":"pinglefingle","steam_id":76561198216580197,"connected_time":4538000000000,"state":"active","ping":98},{"user_id":200,"name":"gettysburg","steam_id":76561198016157051,"connected_time":2018000000000,"state":"active","ping":67},{"user_id":211,"name":"LunaError","steam_id":76561198040603999,"connected_time":856000000000,"state":"active","ping":78},{"user_id":212,"name":"a1ex","steam_id":76561198341411993,"connected_time":825000000000,"state":"active","ping":71},{"user_id":216,"name":"Sir Iasis","steam_id":76561198035666760,"connected_time":771000000000,"state":"active","ping":68},{"user_id":192,"name":"K4le","steam_id":76561198747668363,"connected_time":2169000000000,"state":"active","ping":114},{"user_id":208,"name":"SpinetinglingToast","steam_id":76561198099470670,"connected_time":1103000000000,"state":"active","ping":68},{"user_id":193,"name":"TrustyGun","steam_id":76561198022854020,"connected_time":2163000000000,"state":"active","ping":74},{"user_id":213,"name":"defs98","steam_id":76561198134813102,"connected_time":825000000000,"state":"active","ping":61},{"user_id":194,"name":"Byte9291","steam_id":76561198044313374,"connected_time":2158000000000,"state":"active","ping":97},{"user_id":178,"name":"Kyrisuu","steam_id":76561198362711064,"connected_time":3171000000000,"state":"active","ping":68},{"user_id":214,"name":"your local forecast","steam_id":76561198042243083,"connected_time":824000000000,"state":"active","ping":74},{"user_id":196,"name":"Pine Tree","steam_id":76561198112323877,"connected_time":2103000000000,"state":"active","ping":89},{"user_id":222,"name":":)","steam_id":76561198093921290,"connected_time":389000000000,"state":"active","ping":47},{"user_id":225,"name":"Macko","steam_id":76561198452005461,"connected_time":278000000000,"state":"active","ping":81},{"user_id":210,"name":"LynnLantern","steam_id":76561198116326726,"connected_time":1081000000000,"state":"active","ping":60},{"user_id":219,"name":"Im totally a hacker","steam_id":76561198888005736,"connected_time":740000000000,"state":"active","ping":74},{"user_id":133,"name":"steve","steam_id":76561198170409402,"connected_time":6228000000000,"state":"active","ping":154},{"user_id":199,"name":"conscripted monk","steam_id":76561199029246232,"connected_time":2075000000000,"state":"active","ping":74}]},{"server_id":36,"name":"Uncletopia | Chicago | 5 | All Maps","name_short":"chi-5","host":"chi-2.us.uncletopia.com","port":27015,"enabled":true,"region":"us-central","cc":"us","latitude":41.881832,"longitude":-87.62318,"reserved":0,"last_update":"0001-01-01T00:00:00Z","name_a2s":"Uncletopia | Chicago | 5 | All Maps","protocol":17,"map":"koth_cascade","folder":"tf","game":"Team Fortress","app_id":440,"player_count":1,"max_players":24,"Bots":0,"server_type":"Dedicated","server_os":"Linux","password":true,"vac":true,"version":"7757534","steam_id":85568392924866362,"keywords":["cp","nocrits","nodmgspread","uncletopia"],"game_id":440,"stv_port":27016,"stv_name":"Uncletopia | Chicago | 5 | All Maps | STV","players":[{"user_id":5,"name":"Bob the gamer","steam_id":76561199382337377,"connected_time":88000000000,"state":"active","ping":66}]},{"server_id":37,"name":"Uncletopia | Chicago | 6 | All Maps","name_short":"chi-6","host":"chi-2.us.uncletopia.com","port":27025,"enabled":true,"region":"us-central","cc":"us","latitude":41.881832,"longitude":-87.62318,"reserved":0,"last_update":"0001-01-01T00:00:00Z","name_a2s":"Uncletopia | Chicago | 6 | All Maps","protocol":17,"map":"pl_upward","folder":"tf","game":"Team Fortress","app_id":440,"player_count":24,"max_players":24,"Bots":0,"server_type":"Dedicated","server_os":"Linux","password":true,"vac":true,"version":"7757534","steam_id":85568392924866363,"keywords":["nocrits","nodmgspread","payload","uncletopia"],"game_id":440,"stv_port":27026,"stv_name":"Uncletopia | Chicago | 6 | All Maps | STV","players":[{"user_id":472,"name":"Stock Medic","steam_id":76561198065479730,"connected_time":3716000000000,"state":"active","ping":45},{"user_id":483,"name":"rage","steam_id":76561198208213491,"connected_time":3071000000000,"state":"active","ping":56},{"user_id":486,"name":"creal","steam_id":76561198127116199,"connected_time":2609000000000,"state":"active","ping":49},{"user_id":503,"name":"Hombre Lobo","steam_id":76561198074810309,"connected_time":1798000000000,"state":"active","ping":101},{"user_id":510,"name":"Swifgz","steam_id":76561198162875756,"connected_time":712000000000,"state":"active","ping":63},{"user_id":506,"name":"grey","steam_id":76561198050618142,"connected_time":856000000000,"state":"active","ping":93},{"user_id":523,"name":"i bited YOUR pebnis","steam_id":76561199133028932,"connected_time":195000000000,"state":"active","ping":45},{"user_id":515,"name":"soundwave | sfm comms open!","steam_id":76561198454725718,"connected_time":590000000000,"state":"active","ping":51},{"user_id":507,"name":"Hooded","steam_id":76561198160319183,"connected_time":791000000000,"state":"active","ping":106},{"user_id":474,"name":"Best_Garbage","steam_id":76561199070436446,"connected_time":3673000000000,"state":"active","ping":83},{"user_id":475,"name":"Jovyel","steam_id":76561198118777065,"connected_time":3550000000000,"state":"active","ping":84},{"user_id":519,"name":"pathulhu","steam_id":76561198323941614,"connected_time":253000000000,"state":"active","ping":76},{"user_id":497,"name":"Hell's Reindeer","steam_id":76561198065310364,"connected_time":2000000000000,"state":"active","ping":54},{"user_id":512,"name":"gasparmx","steam_id":76561197998611994,"connected_time":683000000000,"state":"active","ping":109},{"user_id":516,"name":"Socialist Andy","steam_id":76561198400452950,"connected_time":589000000000,"state":"active","ping":65},{"user_id":521,"name":"YEEEOUCH my pebnis!!!","steam_id":76561198079416036,"connected_time":227000000000,"state":"active","ping":45},{"user_id":501,"name":"Skully","steam_id":76561198379310733,"connected_time":1844000000000,"state":"active","ping":86},{"user_id":518,"name":"ballsack gaming","steam_id":76561198117839474,"connected_time":519000000000,"state":"active","ping":61},{"user_id":522,"name":"chara","steam_id":76561198356483977,"connected_time":222000000000,"state":"active","ping":111},{"user_id":508,"name":"A Gas Salesman!","steam_id":76561198081877626,"connected_time":743000000000,"state":"active","ping":68},{"user_id":524,"name":"The Trash Man","steam_id":76561198071375772,"connected_time":160000000000,"state":"active","ping":55},{"user_id":526,"name":"itsyourpardner","steam_id":76561198354062821,"connected_time":135000000000,"state":"active","ping":65},{"user_id":527,"name":"Tyrone","steam_id":76561198189429665,"connected_time":124000000000,"state":"active","ping":75},{"user_id":490,"name":"may (punished)","steam_id":76561198195828454,"connected_time":2253000000000,"state":"active","ping":66}]},{"server_id":38,"name":"Uncletopia | Chicago | 7 | Stopwatch Beta","name_short":"chi-7","host":"chi-2.us.uncletopia.com","port":27035,"enabled":true,"region":"us-central","cc":"us","latitude":41.881832,"longitude":-87.62318,"reserved":0,"last_update":"0001-01-01T00:00:00Z","name_a2s":"Uncletopia | Chicago | 7 | Stopwatch Beta","protocol":17,"map":"workshop/koth_product_final.ugc454272353","folder":"tf","game":"Team Fortress","app_id":440,"player_count":0,"max_players":24,"Bots":0,"server_type":"Dedicated","server_os":"Linux","password":true,"vac":true,"version":"7757534","steam_id":85568392924866364,"keywords":["cp","nocrits","nodmgspread","uncletopia"],"game_id":440,"stv_port":27036,"stv_name":"Uncletopia | Chicago | 7 | Stopwatch Beta | STV","players":null},{"server_id":39,"name":"Uncletopia | Chicago | 8 | Community","name_short":"chi-8","host":"chi-2.us.uncletopia.com","port":27045,"enabled":true,"region":"us-central","cc":"us","latitude":41.881832,"longitude":-87.62318,"reserved":0,"last_update":"0001-01-01T00:00:00Z","name_a2s":"Uncletopia | Chicago | 8 | Community","protocol":17,"map":"workshop/pl_badwater_pro_v12.ugc2142942074","folder":"tf","game":"Team Fortress","app_id":440,"player_count":0,"max_players":24,"Bots":0,"server_type":"Dedicated","server_os":"Linux","password":true,"vac":true,"version":"7757534","steam_id":85568392924866365,"keywords":["nocrits","nodmgspread","payload","uncletopia"],"game_id":440,"stv_port":27046,"stv_name":"Uncletopia | Chicago | 8 | Community | STV","players":null},{"server_id":8,"name":"Uncletopia | Dallas | 1 | All Maps","name_short":"dal-1","host":"dal-1.us.uncletopia.com","port":27015,"enabled":true,"region":"us-central","cc":"us","latitude":32.779167,"longitude":-96.80889,"reserved":0,"last_update":"0001-01-01T00:00:00Z","name_a2s":"Uncletopia | Dallas | 1 | All Maps","protocol":17,"map":"koth_cascade","folder":"tf","game":"Team Fortress","app_id":440,"player_count":0,"max_players":24,"Bots":0,"server_type":"Dedicated","server_os":"Linux","password":true,"vac":true,"version":"7757534","steam_id":85568392924469986,"keywords":["cp","nocrits","nodmgspread","uncletopia"],"game_id":440,"stv_port":27016,"stv_name":"Uncletopia | Dallas | 1 | All Maps | STV","players":null},{"server_id":108,"name":"Uncletopia | Dallas | 2 | All Maps","name_short":"dal-2","host":"dal-1.us.uncletopia.com","port":27025,"enabled":true,"region":"us-central","cc":"us","latitude":32.779167,"longitude":-96.80889,"reserved":0,"last_update":"0001-01-01T00:00:00Z","name_a2s":"Uncletopia | Dallas | 2 | All Maps","protocol":17,"map":"cp_sunshine","folder":"tf","game":"Team Fortress","app_id":440,"player_count":0,"max_players":24,"Bots":0,"server_type":"Dedicated","server_os":"Linux","password":true,"vac":true,"version":"7757534","steam_id":85568392924469988,"keywords":["cp","nocrits","nodmgspread","uncletopia"],"game_id":440,"stv_port":27026,"stv_name":"Uncletopia | Dallas | 2 | All Maps | STV","players":null},{"server_id":5,"name":"Uncletopia | Frankfurt | 1 | All Maps","name_short":"frk-1","host":"frk-1.de.uncletopia.com","port":27015,"enabled":true,"region":"eu","cc":"de","latitude":50.110924,"longitude":8.682127,"reserved":0,"last_update":"0001-01-01T00:00:00Z","name_a2s":"Uncletopia | Frankfurt | 1 | All Maps","protocol":17,"map":"pl_barnblitz","folder":"tf","game":"Team Fortress","app_id":440,"player_count":0,"max_players":24,"Bots":0,"server_type":"Dedicated","server_os":"Linux","password":true,"vac":true,"version":"7757534","steam_id":85568392924469989,"keywords":["nocrits","nodmgspread","payload","uncletopia"],"game_id":440,"stv_port":27016,"stv_name":"Uncletopia | Frankfurt | 1 | All Maps | STV","players":null},{"server_id":110,"name":"Uncletopia | Frankfurt | 2 | All Maps","name_short":"frk-2","host":"frk-1.de.uncletopia.com","port":27025,"enabled":true,"region":"eu","cc":"de","latitude":50.110924,"longitude":8.682127,"reserved":0,"last_update":"0001-01-01T00:00:00Z","name_a2s":"Uncletopia | Frankfurt | 2 | All Maps","protocol":17,"map":"pl_borneo","folder":"tf","game":"Team Fortress","app_id":440,"player_count":24,"max_players":24,"Bots":0,"server_type":"Dedicated","server_os":"Linux","password":true,"vac":true,"version":"7757534","steam_id":85568392924469990,"keywords":["nocrits","nodmgspread","payload","uncletopia"],"game_id":440,"stv_port":27026,"stv_name":"Uncletopia | Frankfurt | 2 | All Maps | STV","players":[{"user_id":614,"name":"HOI","steam_id":76561198061182117,"connected_time":1001000000000,"state":"active","ping":61},{"user_id":615,"name":"Snowmotion","steam_id":76561198075022454,"connected_time":887000000000,"state":"active","ping":59},{"user_id":618,"name":"skittles","steam_id":76561198028107584,"connected_time":521000000000,"state":"active","ping":60},{"user_id":620,"name":"a mimir","steam_id":76561198184881255,"connected_time":360000000000,"state":"active","ping":71},{"user_id":586,"name":"Lana\u003c3","steam_id":76561199137602241,"connected_time":2648000000000,"state":"active","ping":76},{"user_id":616,"name":"i always miss","steam_id":76561199379233899,"connected_time":800000000000,"state":"active","ping":89},{"user_id":587,"name":"Acanda","steam_id":76561198123246537,"connected_time":2641000000000,"state":"active","ping":54},{"user_id":590,"name":"Redsy","steam_id":76561198360088412,"connected_time":2613000000000,"state":"active","ping":135},{"user_id":607,"name":"GregerUlander","steam_id":76561198152375055,"connected_time":1943000000000,"state":"active","ping":85},{"user_id":601,"name":"prophane nightmares","steam_id":76561197998803950,"connected_time":2283000000000,"state":"active","ping":51},{"user_id":612,"name":"Dizzy","steam_id":76561198010192462,"connected_time":1255000000000,"state":"active","ping":56},{"user_id":619,"name":"Dkz","steam_id":76561197970673402,"connected_time":510000000000,"state":"active","ping":60},{"user_id":575,"name":"Walle","steam_id":76561197995148937,"connected_time":4021000000000,"state":"active","ping":71},{"user_id":582,"name":"Carl","steam_id":76561198045638738,"connected_time":3542000000000,"state":"active","ping":70},{"user_id":600,"name":"LionKing","steam_id":76561198023399545,"connected_time":2408000000000,"state":"active","ping":59},{"user_id":545,"name":"Mike Kerman","steam_id":76561198038257570,"connected_time":5571000000000,"state":"active","ping":84},{"user_id":604,"name":"Only Jerry","steam_id":76561198075722968,"connected_time":2049000000000,"state":"active","ping":60},{"user_id":546,"name":"Dr. Jabbinton","steam_id":76561198180007387,"connected_time":5567000000000,"state":"active","ping":47},{"user_id":613,"name":"Sheerluck Holmes","steam_id":76561198051161936,"connected_time":1255000000000,"state":"active","ping":63},{"user_id":585,"name":"Mr. Clean","steam_id":76561198355128010,"connected_time":2759000000000,"state":"active","ping":76},{"user_id":557,"name":"bANji","steam_id":76561198108898161,"connected_time":4995000000000,"state":"active","ping":44},{"user_id":605,"name":"Gregtheworm","steam_id":76561198027836151,"connected_time":2045000000000,"state":"active","ping":60},{"user_id":606,"name":"lvl. 50 honkler","steam_id":76561198061688660,"connected_time":2026000000000,"state":"active","ping":100},{"user_id":610,"name":"_Starlight_","steam_id":76561197993885738,"connected_time":1768000000000,"state":"active","ping":93}]},{"server_id":308,"name":"Uncletopia | Frankfurt | 3 | All Maps","name_short":"frk-3","host":"frk-1.de.uncletopia.com","port":27035,"enabled":true,"region":"eu","cc":"de","latitude":50.110924,"longitude":8.682127,"reserved":0,"last_update":"0001-01-01T00:00:00Z","name_a2s":"Uncletopia | Frankfurt | 3 | All Maps","protocol":17,"map":"cp_badlands","folder":"tf","game":"Team Fortress","app_id":440,"player_count":24,"max_players":24,"Bots":0,"server_type":"Dedicated","server_os":"Linux","password":true,"vac":true,"version":"7757534","steam_id":85568392924504274,"keywords":["cp","nocrits","nodmgspread","uncletopia"],"game_id":440,"stv_port":27036,"stv_name":"Uncletopia | Frankfurt | 3 | All Maps | STV","players":[{"user_id":298,"name":"BROKEN_MIC","steam_id":76561198310031791,"connected_time":2671000000000,"state":"active","ping":76},{"user_id":317,"name":"hananamanna","steam_id":76561198006570285,"connected_time":1667000000000,"state":"active","ping":112},{"user_id":330,"name":"SOONMAN","steam_id":76561198060067117,"connected_time":17000000000,"state":"active","ping":91},{"user_id":316,"name":"ToTenLis","steam_id":76561198168581334,"connected_time":1763000000000,"state":"active","ping":90},{"user_id":326,"name":"Cuthbert","steam_id":76561198204649481,"connected_time":1059000000000,"state":"active","ping":100},{"user_id":315,"name":"FoOzTV","steam_id":76561197998636728,"connected_time":1805000000000,"state":"active","ping":73},{"user_id":320,"name":"8 Ball","steam_id":76561197960988736,"connected_time":1553000000000,"state":"active","ping":60},{"user_id":325,"name":"Dean Craig Pelton From Communit","steam_id":76561198155010055,"connected_time":1094000000000,"state":"active","ping":123},{"user_id":289,"name":"Vitun Jonne","steam_id":76561198401737380,"connected_time":2865000000000,"state":"active","ping":57},{"user_id":123,"name":"nyanezt","steam_id":76561198253734265,"connected_time":14950000000000,"state":"active","ping":91},{"user_id":244,"name":"ralek","steam_id":76561198337027746,"connected_time":7607000000000,"state":"active","ping":91},{"user_id":307,"name":"AFerociousTeddyBearSlayer","steam_id":76561198247447256,"connected_time":2402000000000,"state":"active","ping":55},{"user_id":267,"name":"Arcad","steam_id":76561198059786891,"connected_time":5051000000000,"state":"active","ping":92},{"user_id":323,"name":"cloud","steam_id":76561198179768931,"connected_time":1429000000000,"state":"active","ping":61},{"user_id":327,"name":"Flex","steam_id":76561197970482191,"connected_time":539000000000,"state":"active","ping":61},{"user_id":324,"name":"Temporon","steam_id":76561198035031928,"connected_time":1139000000000,"state":"active","ping":60},{"user_id":286,"name":"washed up","steam_id":76561198275742101,"connected_time":3297000000000,"state":"active","ping":55},{"user_id":329,"name":"Old Hat","steam_id":76561197994673297,"connected_time":65000000000,"state":"active","ping":62},{"user_id":301,"name":"Makromatick","steam_id":76561198320596418,"connected_time":2664000000000,"state":"active","ping":85},{"user_id":321,"name":"joe","steam_id":76561198026484403,"connected_time":1545000000000,"state":"active","ping":74},{"user_id":299,"name":"Banehallow","steam_id":76561198020385353,"connected_time":2670000000000,"state":"active","ping":73},{"user_id":302,"name":"htraB","steam_id":76561198043122677,"connected_time":2661000000000,"state":"active","ping":60},{"user_id":328,"name":"makiverem","steam_id":76561198425866216,"connected_time":393000000000,"state":"active","ping":82},{"user_id":303,"name":"Silent Person","steam_id":76561198107763537,"connected_time":2661000000000,"state":"active","ping":70}]},{"server_id":309,"name":"Uncletopia | Frankfurt | 4 | All Maps","name_short":"frk-4","host":"frk-1.de.uncletopia.com","port":27045,"enabled":true,"region":"eu","cc":"de","latitude":50.110924,"longitude":8.682127,"reserved":0,"last_update":"0001-01-01T00:00:00Z","name_a2s":"Uncletopia | Frankfurt | 4 | All Maps","protocol":17,"map":"pl_barnblitz","folder":"tf","game":"Team Fortress","app_id":440,"player_count":24,"max_players":24,"Bots":0,"server_type":"Dedicated","server_os":"Linux","password":true,"vac":true,"version":"7757534","steam_id":85568392924504275,"keywords":["nocrits","nodmgspread","payload","uncletopia"],"game_id":440,"stv_port":27046,"stv_name":"Uncletopia | Frankfurt | 4 | All Maps | STV","players":[{"user_id":229,"name":"KittyKate ‚ù§","steam_id":76561198116340817,"connected_time":1961000000000,"state":"active","ping":59},{"user_id":268,"name":"topli","steam_id":76561198046175657,"connected_time":24000000000,"state":"active","ping":306},{"user_id":200,"name":"Volterion #SaveTf2","steam_id":76561198293088484,"connected_time":3854000000000,"state":"active","ping":61},{"user_id":245,"name":"Elon Ma","steam_id":76561199018053264,"connected_time":1251000000000,"state":"active","ping":70},{"user_id":235,"name":"PAN","steam_id":76561198118671779,"connected_time":1741000000000,"state":"active","ping":63},{"user_id":263,"name":"Joe","steam_id":76561198061717026,"connected_time":476000000000,"state":"active","ping":58},{"user_id":261,"name":"DiracDeltaFunction","steam_id":76561199201624841,"connected_time":514000000000,"state":"active","ping":99},{"user_id":209,"name":"Hegyi tah√≥ F2P","steam_id":76561199219150356,"connected_time":3598000000000,"state":"active","ping":86},{"user_id":247,"name":"homeinvasion$","steam_id":76561199111905021,"connected_time":1243000000000,"state":"active","ping":114},{"user_id":262,"name":"‚Ä¢stepbro‚Ä¢","steam_id":76561198119607160,"connected_time":499000000000,"state":"active","ping":66},{"user_id":243,"name":"Raulca25","steam_id":76561199068256964,"connected_time":1314000000000,"state":"active","ping":82},{"user_id":238,"name":"BuzzBees ‚ù§","steam_id":76561198101502273,"connected_time":1599000000000,"state":"active","ping":60},{"user_id":248,"name":"Minigrim0","steam_id":76561198087819466,"connected_time":1230000000000,"state":"active","ping":75},{"user_id":255,"name":"Wir suchen dich!","steam_id":76561198307613521,"connected_time":972000000000,"state":"active","ping":45},{"user_id":231,"name":"giclure :;","steam_id":76561197986362828,"connected_time":1865000000000,"state":"active","ping":53},{"user_id":237,"name":"Bastard'Nick","steam_id":76561198044044651,"connected_time":1604000000000,"state":"active","ping":73},{"user_id":234,"name":"HelwiiHill","steam_id":76561198066730552,"connected_time":1790000000000,"state":"active","ping":91},{"user_id":256,"name":"Zero (Orbital Gear Mastermind)","steam_id":76561198017416816,"connected_time":959000000000,"state":"active","ping":60},{"user_id":202,"name":"Spoody #JustPassing","steam_id":76561198031523769,"connected_time":3853000000000,"state":"active","ping":45},{"user_id":267,"name":"KissMen","steam_id":76561198064115286,"connected_time":101000000000,"state":"active","ping":62},{"user_id":244,"name":"Ipercoop‚Ñ¢ - Gaming Channel","steam_id":76561198265722644,"connected_time":1256000000000,"state":"active","ping":75},{"user_id":266,"name":"ùñíùñîùñíùñíùê≤üñ§x_x","steam_id":76561199204257697,"connected_time":148000000000,"state":"active","ping":72},{"user_id":264,"name":"Koleisus","steam_id":76561198045374646,"connected_time":288000000000,"state":"active","ping":59},{"user_id":265,"name":"sendviƒç","steam_id":76561198097712283,"connected_time":209000000000,"state":"active","ping":90}]},{"server_id":310,"name":"Uncletopia | Frankfurt | 5 | All Maps","name_short":"frk-5","host":"frk-1.de.uncletopia.com","port":27055,"enabled":true,"region":"eu","cc":"de","latitude":50.110924,"longitude":8.682127,"reserved":0,"last_update":"0001-01-01T00:00:00Z","name_a2s":"Uncletopia | Frankfurt | 5 | All Maps","protocol":17,"map":"cp_steel","folder":"tf","game":"Team Fortress","app_id":440,"player_count":22,"max_players":24,"Bots":0,"server_type":"Dedicated","server_os":"Linux","password":true,"vac":true,"version":"7757534","steam_id":85568392924504277,"keywords":["cp","nocrits","nodmgspread","uncletopia"],"game_id":440,"stv_port":27056,"stv_name":"Uncletopia | Frankfurt | 5 | All Maps | STV","players":[{"user_id":209,"name":"Mozza","steam_id":76561198035915570,"connected_time":1018000000000,"state":"active","ping":75},{"user_id":165,"name":"‚àö(-Wolf)","steam_id":76561198024769704,"connected_time":4210000000000,"state":"active","ping":95},{"user_id":208,"name":"Bell","steam_id":76561199454586928,"connected_time":1040000000000,"state":"active","ping":120},{"user_id":195,"name":"Yelowchy","steam_id":76561198199416121,"connected_time":2271000000000,"state":"active","ping":63},{"user_id":180,"name":"CevaAltceva","steam_id":76561198112195193,"connected_time":3429000000000,"state":"active","ping":79},{"user_id":221,"name":"MAKENTAKEN","steam_id":76561199127359587,"connected_time":30000000000,"state":"active","ping":112},{"user_id":182,"name":"GoodOldJack12","steam_id":76561198100910669,"connected_time":3388000000000,"state":"active","ping":68},{"user_id":144,"name":"Pixie","steam_id":76561198044038797,"connected_time":5085000000000,"state":"active","ping":88},{"user_id":200,"name":"penisfinger","steam_id":76561198103904286,"connected_time":1444000000000,"state":"active","ping":68},{"user_id":207,"name":"Ged","steam_id":76561198079288943,"connected_time":1052000000000,"state":"active","ping":121},{"user_id":220,"name":"ChickyCoop","steam_id":76561199072983488,"connected_time":65000000000,"state":"active","ping":79},{"user_id":189,"name":"DELTA","steam_id":76561198208237017,"connected_time":2775000000000,"state":"active","ping":81},{"user_id":201,"name":"doctor sex","steam_id":76561198343097164,"connected_time":1411000000000,"state":"active","ping":96},{"user_id":170,"name":"Carrot Arc","steam_id":76561198164957006,"connected_time":3955000000000,"state":"active","ping":87},{"user_id":187,"name":"WHUSSKEY","steam_id":76561198137827441,"connected_time":3274000000000,"state":"active","ping":73},{"user_id":212,"name":"DM_Tiz","steam_id":76561198061478257,"connected_time":907000000000,"state":"active","ping":49},{"user_id":213,"name":"Hexagon","steam_id":76561198151205758,"connected_time":899000000000,"state":"active","ping":45},{"user_id":214,"name":"VioBeeyo ‚ô•","steam_id":76561198066258544,"connected_time":863000000000,"state":"active","ping":56},{"user_id":219,"name":"Hood","steam_id":76561199229682408,"connected_time":71000000000,"state":"active","ping":47},{"user_id":215,"name":"Micha≈Ç","steam_id":76561198320346362,"connected_time":842000000000,"state":"active","ping":55},{"user_id":216,"name":"ChameLi0N","steam_id":76561197993701003,"connected_time":823000000000,"state":"active","ping":164},{"user_id":217,"name":"Djingis Khan","steam_id":76561197967864460,"connected_time":820000000000,"state":"active","ping":49}]},{"server_id":311,"name":"Uncletopia | Frankfurt | 6 | All Maps","name_short":"frk-6","host":"frk-1.de.uncletopia.com","port":27065,"enabled":true,"region":"eu","cc":"de","latitude":50.110924,"longitude":8.682127,"reserved":0,"last_update":"0001-01-01T00:00:00Z","name_a2s":"Uncletopia | Frankfurt | 6 | All Maps","protocol":17,"map":"pl_frontier_final","folder":"tf","game":"Team Fortress","app_id":440,"player_count":0,"max_players":24,"Bots":0,"server_type":"Dedicated","server_os":"Linux","password":true,"vac":true,"version":"7757534","steam_id":85568392924504278,"keywords":["nocrits","nodmgspread","payload","uncletopia"],"game_id":440,"stv_port":27066,"stv_name":"Uncletopia | Frankfurt | 6 | All Maps | STV","players":null},{"server_id":23,"name":"Uncletopia | Frankfurt | 7 | Stopwatch Beta","name_short":"frk-7","host":"frk-1.de.uncletopia.com","port":27075,"enabled":true,"region":"eu","cc":"de","latitude":50.110924,"longitude":8.682127,"reserved":0,"last_update":"0001-01-01T00:00:00Z","name_a2s":"Uncletopia | Frankfurt | 7 | Stopwatch Beta","protocol":17,"map":"pl_frontier_final","folder":"tf","game":"Team Fortress","app_id":440,"player_count":0,"max_players":24,"Bots":0,"server_type":"Dedicated","server_os":"Linux","password":true,"vac":true,"version":"7757534","steam_id":85568392924742827,"keywords":["nocrits","nodmgspread","payload","uncletopia"],"game_id":440,"stv_port":27076,"stv_name":"Uncletopia | Frankfurt | 7 | Stopwatch Beta | STV","players":null},{"server_id":24,"name":"Uncletopia | Frankfurt | 8 | Community","name_short":"frk-8","host":"frk-1.de.uncletopia.com","port":27085,"enabled":true,"region":"eu","cc":"de","latitude":50.110924,"longitude":8.682127,"reserved":0,"last_update":"0001-01-01T00:00:00Z","name_a2s":"Uncletopia | Frankfurt | 8 | Community","protocol":17,"map":"workshop/pl_emerge_rc2.ugc888027758","folder":"tf","game":"Team Fortress","app_id":440,"player_count":0,"max_players":24,"Bots":0,"server_type":"Dedicated","server_os":"Linux","password":true,"vac":true,"version":"7757534","steam_id":85568392924742828,"keywords":["nocrits","nodmgspread","payload","uncletopia"],"game_id":440,"stv_port":27086,"stv_name":"Uncletopia | Frankfurt | 8 | Community | STV","players":null},{"server_id":202,"name":"Uncletopia | Hong Kong | 1 | All Maps","name_short":"hgk-1","host":"hgk-1.hk.uncletopia.com","port":27015,"enabled":true,"region":"asia","cc":"hk","latitude":22.302711,"longitude":114.177216,"reserved":0,"last_update":"0001-01-01T00:00:00Z","name_a2s":"Uncletopia | Hong Kong | 1 | All Maps","protocol":17,"map":"koth_viaduct","folder":"tf","game":"Team Fortress","app_id":440,"player_count":0,"max_players":24,"Bots":0,"server_type":"Dedicated","server_os":"Linux","password":true,"vac":true,"version":"7757534","steam_id":85568392924494504,"keywords":["cp","nocrits","nodmgspread","uncletopia"],"game_id":440,"stv_port":27016,"stv_name":"Uncletopia | Hong Kong | 1 | All Maps | STV","players":null},{"server_id":1,"name":"Uncletopia | Los Angeles | 1 | All Maps","name_short":"lax-1","host":"lax-1.us.uncletopia.com","port":27015,"enabled":true,"region":"us-west","cc":"us","latitude":33.94279,"longitude":-118.41004,"reserved":0,"last_update":"0001-01-01T00:00:00Z","name_a2s":"Uncletopia | Los Angeles | 1 | All Maps","protocol":17,"map":"pl_pier","folder":"tf","game":"Team Fortress","app_id":440,"player_count":24,"max_players":24,"Bots":0,"server_type":"Dedicated","server_os":"Linux","password":true,"vac":true,"version":"7757534","steam_id":85568392924469991,"keywords":["nocrits","nodmgspread","payload","uncletopia"],"game_id":440,"stv_port":27016,"stv_name":"Uncletopia | Los Angeles | 1 | All Maps | STV","players":[{"user_id":4,"name":"Nibotshooter","steam_id":76561199284825579,"connected_time":3749000000000,"state":"active","ping":71},{"user_id":22,"name":"yeah","steam_id":76561199406261605,"connected_time":1126000000000,"state":"active","ping":76},{"user_id":38,"name":"TheKeronianGamer","steam_id":76561198062405391,"connected_time":422000000000,"state":"active","ping":64},{"user_id":11,"name":"Kit kyat","steam_id":76561198235786296,"connected_time":1606000000000,"state":"active","ping":106},{"user_id":12,"name":"PyroTechno","steam_id":76561198060929872,"connected_time":1492000000000,"state":"active","ping":95},{"user_id":39,"name":"neoluna117 [THM]","steam_id":76561198386741144,"connected_time":395000000000,"state":"active","ping":57},{"user_id":14,"name":"Azok  Of The Exquisite Pain","steam_id":76561198365798074,"connected_time":1411000000000,"state":"active","ping":75},{"user_id":15,"name":"Noxus","steam_id":76561199009820852,"connected_time":1395000000000,"state":"active","ping":83},{"user_id":20,"name":"g","steam_id":76561198168427338,"connected_time":1172000000000,"state":"active","ping":44},{"user_id":17,"name":"Doggo","steam_id":76561198313355373,"connected_time":1292000000000,"state":"active","ping":70},{"user_id":40,"name":"sneakysnek__","steam_id":76561198248593476,"connected_time":393000000000,"state":"active","ping":122},{"user_id":29,"name":"MistaMoi","steam_id":76561198213292281,"connected_time":761000000000,"state":"active","ping":74},{"user_id":23,"name":"Valued Member of the Community","steam_id":76561198283774514,"connected_time":1112000000000,"state":"active","ping":55},{"user_id":24,"name":"Iron_Dave_Qc","steam_id":76561198159325213,"connected_time":1005000000000,"state":"active","ping":127},{"user_id":30,"name":"Lamy","steam_id":76561198348354629,"connected_time":609000000000,"state":"active","ping":47},{"user_id":26,"name":"Gimmick","steam_id":76561198065873462,"connected_time":979000000000,"state":"active","ping":46},{"user_id":27,"name":"Vero","steam_id":76561198183369559,"connected_time":973000000000,"state":"active","ping":50},{"user_id":28,"name":"Mirari","steam_id":76561198126889358,"connected_time":829000000000,"state":"active","ping":128},{"user_id":41,"name":"Cricket Girl!","steam_id":76561198838054669,"connected_time":324000000000,"state":"active","ping":119},{"user_id":43,"name":"K o y ≈ç t e","steam_id":76561198397407059,"connected_time":312000000000,"state":"active","ping":75},{"user_id":33,"name":"Speedy","steam_id":76561198873086850,"connected_time":587000000000,"state":"active","ping":72},{"user_id":42,"name":"girr","steam_id":76561198995114110,"connected_time":322000000000,"state":"active","ping":87},{"user_id":44,"name":"demoknight tf2","steam_id":76561198384098648,"connected_time":48000000000,"state":"active","ping":110},{"user_id":37,"name":"monsterkill4567","steam_id":76561198272986367,"connected_time":438000000000,"state":"active","ping":57}]},{"server_id":112,"name":"Uncletopia | Los Angeles | 2 | All Maps","name_short":"lax-2","host":"lax-1.us.uncletopia.com","port":27025,"enabled":true,"region":"us-west","cc":"us","latitude":33.94279,"longitude":-118.41004,"reserved":0,"last_update":"0001-01-01T00:00:00Z","name_a2s":"Uncletopia | Los Angeles | 2 | All Maps","protocol":17,"map":"koth_cascade","folder":"tf","game":"Team Fortress","app_id":440,"player_count":2,"max_players":24,"Bots":0,"server_type":"Dedicated","server_os":"Linux","password":true,"vac":true,"version":"7757534","steam_id":85568392924469992,"keywords":["cp","nocrits","nodmgspread","uncletopia"],"game_id":440,"stv_port":27026,"stv_name":"Uncletopia | Los Angeles | 2 | All Maps | STV","players":[{"user_id":8,"name":"ErnieProbably","steam_id":76561198138852010,"connected_time":104000000000,"state":"active","ping":64},{"user_id":9,"name":"worm_world20","steam_id":76561198383398874,"connected_time":92000000000,"state":"active","ping":41}]},{"server_id":324,"name":"Uncletopia | Los Angeles | 3 | All Maps","name_short":"lax-3","host":"lax-1.us.uncletopia.com","port":27035,"enabled":true,"region":"us-west","cc":"us","latitude":33.94279,"longitude":-118.41004,"reserved":0,"last_update":"0001-01-01T00:00:00Z","name_a2s":"Uncletopia | Los Angeles | 3 | All Maps","protocol":17,"map":"pl_pier","folder":"tf","game":"Team Fortress","app_id":440,"player_count":0,"max_players":24,"Bots":0,"server_type":"Dedicated","server_os":"Linux","password":true,"vac":true,"version":"7757534","steam_id":85568392924510198,"keywords":["nocrits","nodmgspread","payload","uncletopia"],"game_id":440,"stv_port":27036,"stv_name":"Uncletopia | Los Angeles | 3 | All Maps | STV","players":null},{"server_id":25,"name":"Uncletopia | Los Angeles | 4 | Stopwatch Beta","name_short":"lax-4","host":"lax-1.us.uncletopia.com","port":27045,"enabled":true,"region":"us-west","cc":"us","latitude":33.94279,"longitude":-118.41004,"reserved":0,"last_update":"0001-01-01T00:00:00Z","name_a2s":"Uncletopia | Los Angeles | 4 | Stopwatch Beta","protocol":17,"map":"pl_frontier_final","folder":"tf","game":"Team Fortress","app_id":440,"player_count":0,"max_players":24,"Bots":0,"server_type":"Dedicated","server_os":"Linux","password":true,"vac":true,"version":"7757534","steam_id":85568392924510199,"keywords":["nocrits","nodmgspread","payload","uncletopia"],"game_id":440,"stv_port":27046,"stv_name":"Uncletopia | Los Angeles | 4 | Stopwatch Beta | STV","players":null},{"server_id":11,"name":"Uncletopia | London | 1 | All Maps","name_short":"lon-1","host":"lon-1.uk.uncletopia.com","port":27015,"enabled":true,"region":"eu","cc":"gb","latitude":51.509865,"longitude":-0.118092,"reserved":0,"last_update":"0001-01-01T00:00:00Z","name_a2s":"Uncletopia | London | 1 | All Maps","protocol":17,"map":"pl_badwater","folder":"tf","game":"Team Fortress","app_id":440,"player_count":24,"max_players":24,"Bots":0,"server_type":"Dedicated","server_os":"Linux","password":true,"vac":true,"version":"7757534","steam_id":85568392924367362,"keywords":["nocrits","nodmgspread","payload","uncletopia"],"game_id":440,"stv_port":27016,"stv_name":"Uncletopia | London | 1 | All Maps | STV","players":[{"user_id":698,"name":"Fancy","steam_id":76561198350658462,"connected_time":904000000000,"state":"active","ping":89},{"user_id":558,"name":"Boil em mash em","steam_id":76561198026508026,"connected_time":11978000000000,"state":"active","ping":63},{"user_id":673,"name":"SOPHIIEE RNG","steam_id":76561198443798981,"connected_time":3426000000000,"state":"active","ping":53},{"user_id":695,"name":"FairlyFatFungus","steam_id":76561199152828854,"connected_time":917000000000,"state":"active","ping":52},{"user_id":685,"name":"Bad and Wuji","steam_id":76561199385280253,"connected_time":2158000000000,"state":"active","ping":115},{"user_id":704,"name":"Wedgeridoo","steam_id":76561198082813907,"connected_time":601000000000,"state":"active","ping":132},{"user_id":678,"name":"BreadBubbles","steam_id":76561198174332826,"connected_time":3222000000000,"state":"active","ping":55},{"user_id":658,"name":"Jofiah/TTV","steam_id":76561197977233962,"connected_time":4910000000000,"state":"active","ping":49},{"user_id":705,"name":"ciliorkun18","steam_id":76561198228942500,"connected_time":1000000000,"state":"spawning","ping":73},{"user_id":693,"name":"jt7","steam_id":76561198073655162,"connected_time":924000000000,"state":"active","ping":79},{"user_id":699,"name":"Dominus.","steam_id":76561199065917088,"connected_time":902000000000,"state":"active","ping":75},{"user_id":680,"name":"Aaron","steam_id":76561197990046953,"connected_time":3159000000000,"state":"active","ping":62},{"user_id":687,"name":"Jude!","steam_id":76561197983597798,"connected_time":2122000000000,"state":"active","ping":32},{"user_id":696,"name":"frosty","steam_id":76561198094560834,"connected_time":917000000000,"state":"active","ping":53},{"user_id":672,"name":"Dirty Joe","steam_id":76561198142418870,"connected_time":3436000000000,"state":"active","ping":45},{"user_id":700,"name":"Rave Robber","steam_id":76561199414716848,"connected_time":902000000000,"state":"active","ping":74},{"user_id":674,"name":"Chief Quityourbitchin","steam_id":76561198860065033,"connected_time":3414000000000,"state":"active","ping":98},{"user_id":679,"name":"bananen pizza","steam_id":76561199212990079,"connected_time":3167000000000,"state":"active","ping":70},{"user_id":697,"name":"Tuga inglesa","steam_id":76561198442803577,"connected_time":916000000000,"state":"active","ping":80},{"user_id":703,"name":"slnc","steam_id":76561198041151496,"connected_time":793000000000,"state":"active","ping":67},{"user_id":620,"name":"cris","steam_id":76561198047662200,"connected_time":8089000000000,"state":"active","ping":46},{"user_id":668,"name":"Celdis","steam_id":76561198079741434,"connected_time":4223000000000,"state":"active","ping":60},{"user_id":701,"name":"pezza","steam_id":76561197995173247,"connected_time":898000000000,"state":"active","ping":59},{"user_id":702,"name":"nedilya","steam_id":76561198039692077,"connected_time":881000000000,"state":"active","ping":63}]},{"server_id":114,"name":"Uncletopia | London | 2 | All Maps","name_short":"lon-2","host":"lon-1.uk.uncletopia.com","port":27025,"enabled":true,"region":"eu","cc":"gb","latitude":51.509865,"longitude":-0.118092,"reserved":0,"last_update":"0001-01-01T00:00:00Z","name_a2s":"Uncletopia | London | 2 | All Maps","protocol":17,"map":"pl_frontier_final","folder":"tf","game":"Team Fortress","app_id":440,"player_count":24,"max_players":24,"Bots":0,"server_type":"Dedicated","server_os":"Linux","password":true,"vac":true,"version":"7757534","steam_id":85568392924470941,"keywords":["nocrits","nodmgspread","payload","uncletopia"],"game_id":440,"stv_port":27026,"stv_name":"Uncletopia | London | 2 | All Maps | STV","players":[{"user_id":515,"name":"Frazzle","steam_id":76561198262577951,"connected_time":1279000000000,"state":"active","ping":71},{"user_id":509,"name":"goblin","steam_id":76561199010825303,"connected_time":2084000000000,"state":"active","ping":78},{"user_id":531,"name":"Tercio","steam_id":76561197992230278,"connected_time":173000000000,"state":"active","ping":76},{"user_id":511,"name":"Calmedy","steam_id":76561198295310457,"connected_time":2072000000000,"state":"active","ping":55},{"user_id":536,"name":"Icaras","steam_id":76561198416724843,"connected_time":105000000000,"state":"active","ping":45},{"user_id":533,"name":"XavierSweet","steam_id":76561198091781913,"connected_time":141000000000,"state":"active","ping":49},{"user_id":458,"name":"Furno","steam_id":76561197999723047,"connected_time":4017000000000,"state":"active","ping":45},{"user_id":517,"name":"Dr\u003eBreen's Blue Kush Reserve","steam_id":76561198423902979,"connected_time":1135000000000,"state":"active","ping":46},{"user_id":518,"name":"triangle","steam_id":76561198046838168,"connected_time":1052000000000,"state":"active","ping":61},{"user_id":491,"name":"Milosz52","steam_id":76561199060940204,"connected_time":2933000000000,"state":"active","ping":92},{"user_id":538,"name":"Repays","steam_id":76561198082993000,"connected_time":17000000000,"state":"active","ping":38},{"user_id":459,"name":"Xiqui","steam_id":76561198818386611,"connected_time":3997000000000,"state":"active","ping":89},{"user_id":514,"name":"Empty Head Full Stomach","steam_id":76561198808819694,"connected_time":1644000000000,"state":"active","ping":59},{"user_id":528,"name":"Skinny101","steam_id":76561197985599360,"connected_time":546000000000,"state":"active","ping":54},{"user_id":529,"name":"Dr. Le Quack","steam_id":76561197995711176,"connected_time":256000000000,"state":"active","ping":99},{"user_id":535,"name":"Skyfoogle","steam_id":76561198027177883,"connected_time":132000000000,"state":"active","ping":61},{"user_id":523,"name":"a black bishop from chess","steam_id":76561199226943577,"connected_time":696000000000,"state":"active","ping":63},{"user_id":479,"name":"dm me to commit tax fraud","steam_id":76561198177185310,"connected_time":3290000000000,"state":"active","ping":55},{"user_id":537,"name":"I jazzed myself","steam_id":76561198203016603,"connected_time":83000000000,"state":"active","ping":56},{"user_id":530,"name":"Koi-Koi","steam_id":76561198045527771,"connected_time":230000000000,"state":"active","ping":55},{"user_id":520,"name":"Bat in a thousand","steam_id":76561198320506848,"connected_time":960000000000,"state":"active","ping":43},{"user_id":513,"name":"rosepinkyfuzz","steam_id":76561198018546334,"connected_time":1983000000000,"state":"active","ping":75},{"user_id":524,"name":"steakman10","steam_id":76561198152584691,"connected_time":689000000000,"state":"active","ping":67},{"user_id":527,"name":"Acxsa","steam_id":76561198098979449,"connected_time":572000000000,"state":"active","ping":90}]},{"server_id":320,"name":"Uncletopia | London | 3 | All Maps","name_short":"lon-3","host":"lon-1.uk.uncletopia.com","port":27035,"enabled":true,"region":"eu","cc":"gb","latitude":51.509865,"longitude":-0.118092,"reserved":0,"last_update":"0001-01-01T00:00:00Z","name_a2s":"Uncletopia | London | 3 | All Maps","protocol":17,"map":"koth_harvest_final","folder":"tf","game":"Team Fortress","app_id":440,"player_count":24,"max_players":24,"Bots":0,"server_type":"Dedicated","server_os":"Linux","password":true,"vac":true,"version":"7757534","steam_id":85568392924510192,"keywords":["cp","nocrits","nodmgspread","uncletopia"],"game_id":440,"stv_port":27036,"stv_name":"Uncletopia | London | 3 | All Maps | STV","players":[{"user_id":756,"name":"ARTI","steam_id":76561199446989613,"connected_time":2468000000000,"state":"active","ping":63},{"user_id":730,"name":"G/3","steam_id":76561198234844188,"connected_time":3800000000000,"state":"active","ping":50},{"user_id":762,"name":"Dr Sex","steam_id":76561198029044617,"connected_time":2205000000000,"state":"active","ping":51},{"user_id":784,"name":"‚ù•Shinru","steam_id":76561198285951918,"connected_time":913000000000,"state":"active","ping":98},{"user_id":752,"name":"Joseph Stalin","steam_id":76561198033199746,"connected_time":2756000000000,"state":"active","ping":47},{"user_id":785,"name":"KLAMA  ‚ù§","steam_id":76561198351549661,"connected_time":873000000000,"state":"active","ping":75},{"user_id":809,"name":"Rizzy","steam_id":76561198164237267,"connected_time":372000000000,"state":"active","ping":77},{"user_id":808,"name":"onionfriends2004","steam_id":76561198197548609,"connected_time":414000000000,"state":"active","ping":85},{"user_id":768,"name":"arcSolver","steam_id":76561198212013944,"connected_time":2027000000000,"state":"active","ping":47},{"user_id":816,"name":"Minimi","steam_id":76561198873850443,"connected_time":252000000000,"state":"active","ping":41},{"user_id":788,"name":"Caerot","steam_id":76561198839000676,"connected_time":828000000000,"state":"active","ping":71},{"user_id":818,"name":"ReservExE","steam_id":76561198012849180,"connected_time":89000000000,"state":"active","ping":103},{"user_id":790,"name":"Semyr","steam_id":76561198125655939,"connected_time":804000000000,"state":"active","ping":136},{"user_id":819,"name":"Sheepgurl","steam_id":76561197981149859,"connected_time":31000000000,"state":"active","ping":96},{"user_id":783,"name":"Billy Genie","steam_id":76561198061724014,"connected_time":1043000000000,"state":"active","ping":37},{"user_id":813,"name":"LoboPaciente","steam_id":76561198088870962,"connected_time":277000000000,"state":"active","ping":66},{"user_id":810,"name":"Mariachi Dave","steam_id":76561198074274900,"connected_time":309000000000,"state":"active","ping":44},{"user_id":769,"name":"sin","steam_id":76561198193416785,"connected_time":2001000000000,"state":"active","ping":58},{"user_id":811,"name":"Pence","steam_id":76561198124994550,"connected_time":303000000000,"state":"active","ping":58},{"user_id":792,"name":"Melon :)","steam_id":76561199110038534,"connected_time":753000000000,"state":"active","ping":79},{"user_id":796,"name":".4b (fourbee)","steam_id":76561198249832770,"connected_time":652000000000,"state":"active","ping":49},{"user_id":800,"name":"KoolMeester","steam_id":76561198105165847,"connected_time":613000000000,"state":"active","ping":46},{"user_id":814,"name":"Raven","steam_id":76561198087296188,"connected_time":275000000000,"state":"active","ping":65},{"user_id":815,"name":"prodbyepic","steam_id":76561198853066534,"connected_time":273000000000,"state":"active","ping":129}]},{"server_id":321,"name":"Uncletopia | London | 4 | All Maps","name_short":"lon-4","host":"lon-1.uk.uncletopia.com","port":27045,"enabled":true,"region":"eu","cc":"gb","latitude":51.509865,"longitude":-0.118092,"reserved":0,"last_update":"0001-01-01T00:00:00Z","name_a2s":"Uncletopia | London | 4 | All Maps","protocol":17,"map":"pl_pier","folder":"tf","game":"Team Fortress","app_id":440,"player_count":24,"max_players":24,"Bots":0,"server_type":"Dedicated","server_os":"Linux","password":true,"vac":true,"version":"7757534","steam_id":85568392924510193,"keywords":["nocrits","nodmgspread","payload","uncletopia"],"game_id":440,"stv_port":27046,"stv_name":"Uncletopia | London | 4 | All Maps | STV","players":[{"user_id":137,"name":"Camo Leaf","steam_id":76561197999456575,"connected_time":1797000000000,"state":"active","ping":62},{"user_id":167,"name":"Szymekc","steam_id":76561198009541119,"connected_time":681000000000,"state":"active","ping":77},{"user_id":162,"name":"Rezkey","steam_id":76561198206079048,"connected_time":870000000000,"state":"active","ping":58},{"user_id":154,"name":"Flame.","steam_id":76561199011293286,"connected_time":1290000000000,"state":"active","ping":77},{"user_id":171,"name":"blue drink","steam_id":76561199260739414,"connected_time":340000000000,"state":"active","ping":145},{"user_id":157,"name":"Major","steam_id":76561198086483282,"connected_time":1017000000000,"state":"active","ping":48},{"user_id":138,"name":"glyph","steam_id":76561197980736364,"connected_time":1540000000000,"state":"active","ping":84},{"user_id":142,"name":"Val23","steam_id":76561198099480715,"connected_time":1506000000000,"state":"active","ping":49},{"user_id":123,"name":"La-Li-Lu-Le-Lo","steam_id":76561198047990600,"connected_time":3417000000000,"state":"active","ping":53},{"user_id":163,"name":"Samus","steam_id":76561198045943019,"connected_time":857000000000,"state":"active","ping":60},{"user_id":172,"name":"Insain Bolt!","steam_id":76561198025687726,"connected_time":300000000000,"state":"active","ping":74},{"user_id":164,"name":"betterthanyou'lleverbe-AA-","steam_id":76561198102195119,"connected_time":855000000000,"state":"active","ping":39},{"user_id":131,"name":"nynon","steam_id":76561197998432126,"connected_time":3151000000000,"state":"active","ping":90},{"user_id":145,"name":"Shibus","steam_id":76561198077328359,"connected_time":1465000000000,"state":"active","ping":53},{"user_id":146,"name":"Silverdarlin","steam_id":76561198118540970,"connected_time":1456000000000,"state":"active","ping":55},{"user_id":152,"name":"Tamer","steam_id":76561199101501051,"connected_time":1316000000000,"state":"active","ping":69},{"user_id":118,"name":"IceDreamer","steam_id":76561197997569989,"connected_time":4084000000000,"state":"active","ping":44},{"user_id":159,"name":"ikc159","steam_id":76561198020559026,"connected_time":1008000000000,"state":"active","ping":60},{"user_id":173,"name":"Kingowen20","steam_id":76561198170753209,"connected_time":100000000000,"state":"spawning","ping":45},{"user_id":168,"name":"Moe Jama","steam_id":76561198021676997,"connected_time":505000000000,"state":"active","ping":82},{"user_id":150,"name":"Hyperek","steam_id":76561198130797464,"connected_time":1399000000000,"state":"active","ping":86},{"user_id":155,"name":"sv_opor 13123","steam_id":76561198002229612,"connected_time":1260000000000,"state":"active","ping":78},{"user_id":170,"name":"ghenios","steam_id":76561198030011207,"connected_time":373000000000,"state":"active","ping":94},{"user_id":166,"name":"Dachowiec","steam_id":76561198195408281,"connected_time":806000000000,"state":"active","ping":76}]},{"server_id":21,"name":"Uncletopia | London | 5 | All Maps","name_short":"lon-5","host":"lon-1.uk.uncletopia.com","port":27055,"enabled":true,"region":"eu","cc":"gb","latitude":51.509865,"longitude":-0.118092,"reserved":0,"last_update":"0001-01-01T00:00:00Z","name_a2s":"Uncletopia | London | 5 | All Maps","protocol":17,"map":"pl_hoodoo_final","folder":"tf","game":"Team Fortress","app_id":440,"player_count":24,"max_players":24,"Bots":0,"server_type":"Dedicated","server_os":"Linux","password":true,"vac":true,"version":"7757534","steam_id":85568392924742829,"keywords":["nocrits","nodmgspread","payload","uncletopia"],"game_id":440,"stv_port":27056,"stv_name":"Uncletopia | London | 5 | All Maps | STV","players":[{"user_id":306,"name":"tapeworms!","steam_id":76561198069649097,"connected_time":8429000000000,"state":"active","ping":48},{"user_id":428,"name":"‚ôöjar","steam_id":76561198156384007,"connected_time":1250000000000,"state":"active","ping":52},{"user_id":434,"name":"JujuBalu","steam_id":76561198207253071,"connected_time":781000000000,"state":"active","ping":33},{"user_id":427,"name":"DooWooD","steam_id":76561198335810106,"connected_time":1276000000000,"state":"active","ping":93},{"user_id":373,"name":"Bloofred","steam_id":76561198111778052,"connected_time":3366000000000,"state":"active","ping":56},{"user_id":344,"name":"Paulo","steam_id":76561198001386978,"connected_time":5328000000000,"state":"active","ping":50},{"user_id":438,"name":"Nox Vector","steam_id":76561198027396916,"connected_time":428000000000,"state":"active","ping":91},{"user_id":338,"name":"ShitWagon","steam_id":76561198984067733,"connected_time":5713000000000,"state":"active","ping":152},{"user_id":415,"name":"Spoingus","steam_id":76561198161402859,"connected_time":2513000000000,"state":"active","ping":74},{"user_id":354,"name":"Doughy","steam_id":76561198044084210,"connected_time":4605000000000,"state":"active","ping":70},{"user_id":325,"name":"Gry","steam_id":76561198053961616,"connected_time":6635000000000,"state":"active","ping":58},{"user_id":422,"name":"Johnny Cockroach","steam_id":76561198049648277,"connected_time":1777000000000,"state":"active","ping":109},{"user_id":343,"name":"Dat Charming Man","steam_id":76561198049312442,"connected_time":5348000000000,"state":"active","ping":52},{"user_id":418,"name":"Bingus","steam_id":76561198149152939,"connected_time":2146000000000,"state":"active","ping":72},{"user_id":435,"name":"‚ôîapple","steam_id":76561198116932635,"connected_time":743000000000,"state":"active","ping":45},{"user_id":436,"name":"heatburn","steam_id":76561198019001992,"connected_time":699000000000,"state":"active","ping":60},{"user_id":437,"name":"zaleek69","steam_id":76561198058877595,"connected_time":675000000000,"state":"active","ping":70},{"user_id":379,"name":"–í–∞–¥–∏–º –ö–∞–∫–∞—à–∫–∏–Ω","steam_id":76561198383509320,"connected_time":3216000000000,"state":"active","ping":85},{"user_id":420,"name":"VolcanicArts","steam_id":76561198063453246,"connected_time":1822000000000,"state":"active","ping":59},{"user_id":432,"name":"aph","steam_id":76561198057722639,"connected_time":868000000000,"state":"active","ping":74},{"user_id":430,"name":"piggles","steam_id":76561198117247903,"connected_time":962000000000,"state":"active","ping":38},{"user_id":425,"name":"darktheif54","steam_id":76561198043650119,"connected_time":1433000000000,"state":"active","ping":50},{"user_id":366,"name":"goner","steam_id":76561198057256978,"connected_time":3588000000000,"state":"active","ping":59},{"user_id":347,"name":"jestermaxxing whimsypill","steam_id":76561198104896547,"connected_time":5253000000000,"state":"active","ping":87}]},{"server_id":22,"name":"Uncletopia | London | 6 | All Maps","name_short":"lon-6","host":"lon-1.uk.uncletopia.com","port":27065,"enabled":true,"region":"eu","cc":"gb","latitude":51.509865,"longitude":-0.118092,"reserved":0,"last_update":"0001-01-01T00:00:00Z","name_a2s":"Uncletopia | London | 6 | All Maps","protocol":17,"map":"pl_borneo","folder":"tf","game":"Team Fortress","app_id":440,"player_count":13,"max_players":24,"Bots":0,"server_type":"Dedicated","server_os":"Linux","password":true,"vac":true,"version":"7757534","steam_id":85568392924742830,"keywords":["nocrits","nodmgspread","payload","uncletopia"],"game_id":440,"stv_port":27066,"stv_name":"Uncletopia | London | 6 | All Maps | STV","players":[{"user_id":403,"name":"Fox","steam_id":76561198052541711,"connected_time":1319000000000,"state":"active","ping":61},{"user_id":401,"name":"LunarCrumb","steam_id":76561199209979126,"connected_time":1509000000000,"state":"active","ping":64},{"user_id":404,"name":"Tomura Shigaraki","steam_id":76561198127465110,"connected_time":1308000000000,"state":"active","ping":72},{"user_id":412,"name":"le retour","steam_id":76561198084056439,"connected_time":779000000000,"state":"active","ping":52},{"user_id":406,"name":"rigel_","steam_id":76561198148640847,"connected_time":1258000000000,"state":"active","ping":75},{"user_id":407,"name":"_Context_","steam_id":76561199163359312,"connected_time":1213000000000,"state":"active","ping":58},{"user_id":408,"name":"Sunshine Moon","steam_id":76561198022604491,"connected_time":1127000000000,"state":"active","ping":45},{"user_id":411,"name":"Scottish Fox","steam_id":76561198052990270,"connected_time":921000000000,"state":"active","ping":45},{"user_id":413,"name":"Rez","steam_id":76561198410598772,"connected_time":652000000000,"state":"active","ping":53},{"user_id":414,"name":"lilyskittle","steam_id":76561198303232638,"connected_time":510000000000,"state":"active","ping":49},{"user_id":419,"name":"Davey","steam_id":76561198256879107,"connected_time":157000000000,"state":"active","ping":75},{"user_id":421,"name":"InsectKing","steam_id":76561199013519071,"connected_time":34000000000,"state":"active","ping":36},{"user_id":420,"name":"RataDeOrdenador","steam_id":76561198071291263,"connected_time":137000000000,"state":"active","ping":74}]},{"server_id":40,"name":"Uncletopia | London | 7 | No Payload","name_short":"lon-7","host":"lon-1.uk.uncletopia.com","port":27075,"enabled":true,"region":"eu","cc":"gb","latitude":51.509865,"longitude":-0.118092,"reserved":0,"last_update":"0001-01-01T00:00:00Z","name_a2s":"Uncletopia | London | 7 | No Payload","protocol":17,"map":"ctf_doublecross","folder":"tf","game":"Team Fortress","app_id":440,"player_count":8,"max_players":24,"Bots":0,"server_type":"Dedicated","server_os":"Linux","password":true,"vac":true,"version":"7757534","steam_id":85568392924964314,"keywords":["ctf","nocrits","nodmgspread","uncletopia"],"game_id":440,"stv_port":27076,"stv_name":"Uncletopia | London | 7 | No Payload | STV","players":[{"user_id":104,"name":"the concerned one","steam_id":76561198128197959,"connected_time":148000000000,"state":"active","ping":56},{"user_id":95,"name":"Minority Disabler","steam_id":76561198209254867,"connected_time":1702000000000,"state":"active","ping":36},{"user_id":96,"name":"Minority Enabler","steam_id":76561198119698367,"connected_time":1699000000000,"state":"active","ping":52},{"user_id":98,"name":"a different furry","steam_id":76561199008527400,"connected_time":1314000000000,"state":"active","ping":54},{"user_id":101,"name":"Mytube 123","steam_id":76561198368112987,"connected_time":989000000000,"state":"active","ping":88},{"user_id":102,"name":"Pinkchup","steam_id":76561198106802803,"connected_time":879000000000,"state":"active","ping":74},{"user_id":103,"name":"¬£180 Kingdom Hearts II Figure","steam_id":76561198334042273,"connected_time":485000000000,"state":"active","ping":85},{"user_id":105,"name":"Videogamer","steam_id":76561198106012909,"connected_time":61000000000,"state":"active","ping":77}]},{"server_id":41,"name":"Uncletopia | London | 8 | Community","name_short":"lon-8","host":"lon-1.uk.uncletopia.com","port":27085,"enabled":true,"region":"eu","cc":"gb","latitude":51.509865,"longitude":-0.118092,"reserved":0,"last_update":"0001-01-01T00:00:00Z","name_a2s":"Uncletopia | London | 8 | Community","protocol":17,"map":"workshop/cp_snowbase_b18.ugc2081770490","folder":"tf","game":"Team Fortress","app_id":440,"player_count":21,"max_players":24,"Bots":0,"server_type":"Dedicated","server_os":"Linux","password":true,"vac":true,"version":"7757534","steam_id":85568392924964315,"keywords":["cp","nocrits","nodmgspread","uncletopia"],"game_id":440,"stv_port":27086,"stv_name":"Uncletopia | London | 8 | Community | STV","players":[{"user_id":246,"name":"AYE","steam_id":76561198181368101,"connected_time":1014000000000,"state":"active","ping":62},{"user_id":236,"name":"Zamboni","steam_id":76561199084964927,"connected_time":1207000000000,"state":"active","ping":133},{"user_id":237,"name":"Hunnington","steam_id":76561198052219699,"connected_time":1186000000000,"state":"active","ping":49},{"user_id":238,"name":"Chucky","steam_id":76561198891579362,"connected_time":1183000000000,"state":"active","ping":61},{"user_id":257,"name":"DannyBoi","steam_id":76561198047925789,"connected_time":356000000000,"state":"active","ping":42},{"user_id":205,"name":"Hilldog","steam_id":76561198082209322,"connected_time":3648000000000,"state":"active","ping":86},{"user_id":262,"name":"greg's mom","steam_id":76561198050525471,"connected_time":63000000000,"state":"spawning","ping":346},{"user_id":252,"name":"Homicidal Tendencies","steam_id":76561198828681043,"connected_time":636000000000,"state":"active","ping":36},{"user_id":247,"name":"Psyborg","steam_id":76561199158462312,"connected_time":956000000000,"state":"active","ping":70},{"user_id":263,"name":"Real","steam_id":76561198322220924,"connected_time":8000000000,"state":"spawning","ping":108},{"user_id":253,"name":"wheelie bin","steam_id":76561198040040328,"connected_time":620000000000,"state":"active","ping":45},{"user_id":255,"name":"tiiyama","steam_id":76561198046196005,"connected_time":439000000000,"state":"active","ping":57},{"user_id":240,"name":"Haggis77","steam_id":76561198372976771,"connected_time":1122000000000,"state":"active","ping":64},{"user_id":261,"name":"Captain Winter","steam_id":76561198102128562,"connected_time":201000000000,"state":"active","ping":68},{"user_id":241,"name":"üåπI Hate Everyone Equallyüåπ","steam_id":76561199222788613,"connected_time":1118000000000,"state":"active","ping":79},{"user_id":78,"name":"Fat Pigeon","steam_id":76561198817940142,"connected_time":12153000000000,"state":"active","ping":47},{"user_id":259,"name":"xXauntmildredXx","steam_id":76561198013299640,"connected_time":249000000000,"state":"active","ping":58},{"user_id":248,"name":"Der Herr Doktor","steam_id":76561198119476089,"connected_time":924000000000,"state":"active","ping":72},{"user_id":249,"name":"Alpaca","steam_id":76561198029839079,"connected_time":922000000000,"state":"active","ping":56},{"user_id":260,"name":"Rabbit","steam_id":76561198254566214,"connected_time":240000000000,"state":"active","ping":131},{"user_id":245,"name":"Brand0Nee","steam_id":76561198409924859,"connected_time":1073000000000,"state":"active","ping":55}]},{"server_id":300,"name":"Uncletopia | Montr√©al | 1 | All Maps","name_short":"mtl-1","host":"mtl-1.ca.uncletopia.com","port":27015,"enabled":true,"region":"us-east","cc":"ca","latitude":45.50889,"longitude":-73.56167,"reserved":0,"last_update":"0001-01-01T00:00:00Z","name_a2s":"Uncletopia | Montr√©al | 1 | All Maps","protocol":17,"map":"cp_dustbowl","folder":"tf","game":"Team Fortress","app_id":440,"player_count":0,"max_players":24,"Bots":0,"server_type":"Dedicated","server_os":"Linux","password":true,"vac":true,"version":"7757534","steam_id":85568392924500087,"keywords":["cp","nocrits","nodmgspread","uncletopia"],"game_id":440,"stv_port":27016,"stv_name":"Uncletopia | Montr√©al | 1 | All Maps | STV","players":null},{"server_id":301,"name":"Uncletopia | Montr√©al | 2 | All Maps","name_short":"mtl-2","host":"mtl-1.ca.uncletopia.com","port":27025,"enabled":true,"region":"us-east","cc":"ca","latitude":45.50889,"longitude":-73.56167,"reserved":0,"last_update":"0001-01-01T00:00:00Z","name_a2s":"Uncletopia | Montr√©al | 2 | All Maps","protocol":17,"map":"pl_snowycoast","folder":"tf","game":"Team Fortress","app_id":440,"player_count":0,"max_players":24,"Bots":0,"server_type":"Dedicated","server_os":"Linux","password":true,"vac":true,"version":"7757534","steam_id":85568392924500088,"keywords":["nocrits","nodmgspread","payload","uncletopia"],"game_id":440,"stv_port":27026,"stv_name":"Uncletopia | Montr√©al | 2 | All Maps | STV","players":null},{"server_id":302,"name":"Uncletopia | Montr√©al | 3 | All Maps","name_short":"mtl-3","host":"mtl-1.ca.uncletopia.com","port":27035,"enabled":true,"region":"us-east","cc":"ca","latitude":45.50889,"longitude":-73.56167,"reserved":0,"last_update":"0001-01-01T00:00:00Z","name_a2s":"Uncletopia | Montr√©al | 3 | All Maps","protocol":17,"map":"koth_highpass","folder":"tf","game":"Team Fortress","app_id":440,"player_count":12,"max_players":24,"Bots":0,"server_type":"Dedicated","server_os":"Linux","password":true,"vac":true,"version":"7757534","steam_id":85568392924500089,"keywords":["cp","nocrits","nodmgspread","uncletopia"],"game_id":440,"stv_port":27036,"stv_name":"Uncletopia | Montr√©al | 3 | All Maps | STV","players":[{"user_id":6,"name":"shroomish enjoyer","steam_id":76561198149775502,"connected_time":1391000000000,"state":"active","ping":61},{"user_id":7,"name":"the j","steam_id":76561198257263022,"connected_time":1363000000000,"state":"active","ping":71},{"user_id":8,"name":"Bog dweller","steam_id":76561198139421056,"connected_time":1363000000000,"state":"active","ping":66},{"user_id":9,"name":"mgs3 pachinko machine","steam_id":76561198048173282,"connected_time":1360000000000,"state":"active","ping":59},{"user_id":25,"name":"DistantJragon","steam_id":76561198117563641,"connected_time":78000000000,"state":"active","ping":66},{"user_id":11,"name":"Cement Drinker","steam_id":76561198143315013,"connected_time":1238000000000,"state":"active","ping":54},{"user_id":22,"name":"doctor sex md","steam_id":76561198150678175,"connected_time":306000000000,"state":"active","ping":121},{"user_id":14,"name":"the big one","steam_id":76561198062137252,"connected_time":634000000000,"state":"active","ping":59},{"user_id":15,"name":"13 INCH TGIRL SCHLONG","steam_id":76561198122059018,"connected_time":579000000000,"state":"active","ping":75},{"user_id":16,"name":"Insurance Frog","steam_id":76561198067556825,"connected_time":546000000000,"state":"active","ping":83},{"user_id":17,"name":"rideli","steam_id":76561198155443297,"connected_time":544000000000,"state":"active","ping":86},{"user_id":23,"name":"Dictatorial Karelian","steam_id":76561198196736457,"connected_time":306000000000,"state":"active","ping":159}]},{"server_id":303,"name":"Uncletopia | Montr√©al | 4 | No Payload","name_short":"mtl-4","host":"mtl-1.ca.uncletopia.com","port":27045,"enabled":true,"region":"us-east","cc":"ca","latitude":45.50889,"longitude":-73.56167,"reserved":0,"last_update":"0001-01-01T00:00:00Z","name_a2s":"Uncletopia | Montr√©al | 4 | No Payload","protocol":17,"map":"pl_borneo","folder":"tf","game":"Team Fortress","app_id":440,"player_count":0,"max_players":24,"Bots":0,"server_type":"Dedicated","server_os":"Linux","password":true,"vac":true,"version":"7757534","steam_id":85568392924500090,"keywords":["nocrits","nodmgspread","payload","uncletopia"],"game_id":440,"stv_port":27046,"stv_name":"Uncletopia | Montr√©al | 4 | No Payload | STV","players":null},{"server_id":13,"name":"Uncletopia | New York City | 1 | All Maps","name_short":"nyc-1","host":"nyc-1.us.uncletopia.com","port":27015,"enabled":true,"region":"us-east","cc":"us","latitude":40.73061,"longitude":-73.93524,"reserved":0,"last_update":"0001-01-01T00:00:00Z","name_a2s":"Uncletopia | New York City | 1 | All Maps","protocol":17,"map":"pl_frontier_final","folder":"tf","game":"Team Fortress","app_id":440,"player_count":24,"max_players":24,"Bots":0,"server_type":"Dedicated","server_os":"Linux","password":true,"vac":true,"version":"7757534","steam_id":85568392924469993,"keywords":["nocrits","nodmgspread","payload","uncletopia"],"game_id":440,"stv_port":27016,"stv_name":"Uncletopia | New York City | 1 | All Maps | STV","players":[{"user_id":296,"name":"Young-OG","steam_id":76561198058800479,"connected_time":1597000000000,"state":"active","ping":80},{"user_id":280,"name":"Duckywinner","steam_id":76561198254828139,"connected_time":3437000000000,"state":"active","ping":80},{"user_id":302,"name":"MR DADDY","steam_id":76561198350794663,"connected_time":1367000000000,"state":"active","ping":50},{"user_id":306,"name":"Aqua","steam_id":76561198136989701,"connected_time":502000000000,"state":"active","ping":54},{"user_id":310,"name":"creeeeeee","steam_id":76561198392539722,"connected_time":414000000000,"state":"active","ping":79},{"user_id":286,"name":"F0restFerret","steam_id":76561199112458876,"connected_time":2734000000000,"state":"active","ping":50},{"user_id":268,"name":"ToughGuy311","steam_id":76561198131458027,"connected_time":4551000000000,"state":"active","ping":90},{"user_id":197,"name":"Fudgely","steam_id":76561198039425862,"connected_time":11179000000000,"state":"active","ping":60},{"user_id":308,"name":"Dr. Prostate","steam_id":76561198171085627,"connected_time":478000000000,"state":"active","ping":72},{"user_id":271,"name":"autisthicc","steam_id":76561198003918928,"connected_time":4047000000000,"state":"active","ping":124},{"user_id":269,"name":"BLNKT","steam_id":76561198004481006,"connected_time":4443000000000,"state":"active","ping":115},{"user_id":318,"name":"poiuytrewqwqwqwqwqwqwqwqwqwqwqw","steam_id":76561199105253001,"connected_time":77000000000,"state":"active","ping":55},{"user_id":317,"name":"run baby run","steam_id":76561198091895569,"connected_time":137000000000,"state":"active","ping":101},{"user_id":307,"name":"HadesTheKing","steam_id":76561198071731749,"connected_time":500000000000,"state":"active","ping":63},{"user_id":319,"name":"viscodolante","steam_id":76561198013650292,"connected_time":75000000000,"state":"active","ping":104},{"user_id":305,"name":"bitch","steam_id":76561198067417196,"connected_time":691000000000,"state":"active","ping":56},{"user_id":257,"name":"Spirit","steam_id":76561199069322627,"connected_time":5346000000000,"state":"active","ping":69},{"user_id":312,"name":"a table","steam_id":76561198158461279,"connected_time":402000000000,"state":"active","ping":58},{"user_id":313,"name":"spearit5464","steam_id":76561199241807676,"connected_time":401000000000,"state":"active","ping":108},{"user_id":314,"name":"Chainsaw","steam_id":76561198807911552,"connected_time":369000000000,"state":"active","ping":124},{"user_id":245,"name":"Soap Man","steam_id":76561198000490235,"connected_time":6787000000000,"state":"active","ping":139},{"user_id":298,"name":"IPlayGamez","steam_id":76561198041387508,"connected_time":1595000000000,"state":"active","ping":50},{"user_id":315,"name":"Skullypoo","steam_id":76561198067912022,"connected_time":363000000000,"state":"active","ping":67},{"user_id":292,"name":"Totouri","steam_id":76561198004229789,"connected_time":2394000000000,"state":"active","ping":65}]},{"server_id":14,"name":"Uncletopia | New York City | 2 | All Maps","name_short":"nyc-2","host":"nyc-1.us.uncletopia.com","port":27025,"enabled":true,"region":"us-east","cc":"us","latitude":40.73061,"longitude":-73.93524,"reserved":0,"last_update":"0001-01-01T00:00:00Z","name_a2s":"Uncletopia | New York City | 2 | All Maps","protocol":17,"map":"plr_hightower","folder":"tf","game":"Team Fortress","app_id":440,"player_count":24,"max_players":24,"Bots":0,"server_type":"Dedicated","server_os":"Linux","password":true,"vac":true,"version":"7757534","steam_id":85568392924469994,"keywords":["nocrits","nodmgspread","payload","uncletopia"],"game_id":440,"stv_port":27026,"stv_name":"Uncletopia | New York City | 2 | All Maps | STV","players":[{"user_id":10,"name":"dirtyella","steam_id":76561199016948161,"connected_time":4414000000000,"state":"active","ping":73},{"user_id":11,"name":"isaiah tiji","steam_id":76561197962607364,"connected_time":4337000000000,"state":"active","ping":70},{"user_id":12,"name":"yuno","steam_id":76561198211308328,"connected_time":4326000000000,"state":"active","ping":45},{"user_id":13,"name":"dawg","steam_id":76561198019444443,"connected_time":4321000000000,"state":"active","ping":106},{"user_id":14,"name":"WISH_Z'S BATTLEGROUNDS","steam_id":76561198094512992,"connected_time":4309000000000,"state":"active","ping":63},{"user_id":15,"name":"Unc","steam_id":76561198311004039,"connected_time":4305000000000,"state":"active","ping":91},{"user_id":17,"name":"Duppy","steam_id":76561198042271448,"connected_time":4284000000000,"state":"active","ping":45},{"user_id":81,"name":"chicanery","steam_id":76561198081654907,"connected_time":59000000000,"state":"active","ping":86},{"user_id":19,"name":"bdefg","steam_id":76561199422915609,"connected_time":4196000000000,"state":"active","ping":80},{"user_id":69,"name":"Nice21","steam_id":76561199427548141,"connected_time":1486000000000,"state":"active","ping":71},{"user_id":21,"name":"flygod","steam_id":76561198319815981,"connected_time":4149000000000,"state":"active","ping":76},{"user_id":70,"name":"Vexed","steam_id":76561198157557477,"connected_time":1415000000000,"state":"active","ping":93},{"user_id":23,"name":"vastrobotmax","steam_id":76561198417110724,"connected_time":4076000000000,"state":"active","ping":69},{"user_id":55,"name":"Unlucky Pedestrian","steam_id":76561198140369514,"connected_time":1821000000000,"state":"active","ping":43},{"user_id":56,"name":"hooley","steam_id":76561198041923067,"connected_time":1815000000000,"state":"active","ping":56},{"user_id":77,"name":"Quansen","steam_id":76561198151594550,"connected_time":644000000000,"state":"active","ping":67},{"user_id":74,"name":"Ursus Ludius","steam_id":76561198025470722,"connected_time":1010000000000,"state":"active","ping":68},{"user_id":51,"name":"Flat Eric","steam_id":76561198114922735,"connected_time":2268000000000,"state":"active","ping":47},{"user_id":57,"name":"Phil Collins","steam_id":76561198068868644,"connected_time":1811000000000,"state":"active","ping":114},{"user_id":80,"name":"wren","steam_id":76561198966785631,"connected_time":113000000000,"state":"active","ping":61},{"user_id":60,"name":"JaketheDog217","steam_id":76561198424859448,"connected_time":1773000000000,"state":"active","ping":95},{"user_id":33,"name":"Indigolake","steam_id":76561198202215807,"connected_time":3744000000000,"state":"active","ping":72},{"user_id":63,"name":"Ben Shapiro","steam_id":76561198861436861,"connected_time":1761000000000,"state":"active","ping":107},{"user_id":78,"name":"CroutonCriminal","steam_id":76561198252145166,"connected_time":611000000000,"state":"active","ping":68}]},{"server_id":15,"name":"Uncletopia | New York City | 3 | Stopwatch Beta","name_short":"nyc-3","host":"nyc-1.us.uncletopia.com","port":27035,"enabled":true,"region":"us-east","cc":"us","latitude":40.73061,"longitude":-73.93524,"reserved":0,"last_update":"0001-01-01T00:00:00Z","name_a2s":"Uncletopia | New York City | 3 | Stopwatch Beta","protocol":17,"map":"pl_upward","folder":"tf","game":"Team Fortress","app_id":440,"player_count":0,"max_players":24,"Bots":0,"server_type":"Dedicated","server_os":"Linux","password":true,"vac":true,"version":"7757534","steam_id":85568392924742820,"keywords":["nocrits","nodmgspread","payload","uncletopia"],"game_id":440,"stv_port":27036,"stv_name":"Uncletopia | New York City | 3 | Stopwatch Beta | STV","players":null},{"server_id":16,"name":"Uncletopia | New York City | 4 | Community","name_short":"nyc-4","host":"nyc-1.us.uncletopia.com","port":27045,"enabled":true,"region":"us-east","cc":"us","latitude":40.73061,"longitude":-73.93524,"reserved":0,"last_update":"0001-01-01T00:00:00Z","name_a2s":"Uncletopia | New York City | 4 | Community","protocol":17,"map":"workshop/pl_corrode_rc2.ugc546577989","folder":"tf","game":"Team Fortress","app_id":440,"player_count":0,"max_players":24,"Bots":0,"server_type":"Dedicated","server_os":"Linux","password":true,"vac":true,"version":"7757534","steam_id":85568392924742821,"keywords":["nocrits","nodmgspread","payload","uncletopia"],"game_id":440,"stv_port":27046,"stv_name":"Uncletopia | New York City | 4 | Community | STV","players":null},{"server_id":142,"name":"Uncletopia | S√£o Paulo | 1 | All Maps","name_short":"sao-1","host":"sao-1.br.uncletopia.com","port":27015,"enabled":true,"region":"sa","cc":"br","latitude":-23.533773,"longitude":-46.62529,"reserved":0,"last_update":"0001-01-01T00:00:00Z","name_a2s":"Uncletopia | S√£o Paulo | 1 | All Maps","protocol":17,"map":"pl_pier","folder":"tf","game":"Team Fortress","app_id":440,"player_count":0,"max_players":24,"Bots":0,"server_type":"Dedicated","server_os":"Linux","password":true,"vac":true,"version":"7757534","steam_id":85568392924469996,"keywords":["nocrits","nodmgspread","payload","uncletopia"],"game_id":440,"stv_port":27016,"stv_name":"Uncletopia | S√£o Paulo | 1 | All Maps | STV","players":null},{"server_id":143,"name":"Uncletopia | S√£o Paulo | 2 | All Maps","name_short":"sao-2","host":"sao-2.br.uncletopia.com","port":27015,"enabled":true,"region":"sa","cc":"br","latitude":-23.533773,"longitude":-46.62529,"reserved":0,"last_update":"0001-01-01T00:00:00Z","name_a2s":"Uncletopia | S√£o Paulo | 2 | All Maps","protocol":17,"map":"koth_cascade","folder":"tf","game":"Team Fortress","app_id":440,"player_count":0,"max_players":24,"Bots":0,"server_type":"Dedicated","server_os":"Linux","password":true,"vac":true,"version":"7757534","steam_id":85568392924485349,"keywords":["cp","nocrits","nodmgspread","uncletopia"],"game_id":440,"stv_port":27016,"stv_name":"Uncletopia | S√£o Paulo | 2 | All Maps | STV","players":null},{"server_id":7,"name":"Uncletopia | Seattle | 1 | All Maps","name_short":"sea-1","host":"sea-1.us.uncletopia.com","port":27015,"enabled":true,"region":"us-west","cc":"us","latitude":47.608013,"longitude":-122.33517,"reserved":0,"last_update":"0001-01-01T00:00:00Z","name_a2s":"Uncletopia | Seattle | 1 | All Maps","protocol":17,"map":"cp_powerhouse","folder":"tf","game":"Team Fortress","app_id":440,"player_count":23,"max_players":24,"Bots":0,"server_type":"Dedicated","server_os":"Linux","password":true,"vac":true,"version":"7757534","steam_id":85568392924469997,"keywords":["cp","nocrits","nodmgspread","uncletopia"],"game_id":440,"stv_port":27016,"stv_name":"Uncletopia | Seattle | 1 | All Maps | STV","players":[{"user_id":277,"name":"Lolxdloldx","steam_id":76561198136887125,"connected_time":8230000000000,"state":"active","ping":97},{"user_id":385,"name":"Anxious Nerd Bird","steam_id":76561198112178602,"connected_time":959000000000,"state":"active","ping":84},{"user_id":397,"name":"vivi","steam_id":76561199027530775,"connected_time":143000000000,"state":"active","ping":84},{"user_id":390,"name":"The Assistant Regional Manager","steam_id":76561199221484936,"connected_time":770000000000,"state":"active","ping":89},{"user_id":383,"name":"Saint!","steam_id":76561198150438871,"connected_time":1041000000000,"state":"active","ping":131},{"user_id":369,"name":"I regret nothing","steam_id":76561198399261089,"connected_time":1865000000000,"state":"active","ping":58},{"user_id":364,"name":"I SQUIRT NAPALM","steam_id":76561198020322241,"connected_time":2271000000000,"state":"active","ping":81},{"user_id":362,"name":"Aardappel","steam_id":76561198030894676,"connected_time":2506000000000,"state":"active","ping":74},{"user_id":391,"name":"EEBIGAA","steam_id":76561198056535988,"connected_time":747000000000,"state":"active","ping":73},{"user_id":396,"name":"tired monke","steam_id":76561199013246567,"connected_time":268000000000,"state":"connecting","ping":0},{"user_id":361,"name":"MORE BOUNCE TO THE OUNCE","steam_id":76561198243399336,"connected_time":2694000000000,"state":"active","ping":75},{"user_id":398,"name":"AmiableNebula","steam_id":76561198094306627,"connected_time":110000000000,"state":"active","ping":75},{"user_id":359,"name":"ShredMaan","steam_id":76561198429982138,"connected_time":2745000000000,"state":"active","ping":86},{"user_id":394,"name":"Skeech","steam_id":76561198119215388,"connected_time":708000000000,"state":"active","ping":111},{"user_id":399,"name":"PheebsyDeebsy","steam_id":76561198101509436,"connected_time":89000000000,"state":"active","ping":62},{"user_id":320,"name":"CookyCunstrukter","steam_id":76561198103659487,"connected_time":5502000000000,"state":"active","ping":64},{"user_id":304,"name":"mub","steam_id":76561197961943948,"connected_time":5926000000000,"state":"active","ping":46},{"user_id":381,"name":"North","steam_id":76561199173696836,"connected_time":1170000000000,"state":"active","ping":71},{"user_id":384,"name":"Nyx11","steam_id":76561198133989593,"connected_time":1000000000000,"state":"active","ping":114},{"user_id":400,"name":"Specc","steam_id":76561199090005976,"connected_time":8000000000,"state":"spawning","ping":76},{"user_id":366,"name":"MSIBoys","steam_id":76561198213692935,"connected_time":1890000000000,"state":"active","ping":87},{"user_id":318,"name":"Infant Attacker 2","steam_id":76561198018821860,"connected_time":5532000000000,"state":"active","ping":60},{"user_id":368,"name":"yup","steam_id":76561199190800520,"connected_time":1876000000000,"state":"active","ping":42}]},{"server_id":119,"name":"Uncletopia | Seattle | 2 | All Maps","name_short":"sea-2","host":"sea-1.us.uncletopia.com","port":27025,"enabled":true,"region":"us-west","cc":"us","latitude":47.608013,"longitude":-122.33517,"reserved":0,"last_update":"0001-01-01T00:00:00Z","name_a2s":"Uncletopia | Seattle | 2 | All Maps","protocol":17,"map":"cp_altitude","folder":"tf","game":"Team Fortress","app_id":440,"player_count":0,"max_players":24,"Bots":0,"server_type":"Dedicated","server_os":"Linux","password":true,"vac":true,"version":"7757534","steam_id":85568392924469998,"keywords":["cp","nocrits","nodmgspread","uncletopia"],"game_id":440,"stv_port":27026,"stv_name":"Uncletopia | Seattle | 2 | All Maps | STV","players":null},{"server_id":406,"name":"Uncletopia | Seattle | 3 | Stopwatch Beta","name_short":"sea-3","host":"sea-1.us.uncletopia.com","port":27035,"enabled":true,"region":"us-west","cc":"us","latitude":47.608013,"longitude":-122.33517,"reserved":0,"last_update":"0001-01-01T00:00:00Z","name_a2s":"Uncletopia | Seattle | 3 | Stopwatch Beta","protocol":17,"map":"pl_barnblitz","folder":"tf","game":"Team Fortress","app_id":440,"player_count":0,"max_players":24,"Bots":0,"server_type":"Dedicated","server_os":"Linux","password":true,"vac":true,"version":"7757534","steam_id":85568392924515217,"keywords":["nocrits","nodmgspread","payload","uncletopia"],"game_id":440,"stv_port":27036,"stv_name":"Uncletopia | Seattle | 3 | Stopwatch Beta | STV","players":null},{"server_id":17,"name":"Uncletopia | San Francisco | 1 | All Maps","name_short":"sfo-1","host":"sfo-1.us.uncletopia.com","port":27015,"enabled":true,"region":"us-west","cc":"us","latitude":37.77397,"longitude":-122.4313,"reserved":0,"last_update":"0001-01-01T00:00:00Z","name_a2s":"Uncletopia | San Francisco | 1 | All Maps","protocol":17,"map":"pl_upward","folder":"tf","game":"Team Fortress","app_id":440,"player_count":23,"max_players":24,"Bots":0,"server_type":"Dedicated","server_os":"Linux","password":true,"vac":true,"version":"7757534","steam_id":85568392924469999,"keywords":["nocrits","nodmgspread","payload","uncletopia"],"game_id":440,"stv_port":27016,"stv_name":"Uncletopia | San Francisco | 1 | All Maps | STV","players":[{"user_id":161,"name":"Mushroom Juice #Savetf2","steam_id":76561198345744848,"connected_time":552000000000,"state":"active","ping":41},{"user_id":155,"name":"Diesel","steam_id":76561198448815852,"connected_time":1816000000000,"state":"active","ping":45},{"user_id":78,"name":"Avem","steam_id":76561198058763710,"connected_time":8311000000000,"state":"active","ping":47},{"user_id":165,"name":"Fuzzycoco","steam_id":76561198154714679,"connected_time":455000000000,"state":"active","ping":84},{"user_id":126,"name":"Guest","steam_id":76561198241004916,"connected_time":3697000000000,"state":"active","ping":46},{"user_id":159,"name":"Akkawi","steam_id":76561198203159952,"connected_time":1418000000000,"state":"active","ping":60},{"user_id":128,"name":"Thequirka","steam_id":76561198968058652,"connected_time":3516000000000,"state":"active","ping":62},{"user_id":162,"name":"yes, tf2 is real","steam_id":76561198188612758,"connected_time":538000000000,"state":"active","ping":60},{"user_id":163,"name":"salted potato","steam_id":76561199068161199,"connected_time":515000000000,"state":"active","ping":123},{"user_id":138,"name":"EatSomeBEES","steam_id":76561198047334307,"connected_time":3293000000000,"state":"active","ping":71},{"user_id":121,"name":"LazyDoll","steam_id":76561198053186338,"connected_time":4203000000000,"state":"active","ping":69},{"user_id":132,"name":"Aifx #ForQuirka","steam_id":76561198398268649,"connected_time":3470000000000,"state":"active","ping":118},{"user_id":139,"name":"Minerkid2004","steam_id":76561198044262827,"connected_time":3249000000000,"state":"active","ping":48},{"user_id":157,"name":"sevanial","steam_id":76561198071532126,"connected_time":1747000000000,"state":"active","ping":84},{"user_id":168,"name":"bushman","steam_id":76561197996548146,"connected_time":284000000000,"state":"active","ping":126},{"user_id":136,"name":"PLak-PlaK","steam_id":76561198115688122,"connected_time":3387000000000,"state":"active","ping":85},{"user_id":154,"name":"The Horselords and Animal Gods","steam_id":76561197975094050,"connected_time":2000000000000,"state":"active","ping":65},{"user_id":167,"name":"okay","steam_id":76561198249946198,"connected_time":413000000000,"state":"active","ping":51},{"user_id":33,"name":"SIGMA GRINDSET","steam_id":76561198310993000,"connected_time":11126000000000,"state":"active","ping":60},{"user_id":148,"name":"Sparrow","steam_id":76561199122118959,"connected_time":2811000000000,"state":"active","ping":47},{"user_id":85,"name":"mumbles","steam_id":76561197994528974,"connected_time":7712000000000,"state":"active","ping":102},{"user_id":142,"name":"iamfelps","steam_id":76561198384234451,"connected_time":3192000000000,"state":"active","ping":60},{"user_id":144,"name":"GameGuru the Green Gryphon","steam_id":76561198118495354,"connected_time":2910000000000,"state":"active","ping":63}]},{"server_id":18,"name":"Uncletopia | San Francisco | 2 | All Maps","name_short":"sfo-2","host":"sfo-1.us.uncletopia.com","port":27025,"enabled":true,"region":"us-west","cc":"us","latitude":37.77397,"longitude":-122.4313,"reserved":0,"last_update":"0001-01-01T00:00:00Z","name_a2s":"Uncletopia | San Francisco | 2 | All Maps","protocol":17,"map":"pl_frontier_final","folder":"tf","game":"Team Fortress","app_id":440,"player_count":0,"max_players":24,"Bots":0,"server_type":"Dedicated","server_os":"Linux","password":true,"vac":true,"version":"7757534","steam_id":85568392924470000,"keywords":["nocrits","nodmgspread","payload","uncletopia"],"game_id":440,"stv_port":27026,"stv_name":"Uncletopia | San Francisco | 2 | All Maps | STV","players":null},{"server_id":19,"name":"Uncletopia | San Francisco | 3 | Stopwatch Beta","name_short":"sfo-3","host":"sfo-1.us.uncletopia.com","port":27035,"enabled":true,"region":"us-west","cc":"us","latitude":37.77397,"longitude":-122.4313,"reserved":0,"last_update":"0001-01-01T00:00:00Z","name_a2s":"Uncletopia | San Francisco | 3 | Stopwatch Beta","protocol":17,"map":"pl_borneo","folder":"tf","game":"Team Fortress","app_id":440,"player_count":0,"max_players":24,"Bots":0,"server_type":"Dedicated","server_os":"Linux","password":true,"vac":true,"version":"7757534","steam_id":85568392924742824,"keywords":["nocrits","nodmgspread","payload","uncletopia"],"game_id":440,"stv_port":27036,"stv_name":"Uncletopia | San Francisco | 3 | Stopwatch Beta | STV","players":null},{"server_id":20,"name":"Uncletopia | San Francisco | 4 | Community","name_short":"sfo-4","host":"sfo-1.us.uncletopia.com","port":27045,"enabled":true,"region":"us-west","cc":"us","latitude":37.77397,"longitude":-122.4313,"reserved":0,"last_update":"0001-01-01T00:00:00Z","name_a2s":"Uncletopia | San Francisco | 4 | Community","protocol":17,"map":"workshop/cp_glassworks_rc6a.ugc454118349","folder":"tf","game":"Team Fortress","app_id":440,"player_count":0,"max_players":24,"Bots":0,"server_type":"Dedicated","server_os":"Linux","password":true,"vac":true,"version":"7757534","steam_id":85568392924742826,"keywords":["cp","nocrits","nodmgspread","uncletopia"],"game_id":440,"stv_port":27046,"stv_name":"Uncletopia | San Francisco | 4 | Community | STV","players":null},{"server_id":141,"name":"Uncletopia | Sydney | 1 | All Maps","name_short":"syd-1","host":"syd-1.au.uncletopia.com","port":27015,"enabled":true,"region":"au","cc":"au","latitude":-33.865143,"longitude":151.2099,"reserved":0,"last_update":"0001-01-01T00:00:00Z","name_a2s":"Uncletopia | Sydney | 1 | All Maps","protocol":17,"map":"cp_process_final","folder":"tf","game":"Team Fortress","app_id":440,"player_count":0,"max_players":24,"Bots":0,"server_type":"Dedicated","server_os":"Linux","password":true,"vac":true,"version":"7757534","steam_id":85568392924470001,"keywords":["cp","nocrits","nodmgspread","uncletopia"],"game_id":440,"stv_port":27016,"stv_name":"Uncletopia | Sydney | 1 | All Maps | STV","players":null},{"server_id":123,"name":"Uncletopia | Sydney | 2 | All Maps","name_short":"syd-2","host":"syd-1.au.uncletopia.com","port":27025,"enabled":true,"region":"au","cc":"au","latitude":-33.865143,"longitude":151.2099,"reserved":0,"last_update":"0001-01-01T00:00:00Z","name_a2s":"Uncletopia | Sydney | 2 | All Maps","protocol":17,"map":"koth_viaduct","folder":"tf","game":"Team Fortress","app_id":440,"player_count":0,"max_players":24,"Bots":0,"server_type":"Dedicated","server_os":"Linux","password":true,"vac":true,"version":"7757534","steam_id":85568392924470002,"keywords":["cp","nocrits","nodmgspread","uncletopia"],"game_id":440,"stv_port":27026,"stv_name":"Uncletopia | Sydney | 2 | All Maps | STV","players":null},{"server_id":395,"name":"Uncletopia | Sydney | 3 | All Maps","name_short":"syd-3","host":"syd-1.au.uncletopia.com","port":27035,"enabled":true,"region":"au","cc":"au","latitude":-33.865143,"longitude":151.2099,"reserved":0,"last_update":"0001-01-01T00:00:00Z","name_a2s":"Uncletopia | Sydney | 3 | All Maps","protocol":17,"map":"pl_upward","folder":"tf","game":"Team Fortress","app_id":440,"player_count":0,"max_players":24,"Bots":0,"server_type":"Dedicated","server_os":"Linux","password":true,"vac":true,"version":"7757534","steam_id":85568392925194467,"keywords":["nocrits","nodmgspread","payload","uncletopia"],"game_id":440,"stv_port":27036,"stv_name":"Uncletopia | Sydney | 3 | All Maps | STV","players":null},{"server_id":396,"name":"Uncletopia | Sydney | 4 | All Maps","name_short":"syd-4","host":"syd-1.au.uncletopia.com","port":27045,"enabled":true,"region":"au","cc":"au","latitude":-33.865143,"longitude":151.2099,"reserved":0,"last_update":"0001-01-01T00:00:00Z","name_a2s":"Uncletopia | Sydney | 4 | All Maps","protocol":17,"map":"koth_lakeside_final","folder":"tf","game":"Team Fortress","app_id":440,"player_count":0,"max_players":24,"Bots":0,"server_type":"Dedicated","server_os":"Linux","password":true,"vac":true,"version":"7757534","steam_id":85568392925397958,"keywords":["cp","nocrits","nodmgspread","uncletopia"],"game_id":440,"stv_port":27046,"stv_name":"Uncletopia | Sydney | 4 | All Maps | STV","players":null},{"server_id":58,"name":"Uncletopia | Sydney | 5 | Stopwatch Beta","name_short":"syd-5","host":"syd-1.au.uncletopia.com","port":27055,"enabled":true,"region":"au","cc":"au","latitude":-33.865143,"longitude":151.2099,"reserved":0,"last_update":"0001-01-01T00:00:00Z","name_a2s":"Uncletopia | Sydney | 5 | Stopwatch Beta","protocol":17,"map":"koth_highpass","folder":"tf","game":"Team Fortress","app_id":440,"player_count":0,"max_players":24,"Bots":0,"server_type":"Dedicated","server_os":"Linux","password":true,"vac":true,"version":"7757534","steam_id":85568392925397959,"keywords":["cp","nocrits","nodmgspread","uncletopia"],"game_id":440,"stv_port":27056,"stv_name":"Uncletopia | Sydney | 5 | Stopwatch Beta | STV","players":null},{"server_id":59,"name":"Uncletopia | Sydney | 6 | Community","name_short":"syd-6","host":"syd-1.au.uncletopia.com","port":27065,"enabled":true,"region":"au","cc":"au","latitude":-33.865143,"longitude":151.2099,"reserved":0,"last_update":"0001-01-01T00:00:00Z","name_a2s":"Uncletopia | Sydney | 6 | Community","protocol":17,"map":"workshop/cp_villa_b19.ugc2113052569","folder":"tf","game":"Team Fortress","app_id":440,"player_count":0,"max_players":24,"Bots":0,"server_type":"Dedicated","server_os":"Linux","password":true,"vac":true,"version":"7757534","steam_id":85568392925397960,"keywords":["cp","nocrits","nodmgspread","uncletopia"],"game_id":440,"stv_port":27066,"stv_name":"Uncletopia | Sydney | 6 | Community | STV","players":null},{"server_id":49,"name":"Uncletopia | Warsaw | 1 | All Maps","name_short":"waw-1","host":"waw-1.pl.uncletopia.com","port":27015,"enabled":true,"region":"eu","cc":"pl","latitude":52.2297,"longitude":21.017532,"reserved":0,"last_update":"0001-01-01T00:00:00Z","name_a2s":"","protocol":0,"map":"","folder":"","game":"","app_id":0,"player_count":0,"max_players":0,"Bots":0,"server_type":"","server_os":"","password":false,"vac":false,"version":"","steam_id":0,"keywords":null,"game_id":0,"stv_port":0,"stv_name":"","players":null},{"server_id":50,"name":"Uncletopia | Warsaw | 2 | All Maps","name_short":"waw-2","host":"waw-1.pl.uncletopia.com","port":27025,"enabled":true,"region":"eu","cc":"pl","latitude":52.2297,"longitude":21.017532,"reserved":0,"last_update":"0001-01-01T00:00:00Z","name_a2s":"Uncletopia | Warsaw | 2 | All Maps","protocol":17,"map":"pl_badwater","folder":"tf","game":"Team Fortress","app_id":440,"player_count":0,"max_players":24,"Bots":0,"server_type":"Dedicated","server_os":"Linux","password":true,"vac":true,"version":"7757534","steam_id":85568392925397851,"keywords":["nocrits","nodmgspread","payload","uncletopia"],"game_id":440,"stv_port":27026,"stv_name":"Uncletopia | Warsaw | 2 | All Maps | STV","players":null},{"server_id":51,"name":"Uncletopia | Warsaw | 3 | All Maps","name_short":"waw-3","host":"waw-1.pl.uncletopia.com","port":27035,"enabled":true,"region":"eu","cc":"pl","latitude":52.2297,"longitude":21.017532,"reserved":0,"last_update":"0001-01-01T00:00:00Z","name_a2s":"Uncletopia | Warsaw | 3 | All Maps","protocol":17,"map":"pl_badwater","folder":"tf","game":"Team Fortress","app_id":440,"player_count":0,"max_players":24,"Bots":0,"server_type":"Dedicated","server_os":"Linux","password":true,"vac":true,"version":"7757534","steam_id":85568392925397852,"keywords":["nocrits","nodmgspread","payload","uncletopia"],"game_id":440,"stv_port":27036,"stv_name":"Uncletopia | Warsaw | 3 | All Maps | STV","players":null},{"server_id":52,"name":"Uncletopia | Warsaw | 4 | All Maps","name_short":"waw-4","host":"waw-1.pl.uncletopia.com","port":27045,"enabled":true,"region":"eu","cc":"pl","latitude":52.2297,"longitude":21.017532,"reserved":0,"last_update":"0001-01-01T00:00:00Z","name_a2s":"Uncletopia | Warsaw | 4 | All Maps","protocol":17,"map":"cp_mountainlab","folder":"tf","game":"Team Fortress","app_id":440,"player_count":0,"max_players":24,"Bots":0,"server_type":"Dedicated","server_os":"Linux","password":true,"vac":true,"version":"7757534","steam_id":85568392925397853,"keywords":["cp","nocrits","nodmgspread","uncletopia"],"game_id":440,"stv_port":27046,"stv_name":"Uncletopia | Warsaw | 4 | All Maps | STV","players":null},{"server_id":53,"name":"Uncletopia | Warsaw | 5 | Stopwatch Beta","name_short":"waw-5","host":"waw-1.pl.uncletopia.com","port":27055,"enabled":true,"region":"eu","cc":"pl","latitude":52.2297,"longitude":21.017532,"reserved":0,"last_update":"0001-01-01T00:00:00Z","name_a2s":"Uncletopia | Warsaw | 5 | Stopwatch Beta","protocol":17,"map":"pl_barnblitz","folder":"tf","game":"Team Fortress","app_id":440,"player_count":0,"max_players":24,"Bots":0,"server_type":"Dedicated","server_os":"Linux","password":true,"vac":true,"version":"7757534","steam_id":85568392925397854,"keywords":["nocrits","nodmgspread","payload","uncletopia"],"game_id":440,"stv_port":27056,"stv_name":"Uncletopia | Warsaw | 5 | Stopwatch Beta | STV","players":null},{"server_id":54,"name":"Uncletopia | Warsaw | 6 | Community","name_short":"waw-6","host":"waw-1.pl.uncletopia.com","port":27065,"enabled":true,"region":"eu","cc":"pl","latitude":52.2297,"longitude":21.017532,"reserved":0,"last_update":"0001-01-01T00:00:00Z","name_a2s":"Uncletopia | Warsaw | 6 | Community","protocol":17,"map":"workshop/pl_barnblitz_pro7.ugc582280235","folder":"tf","game":"Team Fortress","app_id":440,"player_count":0,"max_players":24,"Bots":0,"server_type":"Dedicated","server_os":"Linux","password":true,"vac":true,"version":"7757534","steam_id":85568392925397856,"keywords":["nocrits","nodmgspread","payload","uncletopia"],"game_id":440,"stv_port":27066,"stv_name":"Uncletopia | Warsaw | 6 | Community | STV","players":null}]}