{"status":true,"message":"","result":[{"server_id":9,"name":"Uncletopia | Atlanta | 1 | All Maps","name_short":"atl-1","host":"atl-1.us.uncletopia.com","port":27015,"enabled":true,"region":"us-east","cc":"us","latitude":33.753746,"longitude":-84.38633,"reserved":0,"last_update":"0001-01-01T00:00:00Z","name_a2s":"Uncletopia | Atlanta | 1 | All Maps","protocol":17,"map":"pl_swiftwater_final1","folder":"tf","game":"Team Fortress","app_id":440,"player_count":5,"max_players":24,"Bots":0,"server_type":"Dedicated","server_os":"Linux","password":true,"vac":true,"version":"7932396","steam_id":85568392924469982,"keywords":["nocrits","nodmgspread","payload","uncletopia"],"game_id":440,"stv_port":27016,"stv_name":"Uncletopia | Atlanta | 1 | All Maps | STV","players":[{"user_id":505,"name":"ÇAFFIEND","steam_id":76561198062993241,"connected_time":3458000000000,"state":"active","ping":68},{"user_id":528,"name":"Obese Pete","steam_id":76561198203443358,"connected_time":788000000000,"state":"active","ping":77},{"user_id":529,"name":"TheSmolPopato","steam_id":76561199076606348,"connected_time":523000000000,"state":"active","ping":86},{"user_id":531,"name":"iclark5","steam_id":76561199256588354,"connected_time":86000000000,"state":"active","ping":103},{"user_id":332,"name":"FOrce of nature","steam_id":76561198390522839,"connected_time":7399000000000,"state":"active","ping":89}]},{"server_id":104,"name":"Uncletopia | Atlanta | 2 | All Maps","name_short":"atl-2","host":"atl-1.us.uncletopia.com","port":27025,"enabled":true,"region":"us-east","cc":"us","latitude":33.753746,"longitude":-84.38633,"reserved":0,"last_update":"0001-01-01T00:00:00Z","name_a2s":"Uncletopia | Atlanta | 2 | All Maps","protocol":17,"map":"pl_borneo","folder":"tf","game":"Team Fortress","app_id":440,"player_count":0,"max_players":24,"Bots":0,"server_type":"Dedicated","server_os":"Linux","password":true,"vac":true,"version":"7932396","steam_id":85568392924469983,"keywords":["nocrits","nodmgspread","payload","uncletopia"],"game_id":440,"stv_port":27026,"stv_name":"Uncletopia | Atlanta | 2 | All Maps | STV","players":null},{"server_id":400,"name":"Uncletopia | Atlanta | 3 | Community","name_short":"atl-3","host":"atl-1.us.uncletopia.com","port":27035,"enabled":true,"region":"us-east","cc":"us","latitude":33.753746,"longitude":-84.38633,"reserved":0,"last_update":"0001-01-01T00:00:00Z","name_a2s":"Uncletopia | Atlanta | 3 | Community","protocol":17,"map":"workshop/koth_trenchfoot_b1a.ugc731436616","folder":"tf","game":"Team Fortress","app_id":440,"player_count":0,"max_players":24,"Bots":0,"server_type":"Dedicated","server_os":"Linux","password":true,"vac":true,"version":"7932396","steam_id":85568392924515187,"keywords":["cp","nocrits","nodmgspread","uncletopia"],"game_id":440,"stv_port":27036,"stv_name":"Uncletopia | Atlanta | 3 | Community | STV","players":null},{"server_id":401,"name":"Uncletopia | Atlanta | 4 | No Payload","name_short":"atl-4","host":"atl-1.us.uncletopia.com","port":27045,"enabled":true,"region":"us-east","cc":"us","latitude":33.753746,"longitude":-84.38633,"reserved":0,"last_update":"0001-01-01T00:00:00Z","name_a2s":"","protocol":0,"map":"","folder":"","game":"","app_id":0,"player_count":0,"max_players":0,"Bots":0,"server_type":"","server_os":"","password":false,"vac":false,"version":"","steam_id":0,"keywords":null,"game_id":0,"stv_port":0,"stv_name":"","players":null},{"server_id":2,"name":"Uncletopia | Chicago | 1 | All Maps","name_short":"chi-1","host":"chi-1.us.uncletopia.com","port":27015,"enabled":true,"region":"us-central","cc":"us","latitude":41.881832,"longitude":-87.62318,"reserved":0,"last_update":"0001-01-01T00:00:00Z","name_a2s":"Uncletopia | Chicago | 1 | All Maps","protocol":17,"map":"pl_pier","folder":"tf","game":"Team Fortress","app_id":440,"player_count":24,"max_players":24,"Bots":0,"server_type":"Dedicated","server_os":"Linux","password":true,"vac":true,"version":"7932396","steam_id":85568392924469984,"keywords":["nocrits","nodmgspread","payload","uncletopia"],"game_id":440,"stv_port":27016,"stv_name":"Uncletopia | Chicago | 1 | All Maps | STV","players":[{"user_id":828,"name":"kite","steam_id":76561198346516392,"connected_time":1508000000000,"state":"active","ping":62},{"user_id":842,"name":"DFR DeezNoodlez","steam_id":76561198246700372,"connected_time":179000000000,"state":"active","ping":71},{"user_id":831,"name":"rose","steam_id":76561198048882285,"connected_time":1255000000000,"state":"active","ping":60},{"user_id":843,"name":"DFR spoonful","steam_id":76561198927517471,"connected_time":179000000000,"state":"active","ping":74},{"user_id":844,"name":"Snom","steam_id":76561198333827920,"connected_time":179000000000,"state":"active","ping":103},{"user_id":781,"name":"loser","steam_id":76561198259380127,"connected_time":5617000000000,"state":"active","ping":56},{"user_id":836,"name":"BigDeac","steam_id":76561198091237274,"connected_time":888000000000,"state":"active","ping":57},{"user_id":773,"name":"Lost","steam_id":76561198093713427,"connected_time":5837000000000,"state":"active","ping":60},{"user_id":845,"name":"Jimbo99","steam_id":76561198225114256,"connected_time":172000000000,"state":"active","ping":74},{"user_id":827,"name":"Mank","steam_id":76561198189421005,"connected_time":1964000000000,"state":"active","ping":46},{"user_id":846,"name":"Zippy","steam_id":76561198279229422,"connected_time":166000000000,"state":"active","ping":61},{"user_id":816,"name":"Grilled Jizo","steam_id":76561199250875340,"connected_time":2678000000000,"state":"active","ping":75},{"user_id":839,"name":"ATL1 | TheRealMud","steam_id":76561198138312993,"connected_time":210000000000,"state":"active","ping":76},{"user_id":826,"name":"car","steam_id":76561198999217575,"connected_time":2020000000000,"state":"active","ping":90},{"user_id":847,"name":"ARegularJohnDoe","steam_id":76561198015020139,"connected_time":165000000000,"state":"active","ping":59},{"user_id":833,"name":"DragonFalcon™","steam_id":76561198044559930,"connected_time":1027000000000,"state":"active","ping":83},{"user_id":829,"name":"Sophie","steam_id":76561198170408057,"connected_time":1443000000000,"state":"active","ping":64},{"user_id":838,"name":"Liquid Oxycodone","steam_id":76561198154162664,"connected_time":212000000000,"state":"active","ping":78},{"user_id":835,"name":"noah","steam_id":76561198173310157,"connected_time":954000000000,"state":"active","ping":49},{"user_id":727,"name":"Wizard Raccoon","steam_id":76561198072562591,"connected_time":10309000000000,"state":"active","ping":82},{"user_id":728,"name":"L + Ratio","steam_id":76561198263786953,"connected_time":10308000000000,"state":"active","ping":77},{"user_id":834,"name":"Comradical","steam_id":76561197990808285,"connected_time":988000000000,"state":"active","ping":86},{"user_id":848,"name":"Lorberry","steam_id":76561198023706058,"connected_time":108000000000,"state":"active","ping":30},{"user_id":840,"name":"crusty musty","steam_id":76561198319442494,"connected_time":209000000000,"state":"active","ping":116}]},{"server_id":106,"name":"Uncletopia | Chicago | 2 | All Maps","name_short":"chi-2","host":"chi-1.us.uncletopia.com","port":27025,"enabled":true,"region":"us-central","cc":"us","latitude":41.881832,"longitude":-87.62318,"reserved":0,"last_update":"0001-01-01T00:00:00Z","name_a2s":"Uncletopia | Chicago | 2 | All Maps","protocol":17,"map":"cp_sunshine","folder":"tf","game":"Team Fortress","app_id":440,"player_count":24,"max_players":24,"Bots":0,"server_type":"Dedicated","server_os":"Linux","password":true,"vac":true,"version":"7932396","steam_id":85568392924469985,"keywords":["cp","nocrits","nodmgspread","uncletopia"],"game_id":440,"stv_port":27026,"stv_name":"Uncletopia | Chicago | 2 | All Maps | STV","players":[{"user_id":830,"name":"tim-","steam_id":76561199119101315,"connected_time":896000000000,"state":"active","ping":71},{"user_id":834,"name":"Boomboombop","steam_id":76561198267531538,"connected_time":538000000000,"state":"active","ping":67},{"user_id":783,"name":"Six Piece Chicken McNobody","steam_id":76561198129848222,"connected_time":3636000000000,"state":"active","ping":94},{"user_id":717,"name":"xX_HimboSwallower_Xx","steam_id":76561198016029965,"connected_time":9955000000000,"state":"active","ping":66},{"user_id":823,"name":"ultralisk52","steam_id":76561198051666604,"connected_time":1126000000000,"state":"active","ping":60},{"user_id":835,"name":"Riandox","steam_id":76561198130577326,"connected_time":510000000000,"state":"active","ping":64},{"user_id":824,"name":"Amyxts36","steam_id":76561198872232094,"connected_time":1079000000000,"state":"active","ping":67},{"user_id":837,"name":"Snowy 79","steam_id":76561198944639546,"connected_time":322000000000,"state":"active","ping":67},{"user_id":831,"name":"harison86","steam_id":76561198060100647,"connected_time":890000000000,"state":"active","ping":91},{"user_id":836,"name":"Zoot","steam_id":76561198121944243,"connected_time":411000000000,"state":"active","ping":75},{"user_id":817,"name":"checkswing","steam_id":76561198999816132,"connected_time":1840000000000,"state":"active","ping":76},{"user_id":800,"name":"Cheers! I'll drink to that","steam_id":76561198112705880,"connected_time":2386000000000,"state":"active","ping":98},{"user_id":825,"name":"LinkStorm","steam_id":76561198202772455,"connected_time":1055000000000,"state":"active","ping":70},{"user_id":805,"name":"ermmmmm pipebomb!!!","steam_id":76561198089638718,"connected_time":2246000000000,"state":"active","ping":57},{"user_id":832,"name":"Nathan","steam_id":76561199132214008,"connected_time":874000000000,"state":"active","ping":89},{"user_id":839,"name":"urlrot","steam_id":76561198079318421,"connected_time":243000000000,"state":"active","ping":84},{"user_id":778,"name":"co)))))ne","steam_id":76561198053967778,"connected_time":4202000000000,"state":"active","ping":59},{"user_id":801,"name":"McKraken","steam_id":76561198080478933,"connected_time":2373000000000,"state":"active","ping":55},{"user_id":807,"name":"CrunchCisco","steam_id":76561199162724832,"connected_time":2225000000000,"state":"active","ping":84},{"user_id":822,"name":"Fobby #Savetf2","steam_id":76561198047681469,"connected_time":1304000000000,"state":"active","ping":66},{"user_id":818,"name":"Lindes","steam_id":76561198132472867,"connected_time":1640000000000,"state":"active","ping":40},{"user_id":838,"name":"Uwasatchi","steam_id":76561198011501261,"connected_time":266000000000,"state":"active","ping":71},{"user_id":816,"name":"HUNGRY DOGS EAT FASTER","steam_id":76561198040440984,"connected_time":1916000000000,"state":"active","ping":74},{"user_id":821,"name":"heartcey","steam_id":76561198101585918,"connected_time":1454000000000,"state":"active","ping":61}]},{"server_id":402,"name":"Uncletopia | Chicago | 3 | All Maps","name_short":"chi-3","host":"chi-1.us.uncletopia.com","port":27035,"enabled":true,"region":"us-central","cc":"us","latitude":41.881832,"longitude":-87.62318,"reserved":0,"last_update":"0001-01-01T00:00:00Z","name_a2s":"Uncletopia | Chicago | 3 | All Maps","protocol":17,"map":"pl_upward","folder":"tf","game":"Team Fortress","app_id":440,"player_count":24,"max_players":24,"Bots":0,"server_type":"Dedicated","server_os":"Linux","password":true,"vac":true,"version":"7932396","steam_id":85568392924515191,"keywords":["nocrits","nodmgspread","payload","uncletopia"],"game_id":440,"stv_port":27036,"stv_name":"Uncletopia | Chicago | 3 | All Maps | STV","players":[{"user_id":420,"name":"CapnKris22","steam_id":76561198049010994,"connected_time":87000000000,"state":"active","ping":64},{"user_id":251,"name":"DoubleX2000","steam_id":76561198164134387,"connected_time":12833000000000,"state":"active","ping":107},{"user_id":417,"name":"Toastee","steam_id":76561198085410969,"connected_time":356000000000,"state":"active","ping":47},{"user_id":419,"name":"Rudy","steam_id":76561198013456828,"connected_time":286000000000,"state":"active","ping":65},{"user_id":368,"name":"Pourpel","steam_id":76561198059125470,"connected_time":3186000000000,"state":"active","ping":71},{"user_id":378,"name":"Law","steam_id":76561199059063560,"connected_time":2377000000000,"state":"active","ping":73},{"user_id":401,"name":"koolamundo","steam_id":76561198101705890,"connected_time":1159000000000,"state":"active","ping":64},{"user_id":354,"name":"Alecto","steam_id":76561198042476864,"connected_time":4043000000000,"state":"active","ping":48},{"user_id":240,"name":"Digitic","steam_id":76561198080295536,"connected_time":13448000000000,"state":"active","ping":74},{"user_id":407,"name":"Jaydyn","steam_id":76561198140326797,"connected_time":819000000000,"state":"active","ping":85},{"user_id":390,"name":"Thrackzog","steam_id":76561198183203745,"connected_time":1792000000000,"state":"active","ping":59},{"user_id":399,"name":":3 beelthazus","steam_id":76561198127783432,"connected_time":1254000000000,"state":"active","ping":65},{"user_id":413,"name":"jose_gonzalez2013","steam_id":76561198015445848,"connected_time":454000000000,"state":"active","ping":59},{"user_id":367,"name":"MarsionQuin","steam_id":76561199086790535,"connected_time":3274000000000,"state":"active","ping":85},{"user_id":403,"name":"jerma enthusiast","steam_id":76561198359466264,"connected_time":1036000000000,"state":"active","ping":77},{"user_id":392,"name":"Menthol Cop","steam_id":76561198179817985,"connected_time":1783000000000,"state":"active","ping":80},{"user_id":396,"name":"haxxorman","steam_id":76561199155156400,"connected_time":1658000000000,"state":"active","ping":55},{"user_id":383,"name":"Your Loyal Familiar","steam_id":76561198106476075,"connected_time":2120000000000,"state":"active","ping":77},{"user_id":414,"name":"orion","steam_id":76561198958251492,"connected_time":431000000000,"state":"active","ping":70},{"user_id":410,"name":"totally not a pile of beans","steam_id":76561198119851931,"connected_time":780000000000,"state":"active","ping":83},{"user_id":411,"name":"0vii","steam_id":76561198117084598,"connected_time":726000000000,"state":"active","ping":72},{"user_id":415,"name":"Model CHP-3Y","steam_id":76561198107806145,"connected_time":424000000000,"state":"active","ping":84},{"user_id":398,"name":"ElZeto","steam_id":76561198252322622,"connected_time":1471000000000,"state":"active","ping":102},{"user_id":416,"name":"glankinator","steam_id":76561198354077256,"connected_time":418000000000,"state":"active","ping":45}]},{"server_id":403,"name":"Uncletopia | Chicago | 4 | All Maps","name_short":"chi-4","host":"chi-1.us.uncletopia.com","port":27045,"enabled":true,"region":"us-central","cc":"us","latitude":41.881832,"longitude":-87.62318,"reserved":0,"last_update":"0001-01-01T00:00:00Z","name_a2s":"Uncletopia | Chicago | 4 | All Maps","protocol":17,"map":"pl_barnblitz","folder":"tf","game":"Team Fortress","app_id":440,"player_count":24,"max_players":24,"Bots":0,"server_type":"Dedicated","server_os":"Linux","password":true,"vac":true,"version":"7932396","steam_id":85568392924515193,"keywords":["nocrits","nodmgspread","payload","uncletopia"],"game_id":440,"stv_port":27046,"stv_name":"Uncletopia | Chicago | 4 | All Maps | STV","players":[{"user_id":454,"name":"eat Pant","steam_id":76561197974965536,"connected_time":39000000000,"state":"active","ping":58},{"user_id":420,"name":"Horrizan","steam_id":76561197965028480,"connected_time":2438000000000,"state":"active","ping":86},{"user_id":439,"name":"oof aim small brain","steam_id":76561198079925551,"connected_time":986000000000,"state":"active","ping":68},{"user_id":330,"name":"hej","steam_id":76561197996366940,"connected_time":9469000000000,"state":"active","ping":57},{"user_id":414,"name":"wunkem","steam_id":76561198055948497,"connected_time":3143000000000,"state":"active","ping":62},{"user_id":435,"name":"Wolf Hat","steam_id":76561198099996051,"connected_time":1391000000000,"state":"active","ping":61},{"user_id":375,"name":"duck, duck, LOVE","steam_id":76561198010706701,"connected_time":6596000000000,"state":"active","ping":69},{"user_id":376,"name":"gorf?","steam_id":76561198142286417,"connected_time":6594000000000,"state":"active","ping":55},{"user_id":438,"name":"Truffles","steam_id":76561198095868800,"connected_time":1084000000000,"state":"active","ping":84},{"user_id":432,"name":"Ash40000","steam_id":76561198092841526,"connected_time":1512000000000,"state":"active","ping":67},{"user_id":440,"name":"DanW","steam_id":76561198143707391,"connected_time":944000000000,"state":"active","ping":67},{"user_id":447,"name":"The One True Luke","steam_id":76561198180891187,"connected_time":707000000000,"state":"active","ping":61},{"user_id":431,"name":"An Erect Penis :)","steam_id":76561198086477485,"connected_time":1656000000000,"state":"active","ping":41},{"user_id":445,"name":"Bheem","steam_id":76561198170453459,"connected_time":726000000000,"state":"active","ping":76},{"user_id":402,"name":"Ayylmao","steam_id":76561198104780147,"connected_time":3782000000000,"state":"active","ping":47},{"user_id":429,"name":"EddieTheScrub","steam_id":76561198928903110,"connected_time":1987000000000,"state":"active","ping":57},{"user_id":362,"name":"Swash","steam_id":76561197969421355,"connected_time":7926000000000,"state":"active","ping":51},{"user_id":451,"name":"trobin120","steam_id":76561199122420273,"connected_time":505000000000,"state":"active","ping":60},{"user_id":406,"name":"SIN K4RMA","steam_id":76561198869287223,"connected_time":3504000000000,"state":"active","ping":86},{"user_id":450,"name":"Wuh oh","steam_id":76561198151746084,"connected_time":551000000000,"state":"active","ping":79},{"user_id":452,"name":"Commodore","steam_id":76561198042112852,"connected_time":103000000000,"state":"active","ping":73},{"user_id":400,"name":"chunguspilled","steam_id":76561198263122601,"connected_time":3946000000000,"state":"active","ping":44},{"user_id":448,"name":"Sarbanes-Oxley","steam_id":76561197975898479,"connected_time":705000000000,"state":"active","ping":75},{"user_id":366,"name":"Lia_Rein","steam_id":76561198151569597,"connected_time":7531000000000,"state":"active","ping":146}]},{"server_id":36,"name":"Uncletopia | Chicago | 5 | All Maps","name_short":"chi-5","host":"chi-2.us.uncletopia.com","port":27015,"enabled":true,"region":"us-central","cc":"us","latitude":41.881832,"longitude":-87.62318,"reserved":0,"last_update":"0001-01-01T00:00:00Z","name_a2s":"Uncletopia | Chicago | 5 | All Maps","protocol":17,"map":"pl_barnblitz","folder":"tf","game":"Team Fortress","app_id":440,"player_count":24,"max_players":24,"Bots":0,"server_type":"Dedicated","server_os":"Linux","password":true,"vac":true,"version":"7932396","steam_id":85568392924866362,"keywords":["nocrits","nodmgspread","payload","uncletopia"],"game_id":440,"stv_port":27016,"stv_name":"Uncletopia | Chicago | 5 | All Maps | STV","players":[{"user_id":418,"name":"wheresgeorge","steam_id":76561198986281248,"connected_time":3553000000000,"state":"active","ping":88},{"user_id":438,"name":"msay","steam_id":76561198170888029,"connected_time":2592000000000,"state":"active","ping":103},{"user_id":463,"name":"Wiscipline","steam_id":76561198019206178,"connected_time":764000000000,"state":"active","ping":78},{"user_id":444,"name":"oomper","steam_id":76561199189982701,"connected_time":1985000000000,"state":"active","ping":67},{"user_id":431,"name":"[DOOR] Jacob","steam_id":76561198004630011,"connected_time":3347000000000,"state":"active","ping":45},{"user_id":445,"name":"Viokik","steam_id":76561198408846602,"connected_time":1942000000000,"state":"active","ping":65},{"user_id":464,"name":"`o2","steam_id":76561197992030936,"connected_time":739000000000,"state":"active","ping":70},{"user_id":433,"name":"Techo","steam_id":76561199169405285,"connected_time":3164000000000,"state":"active","ping":106},{"user_id":414,"name":"Stapler","steam_id":76561198099295077,"connected_time":3956000000000,"state":"active","ping":103},{"user_id":394,"name":"6t26j","steam_id":76561198278282836,"connected_time":5464000000000,"state":"active","ping":56},{"user_id":465,"name":"rachel epiphet","steam_id":76561198380018244,"connected_time":726000000000,"state":"active","ping":75},{"user_id":426,"name":"Joey Lemons","steam_id":76561198068104187,"connected_time":3435000000000,"state":"active","ping":36},{"user_id":457,"name":"Limitless","steam_id":76561198057139998,"connected_time":1431000000000,"state":"active","ping":79},{"user_id":442,"name":"LProduct","steam_id":76561199442139670,"connected_time":2303000000000,"state":"active","ping":140},{"user_id":470,"name":"Prsm","steam_id":76561198053344995,"connected_time":253000000000,"state":"active","ping":60},{"user_id":422,"name":"pajayay","steam_id":76561198065040540,"connected_time":3469000000000,"state":"active","ping":67},{"user_id":458,"name":"eish","steam_id":76561198089463603,"connected_time":1421000000000,"state":"active","ping":127},{"user_id":452,"name":"Snake Handler","steam_id":76561198027198306,"connected_time":1597000000000,"state":"active","ping":58},{"user_id":467,"name":"conner","steam_id":76561198052911241,"connected_time":660000000000,"state":"active","ping":75},{"user_id":375,"name":"Java_Siege_","steam_id":76561199090000728,"connected_time":7717000000000,"state":"active","ping":86},{"user_id":454,"name":"GoldtoothFour","steam_id":76561198055529332,"connected_time":1578000000000,"state":"active","ping":55},{"user_id":468,"name":"Sahalanthro","steam_id":76561199073298722,"connected_time":448000000000,"state":"active","ping":87},{"user_id":456,"name":"hashmap","steam_id":76561198043794014,"connected_time":1510000000000,"state":"active","ping":56},{"user_id":429,"name":"the Light Beast","steam_id":76561198111975583,"connected_time":3415000000000,"state":"active","ping":80}]},{"server_id":37,"name":"Uncletopia | Chicago | 6 | All Maps","name_short":"chi-6","host":"chi-2.us.uncletopia.com","port":27025,"enabled":true,"region":"us-central","cc":"us","latitude":41.881832,"longitude":-87.62318,"reserved":0,"last_update":"0001-01-01T00:00:00Z","name_a2s":"Uncletopia | Chicago | 6 | All Maps","protocol":17,"map":"pl_goldrush","folder":"tf","game":"Team Fortress","app_id":440,"player_count":24,"max_players":24,"Bots":0,"server_type":"Dedicated","server_os":"Linux","password":true,"vac":true,"version":"7932396","steam_id":85568392924866363,"keywords":["nocrits","nodmgspread","payload","uncletopia"],"game_id":440,"stv_port":27026,"stv_name":"Uncletopia | Chicago | 6 | All Maps | STV","players":[{"user_id":559,"name":"Dragoon","steam_id":76561198211973253,"connected_time":135000000000,"state":"active","ping":75},{"user_id":529,"name":"Vladikr1","steam_id":76561198401495362,"connected_time":2933000000000,"state":"active","ping":62},{"user_id":557,"name":"only a spoonful","steam_id":76561198113180616,"connected_time":194000000000,"state":"active","ping":64},{"user_id":550,"name":"Stranger in a Strange Land","steam_id":76561198049843671,"connected_time":1062000000000,"state":"active","ping":61},{"user_id":528,"name":"fish LFT :)","steam_id":76561198054070811,"connected_time":3243000000000,"state":"active","ping":104},{"user_id":531,"name":"katryna","steam_id":76561198023440304,"connected_time":2605000000000,"state":"active","ping":60},{"user_id":544,"name":"Galmart","steam_id":76561199122036524,"connected_time":1494000000000,"state":"active","ping":81},{"user_id":545,"name":"Lincs","steam_id":76561198049851872,"connected_time":1437000000000,"state":"active","ping":82},{"user_id":472,"name":"IMM0RTAL","steam_id":76561198013747901,"connected_time":7099000000000,"state":"active","ping":73},{"user_id":509,"name":"Walrusto","steam_id":76561198829644616,"connected_time":4286000000000,"state":"active","ping":82},{"user_id":558,"name":"Still Alive","steam_id":76561198042523000,"connected_time":149000000000,"state":"active","ping":57},{"user_id":534,"name":"carrot cake","steam_id":76561198055174915,"connected_time":2523000000000,"state":"active","ping":68},{"user_id":491,"name":"trappy (washed)","steam_id":76561198402801140,"connected_time":5467000000000,"state":"active","ping":57},{"user_id":547,"name":"Help","steam_id":76561198316494223,"connected_time":1324000000000,"state":"active","ping":99},{"user_id":527,"name":"Xx_haZe_xX","steam_id":76561198243743666,"connected_time":3575000000000,"state":"active","ping":106},{"user_id":560,"name":"Vega","steam_id":76561198057374871,"connected_time":94000000000,"state":"active","ping":61},{"user_id":386,"name":"daemon","steam_id":76561198001541433,"connected_time":14155000000000,"state":"active","ping":55},{"user_id":483,"name":"squash the beef","steam_id":76561198277163301,"connected_time":6254000000000,"state":"active","ping":71},{"user_id":496,"name":"Skeleton Hotel","steam_id":76561198041704727,"connected_time":5349000000000,"state":"active","ping":58},{"user_id":552,"name":"HOTA","steam_id":76561199002778841,"connected_time":1019000000000,"state":"active","ping":74},{"user_id":554,"name":"krill issue","steam_id":76561199013461400,"connected_time":307000000000,"state":"active","ping":77},{"user_id":522,"name":"AnonymousCritter","steam_id":76561198864475187,"connected_time":3834000000000,"state":"active","ping":56},{"user_id":542,"name":"V!CT!M","steam_id":76561198962721502,"connected_time":1732000000000,"state":"active","ping":71},{"user_id":562,"name":"maze ring","steam_id":76561198068443860,"connected_time":73000000000,"state":"active","ping":38}]},{"server_id":38,"name":"Uncletopia | Chicago | 7 | Stopwatch Beta","name_short":"chi-7","host":"chi-2.us.uncletopia.com","port":27035,"enabled":true,"region":"us-central","cc":"us","latitude":41.881832,"longitude":-87.62318,"reserved":0,"last_update":"0001-01-01T00:00:00Z","name_a2s":"Uncletopia | Chicago | 7 | Stopwatch Beta","protocol":17,"map":"pl_borneo","folder":"tf","game":"Team Fortress","app_id":440,"player_count":0,"max_players":24,"Bots":0,"server_type":"Dedicated","server_os":"Linux","password":true,"vac":true,"version":"7932396","steam_id":85568392924866364,"keywords":["nocrits","nodmgspread","payload","uncletopia"],"game_id":440,"stv_port":27036,"stv_name":"Uncletopia | Chicago | 7 | Stopwatch Beta | STV","players":null},{"server_id":39,"name":"Uncletopia | Chicago | 8 | Community","name_short":"chi-8","host":"chi-2.us.uncletopia.com","port":27045,"enabled":true,"region":"us-central","cc":"us","latitude":41.881832,"longitude":-87.62318,"reserved":0,"last_update":"0001-01-01T00:00:00Z","name_a2s":"Uncletopia | Chicago | 8 | Community","protocol":17,"map":"workshop/koth_product_final.ugc454272353","folder":"tf","game":"Team Fortress","app_id":440,"player_count":16,"max_players":24,"Bots":0,"server_type":"Dedicated","server_os":"Linux","password":true,"vac":true,"version":"7932396","steam_id":85568392924866365,"keywords":["cp","nocrits","nodmgspread","uncletopia"],"game_id":440,"stv_port":27046,"stv_name":"Uncletopia | Chicago | 8 | Community | STV","players":[{"user_id":547,"name":"SleepyCanary","steam_id":76561198071770434,"connected_time":3783000000000,"state":"active","ping":108},{"user_id":577,"name":"Ghworg","steam_id":76561198324891401,"connected_time":1009000000000,"state":"active","ping":46},{"user_id":568,"name":"Nessie is my Waifu","steam_id":76561198076021620,"connected_time":2248000000000,"state":"active","ping":62},{"user_id":583,"name":"I. C. Wiener","steam_id":76561198062777610,"connected_time":71000000000,"state":"active","ping":102},{"user_id":584,"name":"QuakAtack","steam_id":76561198870770157,"connected_time":66000000000,"state":"active","ping":71},{"user_id":585,"name":"super-oofio64","steam_id":76561198954052123,"connected_time":19000000000,"state":"spawning","ping":187},{"user_id":564,"name":"Person","steam_id":76561198093244204,"connected_time":2628000000000,"state":"active","ping":71},{"user_id":557,"name":"AudaCD","steam_id":76561198202775853,"connected_time":3053000000000,"state":"active","ping":59},{"user_id":534,"name":"Tom Crúaich","steam_id":76561197999439911,"connected_time":4485000000000,"state":"active","ping":63},{"user_id":536,"name":"Ace Chromatica","steam_id":76561198042211131,"connected_time":4381000000000,"state":"active","ping":55},{"user_id":548,"name":"Eggregis-Thumbs","steam_id":76561198310566277,"connected_time":3783000000000,"state":"active","ping":53},{"user_id":549,"name":"SodaKid_7","steam_id":76561198079419485,"connected_time":3755000000000,"state":"active","ping":92},{"user_id":582,"name":"the pest","steam_id":76561198826298849,"connected_time":524000000000,"state":"active","ping":89},{"user_id":579,"name":"TheSquirrelofHuscurl","steam_id":76561198073379623,"connected_time":813000000000,"state":"active","ping":80},{"user_id":578,"name":"GiraffeMan","steam_id":76561198042104084,"connected_time":993000000000,"state":"active","ping":65},{"user_id":565,"name":"OttotheTomato","steam_id":76561198272610597,"connected_time":2520000000000,"state":"active","ping":61}]},{"server_id":8,"name":"Uncletopia | Dallas | 1 | All Maps","name_short":"dal-1","host":"dal-1.us.uncletopia.com","port":27015,"enabled":true,"region":"us-central","cc":"us","latitude":32.779167,"longitude":-96.80889,"reserved":0,"last_update":"0001-01-01T00:00:00Z","name_a2s":"Uncletopia | Dallas | 1 | All Maps","protocol":17,"map":"koth_viaduct","folder":"tf","game":"Team Fortress","app_id":440,"player_count":24,"max_players":24,"Bots":0,"server_type":"Dedicated","server_os":"Linux","password":true,"vac":true,"version":"7932396","steam_id":85568392924469986,"keywords":["cp","nocrits","nodmgspread","uncletopia"],"game_id":440,"stv_port":27016,"stv_name":"Uncletopia | Dallas | 1 | All Maps | STV","players":[{"user_id":340,"name":"Greg Boberton 2012","steam_id":76561198983566026,"connected_time":8919000000000,"state":"active","ping":76},{"user_id":420,"name":"Ping","steam_id":76561198072947773,"connected_time":2121000000000,"state":"active","ping":60},{"user_id":434,"name":"ShapedSilver","steam_id":76561199073305310,"connected_time":1768000000000,"state":"active","ping":45},{"user_id":447,"name":"Siev","steam_id":76561198000518937,"connected_time":525000000000,"state":"active","ping":62},{"user_id":443,"name":"Sagertooth","steam_id":76561198060863894,"connected_time":944000000000,"state":"active","ping":46},{"user_id":396,"name":"Fletcher","steam_id":76561198317846538,"connected_time":4758000000000,"state":"active","ping":76},{"user_id":448,"name":"Bird","steam_id":76561198231624620,"connected_time":519000000000,"state":"active","ping":69},{"user_id":442,"name":"Some Stupid Name","steam_id":76561198065575548,"connected_time":1355000000000,"state":"active","ping":92},{"user_id":433,"name":"Ghetto Smosh Fan","steam_id":76561198097272509,"connected_time":1776000000000,"state":"active","ping":50},{"user_id":449,"name":"LampMan","steam_id":76561198079857527,"connected_time":516000000000,"state":"active","ping":60},{"user_id":445,"name":"GLG MUTT","steam_id":76561198147785541,"connected_time":679000000000,"state":"active","ping":58},{"user_id":417,"name":"GLG.Liz","steam_id":76561198021957956,"connected_time":2745000000000,"state":"active","ping":47},{"user_id":422,"name":"BurritoCat","steam_id":76561198059822805,"connected_time":2085000000000,"state":"active","ping":91},{"user_id":429,"name":"Squiliam","steam_id":76561198025278006,"connected_time":1950000000000,"state":"active","ping":41},{"user_id":446,"name":"skinhub.com Pretz","steam_id":76561198801873766,"connected_time":678000000000,"state":"active","ping":74},{"user_id":450,"name":"Mr.Nostalgic","steam_id":76561198083240822,"connected_time":495000000000,"state":"active","ping":89},{"user_id":423,"name":"Kushkatt","steam_id":76561198058397659,"connected_time":2074000000000,"state":"active","ping":75},{"user_id":424,"name":"REspecWizard","steam_id":76561198097950624,"connected_time":2073000000000,"state":"active","ping":86},{"user_id":425,"name":"mer5277","steam_id":76561198192171041,"connected_time":2040000000000,"state":"active","ping":114},{"user_id":400,"name":"LittleFieryOne","steam_id":76561198107463724,"connected_time":4692000000000,"state":"active","ping":92},{"user_id":451,"name":"cypherzero","steam_id":76561199182960322,"connected_time":494000000000,"state":"active","ping":59},{"user_id":379,"name":"Reague","steam_id":76561199092175631,"connected_time":5870000000000,"state":"active","ping":73},{"user_id":454,"name":"ya","steam_id":76561198070934685,"connected_time":104000000000,"state":"active","ping":46},{"user_id":440,"name":"Frank Fortain","steam_id":76561198953613972,"connected_time":1440000000000,"state":"active","ping":47}]},{"server_id":108,"name":"Uncletopia | Dallas | 2 | All Maps","name_short":"dal-2","host":"dal-1.us.uncletopia.com","port":27025,"enabled":true,"region":"us-central","cc":"us","latitude":32.779167,"longitude":-96.80889,"reserved":0,"last_update":"0001-01-01T00:00:00Z","name_a2s":"Uncletopia | Dallas | 2 | All Maps","protocol":17,"map":"pl_upward","folder":"tf","game":"Team Fortress","app_id":440,"player_count":24,"max_players":24,"Bots":0,"server_type":"Dedicated","server_os":"Linux","password":true,"vac":true,"version":"7932396","steam_id":85568392924469988,"keywords":["nocrits","nodmgspread","payload","uncletopia"],"game_id":440,"stv_port":27026,"stv_name":"Uncletopia | Dallas | 2 | All Maps | STV","players":[{"user_id":267,"name":"ThisBeMe","steam_id":76561199282571894,"connected_time":1174000000000,"state":"active","ping":166},{"user_id":270,"name":"Bunni","steam_id":76561198065169997,"connected_time":570000000000,"state":"active","ping":109},{"user_id":199,"name":"aisu","steam_id":76561198043768507,"connected_time":6953000000000,"state":"active","ping":89},{"user_id":263,"name":"Booboo Kitty","steam_id":76561198192459727,"connected_time":1268000000000,"state":"active","ping":85},{"user_id":224,"name":"Fig Newton","steam_id":76561198064255155,"connected_time":5414000000000,"state":"active","ping":66},{"user_id":216,"name":"carrotcake","steam_id":76561198030997761,"connected_time":6078000000000,"state":"active","ping":45},{"user_id":273,"name":"Tanuki with a gun.","steam_id":76561198027487285,"connected_time":142000000000,"state":"active","ping":92},{"user_id":235,"name":"HOODOO_LOVER_2007","steam_id":76561199087691214,"connected_time":4504000000000,"state":"active","ping":97},{"user_id":239,"name":"Clumsy","steam_id":76561198056345245,"connected_time":4184000000000,"state":"active","ping":68},{"user_id":257,"name":"HAT-WEARING™ Maggot Gamer Cat","steam_id":76561197973992705,"connected_time":2692000000000,"state":"active","ping":98},{"user_id":268,"name":"Gamerfan64","steam_id":76561198801410962,"connected_time":1049000000000,"state":"active","ping":49},{"user_id":236,"name":"SizableChap","steam_id":76561199148162904,"connected_time":4392000000000,"state":"active","ping":70},{"user_id":251,"name":"Mail Delivery","steam_id":76561198290046318,"connected_time":3135000000000,"state":"active","ping":63},{"user_id":253,"name":"InvaderAlex","steam_id":76561198039232451,"connected_time":3060000000000,"state":"active","ping":65},{"user_id":272,"name":"Useless","steam_id":76561198117206414,"connected_time":485000000000,"state":"active","ping":57},{"user_id":259,"name":"ChicoTopic","steam_id":76561198327083342,"connected_time":2042000000000,"state":"active","ping":45},{"user_id":246,"name":"5mech","steam_id":76561198979167520,"connected_time":3637000000000,"state":"active","ping":48},{"user_id":261,"name":"bendera","steam_id":76561197965486503,"connected_time":1962000000000,"state":"active","ping":88},{"user_id":197,"name":"MeMyBongusAndTheGreatOutdoors","steam_id":76561198097708978,"connected_time":7270000000000,"state":"active","ping":51},{"user_id":262,"name":"cesartele3000","steam_id":76561198142149479,"connected_time":1288000000000,"state":"active","ping":93},{"user_id":266,"name":"bird doctor","steam_id":76561199144340440,"connected_time":1220000000000,"state":"active","ping":61},{"user_id":242,"name":"RockMan","steam_id":76561199228684720,"connected_time":4001000000000,"state":"active","ping":60},{"user_id":250,"name":"crunchy obama","steam_id":76561198044485217,"connected_time":3236000000000,"state":"active","ping":105},{"user_id":88,"name":"nori_420","steam_id":76561199117134203,"connected_time":16546000000000,"state":"active","ping":86}]},{"server_id":5,"name":"Uncletopia | Frankfurt | 1 | All Maps","name_short":"frk-1","host":"frk-1.de.uncletopia.com","port":27015,"enabled":true,"region":"eu","cc":"de","latitude":50.110924,"longitude":8.682127,"reserved":0,"last_update":"0001-01-01T00:00:00Z","name_a2s":"Uncletopia | Frankfurt | 1 | All Maps","protocol":17,"map":"koth_highpass","folder":"tf","game":"Team Fortress","app_id":440,"player_count":0,"max_players":24,"Bots":0,"server_type":"Dedicated","server_os":"Linux","password":true,"vac":true,"version":"7932396","steam_id":85568392924469989,"keywords":["cp","nocrits","nodmgspread","uncletopia"],"game_id":440,"stv_port":27016,"stv_name":"Uncletopia | Frankfurt | 1 | All Maps | STV","players":null},{"server_id":110,"name":"Uncletopia | Frankfurt | 2 | All Maps","name_short":"frk-2","host":"frk-1.de.uncletopia.com","port":27025,"enabled":true,"region":"eu","cc":"de","latitude":50.110924,"longitude":8.682127,"reserved":0,"last_update":"0001-01-01T00:00:00Z","name_a2s":"Uncletopia | Frankfurt | 2 | All Maps","protocol":17,"map":"pl_pier","folder":"tf","game":"Team Fortress","app_id":440,"player_count":0,"max_players":24,"Bots":0,"server_type":"Dedicated","server_os":"Linux","password":true,"vac":true,"version":"7932396","steam_id":85568392924469990,"keywords":["nocrits","nodmgspread","payload","uncletopia"],"game_id":440,"stv_port":27026,"stv_name":"Uncletopia | Frankfurt | 2 | All Maps | STV","players":null},{"server_id":308,"name":"Uncletopia | Frankfurt | 3 | All Maps","name_short":"frk-3","host":"frk-1.de.uncletopia.com","port":27035,"enabled":true,"region":"eu","cc":"de","latitude":50.110924,"longitude":8.682127,"reserved":0,"last_update":"0001-01-01T00:00:00Z","name_a2s":"Uncletopia | Frankfurt | 3 | All Maps","protocol":17,"map":"koth_cascade","folder":"tf","game":"Team Fortress","app_id":440,"player_count":0,"max_players":24,"Bots":0,"server_type":"Dedicated","server_os":"Linux","password":true,"vac":true,"version":"7932396","steam_id":85568392924504274,"keywords":["cp","nocrits","nodmgspread","uncletopia"],"game_id":440,"stv_port":27036,"stv_name":"Uncletopia | Frankfurt | 3 | All Maps | STV","players":null},{"server_id":309,"name":"Uncletopia | Frankfurt | 4 | All Maps","name_short":"frk-4","host":"frk-1.de.uncletopia.com","port":27045,"enabled":true,"region":"eu","cc":"de","latitude":50.110924,"longitude":8.682127,"reserved":0,"last_update":"0001-01-01T00:00:00Z","name_a2s":"Uncletopia | Frankfurt | 4 | All Maps","protocol":17,"map":"pl_snowycoast","folder":"tf","game":"Team Fortress","app_id":440,"player_count":0,"max_players":24,"Bots":0,"server_type":"Dedicated","server_os":"Linux","password":true,"vac":true,"version":"7932396","steam_id":85568392924504275,"keywords":["nocrits","nodmgspread","payload","uncletopia"],"game_id":440,"stv_port":27046,"stv_name":"Uncletopia | Frankfurt | 4 | All Maps | STV","players":null},{"server_id":310,"name":"Uncletopia | Frankfurt | 5 | All Maps","name_short":"frk-5","host":"frk-1.de.uncletopia.com","port":27055,"enabled":true,"region":"eu","cc":"de","latitude":50.110924,"longitude":8.682127,"reserved":0,"last_update":"0001-01-01T00:00:00Z","name_a2s":"Uncletopia | Frankfurt | 5 | All Maps","protocol":17,"map":"koth_highpass","folder":"tf","game":"Team Fortress","app_id":440,"player_count":0,"max_players":24,"Bots":0,"server_type":"Dedicated","server_os":"Linux","password":true,"vac":true,"version":"7932396","steam_id":85568392924504277,"keywords":["cp","nocrits","nodmgspread","uncletopia"],"game_id":440,"stv_port":27056,"stv_name":"Uncletopia | Frankfurt | 5 | All Maps | STV","players":null},{"server_id":311,"name":"Uncletopia | Frankfurt | 6 | All Maps","name_short":"frk-6","host":"frk-1.de.uncletopia.com","port":27065,"enabled":true,"region":"eu","cc":"de","latitude":50.110924,"longitude":8.682127,"reserved":0,"last_update":"0001-01-01T00:00:00Z","name_a2s":"Uncletopia | Frankfurt | 6 | All Maps","protocol":17,"map":"koth_highpass","folder":"tf","game":"Team Fortress","app_id":440,"player_count":0,"max_players":24,"Bots":0,"server_type":"Dedicated","server_os":"Linux","password":true,"vac":true,"version":"7932396","steam_id":85568392924504278,"keywords":["cp","nocrits","nodmgspread","uncletopia"],"game_id":440,"stv_port":27066,"stv_name":"Uncletopia | Frankfurt | 6 | All Maps | STV","players":null},{"server_id":23,"name":"Uncletopia | Frankfurt | 7 | Stopwatch Beta","name_short":"frk-7","host":"frk-1.de.uncletopia.com","port":27075,"enabled":true,"region":"eu","cc":"de","latitude":50.110924,"longitude":8.682127,"reserved":0,"last_update":"0001-01-01T00:00:00Z","name_a2s":"Uncletopia | Frankfurt | 7 | Stopwatch Beta","protocol":17,"map":"pl_snowycoast","folder":"tf","game":"Team Fortress","app_id":440,"player_count":0,"max_players":24,"Bots":0,"server_type":"Dedicated","server_os":"Linux","password":true,"vac":true,"version":"7932396","steam_id":85568392924742827,"keywords":["nocrits","nodmgspread","payload","uncletopia"],"game_id":440,"stv_port":27076,"stv_name":"Uncletopia | Frankfurt | 7 | Stopwatch Beta | STV","players":null},{"server_id":24,"name":"Uncletopia | Frankfurt | 8 | Community","name_short":"frk-8","host":"frk-1.de.uncletopia.com","port":27085,"enabled":true,"region":"eu","cc":"de","latitude":50.110924,"longitude":8.682127,"reserved":0,"last_update":"0001-01-01T00:00:00Z","name_a2s":"Uncletopia | Frankfurt | 8 | Community","protocol":17,"map":"workshop/koth_ashville_final.ugc2130459942","folder":"tf","game":"Team Fortress","app_id":440,"player_count":0,"max_players":24,"Bots":0,"server_type":"Dedicated","server_os":"Linux","password":true,"vac":true,"version":"7932396","steam_id":85568392924742828,"keywords":["cp","nocrits","nodmgspread","uncletopia"],"game_id":440,"stv_port":27086,"stv_name":"Uncletopia | Frankfurt | 8 | Community | STV","players":null},{"server_id":202,"name":"Uncletopia | Hong Kong | 1 | All Maps","name_short":"hgk-1","host":"hgk-1.hk.uncletopia.com","port":27015,"enabled":true,"region":"asia","cc":"hk","latitude":22.302711,"longitude":114.177216,"reserved":0,"last_update":"0001-01-01T00:00:00Z","name_a2s":"Uncletopia | Hong Kong | 1 | All Maps","protocol":17,"map":"koth_cascade","folder":"tf","game":"Team Fortress","app_id":440,"player_count":2,"max_players":24,"Bots":0,"server_type":"Dedicated","server_os":"Linux","password":true,"vac":true,"version":"7932396","steam_id":85568392924494504,"keywords":["cp","nocrits","nodmgspread","uncletopia"],"game_id":440,"stv_port":27016,"stv_name":"Uncletopia | Hong Kong | 1 | All Maps | STV","players":[{"user_id":20,"name":"Coffeethecat","steam_id":76561198983462827,"connected_time":54000000000,"state":"active","ping":130},{"user_id":19,"name":"Fluffythecat","steam_id":76561199183363276,"connected_time":109000000000,"state":"active","ping":92}]},{"server_id":1,"name":"Uncletopia | Los Angeles | 1 | All Maps","name_short":"lax-1","host":"lax-1.us.uncletopia.com","port":27015,"enabled":true,"region":"us-west","cc":"us","latitude":33.94279,"longitude":-118.41004,"reserved":0,"last_update":"0001-01-01T00:00:00Z","name_a2s":"Uncletopia | Los Angeles | 1 | All Maps","protocol":17,"map":"pl_badwater","folder":"tf","game":"Team Fortress","app_id":440,"player_count":24,"max_players":24,"Bots":0,"server_type":"Dedicated","server_os":"Linux","password":true,"vac":true,"version":"7932396","steam_id":85568392924469991,"keywords":["nocrits","nodmgspread","payload","uncletopia"],"game_id":440,"stv_port":27016,"stv_name":"Uncletopia | Los Angeles | 1 | All Maps | STV","players":[{"user_id":205,"name":"donkeyballs2007","steam_id":76561199466298683,"connected_time":5694000000000,"state":"active","ping":42},{"user_id":287,"name":"CAMPERZz_","steam_id":76561198297784458,"connected_time":911000000000,"state":"active","ping":46},{"user_id":290,"name":"Hayduke","steam_id":76561197991394366,"connected_time":645000000000,"state":"active","ping":103},{"user_id":291,"name":"Sad Sapling","steam_id":76561198075612150,"connected_time":591000000000,"state":"active","ping":53},{"user_id":259,"name":"UnusualTofu","steam_id":76561198060103750,"connected_time":2832000000000,"state":"active","ping":53},{"user_id":242,"name":"Ralph Kramden (Slim Charles)","steam_id":76561197981687895,"connected_time":3568000000000,"state":"active","ping":58},{"user_id":286,"name":"Bedside table, on the kangaroo","steam_id":76561198044277932,"connected_time":1016000000000,"state":"active","ping":97},{"user_id":296,"name":"Marcusduh","steam_id":76561199478554304,"connected_time":391000000000,"state":"active","ping":96},{"user_id":292,"name":"Dog Goggles","steam_id":76561197995233692,"connected_time":559000000000,"state":"active","ping":129},{"user_id":295,"name":"FluffyPugs101|Ham Mafia|","steam_id":76561199096413234,"connected_time":502000000000,"state":"active","ping":109},{"user_id":263,"name":"..flop","steam_id":76561197989058876,"connected_time":2796000000000,"state":"active","ping":104},{"user_id":297,"name":"Nitch","steam_id":76561198303715362,"connected_time":334000000000,"state":"active","ping":72},{"user_id":310,"name":"UUUURT","steam_id":76561198047468140,"connected_time":15000000000,"state":"active","ping":161},{"user_id":289,"name":"xbox record that","steam_id":76561198150117455,"connected_time":739000000000,"state":"active","ping":55},{"user_id":280,"name":"vioxynteris","steam_id":76561198161428666,"connected_time":1662000000000,"state":"active","ping":32},{"user_id":282,"name":"porksoda","steam_id":76561198021451377,"connected_time":1198000000000,"state":"active","ping":77},{"user_id":284,"name":"BON6 R1P5","steam_id":76561199187170139,"connected_time":1104000000000,"state":"active","ping":149},{"user_id":298,"name":"Herr Müller","steam_id":76561198064876829,"connected_time":294000000000,"state":"active","ping":117},{"user_id":299,"name":"CrystalClear","steam_id":76561198210417120,"connected_time":230000000000,"state":"active","ping":59},{"user_id":307,"name":"Vault","steam_id":76561199451006289,"connected_time":81000000000,"state":"active","ping":125},{"user_id":238,"name":"WaveSmash","steam_id":76561198208785485,"connected_time":3781000000000,"state":"active","ping":76},{"user_id":273,"name":"咠怡","steam_id":76561198147029746,"connected_time":2675000000000,"state":"active","ping":84},{"user_id":301,"name":"Space360","steam_id":76561198106743284,"connected_time":209000000000,"state":"active","ping":70},{"user_id":302,"name":"Bing Soy","steam_id":76561199091381775,"connected_time":198000000000,"state":"active","ping":52}]},{"server_id":112,"name":"Uncletopia | Los Angeles | 2 | All Maps","name_short":"lax-2","host":"lax-1.us.uncletopia.com","port":27025,"enabled":true,"region":"us-west","cc":"us","latitude":33.94279,"longitude":-118.41004,"reserved":0,"last_update":"0001-01-01T00:00:00Z","name_a2s":"Uncletopia | Los Angeles | 2 | All Maps","protocol":17,"map":"pl_upward","folder":"tf","game":"Team Fortress","app_id":440,"player_count":24,"max_players":24,"Bots":0,"server_type":"Dedicated","server_os":"Linux","password":true,"vac":true,"version":"7932396","steam_id":85568392924469992,"keywords":["nocrits","nodmgspread","payload","uncletopia"],"game_id":440,"stv_port":27026,"stv_name":"Uncletopia | Los Angeles | 2 | All Maps | STV","players":[{"user_id":397,"name":"fire","steam_id":76561198044354279,"connected_time":1602000000000,"state":"active","ping":46},{"user_id":407,"name":"Waffle Boy","steam_id":76561198404883652,"connected_time":1109000000000,"state":"active","ping":52},{"user_id":389,"name":"FaceLaces","steam_id":76561198194417725,"connected_time":2645000000000,"state":"active","ping":57},{"user_id":417,"name":"SquidFurBrains","steam_id":76561198293899688,"connected_time":395000000000,"state":"active","ping":84},{"user_id":423,"name":"dairy delinquent","steam_id":76561198971552734,"connected_time":119000000000,"state":"active","ping":41},{"user_id":418,"name":"RUF","steam_id":76561198062315805,"connected_time":335000000000,"state":"active","ping":58},{"user_id":400,"name":"ThatGuyNamedWil","steam_id":76561198400336801,"connected_time":1362000000000,"state":"active","ping":85},{"user_id":371,"name":"123","steam_id":76561198106308056,"connected_time":3350000000000,"state":"active","ping":178},{"user_id":409,"name":"the gunk","steam_id":76561198157429441,"connected_time":861000000000,"state":"active","ping":85},{"user_id":421,"name":"perc 10","steam_id":76561198116471653,"connected_time":141000000000,"state":"active","ping":57},{"user_id":410,"name":"Scrampled Aigs","steam_id":76561198014526583,"connected_time":852000000000,"state":"active","ping":90},{"user_id":401,"name":"PissMaster^5","steam_id":76561198959576385,"connected_time":1310000000000,"state":"active","ping":97},{"user_id":413,"name":"tete de megre","steam_id":76561199067513296,"connected_time":802000000000,"state":"active","ping":119},{"user_id":374,"name":"riSygneD","steam_id":76561198331618687,"connected_time":3266000000000,"state":"active","ping":29},{"user_id":425,"name":"Snoopy","steam_id":76561198273735974,"connected_time":49000000000,"state":"active","ping":202},{"user_id":424,"name":"beeble!","steam_id":76561198219538525,"connected_time":114000000000,"state":"active","ping":90},{"user_id":395,"name":"lord setch","steam_id":76561198252328518,"connected_time":1944000000000,"state":"active","ping":56},{"user_id":403,"name":"Mario (sad demo arc)","steam_id":76561198123454475,"connected_time":1286000000000,"state":"active","ping":76},{"user_id":404,"name":"Bearingtonn","steam_id":76561198338949704,"connected_time":1261000000000,"state":"active","ping":88},{"user_id":412,"name":"fluffycatgirl :3","steam_id":76561198216487540,"connected_time":823000000000,"state":"active","ping":85},{"user_id":393,"name":"Bodhisattva","steam_id":76561198085228896,"connected_time":2450000000000,"state":"active","ping":48},{"user_id":419,"name":"Lucas","steam_id":76561198399704604,"connected_time":327000000000,"state":"active","ping":62},{"user_id":414,"name":"Moonlily","steam_id":76561198852670061,"connected_time":792000000000,"state":"active","ping":82},{"user_id":420,"name":"Paper Clipp","steam_id":76561199065796296,"connected_time":283000000000,"state":"active","ping":66}]},{"server_id":324,"name":"Uncletopia | Los Angeles | 3 | All Maps","name_short":"lax-3","host":"lax-1.us.uncletopia.com","port":27035,"enabled":true,"region":"us-west","cc":"us","latitude":33.94279,"longitude":-118.41004,"reserved":0,"last_update":"0001-01-01T00:00:00Z","name_a2s":"Uncletopia | Los Angeles | 3 | All Maps","protocol":17,"map":"cp_snakewater_final1","folder":"tf","game":"Team Fortress","app_id":440,"player_count":24,"max_players":24,"Bots":0,"server_type":"Dedicated","server_os":"Linux","password":true,"vac":true,"version":"7932396","steam_id":85568392924510198,"keywords":["cp","nocrits","nodmgspread","uncletopia"],"game_id":440,"stv_port":27036,"stv_name":"Uncletopia | Los Angeles | 3 | All Maps | STV","players":[{"user_id":389,"name":"El Güey","steam_id":76561197970450546,"connected_time":835000000000,"state":"active","ping":89},{"user_id":332,"name":"Nyges","steam_id":76561198139236154,"connected_time":4485000000000,"state":"active","ping":53},{"user_id":380,"name":"PainInTheRuss","steam_id":76561197977960543,"connected_time":1187000000000,"state":"active","ping":58},{"user_id":398,"name":"Doppelgänger","steam_id":76561198036730436,"connected_time":437000000000,"state":"active","ping":53},{"user_id":404,"name":"Conbud","steam_id":76561198046954825,"connected_time":311000000000,"state":"active","ping":111},{"user_id":400,"name":"Major Depression","steam_id":76561198018103878,"connected_time":411000000000,"state":"active","ping":115},{"user_id":405,"name":"Feet","steam_id":76561198047302528,"connected_time":90000000000,"state":"active","ping":68},{"user_id":396,"name":"interloper","steam_id":76561198042518244,"connected_time":488000000000,"state":"active","ping":145},{"user_id":348,"name":"i havent had sex since 2003","steam_id":76561198168114366,"connected_time":2735000000000,"state":"active","ping":123},{"user_id":357,"name":"DoctorDucky","steam_id":76561198356434380,"connected_time":2201000000000,"state":"active","ping":50},{"user_id":378,"name":"danny screamo","steam_id":76561198064312388,"connected_time":1247000000000,"state":"active","ping":60},{"user_id":395,"name":"wiseacre","steam_id":76561198072515851,"connected_time":579000000000,"state":"active","ping":55},{"user_id":321,"name":"gunch","steam_id":76561198109948247,"connected_time":5655000000000,"state":"active","ping":89},{"user_id":390,"name":"shakoiwa","steam_id":76561199059441773,"connected_time":811000000000,"state":"active","ping":58},{"user_id":337,"name":"SanitysEdge","steam_id":76561198130732813,"connected_time":4012000000000,"state":"active","ping":52},{"user_id":397,"name":"Red","steam_id":76561198009772689,"connected_time":455000000000,"state":"active","ping":107},{"user_id":406,"name":"cringy","steam_id":76561198323000455,"connected_time":31000000000,"state":"spawning","ping":53},{"user_id":386,"name":"Wolfer","steam_id":76561198098153246,"connected_time":999000000000,"state":"active","ping":74},{"user_id":401,"name":"devamar","steam_id":76561198069115467,"connected_time":395000000000,"state":"active","ping":38},{"user_id":387,"name":"Defeat","steam_id":76561198065203818,"connected_time":938000000000,"state":"active","ping":75},{"user_id":326,"name":"selling rice","steam_id":76561198063357023,"connected_time":4797000000000,"state":"active","ping":52},{"user_id":391,"name":"Phaze","steam_id":76561198025267071,"connected_time":777000000000,"state":"active","ping":81},{"user_id":402,"name":"Excrement","steam_id":76561198167740127,"connected_time":348000000000,"state":"active","ping":70},{"user_id":403,"name":"JoshDuMan","steam_id":76561198049901965,"connected_time":330000000000,"state":"active","ping":121}]},{"server_id":25,"name":"Uncletopia | Los Angeles | 4 | Stopwatch Beta","name_short":"lax-4","host":"lax-1.us.uncletopia.com","port":27045,"enabled":true,"region":"us-west","cc":"us","latitude":33.94279,"longitude":-118.41004,"reserved":0,"last_update":"0001-01-01T00:00:00Z","name_a2s":"Uncletopia | Los Angeles | 4 | Stopwatch Beta","protocol":17,"map":"cp_granary","folder":"tf","game":"Team Fortress","app_id":440,"player_count":22,"max_players":24,"Bots":0,"server_type":"Dedicated","server_os":"Linux","password":true,"vac":true,"version":"7932396","steam_id":85568392924510199,"keywords":["cp","nocrits","nodmgspread","uncletopia"],"game_id":440,"stv_port":27046,"stv_name":"Uncletopia | Los Angeles | 4 | Stopwatch Beta | STV","players":[{"user_id":109,"name":"sirkelilimon","steam_id":76561199012980765,"connected_time":89000000000,"state":"active","ping":56},{"user_id":110,"name":"MrRobbins","steam_id":76561199171169987,"connected_time":11000000000,"state":"spawning","ping":139},{"user_id":103,"name":"Type Three Dabeetus","steam_id":76561198062710038,"connected_time":975000000000,"state":"active","ping":58},{"user_id":86,"name":"Misty Blu ✿","steam_id":76561198011442255,"connected_time":2093000000000,"state":"active","ping":45},{"user_id":88,"name":"Bnuuy","steam_id":76561198288696308,"connected_time":1818000000000,"state":"active","ping":81},{"user_id":92,"name":"Joe Nathan","steam_id":76561198041030399,"connected_time":1624000000000,"state":"active","ping":84},{"user_id":97,"name":"Ankh","steam_id":76561198274219552,"connected_time":1258000000000,"state":"active","ping":99},{"user_id":28,"name":"Agent Q","steam_id":76561198830829003,"connected_time":6257000000000,"state":"active","ping":67},{"user_id":91,"name":"nicok04.gamer","steam_id":76561198423082703,"connected_time":1667000000000,"state":"active","ping":80},{"user_id":68,"name":"Mr_Moose","steam_id":76561198152815154,"connected_time":4365000000000,"state":"active","ping":82},{"user_id":94,"name":"baldo","steam_id":76561198178431338,"connected_time":1604000000000,"state":"active","ping":62},{"user_id":59,"name":"babywizard","steam_id":76561198097757862,"connected_time":4736000000000,"state":"active","ping":63},{"user_id":96,"name":"Weiner Cleaner","steam_id":76561198147514577,"connected_time":1441000000000,"state":"active","ping":66},{"user_id":98,"name":"Silverink","steam_id":76561198218858829,"connected_time":1242000000000,"state":"active","ping":99},{"user_id":38,"name":"Allison Ghost ⸻⸻⸻⸺⸺","steam_id":76561198053851548,"connected_time":5989000000000,"state":"active","ping":74},{"user_id":42,"name":"Battle Engineer","steam_id":76561198145396989,"connected_time":5886000000000,"state":"active","ping":41},{"user_id":99,"name":"The Dick Drainer","steam_id":76561198887041407,"connected_time":1234000000000,"state":"active","ping":97},{"user_id":100,"name":"Lemon_Boy","steam_id":76561199023562349,"connected_time":1204000000000,"state":"active","ping":73},{"user_id":101,"name":"ORANG3","steam_id":76561198227046928,"connected_time":1154000000000,"state":"active","ping":89},{"user_id":105,"name":"soupy","steam_id":76561197974283797,"connected_time":820000000000,"state":"active","ping":96},{"user_id":106,"name":"harrison.avenue","steam_id":76561198037288988,"connected_time":761000000000,"state":"active","ping":136},{"user_id":107,"name":"Wandows95","steam_id":76561198029042032,"connected_time":615000000000,"state":"active","ping":59}]},{"server_id":11,"name":"Uncletopia | London | 1 | All Maps","name_short":"lon-1","host":"lon-1.uk.uncletopia.com","port":27015,"enabled":true,"region":"eu","cc":"gb","latitude":51.509865,"longitude":-0.118092,"reserved":0,"last_update":"0001-01-01T00:00:00Z","name_a2s":"Uncletopia | London | 1 | All Maps","protocol":17,"map":"koth_cascade","folder":"tf","game":"Team Fortress","app_id":440,"player_count":0,"max_players":24,"Bots":0,"server_type":"Dedicated","server_os":"Linux","password":true,"vac":true,"version":"7932396","steam_id":85568392924367362,"keywords":["cp","nocrits","nodmgspread","uncletopia"],"game_id":440,"stv_port":27016,"stv_name":"Uncletopia | London | 1 | All Maps | STV","players":null},{"server_id":114,"name":"Uncletopia | London | 2 | All Maps","name_short":"lon-2","host":"lon-1.uk.uncletopia.com","port":27025,"enabled":true,"region":"eu","cc":"gb","latitude":51.509865,"longitude":-0.118092,"reserved":0,"last_update":"0001-01-01T00:00:00Z","name_a2s":"Uncletopia | London | 2 | All Maps","protocol":17,"map":"koth_lakeside_final","folder":"tf","game":"Team Fortress","app_id":440,"player_count":0,"max_players":24,"Bots":0,"server_type":"Dedicated","server_os":"Linux","password":true,"vac":true,"version":"7932396","steam_id":85568392924470941,"keywords":["cp","nocrits","nodmgspread","uncletopia"],"game_id":440,"stv_port":27026,"stv_name":"Uncletopia | London | 2 | All Maps | STV","players":null},{"server_id":320,"name":"Uncletopia | London | 3 | All Maps","name_short":"lon-3","host":"lon-1.uk.uncletopia.com","port":27035,"enabled":true,"region":"eu","cc":"gb","latitude":51.509865,"longitude":-0.118092,"reserved":0,"last_update":"0001-01-01T00:00:00Z","name_a2s":"Uncletopia | London | 3 | All Maps","protocol":17,"map":"pl_upward","folder":"tf","game":"Team Fortress","app_id":440,"player_count":0,"max_players":24,"Bots":0,"server_type":"Dedicated","server_os":"Linux","password":true,"vac":true,"version":"7932396","steam_id":85568392924510192,"keywords":["nocrits","nodmgspread","payload","uncletopia"],"game_id":440,"stv_port":27036,"stv_name":"Uncletopia | London | 3 | All Maps | STV","players":null},{"server_id":321,"name":"Uncletopia | London | 4 | All Maps","name_short":"lon-4","host":"lon-1.uk.uncletopia.com","port":27045,"enabled":true,"region":"eu","cc":"gb","latitude":51.509865,"longitude":-0.118092,"reserved":0,"last_update":"0001-01-01T00:00:00Z","name_a2s":"Uncletopia | London | 4 | All Maps","protocol":17,"map":"pl_barnblitz","folder":"tf","game":"Team Fortress","app_id":440,"player_count":0,"max_players":24,"Bots":0,"server_type":"Dedicated","server_os":"Linux","password":true,"vac":true,"version":"7932396","steam_id":85568392924510193,"keywords":["nocrits","nodmgspread","payload","uncletopia"],"game_id":440,"stv_port":27046,"stv_name":"Uncletopia | London | 4 | All Maps | STV","players":null},{"server_id":21,"name":"Uncletopia | London | 5 | All Maps","name_short":"lon-5","host":"lon-1.uk.uncletopia.com","port":27055,"enabled":true,"region":"eu","cc":"gb","latitude":51.509865,"longitude":-0.118092,"reserved":0,"last_update":"0001-01-01T00:00:00Z","name_a2s":"Uncletopia | London | 5 | All Maps","protocol":17,"map":"pl_badwater","folder":"tf","game":"Team Fortress","app_id":440,"player_count":0,"max_players":24,"Bots":0,"server_type":"Dedicated","server_os":"Linux","password":true,"vac":true,"version":"7932396","steam_id":85568392924742829,"keywords":["nocrits","nodmgspread","payload","uncletopia"],"game_id":440,"stv_port":27056,"stv_name":"Uncletopia | London | 5 | All Maps | STV","players":null},{"server_id":22,"name":"Uncletopia | London | 6 | All Maps","name_short":"lon-6","host":"lon-1.uk.uncletopia.com","port":27065,"enabled":true,"region":"eu","cc":"gb","latitude":51.509865,"longitude":-0.118092,"reserved":0,"last_update":"0001-01-01T00:00:00Z","name_a2s":"Uncletopia | London | 6 | All Maps","protocol":17,"map":"pl_upward","folder":"tf","game":"Team Fortress","app_id":440,"player_count":0,"max_players":24,"Bots":0,"server_type":"Dedicated","server_os":"Linux","password":true,"vac":true,"version":"7932396","steam_id":85568392924742830,"keywords":["nocrits","nodmgspread","payload","uncletopia"],"game_id":440,"stv_port":27066,"stv_name":"Uncletopia | London | 6 | All Maps | STV","players":null},{"server_id":40,"name":"Uncletopia | London | 7 | No Payload","name_short":"lon-7","host":"lon-1.uk.uncletopia.com","port":27075,"enabled":true,"region":"eu","cc":"gb","latitude":51.509865,"longitude":-0.118092,"reserved":0,"last_update":"0001-01-01T00:00:00Z","name_a2s":"Uncletopia | London | 7 | No Payload","protocol":17,"map":"koth_lazarus","folder":"tf","game":"Team Fortress","app_id":440,"player_count":0,"max_players":24,"Bots":0,"server_type":"Dedicated","server_os":"Linux","password":true,"vac":true,"version":"7932396","steam_id":85568392924964314,"keywords":["cp","nocrits","nodmgspread","uncletopia"],"game_id":440,"stv_port":27076,"stv_name":"Uncletopia | London | 7 | No Payload | STV","players":null},{"server_id":41,"name":"Uncletopia | London | 8 | Community","name_short":"lon-8","host":"lon-1.uk.uncletopia.com","port":27085,"enabled":true,"region":"eu","cc":"gb","latitude":51.509865,"longitude":-0.118092,"reserved":0,"last_update":"0001-01-01T00:00:00Z","name_a2s":"Uncletopia | London | 8 | Community","protocol":17,"map":"workshop/koth_trenchfoot_b1a.ugc731436616","folder":"tf","game":"Team Fortress","app_id":440,"player_count":0,"max_players":24,"Bots":0,"server_type":"Dedicated","server_os":"Linux","password":true,"vac":true,"version":"7932396","steam_id":85568392924964315,"keywords":["cp","nocrits","nodmgspread","uncletopia"],"game_id":440,"stv_port":27086,"stv_name":"Uncletopia | London | 8 | Community | STV","players":null},{"server_id":300,"name":"Uncletopia | Montréal | 1 | All Maps","name_short":"mtl-1","host":"mtl-1.ca.uncletopia.com","port":27015,"enabled":true,"region":"us-east","cc":"ca","latitude":45.50889,"longitude":-73.56167,"reserved":0,"last_update":"0001-01-01T00:00:00Z","name_a2s":"Uncletopia | Montréal | 1 | All Maps","protocol":17,"map":"koth_cascade","folder":"tf","game":"Team Fortress","app_id":440,"player_count":0,"max_players":24,"Bots":0,"server_type":"Dedicated","server_os":"Linux","password":true,"vac":true,"version":"7932396","steam_id":85568392924500087,"keywords":["cp","nocrits","nodmgspread","uncletopia"],"game_id":440,"stv_port":27016,"stv_name":"Uncletopia | Montréal | 1 | All Maps | STV","players":null},{"server_id":301,"name":"Uncletopia | Montréal | 2 | All Maps","name_short":"mtl-2","host":"mtl-1.ca.uncletopia.com","port":27025,"enabled":true,"region":"us-east","cc":"ca","latitude":45.50889,"longitude":-73.56167,"reserved":0,"last_update":"0001-01-01T00:00:00Z","name_a2s":"Uncletopia | Montréal | 2 | All Maps","protocol":17,"map":"koth_lakeside_final","folder":"tf","game":"Team Fortress","app_id":440,"player_count":0,"max_players":24,"Bots":0,"server_type":"Dedicated","server_os":"Linux","password":true,"vac":true,"version":"7932396","steam_id":85568392924500088,"keywords":["cp","nocrits","nodmgspread","uncletopia"],"game_id":440,"stv_port":27026,"stv_name":"Uncletopia | Montréal | 2 | All Maps | STV","players":null},{"server_id":302,"name":"Uncletopia | Montréal | 3 | All Maps","name_short":"mtl-3","host":"mtl-1.ca.uncletopia.com","port":27035,"enabled":true,"region":"us-east","cc":"ca","latitude":45.50889,"longitude":-73.56167,"reserved":0,"last_update":"0001-01-01T00:00:00Z","name_a2s":"Uncletopia | Montréal | 3 | All Maps","protocol":17,"map":"koth_cascade","folder":"tf","game":"Team Fortress","app_id":440,"player_count":0,"max_players":24,"Bots":0,"server_type":"Dedicated","server_os":"Linux","password":true,"vac":true,"version":"7932396","steam_id":85568392924500089,"keywords":["cp","nocrits","nodmgspread","uncletopia"],"game_id":440,"stv_port":27036,"stv_name":"Uncletopia | Montréal | 3 | All Maps | STV","players":null},{"server_id":303,"name":"Uncletopia | Montréal | 4 | No Payload","name_short":"mtl-4","host":"mtl-1.ca.uncletopia.com","port":27045,"enabled":true,"region":"us-east","cc":"ca","latitude":45.50889,"longitude":-73.56167,"reserved":0,"last_update":"0001-01-01T00:00:00Z","name_a2s":"Uncletopia | Montréal | 4 | No Payload","protocol":17,"map":"cp_dustbowl","folder":"tf","game":"Team Fortress","app_id":440,"player_count":0,"max_players":24,"Bots":0,"server_type":"Dedicated","server_os":"Linux","password":true,"vac":true,"version":"7932396","steam_id":85568392924500090,"keywords":["cp","nocrits","nodmgspread","uncletopia"],"game_id":440,"stv_port":27046,"stv_name":"Uncletopia | Montréal | 4 | No Payload | STV","players":null},{"server_id":13,"name":"Uncletopia | New York City | 1 | All Maps","name_short":"nyc-1","host":"nyc-1.us.uncletopia.com","port":27015,"enabled":true,"region":"us-east","cc":"us","latitude":40.73061,"longitude":-73.93524,"reserved":0,"last_update":"0001-01-01T00:00:00Z","name_a2s":"Uncletopia | New York City | 1 | All Maps","protocol":17,"map":"koth_nucleus","folder":"tf","game":"Team Fortress","app_id":440,"player_count":23,"max_players":24,"Bots":0,"server_type":"Dedicated","server_os":"Linux","password":true,"vac":true,"version":"7932396","steam_id":85568392924469993,"keywords":["cp","nocrits","nodmgspread","uncletopia"],"game_id":440,"stv_port":27016,"stv_name":"Uncletopia | New York City | 1 | All Maps | STV","players":[{"user_id":514,"name":"The Blind People","steam_id":76561198008387855,"connected_time":260000000000,"state":"active","ping":44},{"user_id":495,"name":"killerdragon130","steam_id":76561198899790922,"connected_time":1252000000000,"state":"active","ping":91},{"user_id":496,"name":"Flaxks♥","steam_id":76561198410260447,"connected_time":1228000000000,"state":"active","ping":95},{"user_id":485,"name":"mm","steam_id":76561198841559088,"connected_time":2317000000000,"state":"active","ping":46},{"user_id":497,"name":"Stamos","steam_id":76561198036236781,"connected_time":1223000000000,"state":"active","ping":74},{"user_id":512,"name":"hannah1","steam_id":76561198094801861,"connected_time":308000000000,"state":"active","ping":76},{"user_id":499,"name":"Fiendish Frog","steam_id":76561198029478821,"connected_time":1155000000000,"state":"active","ping":55},{"user_id":501,"name":"Sprit ♥","steam_id":76561198268780781,"connected_time":1036000000000,"state":"active","ping":54},{"user_id":502,"name":"Capn' Crunk","steam_id":76561198848399887,"connected_time":1018000000000,"state":"active","ping":41},{"user_id":509,"name":"Truly Cryo","steam_id":76561198347497484,"connected_time":861000000000,"state":"active","ping":74},{"user_id":503,"name":"Goldensliv","steam_id":76561198161673891,"connected_time":1014000000000,"state":"active","ping":105},{"user_id":504,"name":"Snoogs","steam_id":76561198444880931,"connected_time":982000000000,"state":"active","ping":65},{"user_id":486,"name":"H₂SeGamez","steam_id":76561198250471340,"connected_time":2311000000000,"state":"active","ping":68},{"user_id":492,"name":"Yoshimelon","steam_id":76561198253054325,"connected_time":2036000000000,"state":"active","ping":75},{"user_id":386,"name":"Periculosum PhD in Funny","steam_id":76561198123370914,"connected_time":11172000000000,"state":"active","ping":92},{"user_id":515,"name":"Hobbesian Reasoning","steam_id":76561197995599452,"connected_time":235000000000,"state":"active","ping":80},{"user_id":487,"name":"-W3E- grim10465","steam_id":76561198045698581,"connected_time":2309000000000,"state":"active","ping":30},{"user_id":520,"name":"Stormartillery","steam_id":76561198408982577,"connected_time":11000000000,"state":"active","ping":62},{"user_id":518,"name":"Bewen","steam_id":76561198325334261,"connected_time":69000000000,"state":"active","ping":38},{"user_id":513,"name":"HeavenHearst","steam_id":76561198066083947,"connected_time":301000000000,"state":"active","ping":49},{"user_id":508,"name":"Dynamite-DC","steam_id":76561198132300175,"connected_time":883000000000,"state":"active","ping":99},{"user_id":490,"name":"1-800-GHOST-DANCE","steam_id":76561198835430429,"connected_time":2281000000000,"state":"active","ping":66},{"user_id":494,"name":"Blazing Hyena","steam_id":76561199121852680,"connected_time":1416000000000,"state":"active","ping":131}]},{"server_id":14,"name":"Uncletopia | New York City | 2 | All Maps","name_short":"nyc-2","host":"nyc-1.us.uncletopia.com","port":27025,"enabled":true,"region":"us-east","cc":"us","latitude":40.73061,"longitude":-73.93524,"reserved":0,"last_update":"0001-01-01T00:00:00Z","name_a2s":"Uncletopia | New York City | 2 | All Maps","protocol":17,"map":"koth_lazarus","folder":"tf","game":"Team Fortress","app_id":440,"player_count":24,"max_players":24,"Bots":0,"server_type":"Dedicated","server_os":"Linux","password":true,"vac":true,"version":"7932396","steam_id":85568392924469994,"keywords":["cp","nocrits","nodmgspread","uncletopia"],"game_id":440,"stv_port":27026,"stv_name":"Uncletopia | New York City | 2 | All Maps | STV","players":[{"user_id":440,"name":"AncientReality","steam_id":76561198310555568,"connected_time":84000000000,"state":"active","ping":110},{"user_id":396,"name":"Rock Lee in a Bikini","steam_id":76561198011204478,"connected_time":3219000000000,"state":"active","ping":65},{"user_id":408,"name":"A Rope, for big pits","steam_id":76561198068044782,"connected_time":1930000000000,"state":"active","ping":59},{"user_id":424,"name":"farfalle","steam_id":76561198882758067,"connected_time":764000000000,"state":"active","ping":59},{"user_id":432,"name":"Alejandro","steam_id":76561197970051493,"connected_time":382000000000,"state":"active","ping":124},{"user_id":395,"name":"Sarumon","steam_id":76561198078652494,"connected_time":3356000000000,"state":"active","ping":62},{"user_id":425,"name":"harold","steam_id":76561199016285746,"connected_time":715000000000,"state":"active","ping":98},{"user_id":410,"name":"Foonut","steam_id":76561198075740574,"connected_time":1797000000000,"state":"active","ping":70},{"user_id":433,"name":"Bill","steam_id":76561198075391501,"connected_time":372000000000,"state":"active","ping":80},{"user_id":390,"name":"WATERWATERWATERWATERWATER","steam_id":76561198100799021,"connected_time":3445000000000,"state":"active","ping":60},{"user_id":437,"name":"joe","steam_id":76561198045781320,"connected_time":149000000000,"state":"active","ping":49},{"user_id":427,"name":"Zack","steam_id":76561198308083836,"connected_time":676000000000,"state":"active","ping":48},{"user_id":428,"name":"Rockcrusher","steam_id":76561199012666353,"connected_time":666000000000,"state":"active","ping":70},{"user_id":416,"name":"Manhattan District Attorney","steam_id":76561198028606123,"connected_time":1660000000000,"state":"active","ping":45},{"user_id":405,"name":"awesomeajb08","steam_id":76561199056316311,"connected_time":2290000000000,"state":"active","ping":64},{"user_id":438,"name":"FearThePenguin","steam_id":76561197995200228,"connected_time":117000000000,"state":"active","ping":64},{"user_id":419,"name":"n00dles","steam_id":76561198062517391,"connected_time":1492000000000,"state":"active","ping":65},{"user_id":420,"name":"Foreign","steam_id":76561198206848004,"connected_time":1490000000000,"state":"active","ping":108},{"user_id":400,"name":"Pizza","steam_id":76561198118748364,"connected_time":2856000000000,"state":"active","ping":75},{"user_id":421,"name":"w-money","steam_id":76561198021742086,"connected_time":1188000000000,"state":"active","ping":127},{"user_id":436,"name":"Dakota Sutcliffe","steam_id":76561198170660959,"connected_time":269000000000,"state":"active","ping":57},{"user_id":429,"name":"Trans gremlin Avery","steam_id":76561199035402139,"connected_time":628000000000,"state":"active","ping":107},{"user_id":439,"name":"t-money","steam_id":76561198297199903,"connected_time":114000000000,"state":"active","ping":134},{"user_id":385,"name":"nerd","steam_id":76561198964101426,"connected_time":3667000000000,"state":"active","ping":41}]},{"server_id":15,"name":"Uncletopia | New York City | 3 | Stopwatch Beta","name_short":"nyc-3","host":"nyc-1.us.uncletopia.com","port":27035,"enabled":true,"region":"us-east","cc":"us","latitude":40.73061,"longitude":-73.93524,"reserved":0,"last_update":"0001-01-01T00:00:00Z","name_a2s":"Uncletopia | New York City | 3 | Stopwatch Beta","protocol":17,"map":"workshop/koth_clearcut_b15.ugc2107050255","folder":"tf","game":"Team Fortress","app_id":440,"player_count":0,"max_players":24,"Bots":0,"server_type":"Dedicated","server_os":"Linux","password":true,"vac":true,"version":"7932396","steam_id":85568392924742820,"keywords":["cp","nocrits","nodmgspread","uncletopia"],"game_id":440,"stv_port":27036,"stv_name":"Uncletopia | New York City | 3 | Stopwatch Beta | STV","players":null},{"server_id":16,"name":"Uncletopia | New York City | 4 | Community","name_short":"nyc-4","host":"nyc-1.us.uncletopia.com","port":27045,"enabled":true,"region":"us-east","cc":"us","latitude":40.73061,"longitude":-73.93524,"reserved":0,"last_update":"0001-01-01T00:00:00Z","name_a2s":"Uncletopia | New York City | 4 | Community","protocol":17,"map":"workshop/pl_barnblitz_pro7.ugc582280235","folder":"tf","game":"Team Fortress","app_id":440,"player_count":8,"max_players":24,"Bots":0,"server_type":"Dedicated","server_os":"Linux","password":true,"vac":true,"version":"7932396","steam_id":85568392924742821,"keywords":["nocrits","nodmgspread","payload","uncletopia"],"game_id":440,"stv_port":27046,"stv_name":"Uncletopia | New York City | 4 | Community | STV","players":[{"user_id":497,"name":"Ch'en","steam_id":76561199107269778,"connected_time":421000000000,"state":"active","ping":121},{"user_id":498,"name":"Moonadoo","steam_id":76561198133377546,"connected_time":394000000000,"state":"active","ping":84},{"user_id":499,"name":"CoranDog","steam_id":76561198248848500,"connected_time":259000000000,"state":"active","ping":45},{"user_id":429,"name":"monkeycake","steam_id":76561198272061915,"connected_time":7231000000000,"state":"active","ping":62},{"user_id":495,"name":"seems_fishy","steam_id":76561199028846656,"connected_time":1893000000000,"state":"active","ping":50},{"user_id":470,"name":"Skiddy","steam_id":76561198125942665,"connected_time":4206000000000,"state":"active","ping":61},{"user_id":473,"name":"IanFishooks","steam_id":76561199403427527,"connected_time":4074000000000,"state":"active","ping":58},{"user_id":494,"name":"lizardman","steam_id":76561199029030831,"connected_time":1970000000000,"state":"active","ping":68}]},{"server_id":142,"name":"Uncletopia | São Paulo | 1 | All Maps","name_short":"sao-1","host":"sao-1.br.uncletopia.com","port":27015,"enabled":true,"region":"sa","cc":"br","latitude":-23.533773,"longitude":-46.62529,"reserved":0,"last_update":"0001-01-01T00:00:00Z","name_a2s":"Uncletopia | São Paulo | 1 | All Maps","protocol":17,"map":"koth_cascade","folder":"tf","game":"Team Fortress","app_id":440,"player_count":0,"max_players":24,"Bots":0,"server_type":"Dedicated","server_os":"Linux","password":true,"vac":true,"version":"7932396","steam_id":85568392924469996,"keywords":["cp","nocrits","nodmgspread","uncletopia"],"game_id":440,"stv_port":27016,"stv_name":"Uncletopia | São Paulo | 1 | All Maps | STV","players":null},{"server_id":143,"name":"Uncletopia | São Paulo | 2 | All Maps","name_short":"sao-2","host":"sao-2.br.uncletopia.com","port":27015,"enabled":true,"region":"sa","cc":"br","latitude":-23.533773,"longitude":-46.62529,"reserved":0,"last_update":"0001-01-01T00:00:00Z","name_a2s":"Uncletopia | São Paulo | 2 | All Maps","protocol":17,"map":"cp_sunshine","folder":"tf","game":"Team Fortress","app_id":440,"player_count":0,"max_players":24,"Bots":0,"server_type":"Dedicated","server_os":"Linux","password":true,"vac":true,"version":"7932396","steam_id":85568392924485349,"keywords":["cp","nocrits","nodmgspread","uncletopia"],"game_id":440,"stv_port":27016,"stv_name":"Uncletopia | São Paulo | 2 | All Maps | STV","players":null},{"server_id":7,"name":"Uncletopia | Seattle | 1 | All Maps","name_short":"sea-1","host":"sea-1.us.uncletopia.com","port":27015,"enabled":true,"region":"us-west","cc":"us","latitude":47.608013,"longitude":-122.33517,"reserved":0,"last_update":"0001-01-01T00:00:00Z","name_a2s":"Uncletopia | Seattle | 1 | All Maps","protocol":17,"map":"pl_barnblitz","folder":"tf","game":"Team Fortress","app_id":440,"player_count":24,"max_players":24,"Bots":0,"server_type":"Dedicated","server_os":"Linux","password":true,"vac":true,"version":"7932396","steam_id":85568392924469997,"keywords":["nocrits","nodmgspread","payload","uncletopia"],"game_id":440,"stv_port":27016,"stv_name":"Uncletopia | Seattle | 1 | All Maps | STV","players":[{"user_id":254,"name":"InterplanetaryGentlemann","steam_id":76561198146559390,"connected_time":11804000000000,"state":"active","ping":44},{"user_id":426,"name":"Church929","steam_id":76561198448793329,"connected_time":2264000000000,"state":"active","ping":50},{"user_id":418,"name":"Google","steam_id":76561198857237473,"connected_time":2358000000000,"state":"active","ping":52},{"user_id":440,"name":"orthotic horse shoes","steam_id":76561198083242298,"connected_time":650000000000,"state":"active","ping":123},{"user_id":439,"name":"Walter White","steam_id":76561199102963294,"connected_time":670000000000,"state":"active","ping":73},{"user_id":436,"name":"fish fingers","steam_id":76561199078516567,"connected_time":1466000000000,"state":"active","ping":145},{"user_id":446,"name":"zzrat","steam_id":76561198014925415,"connected_time":428000000000,"state":"active","ping":55},{"user_id":291,"name":"Alphaarmy01","steam_id":76561198818913025,"connected_time":9441000000000,"state":"active","ping":117},{"user_id":419,"name":"lox","steam_id":76561198288531493,"connected_time":2358000000000,"state":"active","ping":53},{"user_id":429,"name":"TROY","steam_id":76561197983852176,"connected_time":2176000000000,"state":"active","ping":75},{"user_id":447,"name":"mub","steam_id":76561197961943948,"connected_time":272000000000,"state":"active","ping":43},{"user_id":425,"name":"selvhat","steam_id":76561198114225509,"connected_time":2309000000000,"state":"active","ping":77},{"user_id":423,"name":"t2h","steam_id":76561198057944303,"connected_time":2335000000000,"state":"active","ping":76},{"user_id":441,"name":"unnamed","steam_id":76561198841016072,"connected_time":606000000000,"state":"active","ping":59},{"user_id":396,"name":"Mignyanne :3","steam_id":76561198048754056,"connected_time":4150000000000,"state":"active","ping":60},{"user_id":433,"name":"bishiro","steam_id":76561198129564488,"connected_time":1699000000000,"state":"active","ping":61},{"user_id":394,"name":"CashGordon","steam_id":76561197975594096,"connected_time":4222000000000,"state":"active","ping":40},{"user_id":432,"name":"b a l j e e t","steam_id":76561199102371298,"connected_time":1790000000000,"state":"active","ping":40},{"user_id":417,"name":"Tom Skirrett","steam_id":76561198014600788,"connected_time":2368000000000,"state":"active","ping":65},{"user_id":442,"name":"R5-D4","steam_id":76561198025196439,"connected_time":601000000000,"state":"active","ping":54},{"user_id":412,"name":"SoldMyKidneyForCollege","steam_id":76561198096329559,"connected_time":3329000000000,"state":"active","ping":92},{"user_id":443,"name":"lusty","steam_id":76561198138478947,"connected_time":601000000000,"state":"active","ping":40},{"user_id":445,"name":"rat gets the cheese","steam_id":76561198031234032,"connected_time":515000000000,"state":"active","ping":106},{"user_id":428,"name":"Jae","steam_id":76561198060026844,"connected_time":2252000000000,"state":"active","ping":117}]},{"server_id":119,"name":"Uncletopia | Seattle | 2 | All Maps","name_short":"sea-2","host":"sea-1.us.uncletopia.com","port":27025,"enabled":true,"region":"us-west","cc":"us","latitude":47.608013,"longitude":-122.33517,"reserved":0,"last_update":"0001-01-01T00:00:00Z","name_a2s":"Uncletopia | Seattle | 2 | All Maps","protocol":17,"map":"koth_cascade","folder":"tf","game":"Team Fortress","app_id":440,"player_count":23,"max_players":24,"Bots":0,"server_type":"Dedicated","server_os":"Linux","password":true,"vac":true,"version":"7932396","steam_id":85568392924469998,"keywords":["cp","nocrits","nodmgspread","uncletopia"],"game_id":440,"stv_port":27026,"stv_name":"Uncletopia | Seattle | 2 | All Maps | STV","players":[{"user_id":716,"name":"HideOnTate","steam_id":76561198209880837,"connected_time":7949000000000,"state":"active","ping":45},{"user_id":770,"name":"viciousbeatmaker","steam_id":76561198086876652,"connected_time":4700000000000,"state":"active","ping":72},{"user_id":812,"name":"you think you know me","steam_id":76561198131166135,"connected_time":1677000000000,"state":"active","ping":37},{"user_id":791,"name":"PillCosby","steam_id":76561199396184696,"connected_time":3303000000000,"state":"active","ping":49},{"user_id":804,"name":"Barton","steam_id":76561198203088523,"connected_time":2489000000000,"state":"active","ping":64},{"user_id":802,"name":"too funky ᗜˬᗜ","steam_id":76561199120399776,"connected_time":2591000000000,"state":"active","ping":65},{"user_id":827,"name":"Arizona Killer","steam_id":76561198110345484,"connected_time":277000000000,"state":"active","ping":58},{"user_id":744,"name":"ejschild745","steam_id":76561199013388867,"connected_time":6687000000000,"state":"active","ping":71},{"user_id":814,"name":"Norriss","steam_id":76561198920296293,"connected_time":1227000000000,"state":"active","ping":44},{"user_id":687,"name":"a cat plushie","steam_id":76561198080046542,"connected_time":10219000000000,"state":"active","ping":45},{"user_id":806,"name":"SCUD missile up your ass","steam_id":76561198066452726,"connected_time":2339000000000,"state":"active","ping":82},{"user_id":828,"name":"el muchacho","steam_id":76561198282632562,"connected_time":14000000000,"state":"spawning","ping":98},{"user_id":815,"name":"SmallErection","steam_id":76561198071770147,"connected_time":1160000000000,"state":"active","ping":60},{"user_id":788,"name":"Santicules","steam_id":76561198209373536,"connected_time":3365000000000,"state":"active","ping":104},{"user_id":625,"name":"a single goal","steam_id":76561198042913843,"connected_time":14190000000000,"state":"active","ping":60},{"user_id":810,"name":"amarok","steam_id":76561198954000327,"connected_time":1849000000000,"state":"active","ping":60},{"user_id":824,"name":"grassyboulder","steam_id":76561199083593292,"connected_time":534000000000,"state":"active","ping":73},{"user_id":822,"name":"jay","steam_id":76561198022374405,"connected_time":882000000000,"state":"active","ping":58},{"user_id":821,"name":"stuff","steam_id":76561198190770226,"connected_time":957000000000,"state":"active","ping":48},{"user_id":825,"name":"i.love.ants.321","steam_id":76561198169755734,"connected_time":521000000000,"state":"active","ping":65},{"user_id":817,"name":"Seriously Bruh","steam_id":76561198070408485,"connected_time":1117000000000,"state":"active","ping":61},{"user_id":709,"name":"beam man","steam_id":76561198060567341,"connected_time":9037000000000,"state":"active","ping":126},{"user_id":803,"name":"jorts","steam_id":76561199041179985,"connected_time":2576000000000,"state":"active","ping":51}]},{"server_id":406,"name":"Uncletopia | Seattle | 3 | Stopwatch Beta","name_short":"sea-3","host":"sea-1.us.uncletopia.com","port":27035,"enabled":true,"region":"us-west","cc":"us","latitude":47.608013,"longitude":-122.33517,"reserved":0,"last_update":"0001-01-01T00:00:00Z","name_a2s":"Uncletopia | Seattle | 3 | Stopwatch Beta","protocol":17,"map":"workshop/koth_bagel_rc6.ugc2514036946","folder":"tf","game":"Team Fortress","app_id":440,"player_count":0,"max_players":24,"Bots":0,"server_type":"Dedicated","server_os":"Linux","password":true,"vac":true,"version":"7932396","steam_id":85568392924515217,"keywords":["cp","nocrits","nodmgspread","uncletopia"],"game_id":440,"stv_port":27036,"stv_name":"Uncletopia | Seattle | 3 | Stopwatch Beta | STV","players":null},{"server_id":17,"name":"Uncletopia | San Francisco | 1 | All Maps","name_short":"sfo-1","host":"sfo-1.us.uncletopia.com","port":27015,"enabled":true,"region":"us-west","cc":"us","latitude":37.77397,"longitude":-122.4313,"reserved":0,"last_update":"0001-01-01T00:00:00Z","name_a2s":"Uncletopia | San Francisco | 1 | All Maps","protocol":17,"map":"pl_snowycoast","folder":"tf","game":"Team Fortress","app_id":440,"player_count":24,"max_players":24,"Bots":0,"server_type":"Dedicated","server_os":"Linux","password":true,"vac":true,"version":"7932396","steam_id":85568392924469999,"keywords":["nocrits","nodmgspread","payload","uncletopia"],"game_id":440,"stv_port":27016,"stv_name":"Uncletopia | San Francisco | 1 | All Maps | STV","players":[{"user_id":223,"name":"I'm a easy kill","steam_id":76561199092023746,"connected_time":1705000000000,"state":"active","ping":64},{"user_id":215,"name":"Miro","steam_id":76561198936412406,"connected_time":2806000000000,"state":"active","ping":128},{"user_id":234,"name":"BL00DFUCKER1","steam_id":76561198085036623,"connected_time":925000000000,"state":"active","ping":125},{"user_id":229,"name":"DJ Deoxys","steam_id":76561198322147008,"connected_time":1290000000000,"state":"active","ping":105},{"user_id":202,"name":"Funbearable ʕ •ᴥ•ʔ","steam_id":76561197968272094,"connected_time":3442000000000,"state":"active","ping":61},{"user_id":235,"name":"The Horselords and Animal Gods","steam_id":76561197975094050,"connected_time":886000000000,"state":"active","ping":63},{"user_id":225,"name":"Dragon New Warm Mountain","steam_id":76561198055626638,"connected_time":1652000000000,"state":"active","ping":149},{"user_id":236,"name":"stboncho","steam_id":76561198172275301,"connected_time":872000000000,"state":"active","ping":61},{"user_id":182,"name":"Imitation Caucasian","steam_id":76561198320536166,"connected_time":5202000000000,"state":"active","ping":75},{"user_id":242,"name":"ForAPessimistImPrettyOptimistic","steam_id":76561198170128009,"connected_time":13000000000,"state":"active","ping":62},{"user_id":217,"name":"joe biden","steam_id":76561198861436861,"connected_time":2641000000000,"state":"active","ping":46},{"user_id":211,"name":"corrupted spy","steam_id":76561198018689620,"connected_time":3195000000000,"state":"active","ping":68},{"user_id":241,"name":"Emperor Mollusk","steam_id":76561197972382839,"connected_time":431000000000,"state":"active","ping":81},{"user_id":230,"name":"Whapper","steam_id":76561198044029606,"connected_time":1010000000000,"state":"active","ping":58},{"user_id":239,"name":"mndbrkn","steam_id":76561198054390505,"connected_time":606000000000,"state":"active","ping":102},{"user_id":238,"name":"Just a Good Friend","steam_id":76561198140052403,"connected_time":622000000000,"state":"active","ping":44},{"user_id":232,"name":"cinnamon.varnell","steam_id":76561198253710180,"connected_time":978000000000,"state":"active","ping":129},{"user_id":216,"name":"malon milk","steam_id":76561198042558913,"connected_time":2767000000000,"state":"active","ping":124},{"user_id":240,"name":"Jpzarde","steam_id":76561197978240364,"connected_time":501000000000,"state":"active","ping":91},{"user_id":218,"name":"kermitcreeper(ZAZA)","steam_id":76561199222829972,"connected_time":2505000000000,"state":"active","ping":105},{"user_id":191,"name":"BongBlaster69","steam_id":76561198316811893,"connected_time":4605000000000,"state":"active","ping":58},{"user_id":228,"name":"hatsune miku","steam_id":76561199445009981,"connected_time":1401000000000,"state":"active","ping":66},{"user_id":227,"name":"doggo88888","steam_id":76561199390094020,"connected_time":1630000000000,"state":"active","ping":78},{"user_id":220,"name":"Zen56","steam_id":76561198074554894,"connected_time":2427000000000,"state":"active","ping":90}]},{"server_id":18,"name":"Uncletopia | San Francisco | 2 | All Maps","name_short":"sfo-2","host":"sfo-1.us.uncletopia.com","port":27025,"enabled":true,"region":"us-west","cc":"us","latitude":37.77397,"longitude":-122.4313,"reserved":0,"last_update":"0001-01-01T00:00:00Z","name_a2s":"Uncletopia | San Francisco | 2 | All Maps","protocol":17,"map":"pl_pier","folder":"tf","game":"Team Fortress","app_id":440,"player_count":24,"max_players":24,"Bots":0,"server_type":"Dedicated","server_os":"Linux","password":true,"vac":true,"version":"7932396","steam_id":85568392924470000,"keywords":["nocrits","nodmgspread","payload","uncletopia"],"game_id":440,"stv_port":27026,"stv_name":"Uncletopia | San Francisco | 2 | All Maps | STV","players":[{"user_id":257,"name":"Tuna!","steam_id":76561198354590331,"connected_time":1232000000000,"state":"active","ping":72},{"user_id":260,"name":"delight","steam_id":76561197980280272,"connected_time":782000000000,"state":"active","ping":61},{"user_id":245,"name":"el wokismo","steam_id":76561198058617608,"connected_time":1487000000000,"state":"active","ping":60},{"user_id":215,"name":"Cherry Bomb!","steam_id":76561198017947020,"connected_time":3370000000000,"state":"active","ping":95},{"user_id":258,"name":"Why?","steam_id":76561198798253745,"connected_time":1045000000000,"state":"active","ping":74},{"user_id":247,"name":"Master Cannoli","steam_id":76561198272327518,"connected_time":1458000000000,"state":"active","ping":63},{"user_id":243,"name":"Aeris","steam_id":76561198287271028,"connected_time":1781000000000,"state":"active","ping":99},{"user_id":248,"name":"BreadGod","steam_id":76561198050665205,"connected_time":1457000000000,"state":"active","ping":105},{"user_id":249,"name":"rad killl raccoon","steam_id":76561198980975595,"connected_time":1450000000000,"state":"active","ping":82},{"user_id":250,"name":"Kasodani Kyouko","steam_id":76561198023178589,"connected_time":1447000000000,"state":"active","ping":134},{"user_id":251,"name":"supcupman","steam_id":76561198051513866,"connected_time":1441000000000,"state":"active","ping":63},{"user_id":232,"name":"lili","steam_id":76561199391478575,"connected_time":2276000000000,"state":"active","ping":78},{"user_id":259,"name":"SvicidalBug","steam_id":76561198221390504,"connected_time":910000000000,"state":"active","ping":75},{"user_id":266,"name":"Mico (Mico)","steam_id":76561198125462953,"connected_time":534000000000,"state":"active","ping":68},{"user_id":267,"name":"Hannah","steam_id":76561199142959128,"connected_time":296000000000,"state":"active","ping":77},{"user_id":219,"name":"G. Howard Dee","steam_id":76561198058382812,"connected_time":3312000000000,"state":"active","ping":61},{"user_id":268,"name":"Axelonemillion15","steam_id":76561198421342282,"connected_time":225000000000,"state":"active","ping":69},{"user_id":253,"name":"wlfgng","steam_id":76561198316639499,"connected_time":1421000000000,"state":"active","ping":35},{"user_id":264,"name":"mac_cheese","steam_id":76561198071334162,"connected_time":651000000000,"state":"active","ping":73},{"user_id":229,"name":"Earl Acton","steam_id":76561198064273772,"connected_time":2620000000000,"state":"active","ping":114},{"user_id":241,"name":"cro","steam_id":76561198406023539,"connected_time":1826000000000,"state":"active","ping":77},{"user_id":237,"name":"Chap","steam_id":76561198294226443,"connected_time":2017000000000,"state":"active","ping":65},{"user_id":254,"name":"big car","steam_id":76561198067082350,"connected_time":1390000000000,"state":"active","ping":50},{"user_id":255,"name":"GKumo","steam_id":76561198023175868,"connected_time":1353000000000,"state":"active","ping":58}]},{"server_id":19,"name":"Uncletopia | San Francisco | 3 | Stopwatch Beta","name_short":"sfo-3","host":"sfo-1.us.uncletopia.com","port":27035,"enabled":true,"region":"us-west","cc":"us","latitude":37.77397,"longitude":-122.4313,"reserved":0,"last_update":"0001-01-01T00:00:00Z","name_a2s":"Uncletopia | San Francisco | 3 | Stopwatch Beta","protocol":17,"map":"cp_granary","folder":"tf","game":"Team Fortress","app_id":440,"player_count":7,"max_players":24,"Bots":0,"server_type":"Dedicated","server_os":"Linux","password":true,"vac":true,"version":"7932396","steam_id":85568392924742824,"keywords":["cp","nocrits","nodmgspread","uncletopia"],"game_id":440,"stv_port":27036,"stv_name":"Uncletopia | San Francisco | 3 | Stopwatch Beta | STV","players":[{"user_id":10,"name":"Demoslow","steam_id":76561198805592656,"connected_time":926000000000,"state":"active","ping":69},{"user_id":11,"name":"epicgameslauncherplaer878","steam_id":76561198360279519,"connected_time":924000000000,"state":"active","ping":98},{"user_id":12,"name":"Sgt. Satire","steam_id":76561198104193483,"connected_time":912000000000,"state":"active","ping":65},{"user_id":13,"name":"amanthatplaysgames","steam_id":76561199396905804,"connected_time":432000000000,"state":"active","ping":220},{"user_id":17,"name":"asm_ghost","steam_id":76561199205363547,"connected_time":49000000000,"state":"active","ping":62},{"user_id":15,"name":"C Sharp Minor","steam_id":76561199185191710,"connected_time":283000000000,"state":"active","ping":113},{"user_id":16,"name":"choppa beat his meat","steam_id":76561198087422193,"connected_time":220000000000,"state":"active","ping":50}]},{"server_id":20,"name":"Uncletopia | San Francisco | 4 | Community","name_short":"sfo-4","host":"sfo-1.us.uncletopia.com","port":27045,"enabled":true,"region":"us-west","cc":"us","latitude":37.77397,"longitude":-122.4313,"reserved":0,"last_update":"0001-01-01T00:00:00Z","name_a2s":"Uncletopia | San Francisco | 4 | Community","protocol":17,"map":"workshop/koth_kemptown_rc1.ugc767410655","folder":"tf","game":"Team Fortress","app_id":440,"player_count":0,"max_players":24,"Bots":0,"server_type":"Dedicated","server_os":"Linux","password":true,"vac":true,"version":"7932396","steam_id":85568392924742826,"keywords":["cp","nocrits","nodmgspread","uncletopia"],"game_id":440,"stv_port":27046,"stv_name":"Uncletopia | San Francisco | 4 | Community | STV","players":null},{"server_id":141,"name":"Uncletopia | Sydney | 1 | All Maps","name_short":"syd-1","host":"syd-1.au.uncletopia.com","port":27015,"enabled":true,"region":"au","cc":"au","latitude":-33.865143,"longitude":151.2099,"reserved":0,"last_update":"0001-01-01T00:00:00Z","name_a2s":"Uncletopia | Sydney | 1 | All Maps","protocol":17,"map":"koth_highpass","folder":"tf","game":"Team Fortress","app_id":440,"player_count":0,"max_players":24,"Bots":0,"server_type":"Dedicated","server_os":"Linux","password":true,"vac":true,"version":"7932396","steam_id":85568392924470001,"keywords":["cp","nocrits","nodmgspread","uncletopia"],"game_id":440,"stv_port":27016,"stv_name":"Uncletopia | Sydney | 1 | All Maps | STV","players":null},{"server_id":123,"name":"Uncletopia | Sydney | 2 | All Maps","name_short":"syd-2","host":"syd-1.au.uncletopia.com","port":27025,"enabled":true,"region":"au","cc":"au","latitude":-33.865143,"longitude":151.2099,"reserved":0,"last_update":"0001-01-01T00:00:00Z","name_a2s":"Uncletopia | Sydney | 2 | All Maps","protocol":17,"map":"pl_frontier_final","folder":"tf","game":"Team Fortress","app_id":440,"player_count":24,"max_players":24,"Bots":0,"server_type":"Dedicated","server_os":"Linux","password":true,"vac":true,"version":"7932396","steam_id":85568392924470002,"keywords":["nocrits","nodmgspread","payload","uncletopia"],"game_id":440,"stv_port":27026,"stv_name":"Uncletopia | Sydney | 2 | All Maps | STV","players":[{"user_id":305,"name":"Bobby Wilkinson","steam_id":76561198054985347,"connected_time":1179000000000,"state":"active","ping":55},{"user_id":325,"name":"no teles 4 u","steam_id":76561198018478297,"connected_time":320000000000,"state":"active","ping":68},{"user_id":306,"name":"Michaelsoft Binbows","steam_id":76561198422847304,"connected_time":1107000000000,"state":"active","ping":64},{"user_id":238,"name":"kisses you","steam_id":76561198288970258,"connected_time":6201000000000,"state":"active","ping":45},{"user_id":307,"name":"superbob event manager","steam_id":76561198272422193,"connected_time":1085000000000,"state":"active","ping":59},{"user_id":244,"name":"Zieria","steam_id":76561199261811388,"connected_time":5934000000000,"state":"active","ping":43},{"user_id":288,"name":"Zinc","steam_id":76561198363180447,"connected_time":2678000000000,"state":"active","ping":49},{"user_id":277,"name":"Vaconcovat","steam_id":76561198024284041,"connected_time":3715000000000,"state":"active","ping":59},{"user_id":315,"name":"b4sedhk","steam_id":76561198831069486,"connected_time":709000000000,"state":"active","ping":58},{"user_id":299,"name":"Jacob","steam_id":76561198059341907,"connected_time":1711000000000,"state":"active","ping":35},{"user_id":323,"name":"trash","steam_id":76561198110764631,"connected_time":468000000000,"state":"active","ping":142},{"user_id":312,"name":"KUTJARA","steam_id":76561199033538158,"connected_time":891000000000,"state":"active","ping":129},{"user_id":316,"name":"Maori4Life","steam_id":76561199133892278,"connected_time":670000000000,"state":"active","ping":73},{"user_id":311,"name":"Muffin","steam_id":76561198075391119,"connected_time":934000000000,"state":"active","ping":52},{"user_id":302,"name":"Hawk","steam_id":76561198135164277,"connected_time":1459000000000,"state":"active","ping":57},{"user_id":313,"name":"SoaringBobcat","steam_id":76561198304644739,"connected_time":878000000000,"state":"active","ping":95},{"user_id":317,"name":"4-Star Yelp Review","steam_id":76561197995258180,"connected_time":669000000000,"state":"active","ping":54},{"user_id":318,"name":"Join the Jihad brother","steam_id":76561199257116847,"connected_time":652000000000,"state":"active","ping":59},{"user_id":324,"name":"Anemone","steam_id":76561198958131057,"connected_time":439000000000,"state":"active","ping":60},{"user_id":320,"name":"HellBoy","steam_id":76561198069295430,"connected_time":553000000000,"state":"active","ping":77},{"user_id":321,"name":"8man","steam_id":76561198079873281,"connected_time":530000000000,"state":"active","ping":50},{"user_id":326,"name":"El Sleazo","steam_id":76561198274467385,"connected_time":248000000000,"state":"active","ping":96},{"user_id":329,"name":"jor","steam_id":76561198027585180,"connected_time":53000000000,"state":"active","ping":51},{"user_id":328,"name":"PreemtTheThird","steam_id":76561199216819073,"connected_time":143000000000,"state":"active","ping":56}]},{"server_id":395,"name":"Uncletopia | Sydney | 3 | All Maps","name_short":"syd-3","host":"syd-1.au.uncletopia.com","port":27035,"enabled":true,"region":"au","cc":"au","latitude":-33.865143,"longitude":151.2099,"reserved":0,"last_update":"0001-01-01T00:00:00Z","name_a2s":"Uncletopia | Sydney | 3 | All Maps","protocol":17,"map":"cp_snakewater_final1","folder":"tf","game":"Team Fortress","app_id":440,"player_count":0,"max_players":24,"Bots":0,"server_type":"Dedicated","server_os":"Linux","password":true,"vac":true,"version":"7932396","steam_id":85568392925194467,"keywords":["cp","nocrits","nodmgspread","uncletopia"],"game_id":440,"stv_port":27036,"stv_name":"Uncletopia | Sydney | 3 | All Maps | STV","players":null},{"server_id":396,"name":"Uncletopia | Sydney | 4 | All Maps","name_short":"syd-4","host":"syd-1.au.uncletopia.com","port":27045,"enabled":true,"region":"au","cc":"au","latitude":-33.865143,"longitude":151.2099,"reserved":0,"last_update":"0001-01-01T00:00:00Z","name_a2s":"Uncletopia | Sydney | 4 | All Maps","protocol":17,"map":"cp_sunshine","folder":"tf","game":"Team Fortress","app_id":440,"player_count":0,"max_players":24,"Bots":0,"server_type":"Dedicated","server_os":"Linux","password":true,"vac":true,"version":"7932396","steam_id":85568392925397958,"keywords":["cp","nocrits","nodmgspread","uncletopia"],"game_id":440,"stv_port":27046,"stv_name":"Uncletopia | Sydney | 4 | All Maps | STV","players":null},{"server_id":58,"name":"Uncletopia | Sydney | 5 | Stopwatch Beta","name_short":"syd-5","host":"syd-1.au.uncletopia.com","port":27055,"enabled":true,"region":"au","cc":"au","latitude":-33.865143,"longitude":151.2099,"reserved":0,"last_update":"0001-01-01T00:00:00Z","name_a2s":"Uncletopia | Sydney | 5 | Stopwatch Beta","protocol":17,"map":"pl_borneo","folder":"tf","game":"Team Fortress","app_id":440,"player_count":0,"max_players":24,"Bots":0,"server_type":"Dedicated","server_os":"Linux","password":true,"vac":true,"version":"7932396","steam_id":85568392925397959,"keywords":["nocrits","nodmgspread","payload","uncletopia"],"game_id":440,"stv_port":27056,"stv_name":"Uncletopia | Sydney | 5 | Stopwatch Beta | STV","players":null},{"server_id":59,"name":"Uncletopia | Sydney | 6 | Community","name_short":"syd-6","host":"syd-1.au.uncletopia.com","port":27065,"enabled":true,"region":"au","cc":"au","latitude":-33.865143,"longitude":151.2099,"reserved":0,"last_update":"0001-01-01T00:00:00Z","name_a2s":"Uncletopia | Sydney | 6 | Community","protocol":17,"map":"workshop/cp_snowbase_b18.ugc2081770490","folder":"tf","game":"Team Fortress","app_id":440,"player_count":0,"max_players":24,"Bots":0,"server_type":"Dedicated","server_os":"Linux","password":true,"vac":true,"version":"7932396","steam_id":85568392925397960,"keywords":["cp","nocrits","nodmgspread","uncletopia"],"game_id":440,"stv_port":27066,"stv_name":"Uncletopia | Sydney | 6 | Community | STV","players":null},{"server_id":49,"name":"Uncletopia | Warsaw | 1 | All Maps","name_short":"waw-1","host":"waw-1.pl.uncletopia.com","port":27015,"enabled":true,"region":"eu","cc":"pl","latitude":52.2297,"longitude":21.017532,"reserved":0,"last_update":"0001-01-01T00:00:00Z","name_a2s":"","protocol":0,"map":"","folder":"","game":"","app_id":0,"player_count":0,"max_players":0,"Bots":0,"server_type":"","server_os":"","password":false,"vac":false,"version":"","steam_id":0,"keywords":null,"game_id":0,"stv_port":0,"stv_name":"","players":null},{"server_id":50,"name":"Uncletopia | Warsaw | 2 | All Maps","name_short":"waw-2","host":"waw-1.pl.uncletopia.com","port":27025,"enabled":true,"region":"eu","cc":"pl","latitude":52.2297,"longitude":21.017532,"reserved":0,"last_update":"0001-01-01T00:00:00Z","name_a2s":"Uncletopia | Warsaw | 2 | All Maps","protocol":17,"map":"koth_highpass","folder":"tf","game":"Team Fortress","app_id":440,"player_count":0,"max_players":24,"Bots":0,"server_type":"Dedicated","server_os":"Linux","password":true,"vac":true,"version":"7932396","steam_id":85568392925397851,"keywords":["cp","nocrits","nodmgspread","uncletopia"],"game_id":440,"stv_port":27026,"stv_name":"Uncletopia | Warsaw | 2 | All Maps | STV","players":null},{"server_id":51,"name":"Uncletopia | Warsaw | 3 | All Maps","name_short":"waw-3","host":"waw-1.pl.uncletopia.com","port":27035,"enabled":true,"region":"eu","cc":"pl","latitude":52.2297,"longitude":21.017532,"reserved":0,"last_update":"0001-01-01T00:00:00Z","name_a2s":"Uncletopia | Warsaw | 3 | All Maps","protocol":17,"map":"pl_pier","folder":"tf","game":"Team Fortress","app_id":440,"player_count":0,"max_players":24,"Bots":0,"server_type":"Dedicated","server_os":"Linux","password":true,"vac":true,"version":"7932396","steam_id":85568392925397852,"keywords":["nocrits","nodmgspread","payload","uncletopia"],"game_id":440,"stv_port":27036,"stv_name":"Uncletopia | Warsaw | 3 | All Maps | STV","players":null},{"server_id":52,"name":"Uncletopia | Warsaw | 4 | All Maps","name_short":"waw-4","host":"waw-1.pl.uncletopia.com","port":27045,"enabled":true,"region":"eu","cc":"pl","latitude":52.2297,"longitude":21.017532,"reserved":0,"last_update":"0001-01-01T00:00:00Z","name_a2s":"Uncletopia | Warsaw | 4 | All Maps","protocol":17,"map":"pl_frontier_final","folder":"tf","game":"Team Fortress","app_id":440,"player_count":0,"max_players":24,"Bots":0,"server_type":"Dedicated","server_os":"Linux","password":true,"vac":true,"version":"7932396","steam_id":85568392925397853,"keywords":["nocrits","nodmgspread","payload","uncletopia"],"game_id":440,"stv_port":27046,"stv_name":"Uncletopia | Warsaw | 4 | All Maps | STV","players":null},{"server_id":53,"name":"Uncletopia | Warsaw | 5 | Stopwatch Beta","name_short":"waw-5","host":"waw-1.pl.uncletopia.com","port":27055,"enabled":true,"region":"eu","cc":"pl","latitude":52.2297,"longitude":21.017532,"reserved":0,"last_update":"0001-01-01T00:00:00Z","name_a2s":"Uncletopia | Warsaw | 5 | Stopwatch Beta","protocol":17,"map":"pl_upward","folder":"tf","game":"Team Fortress","app_id":440,"player_count":0,"max_players":24,"Bots":0,"server_type":"Dedicated","server_os":"Linux","password":true,"vac":true,"version":"7932396","steam_id":85568392925397854,"keywords":["nocrits","nodmgspread","payload","uncletopia"],"game_id":440,"stv_port":27056,"stv_name":"Uncletopia | Warsaw | 5 | Stopwatch Beta | STV","players":null},{"server_id":54,"name":"Uncletopia | Warsaw | 6 | Community","name_short":"waw-6","host":"waw-1.pl.uncletopia.com","port":27065,"enabled":true,"region":"eu","cc":"pl","latitude":52.2297,"longitude":21.017532,"reserved":0,"last_update":"0001-01-01T00:00:00Z","name_a2s":"Uncletopia | Warsaw | 6 | Community","protocol":17,"map":"workshop/cp_bruhstbowl_b6.ugc2878604990","folder":"tf","game":"Team Fortress","app_id":440,"player_count":0,"max_players":24,"Bots":0,"server_type":"Dedicated","server_os":"Linux","password":true,"vac":true,"version":"7932396","steam_id":85568392925397856,"keywords":["cp","nocrits","nodmgspread","uncletopia"],"game_id":440,"stv_port":27066,"stv_name":"Uncletopia | Warsaw | 6 | Community | STV","players":null}]}