{"status":true,"message":"","result":[{"server_id":9,"name":"Uncletopia | Atlanta | 1 | All Maps","name_short":"atl-1","host":"atl-1.us.uncletopia.com","port":27015,"enabled":true,"region":"us-east","cc":"us","latitude":33.753746,"longitude":-84.38633,"reserved":0,"last_update":"0001-01-01T00:00:00Z","name_a2s":"Uncletopia | Atlanta | 1 | All Maps","protocol":17,"map":"pl_snowycoast","folder":"tf","game":"Team Fortress","app_id":440,"player_count":24,"max_players":24,"Bots":0,"server_type":"Dedicated","server_os":"Linux","password":true,"vac":true,"version":"7961495","steam_id":85568392924469982,"keywords":["nocrits","nodmgspread","payload","uncletopia"],"game_id":440,"stv_port":27016,"stv_name":"Uncletopia | Atlanta | 1 | All Maps | STV","players":null},{"server_id":104,"name":"Uncletopia | Atlanta | 2 | All Maps","name_short":"atl-2","host":"atl-1.us.uncletopia.com","port":27025,"enabled":true,"region":"us-east","cc":"us","latitude":33.753746,"longitude":-84.38633,"reserved":0,"last_update":"0001-01-01T00:00:00Z","name_a2s":"Uncletopia | Atlanta | 2 | All Maps","protocol":17,"map":"pl_snowycoast","folder":"tf","game":"Team Fortress","app_id":440,"player_count":24,"max_players":24,"Bots":0,"server_type":"Dedicated","server_os":"Linux","password":true,"vac":true,"version":"7961495","steam_id":85568392924469983,"keywords":["nocrits","nodmgspread","payload","uncletopia"],"game_id":440,"stv_port":27026,"stv_name":"Uncletopia | Atlanta | 2 | All Maps | STV","players":null},{"server_id":400,"name":"Uncletopia | Atlanta | 3 | Stopwatch","name_short":"atl-3","host":"atl-1.us.uncletopia.com","port":27035,"enabled":true,"region":"us-east","cc":"us","latitude":33.753746,"longitude":-84.38633,"reserved":0,"last_update":"0001-01-01T00:00:00Z","name_a2s":"Uncletopia | Atlanta | 3 | Stopwatch","protocol":17,"map":"koth_clearcut_b15","folder":"tf","game":"Team Fortress","app_id":440,"player_count":0,"max_players":24,"Bots":0,"server_type":"Dedicated","server_os":"Linux","password":true,"vac":true,"version":"7961495","steam_id":85568392924515187,"keywords":["cp","nocrits","nodmgspread","uncletopia"],"game_id":440,"stv_port":27036,"stv_name":"Uncletopia | Atlanta | 3 | Stopwatch | STV","players":null},{"server_id":401,"name":"Uncletopia | Atlanta | 4 | Community","name_short":"atl-4","host":"atl-1.us.uncletopia.com","port":27045,"enabled":true,"region":"us-east","cc":"us","latitude":33.753746,"longitude":-84.38633,"reserved":0,"last_update":"0001-01-01T00:00:00Z","name_a2s":"Uncletopia | Atlanta | 4 | Community","protocol":17,"map":"pl_vigil_rc10","folder":"tf","game":"Team Fortress","app_id":440,"player_count":0,"max_players":24,"Bots":0,"server_type":"Dedicated","server_os":"Linux","password":true,"vac":true,"version":"7961495","steam_id":85568392924515188,"keywords":["nocrits","nodmgspread","payload","uncletopia"],"game_id":440,"stv_port":27046,"stv_name":"Uncletopia | Atlanta | 4 | Community | STV","players":null},{"server_id":2,"name":"Uncletopia | Chicago | 1 | All Maps","name_short":"chi-1","host":"chi-1.us.uncletopia.com","port":27015,"enabled":true,"region":"us-central","cc":"us","latitude":41.881832,"longitude":-87.62318,"reserved":0,"last_update":"0001-01-01T00:00:00Z","name_a2s":"Uncletopia | Chicago | 1 | All Maps","protocol":17,"map":"pl_borneo","folder":"tf","game":"Team Fortress","app_id":440,"player_count":22,"max_players":24,"Bots":0,"server_type":"Dedicated","server_os":"Linux","password":true,"vac":true,"version":"7961495","steam_id":85568392924469984,"keywords":["nocrits","nodmgspread","payload","uncletopia"],"game_id":440,"stv_port":27016,"stv_name":"Uncletopia | Chicago | 1 | All Maps | STV","players":[{"user_id":511,"name":"D","steam_id":76561198292908619,"connected_time":188000000000,"state":"active","ping":75},{"user_id":503,"name":"HalfDead","steam_id":76561198049700226,"connected_time":1022000000000,"state":"active","ping":84},{"user_id":506,"name":"Dr.BendyBones","steam_id":76561198048846641,"connected_time":776000000000,"state":"active","ping":67},{"user_id":510,"name":"Leadwolf","steam_id":76561198308533122,"connected_time":490000000000,"state":"active","ping":79},{"user_id":470,"name":"Bearegard","steam_id":76561198061926542,"connected_time":3798000000000,"state":"active","ping":56},{"user_id":512,"name":"Zelumie","steam_id":76561198147335801,"connected_time":130000000000,"state":"active","ping":53},{"user_id":505,"name":"EnragedWaters","steam_id":76561198317135757,"connected_time":961000000000,"state":"active","ping":106},{"user_id":514,"name":"Society Crusher","steam_id":76561198042059080,"connected_time":81000000000,"state":"active","ping":125},{"user_id":493,"name":"Ghoulenoir","steam_id":76561198074314573,"connected_time":1485000000000,"state":"active","ping":45},{"user_id":495,"name":"Wikked","steam_id":76561198196149207,"connected_time":1126000000000,"state":"active","ping":125},{"user_id":487,"name":"super clickteam fusion","steam_id":76561198275101482,"connected_time":2310000000000,"state":"active","ping":132},{"user_id":469,"name":"Nina","steam_id":76561198172481363,"connected_time":3822000000000,"state":"active","ping":45},{"user_id":515,"name":"Marcel","steam_id":76561199140401051,"connected_time":60000000000,"state":"active","ping":171},{"user_id":485,"name":"My heart is COLD","steam_id":76561198046895822,"connected_time":2593000000000,"state":"active","ping":74},{"user_id":455,"name":"Lavender","steam_id":76561198142770666,"connected_time":5589000000000,"state":"active","ping":46},{"user_id":393,"name":"Ket","steam_id":76561198241951244,"connected_time":7951000000000,"state":"active","ping":60},{"user_id":516,"name":"VX_","steam_id":76561198211529143,"connected_time":35000000000,"state":"active","ping":63},{"user_id":472,"name":"Dzhoshua","steam_id":76561198071915251,"connected_time":3431000000000,"state":"active","ping":65},{"user_id":445,"name":"guy","steam_id":76561198079925551,"connected_time":6584000000000,"state":"active","ping":60},{"user_id":504,"name":"Luka","steam_id":76561198142979525,"connected_time":1014000000000,"state":"active","ping":60},{"user_id":509,"name":"creamer","steam_id":76561198144095056,"connected_time":744000000000,"state":"active","ping":98},{"user_id":492,"name":"AnnieM","steam_id":76561199435467297,"connected_time":1920000000000,"state":"active","ping":80}]},{"server_id":106,"name":"Uncletopia | Chicago | 2 | All Maps","name_short":"chi-2","host":"chi-1.us.uncletopia.com","port":27025,"enabled":true,"region":"us-central","cc":"us","latitude":41.881832,"longitude":-87.62318,"reserved":0,"last_update":"0001-01-01T00:00:00Z","name_a2s":"Uncletopia | Chicago | 2 | All Maps","protocol":17,"map":"koth_highpass","folder":"tf","game":"Team Fortress","app_id":440,"player_count":3,"max_players":24,"Bots":0,"server_type":"Dedicated","server_os":"Linux","password":true,"vac":true,"version":"7961495","steam_id":85568392924469985,"keywords":["cp","nocrits","nodmgspread","uncletopia"],"game_id":440,"stv_port":27026,"stv_name":"Uncletopia | Chicago | 2 | All Maps | STV","players":[{"user_id":742,"name":"killeroverscore123","steam_id":76561199168131321,"connected_time":34000000000,"state":"active","ping":96},{"user_id":740,"name":"Panzerschreck Bath Water","steam_id":76561198178133625,"connected_time":948000000000,"state":"active","ping":93},{"user_id":741,"name":"Liliana","steam_id":76561199110430036,"connected_time":778000000000,"state":"active","ping":74}]},{"server_id":402,"name":"Uncletopia | Chicago | 3 | All Maps","name_short":"chi-3","host":"chi-1.us.uncletopia.com","port":27035,"enabled":true,"region":"us-central","cc":"us","latitude":41.881832,"longitude":-87.62318,"reserved":0,"last_update":"0001-01-01T00:00:00Z","name_a2s":"Uncletopia | Chicago | 3 | All Maps","protocol":17,"map":"koth_viaduct","folder":"tf","game":"Team Fortress","app_id":440,"player_count":0,"max_players":24,"Bots":0,"server_type":"Dedicated","server_os":"Linux","password":true,"vac":true,"version":"7961495","steam_id":85568392924515191,"keywords":["cp","nocrits","nodmgspread","uncletopia"],"game_id":440,"stv_port":27036,"stv_name":"Uncletopia | Chicago | 3 | All Maps | STV","players":null},{"server_id":403,"name":"Uncletopia | Chicago | 4 | All Maps","name_short":"chi-4","host":"chi-1.us.uncletopia.com","port":27045,"enabled":true,"region":"us-central","cc":"us","latitude":41.881832,"longitude":-87.62318,"reserved":0,"last_update":"0001-01-01T00:00:00Z","name_a2s":"Uncletopia | Chicago | 4 | All Maps","protocol":17,"map":"koth_viaduct","folder":"tf","game":"Team Fortress","app_id":440,"player_count":0,"max_players":24,"Bots":0,"server_type":"Dedicated","server_os":"Linux","password":true,"vac":true,"version":"7961495","steam_id":85568392924515193,"keywords":["cp","nocrits","nodmgspread","uncletopia"],"game_id":440,"stv_port":27046,"stv_name":"Uncletopia | Chicago | 4 | All Maps | STV","players":null},{"server_id":36,"name":"Uncletopia | Chicago | 5 | All Maps","name_short":"chi-5","host":"chi-2.us.uncletopia.com","port":27015,"enabled":true,"region":"us-central","cc":"us","latitude":41.881832,"longitude":-87.62318,"reserved":0,"last_update":"0001-01-01T00:00:00Z","name_a2s":"Uncletopia | Chicago | 5 | All Maps","protocol":17,"map":"pl_frontier_final","folder":"tf","game":"Team Fortress","app_id":440,"player_count":23,"max_players":24,"Bots":0,"server_type":"Dedicated","server_os":"Linux","password":true,"vac":true,"version":"7961495","steam_id":85568392924866362,"keywords":["nocrits","nodmgspread","payload","uncletopia"],"game_id":440,"stv_port":27016,"stv_name":"Uncletopia | Chicago | 5 | All Maps | STV","players":[{"user_id":460,"name":"4 life","steam_id":76561198175961598,"connected_time":2622000000000,"state":"active","ping":114},{"user_id":472,"name":"bengineer","steam_id":76561198171912174,"connected_time":1695000000000,"state":"active","ping":95},{"user_id":482,"name":"vomitlust","steam_id":76561197994492154,"connected_time":864000000000,"state":"active","ping":174},{"user_id":408,"name":"Rambly Dambly","steam_id":76561198844496567,"connected_time":7727000000000,"state":"active","ping":58},{"user_id":441,"name":"Charlotte","steam_id":76561198194975870,"connected_time":5919000000000,"state":"active","ping":73},{"user_id":454,"name":"magickxanadu","steam_id":76561199117360103,"connected_time":3979000000000,"state":"active","ping":81},{"user_id":486,"name":"Rabid","steam_id":76561198111536571,"connected_time":15000000000,"state":"active","ping":207},{"user_id":469,"name":"The Guy","steam_id":76561198163067571,"connected_time":1797000000000,"state":"active","ping":117},{"user_id":455,"name":"Super Ghostbusters (Full Album)","steam_id":76561198057415490,"connected_time":3897000000000,"state":"active","ping":53},{"user_id":476,"name":"Red Velveeta Cake","steam_id":76561198073764084,"connected_time":1500000000000,"state":"active","ping":70},{"user_id":483,"name":"BeanBattles ★","steam_id":76561198981921939,"connected_time":741000000000,"state":"active","ping":91},{"user_id":466,"name":"shoobs","steam_id":76561198042507255,"connected_time":1815000000000,"state":"active","ping":86},{"user_id":431,"name":"women in suits #transrights","steam_id":76561198103901723,"connected_time":6820000000000,"state":"active","ping":95},{"user_id":456,"name":"Amari","steam_id":76561198272446730,"connected_time":3880000000000,"state":"active","ping":91},{"user_id":484,"name":"Hezxp","steam_id":76561198312931111,"connected_time":708000000000,"state":"active","ping":82},{"user_id":471,"name":"Cactus™ ♥","steam_id":76561198036441270,"connected_time":1719000000000,"state":"active","ping":123},{"user_id":443,"name":"Ryoko","steam_id":76561198084725087,"connected_time":5859000000000,"state":"active","ping":68},{"user_id":406,"name":"☙ Corrupt ❧","steam_id":76561197977631915,"connected_time":7889000000000,"state":"active","ping":74},{"user_id":447,"name":"Pleasant Failure","steam_id":76561198196669161,"connected_time":5766000000000,"state":"active","ping":86},{"user_id":434,"name":"bee","steam_id":76561198178015361,"connected_time":6776000000000,"state":"active","ping":57},{"user_id":477,"name":"ColdTooth","steam_id":76561197994963901,"connected_time":1469000000000,"state":"active","ping":76},{"user_id":446,"name":"whitr","steam_id":76561198043981478,"connected_time":5815000000000,"state":"active","ping":85},{"user_id":458,"name":"Yarman53","steam_id":76561198099889202,"connected_time":3826000000000,"state":"active","ping":45}]},{"server_id":37,"name":"Uncletopia | Chicago | 6 | All Maps","name_short":"chi-6","host":"chi-2.us.uncletopia.com","port":27025,"enabled":true,"region":"us-central","cc":"us","latitude":41.881832,"longitude":-87.62318,"reserved":0,"last_update":"0001-01-01T00:00:00Z","name_a2s":"Uncletopia | Chicago | 6 | All Maps","protocol":17,"map":"pl_snowycoast","folder":"tf","game":"Team Fortress","app_id":440,"player_count":0,"max_players":24,"Bots":0,"server_type":"Dedicated","server_os":"Linux","password":true,"vac":true,"version":"7961495","steam_id":85568392924866363,"keywords":["nocrits","nodmgspread","payload","uncletopia"],"game_id":440,"stv_port":27026,"stv_name":"Uncletopia | Chicago | 6 | All Maps | STV","players":null},{"server_id":38,"name":"Uncletopia | Chicago | 7 | Stopwatch","name_short":"chi-7","host":"chi-2.us.uncletopia.com","port":27035,"enabled":true,"region":"us-central","cc":"us","latitude":41.881832,"longitude":-87.62318,"reserved":0,"last_update":"0001-01-01T00:00:00Z","name_a2s":"Uncletopia | Chicago | 7 | Stopwatch","protocol":17,"map":"pl_swiftwater_final1","folder":"tf","game":"Team Fortress","app_id":440,"player_count":0,"max_players":24,"Bots":0,"server_type":"Dedicated","server_os":"Linux","password":true,"vac":true,"version":"7961495","steam_id":85568392924866364,"keywords":["nocrits","nodmgspread","payload","uncletopia"],"game_id":440,"stv_port":27036,"stv_name":"Uncletopia | Chicago | 7 | Stopwatch | STV","players":null},{"server_id":39,"name":"Uncletopia | Chicago | 8 | Community","name_short":"chi-8","host":"chi-2.us.uncletopia.com","port":27045,"enabled":true,"region":"us-central","cc":"us","latitude":41.881832,"longitude":-87.62318,"reserved":0,"last_update":"0001-01-01T00:00:00Z","name_a2s":"Uncletopia | Chicago | 8 | Community","protocol":17,"map":"workshop/pl_fifthcurve_rc1.ugc648227046","folder":"tf","game":"Team Fortress","app_id":440,"player_count":0,"max_players":24,"Bots":0,"server_type":"Dedicated","server_os":"Linux","password":true,"vac":true,"version":"7961495","steam_id":85568392924866365,"keywords":["nocrits","nodmgspread","payload","uncletopia"],"game_id":440,"stv_port":27046,"stv_name":"Uncletopia | Chicago | 8 | Community | STV","players":null},{"server_id":8,"name":"Uncletopia | Dallas | 1 | All Maps","name_short":"dal-1","host":"dal-1.us.uncletopia.com","port":27015,"enabled":true,"region":"us-central","cc":"us","latitude":32.779167,"longitude":-96.80889,"reserved":0,"last_update":"0001-01-01T00:00:00Z","name_a2s":"Uncletopia | Dallas | 1 | All Maps","protocol":17,"map":"pl_pier","folder":"tf","game":"Team Fortress","app_id":440,"player_count":24,"max_players":24,"Bots":0,"server_type":"Dedicated","server_os":"Linux","password":true,"vac":true,"version":"7961495","steam_id":85568392924469986,"keywords":["nocrits","nodmgspread","payload","uncletopia"],"game_id":440,"stv_port":27016,"stv_name":"Uncletopia | Dallas | 1 | All Maps | STV","players":[{"user_id":527,"name":"Searot","steam_id":76561198070800170,"connected_time":1459000000000,"state":"active","ping":56},{"user_id":522,"name":"gas","steam_id":76561199176290258,"connected_time":2015000000000,"state":"active","ping":74},{"user_id":544,"name":"The Capn Fake Taxi","steam_id":76561198028236497,"connected_time":698000000000,"state":"active","ping":95},{"user_id":525,"name":"PurplePanda","steam_id":76561198076484653,"connected_time":1633000000000,"state":"active","ping":63},{"user_id":546,"name":"peash","steam_id":76561198801453324,"connected_time":650000000000,"state":"active","ping":86},{"user_id":529,"name":"American Dad Funny Moments #32","steam_id":76561198254874328,"connected_time":1258000000000,"state":"active","ping":109},{"user_id":530,"name":"Dr.Nooo!!!!!!!!","steam_id":76561198064738479,"connected_time":1234000000000,"state":"active","ping":85},{"user_id":531,"name":"TTV/MokembeOak","steam_id":76561198959312367,"connected_time":1208000000000,"state":"active","ping":105},{"user_id":532,"name":"YouToast71","steam_id":76561198133844600,"connected_time":1196000000000,"state":"active","ping":96},{"user_id":540,"name":"Acorn","steam_id":76561198353480153,"connected_time":1053000000000,"state":"active","ping":89},{"user_id":533,"name":"Dr. Webkinz","steam_id":76561198101207200,"connected_time":1193000000000,"state":"active","ping":110},{"user_id":535,"name":"cypherzero","steam_id":76561199182960322,"connected_time":1153000000000,"state":"active","ping":48},{"user_id":548,"name":"meggie","steam_id":76561198038291026,"connected_time":444000000000,"state":"active","ping":42},{"user_id":549,"name":"catrinaisahuman","steam_id":76561198281355729,"connected_time":435000000000,"state":"active","ping":61},{"user_id":537,"name":"TTV/ZenmanTTV","steam_id":76561198110651094,"connected_time":1135000000000,"state":"active","ping":104},{"user_id":551,"name":"celery","steam_id":76561199004451589,"connected_time":385000000000,"state":"active","ping":45},{"user_id":552,"name":"poggerchamp","steam_id":76561199145124973,"connected_time":358000000000,"state":"active","ping":53},{"user_id":508,"name":"little_neb","steam_id":76561198117396733,"connected_time":3039000000000,"state":"active","ping":62},{"user_id":553,"name":"major","steam_id":76561198136280552,"connected_time":322000000000,"state":"active","ping":95},{"user_id":510,"name":"ropesnek","steam_id":76561198140591498,"connected_time":3031000000000,"state":"active","ping":53},{"user_id":557,"name":"KZ","steam_id":76561198306669868,"connected_time":146000000000,"state":"active","ping":84},{"user_id":543,"name":"MrMind","steam_id":76561199321657653,"connected_time":985000000000,"state":"active","ping":72},{"user_id":554,"name":"Soulless megacorp","steam_id":76561198263531500,"connected_time":320000000000,"state":"active","ping":83},{"user_id":558,"name":"Loogus","steam_id":76561198811561721,"connected_time":104000000000,"state":"active","ping":69}]},{"server_id":108,"name":"Uncletopia | Dallas | 2 | All Maps","name_short":"dal-2","host":"dal-1.us.uncletopia.com","port":27025,"enabled":true,"region":"us-central","cc":"us","latitude":32.779167,"longitude":-96.80889,"reserved":0,"last_update":"0001-01-01T00:00:00Z","name_a2s":"Uncletopia | Dallas | 2 | All Maps","protocol":17,"map":"pl_borneo","folder":"tf","game":"Team Fortress","app_id":440,"player_count":24,"max_players":24,"Bots":0,"server_type":"Dedicated","server_os":"Linux","password":true,"vac":true,"version":"7961495","steam_id":85568392924469988,"keywords":["nocrits","nodmgspread","payload","uncletopia"],"game_id":440,"stv_port":27026,"stv_name":"Uncletopia | Dallas | 2 | All Maps | STV","players":[{"user_id":627,"name":"Biden Blast","steam_id":76561198366729030,"connected_time":11219000000000,"state":"active","ping":74},{"user_id":750,"name":"poorly stacked bread trays","steam_id":76561198212098488,"connected_time":476000000000,"state":"active","ping":70},{"user_id":743,"name":"Grandpa Baozhai","steam_id":76561198086667725,"connected_time":1095000000000,"state":"active","ping":114},{"user_id":738,"name":"Papa Smoke","steam_id":76561198181348206,"connected_time":1337000000000,"state":"active","ping":94},{"user_id":705,"name":"SleepyScotoplanesTTV","steam_id":76561198968140914,"connected_time":4963000000000,"state":"active","ping":65},{"user_id":747,"name":"Sunny","steam_id":76561198125892600,"connected_time":606000000000,"state":"active","ping":60},{"user_id":734,"name":"Why?","steam_id":76561198798253745,"connected_time":1497000000000,"state":"active","ping":72},{"user_id":714,"name":"tobrehto","steam_id":76561198097544038,"connected_time":4013000000000,"state":"active","ping":80},{"user_id":745,"name":"CeLeb144","steam_id":76561199089907740,"connected_time":843000000000,"state":"active","ping":71},{"user_id":744,"name":"flaccid","steam_id":76561198299241777,"connected_time":1060000000000,"state":"active","ping":89},{"user_id":748,"name":"\u003c THIS MAN IS MISSING","steam_id":76561198173296047,"connected_time":595000000000,"state":"active","ping":89},{"user_id":736,"name":"Galactamarx","steam_id":76561198028065755,"connected_time":1383000000000,"state":"active","ping":73},{"user_id":749,"name":"Scoops M'Gooch","steam_id":76561198048423812,"connected_time":535000000000,"state":"active","ping":98},{"user_id":713,"name":"POWER OUTER","steam_id":76561199162166709,"connected_time":4056000000000,"state":"active","ping":83},{"user_id":732,"name":"chanoc","steam_id":76561198026734746,"connected_time":2021000000000,"state":"active","ping":90},{"user_id":704,"name":"the master of cats","steam_id":76561198819255576,"connected_time":4968000000000,"state":"active","ping":77},{"user_id":722,"name":"allahsdroptop","steam_id":76561198133195238,"connected_time":3395000000000,"state":"active","ping":101},{"user_id":751,"name":"Tuna!","steam_id":76561198354590331,"connected_time":434000000000,"state":"active","ping":63},{"user_id":752,"name":"Stupid Monkey =3","steam_id":76561198024580166,"connected_time":390000000000,"state":"active","ping":100},{"user_id":740,"name":"Frank Accardi","steam_id":76561198017275707,"connected_time":1277000000000,"state":"active","ping":84},{"user_id":689,"name":"BADWOLF42","steam_id":76561198055447523,"connected_time":6504000000000,"state":"active","ping":54},{"user_id":726,"name":"Momo Ria","steam_id":76561198339572476,"connected_time":3320000000000,"state":"active","ping":115},{"user_id":753,"name":"A Parliament of Owls","steam_id":76561197996200417,"connected_time":339000000000,"state":"active","ping":90},{"user_id":742,"name":"skegeton","steam_id":76561198095581099,"connected_time":1185000000000,"state":"active","ping":55}]},{"server_id":404,"name":"Uncletopia | Dallas | 3 | All Maps","name_short":"dal-3","host":"dal-1.us.uncletopia.com","port":27035,"enabled":true,"region":"us-central","cc":"us","latitude":32.779167,"longitude":-96.80889,"reserved":0,"last_update":"0001-01-01T00:00:00Z","name_a2s":"Uncletopia | Dallas | 3 | All Maps","protocol":17,"map":"koth_viaduct","folder":"tf","game":"Team Fortress","app_id":440,"player_count":0,"max_players":24,"Bots":0,"server_type":"Dedicated","server_os":"Linux","password":true,"vac":true,"version":"7961495","steam_id":85568392924515219,"keywords":["cp","nocrits","nodmgspread","uncletopia"],"game_id":440,"stv_port":27036,"stv_name":"Uncletopia | Dallas | 3 | All Maps | STV","players":null},{"server_id":405,"name":"Uncletopia | Dallas | 4 | Community","name_short":"dal-4","host":"dal-1.us.uncletopia.com","port":27045,"enabled":true,"region":"us-central","cc":"us","latitude":32.779167,"longitude":-96.80889,"reserved":0,"last_update":"0001-01-01T00:00:00Z","name_a2s":"Uncletopia | Dallas | 4 | Community","protocol":17,"map":"workshop/cp_mannbase_rc2a.ugc1900737467","folder":"tf","game":"Team Fortress","app_id":440,"player_count":0,"max_players":24,"Bots":0,"server_type":"Dedicated","server_os":"Linux","password":true,"vac":true,"version":"7961495","steam_id":85568392924515220,"keywords":["cp","nocrits","nodmgspread","uncletopia"],"game_id":440,"stv_port":27046,"stv_name":"Uncletopia | Dallas | 4 | Community | STV","players":null},{"server_id":5,"name":"Uncletopia | Frankfurt | 1 | All Maps","name_short":"frk-1","host":"frk-1.de.uncletopia.com","port":27015,"enabled":true,"region":"eu","cc":"de","latitude":50.110924,"longitude":8.682127,"reserved":0,"last_update":"0001-01-01T00:00:00Z","name_a2s":"Uncletopia | Frankfurt | 1 | All Maps","protocol":17,"map":"koth_highpass","folder":"tf","game":"Team Fortress","app_id":440,"player_count":0,"max_players":24,"Bots":0,"server_type":"Dedicated","server_os":"Linux","password":true,"vac":true,"version":"7961495","steam_id":85568392924469989,"keywords":["cp","nocrits","nodmgspread","uncletopia"],"game_id":440,"stv_port":27016,"stv_name":"Uncletopia | Frankfurt | 1 | All Maps | STV","players":null},{"server_id":110,"name":"Uncletopia | Frankfurt | 2 | All Maps","name_short":"frk-2","host":"frk-1.de.uncletopia.com","port":27025,"enabled":true,"region":"eu","cc":"de","latitude":50.110924,"longitude":8.682127,"reserved":0,"last_update":"0001-01-01T00:00:00Z","name_a2s":"Uncletopia | Frankfurt | 2 | All Maps","protocol":17,"map":"pl_badwater","folder":"tf","game":"Team Fortress","app_id":440,"player_count":0,"max_players":24,"Bots":0,"server_type":"Dedicated","server_os":"Linux","password":true,"vac":true,"version":"7961495","steam_id":85568392924469990,"keywords":["nocrits","nodmgspread","payload","uncletopia"],"game_id":440,"stv_port":27026,"stv_name":"Uncletopia | Frankfurt | 2 | All Maps | STV","players":null},{"server_id":308,"name":"Uncletopia | Frankfurt | 3 | All Maps","name_short":"frk-3","host":"frk-1.de.uncletopia.com","port":27035,"enabled":true,"region":"eu","cc":"de","latitude":50.110924,"longitude":8.682127,"reserved":0,"last_update":"0001-01-01T00:00:00Z","name_a2s":"Uncletopia | Frankfurt | 3 | All Maps","protocol":17,"map":"koth_cascade","folder":"tf","game":"Team Fortress","app_id":440,"player_count":0,"max_players":24,"Bots":0,"server_type":"Dedicated","server_os":"Linux","password":true,"vac":true,"version":"7961495","steam_id":85568392924504274,"keywords":["cp","nocrits","nodmgspread","uncletopia"],"game_id":440,"stv_port":27036,"stv_name":"Uncletopia | Frankfurt | 3 | All Maps | STV","players":null},{"server_id":309,"name":"Uncletopia | Frankfurt | 4 | All Maps","name_short":"frk-4","host":"frk-1.de.uncletopia.com","port":27045,"enabled":true,"region":"eu","cc":"de","latitude":50.110924,"longitude":8.682127,"reserved":0,"last_update":"0001-01-01T00:00:00Z","name_a2s":"Uncletopia | Frankfurt | 4 | All Maps","protocol":17,"map":"koth_highpass","folder":"tf","game":"Team Fortress","app_id":440,"player_count":0,"max_players":24,"Bots":0,"server_type":"Dedicated","server_os":"Linux","password":true,"vac":true,"version":"7961495","steam_id":85568392924504275,"keywords":["cp","nocrits","nodmgspread","uncletopia"],"game_id":440,"stv_port":27046,"stv_name":"Uncletopia | Frankfurt | 4 | All Maps | STV","players":null},{"server_id":310,"name":"Uncletopia | Frankfurt | 5 | All Maps","name_short":"frk-5","host":"frk-1.de.uncletopia.com","port":27055,"enabled":true,"region":"eu","cc":"de","latitude":50.110924,"longitude":8.682127,"reserved":0,"last_update":"0001-01-01T00:00:00Z","name_a2s":"Uncletopia | Frankfurt | 5 | All Maps","protocol":17,"map":"pl_badwater","folder":"tf","game":"Team Fortress","app_id":440,"player_count":0,"max_players":24,"Bots":0,"server_type":"Dedicated","server_os":"Linux","password":true,"vac":true,"version":"7961495","steam_id":85568392924504277,"keywords":["nocrits","nodmgspread","payload","uncletopia"],"game_id":440,"stv_port":27056,"stv_name":"Uncletopia | Frankfurt | 5 | All Maps | STV","players":null},{"server_id":311,"name":"Uncletopia | Frankfurt | 6 | All Maps","name_short":"frk-6","host":"frk-1.de.uncletopia.com","port":27065,"enabled":true,"region":"eu","cc":"de","latitude":50.110924,"longitude":8.682127,"reserved":0,"last_update":"0001-01-01T00:00:00Z","name_a2s":"Uncletopia | Frankfurt | 6 | All Maps","protocol":17,"map":"cp_altitude","folder":"tf","game":"Team Fortress","app_id":440,"player_count":0,"max_players":24,"Bots":0,"server_type":"Dedicated","server_os":"Linux","password":true,"vac":true,"version":"7961495","steam_id":85568392924504278,"keywords":["cp","nocrits","nodmgspread","uncletopia"],"game_id":440,"stv_port":27066,"stv_name":"Uncletopia | Frankfurt | 6 | All Maps | STV","players":null},{"server_id":23,"name":"Uncletopia | Frankfurt | 7 | Stopwatch","name_short":"frk-7","host":"frk-1.de.uncletopia.com","port":27075,"enabled":true,"region":"eu","cc":"de","latitude":50.110924,"longitude":8.682127,"reserved":0,"last_update":"0001-01-01T00:00:00Z","name_a2s":"Uncletopia | Frankfurt | 7 | Stopwatch","protocol":17,"map":"pl_frontier_final","folder":"tf","game":"Team Fortress","app_id":440,"player_count":0,"max_players":24,"Bots":0,"server_type":"Dedicated","server_os":"Linux","password":true,"vac":true,"version":"7961495","steam_id":85568392924742827,"keywords":["nocrits","nodmgspread","payload","uncletopia"],"game_id":440,"stv_port":27076,"stv_name":"Uncletopia | Frankfurt | 7 | Stopwatch | STV","players":null},{"server_id":24,"name":"Uncletopia | Frankfurt | 8 | Community","name_short":"frk-8","host":"frk-1.de.uncletopia.com","port":27085,"enabled":true,"region":"eu","cc":"de","latitude":50.110924,"longitude":8.682127,"reserved":0,"last_update":"0001-01-01T00:00:00Z","name_a2s":"Uncletopia | Frankfurt | 8 | Community","protocol":17,"map":"cp_mountainlab","folder":"tf","game":"Team Fortress","app_id":440,"player_count":0,"max_players":24,"Bots":0,"server_type":"Dedicated","server_os":"Linux","password":true,"vac":true,"version":"7961495","steam_id":85568392924742828,"keywords":["cp","nocrits","nodmgspread","uncletopia"],"game_id":440,"stv_port":27086,"stv_name":"Uncletopia | Frankfurt | 8 | Community | STV","players":null},{"server_id":202,"name":"Uncletopia | Hong Kong | 1 | All Maps","name_short":"hgk-1","host":"hgk-1.hk.uncletopia.com","port":27015,"enabled":true,"region":"asia","cc":"hk","latitude":22.302711,"longitude":114.177216,"reserved":0,"last_update":"0001-01-01T00:00:00Z","name_a2s":"Uncletopia | Hong Kong | 1 | All Maps","protocol":17,"map":"koth_viaduct","folder":"tf","game":"Team Fortress","app_id":440,"player_count":0,"max_players":24,"Bots":0,"server_type":"Dedicated","server_os":"Linux","password":true,"vac":true,"version":"7961495","steam_id":85568392924494504,"keywords":["cp","nocrits","nodmgspread","uncletopia"],"game_id":440,"stv_port":27016,"stv_name":"Uncletopia | Hong Kong | 1 | All Maps | STV","players":null},{"server_id":1,"name":"Uncletopia | Los Angeles | 1 | All Maps","name_short":"lax-1","host":"lax-1.us.uncletopia.com","port":27015,"enabled":true,"region":"us-west","cc":"us","latitude":33.94279,"longitude":-118.41004,"reserved":0,"last_update":"0001-01-01T00:00:00Z","name_a2s":"Uncletopia | Los Angeles | 1 | All Maps","protocol":17,"map":"pl_pier","folder":"tf","game":"Team Fortress","app_id":440,"player_count":9,"max_players":24,"Bots":0,"server_type":"Dedicated","server_os":"Linux","password":true,"vac":true,"version":"7961495","steam_id":85568392924469991,"keywords":["nocrits","nodmgspread","payload","uncletopia"],"game_id":440,"stv_port":27016,"stv_name":"Uncletopia | Los Angeles | 1 | All Maps | STV","players":[{"user_id":161,"name":"ManaTail","steam_id":76561198093829608,"connected_time":1957000000000,"state":"active","ping":57},{"user_id":169,"name":"haydar198112","steam_id":76561198131197590,"connected_time":1182000000000,"state":"active","ping":274},{"user_id":170,"name":"Fremond Games","steam_id":76561198847910046,"connected_time":1148000000000,"state":"active","ping":81},{"user_id":171,"name":"Jubei","steam_id":76561198027250617,"connected_time":1146000000000,"state":"active","ping":92},{"user_id":177,"name":"rock gaming","steam_id":76561199402868311,"connected_time":625000000000,"state":"active","ping":56},{"user_id":167,"name":"Wendall555","steam_id":76561198985637603,"connected_time":1440000000000,"state":"active","ping":45},{"user_id":174,"name":"big fish","steam_id":76561198186479818,"connected_time":934000000000,"state":"active","ping":54},{"user_id":113,"name":"sobaka","steam_id":76561198116008934,"connected_time":6688000000000,"state":"active","ping":59},{"user_id":157,"name":"A Walnut","steam_id":76561198136655837,"connected_time":2406000000000,"state":"active","ping":68}]},{"server_id":112,"name":"Uncletopia | Los Angeles | 2 | All Maps","name_short":"lax-2","host":"lax-1.us.uncletopia.com","port":27025,"enabled":true,"region":"us-west","cc":"us","latitude":33.94279,"longitude":-118.41004,"reserved":0,"last_update":"0001-01-01T00:00:00Z","name_a2s":"Uncletopia | Los Angeles | 2 | All Maps","protocol":17,"map":"pl_pier","folder":"tf","game":"Team Fortress","app_id":440,"player_count":24,"max_players":24,"Bots":0,"server_type":"Dedicated","server_os":"Linux","password":true,"vac":true,"version":"7961495","steam_id":85568392924469992,"keywords":["nocrits","nodmgspread","payload","uncletopia"],"game_id":440,"stv_port":27026,"stv_name":"Uncletopia | Los Angeles | 2 | All Maps | STV","players":[{"user_id":294,"name":"the ya ha ha genius","steam_id":76561198240764504,"connected_time":2307000000000,"state":"active","ping":42},{"user_id":229,"name":"shitass (Reaping and Sowing)","steam_id":76561198210572481,"connected_time":7214000000000,"state":"active","ping":46},{"user_id":290,"name":"explosives anonymous","steam_id":76561198141862936,"connected_time":2471000000000,"state":"active","ping":56},{"user_id":292,"name":"ratware","steam_id":76561198170171115,"connected_time":2382000000000,"state":"active","ping":62},{"user_id":314,"name":"Linksaver1","steam_id":76561198096312838,"connected_time":703000000000,"state":"active","ping":59},{"user_id":251,"name":"the pizza","steam_id":76561198221331476,"connected_time":5285000000000,"state":"active","ping":50},{"user_id":280,"name":"Kamin","steam_id":76561198255299559,"connected_time":2965000000000,"state":"active","ping":95},{"user_id":305,"name":"Mob Boss Baby","steam_id":76561199127590316,"connected_time":1534000000000,"state":"active","ping":52},{"user_id":267,"name":"evil sonic","steam_id":76561198198308331,"connected_time":3936000000000,"state":"active","ping":95},{"user_id":268,"name":"Im just better","steam_id":76561198164599051,"connected_time":3919000000000,"state":"active","ping":61},{"user_id":303,"name":"Skribbles","steam_id":76561198373073766,"connected_time":1732000000000,"state":"active","ping":55},{"user_id":313,"name":"Deflar","steam_id":76561197967401484,"connected_time":823000000000,"state":"active","ping":84},{"user_id":270,"name":"Seanvich","steam_id":76561198065805500,"connected_time":3808000000000,"state":"active","ping":94},{"user_id":312,"name":"fartmagic","steam_id":76561198964722163,"connected_time":1181000000000,"state":"active","ping":68},{"user_id":243,"name":"Fgtfv567","steam_id":76561198071022525,"connected_time":6068000000000,"state":"active","ping":58},{"user_id":297,"name":"$5 pizza","steam_id":76561198014847059,"connected_time":2238000000000,"state":"active","ping":69},{"user_id":315,"name":"Andreshatesmondays","steam_id":76561198889349797,"connected_time":573000000000,"state":"active","ping":49},{"user_id":308,"name":"fulices","steam_id":76561198420163702,"connected_time":1242000000000,"state":"active","ping":39},{"user_id":274,"name":"Randle of John","steam_id":76561198328210524,"connected_time":3755000000000,"state":"active","ping":43},{"user_id":309,"name":"GRAN AUTISMO 5","steam_id":76561198103222177,"connected_time":1240000000000,"state":"active","ping":67},{"user_id":299,"name":"Pepilepsi","steam_id":76561198000809372,"connected_time":2214000000000,"state":"active","ping":110},{"user_id":279,"name":"AvapXia","steam_id":76561198147476096,"connected_time":3107000000000,"state":"active","ping":74},{"user_id":300,"name":"Kingdom","steam_id":76561198062659301,"connected_time":2154000000000,"state":"active","ping":53},{"user_id":241,"name":"TüCold","steam_id":76561198111278197,"connected_time":6126000000000,"state":"active","ping":71}]},{"server_id":324,"name":"Uncletopia | Los Angeles | 3 | All Maps","name_short":"lax-3","host":"lax-1.us.uncletopia.com","port":27035,"enabled":true,"region":"us-west","cc":"us","latitude":33.94279,"longitude":-118.41004,"reserved":0,"last_update":"0001-01-01T00:00:00Z","name_a2s":"Uncletopia | Los Angeles | 3 | All Maps","protocol":17,"map":"pl_barnblitz","folder":"tf","game":"Team Fortress","app_id":440,"player_count":0,"max_players":24,"Bots":0,"server_type":"Dedicated","server_os":"Linux","password":true,"vac":true,"version":"7961495","steam_id":85568392924510198,"keywords":["nocrits","nodmgspread","payload","uncletopia"],"game_id":440,"stv_port":27036,"stv_name":"Uncletopia | Los Angeles | 3 | All Maps | STV","players":null},{"server_id":25,"name":"Uncletopia | Los Angeles | 4 | Stopwatch","name_short":"lax-4","host":"lax-1.us.uncletopia.com","port":27045,"enabled":true,"region":"us-west","cc":"us","latitude":33.94279,"longitude":-118.41004,"reserved":0,"last_update":"0001-01-01T00:00:00Z","name_a2s":"Uncletopia | Los Angeles | 4 | Stopwatch","protocol":17,"map":"workshop/koth_clearcut_b15.ugc2107050255","folder":"tf","game":"Team Fortress","app_id":440,"player_count":0,"max_players":24,"Bots":0,"server_type":"Dedicated","server_os":"Linux","password":true,"vac":true,"version":"7961495","steam_id":85568392924510199,"keywords":["cp","nocrits","nodmgspread","uncletopia"],"game_id":440,"stv_port":27046,"stv_name":"Uncletopia | Los Angeles | 4 | Stopwatch | STV","players":null},{"server_id":11,"name":"Uncletopia | London | 1 | All Maps","name_short":"lon-1","host":"lon-1.uk.uncletopia.com","port":27015,"enabled":true,"region":"eu","cc":"gb","latitude":51.509865,"longitude":-0.118092,"reserved":0,"last_update":"0001-01-01T00:00:00Z","name_a2s":"Uncletopia | London | 1 | All Maps","protocol":17,"map":"koth_highpass","folder":"tf","game":"Team Fortress","app_id":440,"player_count":0,"max_players":24,"Bots":0,"server_type":"Dedicated","server_os":"Linux","password":true,"vac":true,"version":"7961495","steam_id":85568392924367362,"keywords":["cp","nocrits","nodmgspread","uncletopia"],"game_id":440,"stv_port":27016,"stv_name":"Uncletopia | London | 1 | All Maps | STV","players":null},{"server_id":114,"name":"Uncletopia | London | 2 | All Maps","name_short":"lon-2","host":"lon-1.uk.uncletopia.com","port":27025,"enabled":true,"region":"eu","cc":"gb","latitude":51.509865,"longitude":-0.118092,"reserved":0,"last_update":"0001-01-01T00:00:00Z","name_a2s":"Uncletopia | London | 2 | All Maps","protocol":17,"map":"pl_frontier_final","folder":"tf","game":"Team Fortress","app_id":440,"player_count":24,"max_players":24,"Bots":0,"server_type":"Dedicated","server_os":"Linux","password":true,"vac":true,"version":"7961495","steam_id":85568392924470941,"keywords":["nocrits","nodmgspread","payload","uncletopia"],"game_id":440,"stv_port":27026,"stv_name":"Uncletopia | London | 2 | All Maps | STV","players":[{"user_id":97,"name":"Paste","steam_id":76561198139275322,"connected_time":251000000000,"state":"active","ping":87},{"user_id":70,"name":"george","steam_id":76561198443632133,"connected_time":2415000000000,"state":"active","ping":107},{"user_id":72,"name":"Pico","steam_id":76561198063552545,"connected_time":2228000000000,"state":"active","ping":99},{"user_id":90,"name":"Robotomatique","steam_id":76561198354793952,"connected_time":645000000000,"state":"active","ping":46},{"user_id":75,"name":"Virgil","steam_id":76561198248786778,"connected_time":2128000000000,"state":"active","ping":118},{"user_id":98,"name":"rwota","steam_id":76561198385769722,"connected_time":239000000000,"state":"active","ping":106},{"user_id":79,"name":"Merciz","steam_id":76561197971808715,"connected_time":1634000000000,"state":"active","ping":98},{"user_id":91,"name":"JustACoomer","steam_id":76561198151433181,"connected_time":644000000000,"state":"active","ping":53},{"user_id":11,"name":"Zor","steam_id":76561198009851383,"connected_time":6753000000000,"state":"active","ping":64},{"user_id":12,"name":"Enjoyer","steam_id":76561198147399855,"connected_time":6748000000000,"state":"active","ping":126},{"user_id":99,"name":"Polaritype","steam_id":76561198220120544,"connected_time":232000000000,"state":"active","ping":60},{"user_id":84,"name":"Mini","steam_id":76561197968634073,"connected_time":1058000000000,"state":"active","ping":86},{"user_id":96,"name":"Qdarks","steam_id":76561198013391340,"connected_time":404000000000,"state":"active","ping":144},{"user_id":100,"name":"꒰ ˶• ༝ •˶꒱","steam_id":76561198054474684,"connected_time":33000000000,"state":"active","ping":76},{"user_id":95,"name":"Engineer Chad","steam_id":76561199487629652,"connected_time":534000000000,"state":"active","ping":73},{"user_id":77,"name":"monke","steam_id":76561199098819786,"connected_time":1799000000000,"state":"active","ping":48},{"user_id":68,"name":"FNF","steam_id":76561199151422826,"connected_time":2593000000000,"state":"active","ping":130},{"user_id":82,"name":"Onbeheerde_Jongeheer","steam_id":76561198051685232,"connected_time":1079000000000,"state":"active","ping":45},{"user_id":22,"name":"Paf","steam_id":76561197992671600,"connected_time":6203000000000,"state":"active","ping":103},{"user_id":67,"name":"Kokos","steam_id":76561198085501501,"connected_time":2684000000000,"state":"active","ping":90},{"user_id":71,"name":"Marky","steam_id":76561199474556920,"connected_time":2304000000000,"state":"active","ping":82},{"user_id":88,"name":"Gugu gaga","steam_id":76561198161822358,"connected_time":848000000000,"state":"active","ping":74},{"user_id":86,"name":"jupi576","steam_id":76561198939395816,"connected_time":952000000000,"state":"active","ping":102},{"user_id":73,"name":"El`Capitano Flex","steam_id":76561198061813730,"connected_time":2228000000000,"state":"active","ping":74}]},{"server_id":320,"name":"Uncletopia | London | 3 | All Maps","name_short":"lon-3","host":"lon-1.uk.uncletopia.com","port":27035,"enabled":true,"region":"eu","cc":"gb","latitude":51.509865,"longitude":-0.118092,"reserved":0,"last_update":"0001-01-01T00:00:00Z","name_a2s":"Uncletopia | London | 3 | All Maps","protocol":17,"map":"cp_process_final","folder":"tf","game":"Team Fortress","app_id":440,"player_count":0,"max_players":24,"Bots":0,"server_type":"Dedicated","server_os":"Linux","password":true,"vac":true,"version":"7961495","steam_id":85568392924510192,"keywords":["cp","nocrits","nodmgspread","uncletopia"],"game_id":440,"stv_port":27036,"stv_name":"Uncletopia | London | 3 | All Maps | STV","players":null},{"server_id":321,"name":"Uncletopia | London | 4 | All Maps","name_short":"lon-4","host":"lon-1.uk.uncletopia.com","port":27045,"enabled":true,"region":"eu","cc":"gb","latitude":51.509865,"longitude":-0.118092,"reserved":0,"last_update":"0001-01-01T00:00:00Z","name_a2s":"Uncletopia | London | 4 | All Maps","protocol":17,"map":"koth_cascade","folder":"tf","game":"Team Fortress","app_id":440,"player_count":0,"max_players":24,"Bots":0,"server_type":"Dedicated","server_os":"Linux","password":true,"vac":true,"version":"7961495","steam_id":85568392924510193,"keywords":["cp","nocrits","nodmgspread","uncletopia"],"game_id":440,"stv_port":27046,"stv_name":"Uncletopia | London | 4 | All Maps | STV","players":null},{"server_id":21,"name":"Uncletopia | London | 5 | All Maps","name_short":"lon-5","host":"lon-1.uk.uncletopia.com","port":27055,"enabled":true,"region":"eu","cc":"gb","latitude":51.509865,"longitude":-0.118092,"reserved":0,"last_update":"0001-01-01T00:00:00Z","name_a2s":"Uncletopia | London | 5 | All Maps","protocol":17,"map":"koth_lakeside_final","folder":"tf","game":"Team Fortress","app_id":440,"player_count":0,"max_players":24,"Bots":0,"server_type":"Dedicated","server_os":"Linux","password":true,"vac":true,"version":"7961495","steam_id":85568392924742829,"keywords":["cp","nocrits","nodmgspread","uncletopia"],"game_id":440,"stv_port":27056,"stv_name":"Uncletopia | London | 5 | All Maps | STV","players":null},{"server_id":22,"name":"Uncletopia | London | 6 | All Maps","name_short":"lon-6","host":"lon-1.uk.uncletopia.com","port":27065,"enabled":true,"region":"eu","cc":"gb","latitude":51.509865,"longitude":-0.118092,"reserved":0,"last_update":"0001-01-01T00:00:00Z","name_a2s":"Uncletopia | London | 6 | All Maps","protocol":17,"map":"cp_dustbowl","folder":"tf","game":"Team Fortress","app_id":440,"player_count":0,"max_players":24,"Bots":0,"server_type":"Dedicated","server_os":"Linux","password":true,"vac":true,"version":"7961495","steam_id":85568392924742830,"keywords":["cp","nocrits","nodmgspread","uncletopia"],"game_id":440,"stv_port":27066,"stv_name":"Uncletopia | London | 6 | All Maps | STV","players":null},{"server_id":40,"name":"Uncletopia | London | 7 | Stopwatch","name_short":"lon-7","host":"lon-1.uk.uncletopia.com","port":27075,"enabled":true,"region":"eu","cc":"gb","latitude":51.509865,"longitude":-0.118092,"reserved":0,"last_update":"0001-01-01T00:00:00Z","name_a2s":"Uncletopia | London | 7 | Stopwatch","protocol":17,"map":"koth_lakeside_final","folder":"tf","game":"Team Fortress","app_id":440,"player_count":0,"max_players":24,"Bots":0,"server_type":"Dedicated","server_os":"Linux","password":true,"vac":true,"version":"7961495","steam_id":85568392924964314,"keywords":["cp","nocrits","nodmgspread","uncletopia"],"game_id":440,"stv_port":27076,"stv_name":"Uncletopia | London | 7 | Stopwatch | STV","players":null},{"server_id":41,"name":"Uncletopia | London | 8 | Community","name_short":"lon-8","host":"lon-1.uk.uncletopia.com","port":27085,"enabled":true,"region":"eu","cc":"gb","latitude":51.509865,"longitude":-0.118092,"reserved":0,"last_update":"0001-01-01T00:00:00Z","name_a2s":"Uncletopia | London | 8 | Community","protocol":17,"map":"cp_snakewater_final1","folder":"tf","game":"Team Fortress","app_id":440,"player_count":0,"max_players":24,"Bots":0,"server_type":"Dedicated","server_os":"Linux","password":true,"vac":true,"version":"7961495","steam_id":85568392924964315,"keywords":["cp","nocrits","nodmgspread","uncletopia"],"game_id":440,"stv_port":27086,"stv_name":"Uncletopia | London | 8 | Community | STV","players":null},{"server_id":300,"name":"Uncletopia | Montréal | 1 | One Thousand Uncles","name_short":"mtl-1","host":"mtl-1.ca.uncletopia.com","port":27015,"enabled":true,"region":"us-east","cc":"ca","latitude":45.50889,"longitude":-73.56167,"reserved":0,"last_update":"0001-01-01T00:00:00Z","name_a2s":"","protocol":0,"map":"","folder":"","game":"","app_id":0,"player_count":0,"max_players":0,"Bots":0,"server_type":"","server_os":"","password":false,"vac":false,"version":"","steam_id":0,"keywords":null,"game_id":0,"stv_port":0,"stv_name":"","players":null},{"server_id":301,"name":"Uncletopia | Montréal | 2 | One Thousand Uncles","name_short":"mtl-2","host":"mtl-1.ca.uncletopia.com","port":27025,"enabled":true,"region":"us-east","cc":"ca","latitude":45.50889,"longitude":-73.56167,"reserved":0,"last_update":"0001-01-01T00:00:00Z","name_a2s":"","protocol":0,"map":"","folder":"","game":"","app_id":0,"player_count":4,"max_players":0,"Bots":0,"server_type":"","server_os":"","password":false,"vac":false,"version":"","steam_id":0,"keywords":null,"game_id":0,"stv_port":0,"stv_name":"","players":[{"user_id":108,"name":"Holiday Fartcruise","steam_id":76561198043851584,"connected_time":6061000000000,"state":"active","ping":130},{"user_id":141,"name":"Vaun","steam_id":76561198034075317,"connected_time":5039000000000,"state":"active","ping":91},{"user_id":142,"name":"Gay Cake","steam_id":76561198004388831,"connected_time":4195000000000,"state":"active","ping":72},{"user_id":163,"name":"sheep","steam_id":76561198172943006,"connected_time":208000000000,"state":"active","ping":60}]},{"server_id":302,"name":"Uncletopia | Montréal | 3 | One Thousand Uncles","name_short":"mtl-3","host":"mtl-1.ca.uncletopia.com","port":27035,"enabled":true,"region":"us-east","cc":"ca","latitude":45.50889,"longitude":-73.56167,"reserved":0,"last_update":"0001-01-01T00:00:00Z","name_a2s":"","protocol":0,"map":"","folder":"","game":"","app_id":0,"player_count":3,"max_players":0,"Bots":0,"server_type":"","server_os":"","password":false,"vac":false,"version":"","steam_id":0,"keywords":null,"game_id":0,"stv_port":0,"stv_name":"","players":[{"user_id":393,"name":"St. Michael","steam_id":76561198037611052,"connected_time":12726000000000,"state":"active","ping":73},{"user_id":450,"name":"Jade Jetts [She/They]","steam_id":76561198206130076,"connected_time":1289000000000,"state":"active","ping":116},{"user_id":411,"name":"Soldie","steam_id":76561198118414372,"connected_time":12061000000000,"state":"active","ping":76}]},{"server_id":13,"name":"Uncletopia | New York City | 1 | All Maps","name_short":"nyc-1","host":"nyc-1.us.uncletopia.com","port":27015,"enabled":true,"region":"us-east","cc":"us","latitude":40.73061,"longitude":-73.93524,"reserved":0,"last_update":"0001-01-01T00:00:00Z","name_a2s":"Uncletopia | New York City | 1 | All Maps","protocol":17,"map":"cp_snakewater_final1","folder":"tf","game":"Team Fortress","app_id":440,"player_count":0,"max_players":24,"Bots":0,"server_type":"Dedicated","server_os":"Linux","password":true,"vac":true,"version":"7961495","steam_id":85568392924469993,"keywords":["cp","nocrits","nodmgspread","uncletopia"],"game_id":440,"stv_port":27016,"stv_name":"Uncletopia | New York City | 1 | All Maps | STV","players":null},{"server_id":14,"name":"Uncletopia | New York City | 2 | All Maps","name_short":"nyc-2","host":"nyc-1.us.uncletopia.com","port":27025,"enabled":true,"region":"us-east","cc":"us","latitude":40.73061,"longitude":-73.93524,"reserved":0,"last_update":"0001-01-01T00:00:00Z","name_a2s":"Uncletopia | New York City | 2 | All Maps","protocol":17,"map":"pl_barnblitz","folder":"tf","game":"Team Fortress","app_id":440,"player_count":0,"max_players":24,"Bots":0,"server_type":"Dedicated","server_os":"Linux","password":true,"vac":true,"version":"7961495","steam_id":85568392924469994,"keywords":["nocrits","nodmgspread","payload","uncletopia"],"game_id":440,"stv_port":27026,"stv_name":"Uncletopia | New York City | 2 | All Maps | STV","players":null},{"server_id":15,"name":"Uncletopia | New York City | 3 | Stopwatch","name_short":"nyc-3","host":"nyc-1.us.uncletopia.com","port":27035,"enabled":true,"region":"us-east","cc":"us","latitude":40.73061,"longitude":-73.93524,"reserved":0,"last_update":"0001-01-01T00:00:00Z","name_a2s":"Uncletopia | New York City | 3 | Stopwatch","protocol":17,"map":"pl_swiftwater_final1","folder":"tf","game":"Team Fortress","app_id":440,"player_count":0,"max_players":24,"Bots":0,"server_type":"Dedicated","server_os":"Linux","password":true,"vac":true,"version":"7961495","steam_id":85568392924742820,"keywords":["nocrits","nodmgspread","payload","uncletopia"],"game_id":440,"stv_port":27036,"stv_name":"Uncletopia | New York City | 3 | Stopwatch | STV","players":null},{"server_id":16,"name":"Uncletopia | New York City | 4 | Community","name_short":"nyc-4","host":"nyc-1.us.uncletopia.com","port":27045,"enabled":true,"region":"us-east","cc":"us","latitude":40.73061,"longitude":-73.93524,"reserved":0,"last_update":"0001-01-01T00:00:00Z","name_a2s":"Uncletopia | New York City | 4 | Community","protocol":17,"map":"workshop/koth_ramjam_rc1.ugc459778887","folder":"tf","game":"Team Fortress","app_id":440,"player_count":0,"max_players":24,"Bots":0,"server_type":"Dedicated","server_os":"Linux","password":true,"vac":true,"version":"7961495","steam_id":85568392924742821,"keywords":["cp","nocrits","nodmgspread","uncletopia"],"game_id":440,"stv_port":27046,"stv_name":"Uncletopia | New York City | 4 | Community | STV","players":null},{"server_id":142,"name":"Uncletopia | São Paulo | 1 | All Maps","name_short":"sao-1","host":"sao-1.br.uncletopia.com","port":27015,"enabled":true,"region":"sa","cc":"br","latitude":-23.533773,"longitude":-46.62529,"reserved":0,"last_update":"0001-01-01T00:00:00Z","name_a2s":"Uncletopia | São Paulo | 1 | All Maps","protocol":17,"map":"cp_dustbowl","folder":"tf","game":"Team Fortress","app_id":440,"player_count":0,"max_players":24,"Bots":0,"server_type":"Dedicated","server_os":"Linux","password":true,"vac":true,"version":"7961495","steam_id":85568392924469996,"keywords":["cp","nocrits","nodmgspread","uncletopia"],"game_id":440,"stv_port":27016,"stv_name":"Uncletopia | São Paulo | 1 | All Maps | STV","players":null},{"server_id":143,"name":"Uncletopia | São Paulo | 2 | Community","name_short":"sao-2","host":"sao-2.br.uncletopia.com","port":27015,"enabled":true,"region":"sa","cc":"br","latitude":-23.533773,"longitude":-46.62529,"reserved":0,"last_update":"0001-01-01T00:00:00Z","name_a2s":"Uncletopia | São Paulo | 2 | Community","protocol":17,"map":"workshop/koth_ramjam_rc1.ugc459778887","folder":"tf","game":"Team Fortress","app_id":440,"player_count":0,"max_players":24,"Bots":0,"server_type":"Dedicated","server_os":"Linux","password":true,"vac":true,"version":"7961495","steam_id":85568392924485349,"keywords":["cp","nocrits","nodmgspread","uncletopia"],"game_id":440,"stv_port":27016,"stv_name":"Uncletopia | São Paulo | 2 | Community | STV","players":null},{"server_id":7,"name":"Uncletopia | Seattle | 1 | All Maps","name_short":"sea-1","host":"sea-1.us.uncletopia.com","port":27015,"enabled":true,"region":"us-west","cc":"us","latitude":47.608013,"longitude":-122.33517,"reserved":0,"last_update":"0001-01-01T00:00:00Z","name_a2s":"Uncletopia | Seattle | 1 | All Maps","protocol":17,"map":"pl_upward","folder":"tf","game":"Team Fortress","app_id":440,"player_count":22,"max_players":24,"Bots":0,"server_type":"Dedicated","server_os":"Linux","password":true,"vac":true,"version":"7961495","steam_id":85568392924469997,"keywords":["nocrits","nodmgspread","payload","uncletopia"],"game_id":440,"stv_port":27016,"stv_name":"Uncletopia | Seattle | 1 | All Maps | STV","players":[{"user_id":822,"name":":(){ :|:\u0026 };:","steam_id":76561198115242460,"connected_time":922000000000,"state":"active","ping":56},{"user_id":825,"name":"toes","steam_id":76561198221151676,"connected_time":19000000000,"state":"active","ping":48},{"user_id":827,"name":"PopcornBucketGames","steam_id":76561199089562026,"connected_time":5000000000,"state":"spawning","ping":67},{"user_id":814,"name":"Mr.Bones","steam_id":76561198205170595,"connected_time":1447000000000,"state":"active","ping":46},{"user_id":828,"name":"rat gets the cheese","steam_id":76561198031234032,"connected_time":5000000000,"state":"spawning","ping":86},{"user_id":791,"name":"The Great Eagle Scourge of 1822","steam_id":76561198325086209,"connected_time":4201000000000,"state":"active","ping":74},{"user_id":815,"name":"plutonium isotope","steam_id":76561198319442494,"connected_time":1444000000000,"state":"active","ping":79},{"user_id":786,"name":"mega","steam_id":76561198089520959,"connected_time":4391000000000,"state":"active","ping":110},{"user_id":812,"name":"fragadelphia","steam_id":76561198066116363,"connected_time":2007000000000,"state":"active","ping":45},{"user_id":641,"name":"Hindmost","steam_id":76561199081837220,"connected_time":19508000000000,"state":"active","ping":108},{"user_id":710,"name":"NEBULA","steam_id":76561198086878595,"connected_time":13420000000000,"state":"active","ping":69},{"user_id":806,"name":"Antzen","steam_id":76561198041343470,"connected_time":2697000000000,"state":"active","ping":61},{"user_id":813,"name":"OxOoxen841","steam_id":76561198297981993,"connected_time":1834000000000,"state":"active","ping":70},{"user_id":824,"name":"Spam The Alien","steam_id":76561199122290968,"connected_time":748000000000,"state":"active","ping":61},{"user_id":810,"name":"Enderlord99","steam_id":76561198158152954,"connected_time":2469000000000,"state":"active","ping":48},{"user_id":790,"name":"Leidon","steam_id":76561198078386945,"connected_time":4256000000000,"state":"active","ping":55},{"user_id":821,"name":"DamienIsAsian","steam_id":76561198228819444,"connected_time":1174000000000,"state":"active","ping":83},{"user_id":799,"name":"Lamb","steam_id":76561198330819554,"connected_time":3617000000000,"state":"active","ping":76},{"user_id":826,"name":"Sniff","steam_id":76561198010270922,"connected_time":14000000000,"state":"active","ping":82},{"user_id":803,"name":"Nom Skirrett","steam_id":76561198014600788,"connected_time":2899000000000,"state":"active","ping":66},{"user_id":784,"name":"rushy :))","steam_id":76561198065825165,"connected_time":4848000000000,"state":"active","ping":91},{"user_id":811,"name":"profile name","steam_id":76561198032625036,"connected_time":2280000000000,"state":"active","ping":49}]},{"server_id":119,"name":"Uncletopia | Seattle | 2 | All Maps","name_short":"sea-2","host":"sea-1.us.uncletopia.com","port":27025,"enabled":true,"region":"us-west","cc":"us","latitude":47.608013,"longitude":-122.33517,"reserved":0,"last_update":"0001-01-01T00:00:00Z","name_a2s":"Uncletopia | Seattle | 2 | All Maps","protocol":17,"map":"koth_badlands","folder":"tf","game":"Team Fortress","app_id":440,"player_count":24,"max_players":24,"Bots":0,"server_type":"Dedicated","server_os":"Linux","password":true,"vac":true,"version":"7961495","steam_id":85568392924469998,"keywords":["cp","nocrits","nodmgspread","uncletopia"],"game_id":440,"stv_port":27026,"stv_name":"Uncletopia | Seattle | 2 | All Maps | STV","players":[{"user_id":531,"name":"MonkeyNobody","steam_id":76561199451266605,"connected_time":1560000000000,"state":"active","ping":61},{"user_id":513,"name":"Savaqa","steam_id":76561198158016688,"connected_time":2383000000000,"state":"active","ping":60},{"user_id":519,"name":"tungsten","steam_id":76561198072139436,"connected_time":2111000000000,"state":"active","ping":68},{"user_id":514,"name":"mmmBoyo","steam_id":76561198821360261,"connected_time":2349000000000,"state":"active","ping":43},{"user_id":548,"name":"Vaermina","steam_id":76561198169915227,"connected_time":80000000000,"state":"active","ping":34},{"user_id":534,"name":"Retroliar","steam_id":76561199004899484,"connected_time":1372000000000,"state":"active","ping":83},{"user_id":520,"name":"keffers","steam_id":76561198202338796,"connected_time":2093000000000,"state":"active","ping":105},{"user_id":543,"name":"Fivan","steam_id":76561198097145922,"connected_time":758000000000,"state":"active","ping":111},{"user_id":521,"name":"Dairyboi","steam_id":76561198119069462,"connected_time":2044000000000,"state":"active","ping":49},{"user_id":522,"name":"resh!","steam_id":76561198066619792,"connected_time":2034000000000,"state":"active","ping":75},{"user_id":523,"name":"mub","steam_id":76561197961943948,"connected_time":2004000000000,"state":"active","ping":45},{"user_id":549,"name":"aristotle_fan2291","steam_id":76561198849108042,"connected_time":68000000000,"state":"active","ping":72},{"user_id":535,"name":"The Dead Man","steam_id":76561198153295874,"connected_time":1185000000000,"state":"active","ping":72},{"user_id":550,"name":"Lumberjane37 (She/Her)","steam_id":76561198014841793,"connected_time":65000000000,"state":"active","ping":77},{"user_id":431,"name":"io_est","steam_id":76561198079538952,"connected_time":7400000000000,"state":"active","ping":44},{"user_id":527,"name":"WillowWisp","steam_id":76561198049104842,"connected_time":1815000000000,"state":"active","ping":47},{"user_id":547,"name":"Jest","steam_id":76561198170173062,"connected_time":97000000000,"state":"active","ping":76},{"user_id":546,"name":"Medic!","steam_id":76561198119759695,"connected_time":337000000000,"state":"active","ping":72},{"user_id":530,"name":"The Caretaker","steam_id":76561198125241411,"connected_time":1590000000000,"state":"active","ping":126},{"user_id":532,"name":"Wiggs is the Shiggs","steam_id":76561198078379719,"connected_time":1515000000000,"state":"active","ping":88},{"user_id":494,"name":"NormalManPerson","steam_id":76561198007436312,"connected_time":3649000000000,"state":"active","ping":47},{"user_id":544,"name":"The milkman (milks you)","steam_id":76561199155456102,"connected_time":746000000000,"state":"active","ping":35},{"user_id":536,"name":"2 Point Tom","steam_id":76561198087617008,"connected_time":1178000000000,"state":"active","ping":56},{"user_id":545,"name":"Your Casual Fox","steam_id":76561198079751767,"connected_time":715000000000,"state":"active","ping":77}]},{"server_id":406,"name":"Uncletopia | Seattle | 3 | Stopwatch","name_short":"sea-3","host":"sea-1.us.uncletopia.com","port":27035,"enabled":true,"region":"us-west","cc":"us","latitude":47.608013,"longitude":-122.33517,"reserved":0,"last_update":"0001-01-01T00:00:00Z","name_a2s":"Uncletopia | Seattle | 3 | Stopwatch","protocol":17,"map":"workshop/koth_clearcut_b15.ugc2107050255","folder":"tf","game":"Team Fortress","app_id":440,"player_count":0,"max_players":24,"Bots":0,"server_type":"Dedicated","server_os":"Linux","password":true,"vac":true,"version":"7961495","steam_id":85568392924515217,"keywords":["cp","nocrits","nodmgspread","uncletopia"],"game_id":440,"stv_port":27036,"stv_name":"Uncletopia | Seattle | 3 | Stopwatch | STV","players":null},{"server_id":17,"name":"Uncletopia | San Francisco | 1 | All Maps","name_short":"sfo-1","host":"sfo-1.us.uncletopia.com","port":27015,"enabled":true,"region":"us-west","cc":"us","latitude":37.77397,"longitude":-122.4313,"reserved":0,"last_update":"0001-01-01T00:00:00Z","name_a2s":"Uncletopia | San Francisco | 1 | All Maps","protocol":17,"map":"pl_badwater","folder":"tf","game":"Team Fortress","app_id":440,"player_count":24,"max_players":24,"Bots":0,"server_type":"Dedicated","server_os":"Linux","password":true,"vac":true,"version":"7961495","steam_id":85568392924469999,"keywords":["nocrits","nodmgspread","payload","uncletopia"],"game_id":440,"stv_port":27016,"stv_name":"Uncletopia | San Francisco | 1 | All Maps | STV","players":[{"user_id":456,"name":"Granny from Hoodwinked","steam_id":76561198116389072,"connected_time":660000000000,"state":"active","ping":74},{"user_id":459,"name":"WhiteRavenHein","steam_id":76561198177166535,"connected_time":421000000000,"state":"active","ping":63},{"user_id":457,"name":"Scorpianswag","steam_id":76561198260651036,"connected_time":641000000000,"state":"active","ping":44},{"user_id":449,"name":"Kiilys","steam_id":76561198326068377,"connected_time":1365000000000,"state":"active","ping":81},{"user_id":421,"name":"func_meow","steam_id":76561199013175414,"connected_time":2723000000000,"state":"active","ping":125},{"user_id":443,"name":"Ghoostly","steam_id":76561198130277634,"connected_time":1528000000000,"state":"active","ping":50},{"user_id":450,"name":"KazmirlYT","steam_id":76561198116008410,"connected_time":1328000000000,"state":"active","ping":77},{"user_id":458,"name":"Seshreb","steam_id":76561198846614634,"connected_time":499000000000,"state":"active","ping":65},{"user_id":453,"name":"Tomoscones","steam_id":76561198813586588,"connected_time":1260000000000,"state":"active","ping":57},{"user_id":454,"name":"golia","steam_id":76561198000264266,"connected_time":1241000000000,"state":"active","ping":57},{"user_id":460,"name":"askuwd","steam_id":76561198087637901,"connected_time":383000000000,"state":"active","ping":80},{"user_id":452,"name":"Fireboy1-UP","steam_id":76561199073267048,"connected_time":1269000000000,"state":"active","ping":72},{"user_id":427,"name":"jovial","steam_id":76561198297130941,"connected_time":2092000000000,"state":"active","ping":53},{"user_id":428,"name":"Muselk","steam_id":76561199289676387,"connected_time":2070000000000,"state":"active","ping":105},{"user_id":402,"name":"Cave Dweller","steam_id":76561198374825685,"connected_time":4259000000000,"state":"active","ping":60},{"user_id":461,"name":"Koffy","steam_id":76561198184386039,"connected_time":383000000000,"state":"active","ping":91},{"user_id":451,"name":"Jebby","steam_id":76561198300150276,"connected_time":1291000000000,"state":"active","ping":86},{"user_id":462,"name":"Seaport Hime","steam_id":76561198055914224,"connected_time":286000000000,"state":"active","ping":122},{"user_id":463,"name":"squart guy","steam_id":76561199411560141,"connected_time":283000000000,"state":"active","ping":67},{"user_id":464,"name":"Rick St. Riot","steam_id":76561198058891470,"connected_time":274000000000,"state":"active","ping":46},{"user_id":413,"name":"Deryn Sharp","steam_id":76561198047017346,"connected_time":3741000000000,"state":"active","ping":59},{"user_id":417,"name":"Olitude","steam_id":76561199238964574,"connected_time":3304000000000,"state":"active","ping":61},{"user_id":465,"name":"randomguy","steam_id":76561198381258047,"connected_time":223000000000,"state":"active","ping":71},{"user_id":439,"name":"OzzyAkiro47","steam_id":76561199076449499,"connected_time":1878000000000,"state":"active","ping":58}]},{"server_id":18,"name":"Uncletopia | San Francisco | 2 | All Maps","name_short":"sfo-2","host":"sfo-1.us.uncletopia.com","port":27025,"enabled":true,"region":"us-west","cc":"us","latitude":37.77397,"longitude":-122.4313,"reserved":0,"last_update":"0001-01-01T00:00:00Z","name_a2s":"Uncletopia | San Francisco | 2 | All Maps","protocol":17,"map":"cp_dustbowl","folder":"tf","game":"Team Fortress","app_id":440,"player_count":0,"max_players":24,"Bots":0,"server_type":"Dedicated","server_os":"Linux","password":true,"vac":true,"version":"7961495","steam_id":85568392924470000,"keywords":["cp","nocrits","nodmgspread","uncletopia"],"game_id":440,"stv_port":27026,"stv_name":"Uncletopia | San Francisco | 2 | All Maps | STV","players":null},{"server_id":19,"name":"Uncletopia | San Francisco | 3 | Stopwatch","name_short":"sfo-3","host":"sfo-1.us.uncletopia.com","port":27035,"enabled":true,"region":"us-west","cc":"us","latitude":37.77397,"longitude":-122.4313,"reserved":0,"last_update":"0001-01-01T00:00:00Z","name_a2s":"Uncletopia | San Francisco | 3 | Stopwatch","protocol":17,"map":"workshop/koth_ramjam_rc1.ugc459778887","folder":"tf","game":"Team Fortress","app_id":440,"player_count":0,"max_players":24,"Bots":0,"server_type":"Dedicated","server_os":"Linux","password":true,"vac":true,"version":"7961495","steam_id":85568392924742824,"keywords":["cp","nocrits","nodmgspread","uncletopia"],"game_id":440,"stv_port":27036,"stv_name":"Uncletopia | San Francisco | 3 | Stopwatch | STV","players":null},{"server_id":20,"name":"Uncletopia | San Francisco | 4 | Community","name_short":"sfo-4","host":"sfo-1.us.uncletopia.com","port":27045,"enabled":true,"region":"us-west","cc":"us","latitude":37.77397,"longitude":-122.4313,"reserved":0,"last_update":"0001-01-01T00:00:00Z","name_a2s":"Uncletopia | San Francisco | 4 | Community","protocol":17,"map":"workshop/koth_product_final.ugc454272353","folder":"tf","game":"Team Fortress","app_id":440,"player_count":0,"max_players":24,"Bots":0,"server_type":"Dedicated","server_os":"Linux","password":true,"vac":true,"version":"7961495","steam_id":85568392924742826,"keywords":["cp","nocrits","nodmgspread","uncletopia"],"game_id":440,"stv_port":27046,"stv_name":"Uncletopia | San Francisco | 4 | Community | STV","players":null},{"server_id":141,"name":"Uncletopia | Sydney | 1 | All Maps","name_short":"syd-1","host":"syd-1.au.uncletopia.com","port":27015,"enabled":true,"region":"au","cc":"au","latitude":-33.865143,"longitude":151.2099,"reserved":0,"last_update":"0001-01-01T00:00:00Z","name_a2s":"Uncletopia | Sydney | 1 | All Maps","protocol":17,"map":"pl_pier","folder":"tf","game":"Team Fortress","app_id":440,"player_count":19,"max_players":24,"Bots":0,"server_type":"Dedicated","server_os":"Linux","password":true,"vac":true,"version":"7961495","steam_id":85568392924470001,"keywords":["nocrits","nodmgspread","payload","uncletopia"],"game_id":440,"stv_port":27016,"stv_name":"Uncletopia | Sydney | 1 | All Maps | STV","players":[{"user_id":127,"name":"76561199365669004","steam_id":76561199365669004,"connected_time":1039000000000,"state":"active","ping":60},{"user_id":125,"name":"Willypookay","steam_id":76561198844638602,"connected_time":1076000000000,"state":"active","ping":59},{"user_id":133,"name":"✿ Sirenistic ✿","steam_id":76561198071696568,"connected_time":277000000000,"state":"active","ping":46},{"user_id":116,"name":"dobsonpilled","steam_id":76561198258226686,"connected_time":1384000000000,"state":"active","ping":82},{"user_id":102,"name":"DeadManX","steam_id":76561198044895384,"connected_time":1772000000000,"state":"active","ping":71},{"user_id":129,"name":"BigFatGiant","steam_id":76561198057983482,"connected_time":831000000000,"state":"active","ping":45},{"user_id":88,"name":"CrinkleCutChimp","steam_id":76561198882283954,"connected_time":2247000000000,"state":"active","ping":72},{"user_id":79,"name":"hush","steam_id":76561198348492407,"connected_time":2328000000000,"state":"active","ping":54},{"user_id":100,"name":"Selling Anti-Matter for $543","steam_id":76561198070708382,"connected_time":1826000000000,"state":"active","ping":48},{"user_id":113,"name":"Sayapple","steam_id":76561198048809968,"connected_time":1546000000000,"state":"active","ping":60},{"user_id":82,"name":"society for no more society","steam_id":76561198058459622,"connected_time":2323000000000,"state":"active","ping":64},{"user_id":130,"name":"Flesh Thing with a Soul","steam_id":76561198242072204,"connected_time":575000000000,"state":"active","ping":73},{"user_id":124,"name":"♥ Sharpy \u003e v \u003c","steam_id":76561198091613743,"connected_time":1131000000000,"state":"active","ping":93},{"user_id":136,"name":"mydnite - Needs island holiday","steam_id":76561197963764145,"connected_time":120000000000,"state":"active","ping":41},{"user_id":135,"name":"sweet","steam_id":76561198075311236,"connected_time":231000000000,"state":"active","ping":46},{"user_id":114,"name":"amps","steam_id":76561198060894632,"connected_time":1535000000000,"state":"active","ping":74},{"user_id":117,"name":"splinter","steam_id":76561198829233631,"connected_time":1349000000000,"state":"active","ping":46},{"user_id":134,"name":"King Stan II","steam_id":76561198890742309,"connected_time":267000000000,"state":"active","ping":72},{"user_id":118,"name":"Femboy69","steam_id":76561198355333388,"connected_time":1275000000000,"state":"active","ping":68}]},{"server_id":123,"name":"Uncletopia | Sydney | 2 | All Maps","name_short":"syd-2","host":"syd-1.au.uncletopia.com","port":27025,"enabled":true,"region":"au","cc":"au","latitude":-33.865143,"longitude":151.2099,"reserved":0,"last_update":"0001-01-01T00:00:00Z","name_a2s":"Uncletopia | Sydney | 2 | All Maps","protocol":17,"map":"koth_lakeside_final","folder":"tf","game":"Team Fortress","app_id":440,"player_count":0,"max_players":24,"Bots":0,"server_type":"Dedicated","server_os":"Linux","password":true,"vac":true,"version":"7961495","steam_id":85568392924470002,"keywords":["cp","nocrits","nodmgspread","uncletopia"],"game_id":440,"stv_port":27026,"stv_name":"Uncletopia | Sydney | 2 | All Maps | STV","players":null},{"server_id":395,"name":"Uncletopia | Sydney | 3 | All Maps","name_short":"syd-3","host":"syd-1.au.uncletopia.com","port":27035,"enabled":true,"region":"au","cc":"au","latitude":-33.865143,"longitude":151.2099,"reserved":0,"last_update":"0001-01-01T00:00:00Z","name_a2s":"Uncletopia | Sydney | 3 | All Maps","protocol":17,"map":"cp_process_final","folder":"tf","game":"Team Fortress","app_id":440,"player_count":0,"max_players":24,"Bots":0,"server_type":"Dedicated","server_os":"Linux","password":true,"vac":true,"version":"7961495","steam_id":85568392925194467,"keywords":["cp","nocrits","nodmgspread","uncletopia"],"game_id":440,"stv_port":27036,"stv_name":"Uncletopia | Sydney | 3 | All Maps | STV","players":null},{"server_id":396,"name":"Uncletopia | Sydney | 4 | All Maps","name_short":"syd-4","host":"syd-1.au.uncletopia.com","port":27045,"enabled":true,"region":"au","cc":"au","latitude":-33.865143,"longitude":151.2099,"reserved":0,"last_update":"0001-01-01T00:00:00Z","name_a2s":"Uncletopia | Sydney | 4 | All Maps","protocol":17,"map":"cp_process_final","folder":"tf","game":"Team Fortress","app_id":440,"player_count":0,"max_players":24,"Bots":0,"server_type":"Dedicated","server_os":"Linux","password":true,"vac":true,"version":"7961495","steam_id":85568392925397958,"keywords":["cp","nocrits","nodmgspread","uncletopia"],"game_id":440,"stv_port":27046,"stv_name":"Uncletopia | Sydney | 4 | All Maps | STV","players":null},{"server_id":58,"name":"Uncletopia | Sydney | 5 | Stopwatch","name_short":"syd-5","host":"syd-1.au.uncletopia.com","port":27055,"enabled":true,"region":"au","cc":"au","latitude":-33.865143,"longitude":151.2099,"reserved":0,"last_update":"0001-01-01T00:00:00Z","name_a2s":"Uncletopia | Sydney | 5 | Stopwatch","protocol":17,"map":"pl_frontier_final","folder":"tf","game":"Team Fortress","app_id":440,"player_count":0,"max_players":24,"Bots":0,"server_type":"Dedicated","server_os":"Linux","password":true,"vac":true,"version":"7961495","steam_id":85568392925397959,"keywords":["nocrits","nodmgspread","payload","uncletopia"],"game_id":440,"stv_port":27056,"stv_name":"Uncletopia | Sydney | 5 | Stopwatch | STV","players":null},{"server_id":59,"name":"Uncletopia | Sydney | 6 | Community","name_short":"syd-6","host":"syd-1.au.uncletopia.com","port":27065,"enabled":true,"region":"au","cc":"au","latitude":-33.865143,"longitude":151.2099,"reserved":0,"last_update":"0001-01-01T00:00:00Z","name_a2s":"Uncletopia | Sydney | 6 | Community","protocol":17,"map":"workshop/cp_sulfur_rc2.ugc619869471","folder":"tf","game":"Team Fortress","app_id":440,"player_count":0,"max_players":24,"Bots":0,"server_type":"Dedicated","server_os":"Linux","password":true,"vac":true,"version":"7961495","steam_id":85568392925397960,"keywords":["cp","nocrits","nodmgspread","uncletopia"],"game_id":440,"stv_port":27066,"stv_name":"Uncletopia | Sydney | 6 | Community | STV","players":null},{"server_id":49,"name":"Uncletopia | Warsaw | 1 | One Thousand Uncles","name_short":"waw-1","host":"waw-1.pl.uncletopia.com","port":27015,"enabled":true,"region":"eu","cc":"pl","latitude":52.2297,"longitude":21.017532,"reserved":0,"last_update":"0001-01-01T00:00:00Z","name_a2s":"Uncletopia | Warsaw | 1 | One Thousand Uncles","protocol":17,"map":"koth_highpass","folder":"tf","game":"Team Fortress","app_id":440,"player_count":0,"max_players":32,"Bots":0,"server_type":"Dedicated","server_os":"Linux","password":true,"vac":true,"version":"7961495","steam_id":85568392925397850,"keywords":["alltalk","cp","danepve","increased_maxplayers","nocrits","norespawntime","uncletopia"],"game_id":440,"stv_port":0,"stv_name":"","players":null},{"server_id":50,"name":"Uncletopia | Warsaw | 2 | One Thousand Uncles","name_short":"waw-2","host":"waw-1.pl.uncletopia.com","port":27025,"enabled":true,"region":"eu","cc":"pl","latitude":52.2297,"longitude":21.017532,"reserved":0,"last_update":"0001-01-01T00:00:00Z","name_a2s":"Uncletopia | Warsaw | 2 | One Thousand Uncles","protocol":17,"map":"pl_goldrush","folder":"tf","game":"Team Fortress","app_id":440,"player_count":0,"max_players":32,"Bots":0,"server_type":"Dedicated","server_os":"Linux","password":true,"vac":true,"version":"7961495","steam_id":85568392925397851,"keywords":["alltalk","danepve","increased_maxplayers","nocrits","norespawntime","payload","uncletopia"],"game_id":440,"stv_port":0,"stv_name":"","players":null},{"server_id":51,"name":"Uncletopia | Warsaw | 3 | All Maps","name_short":"waw-3","host":"waw-1.pl.uncletopia.com","port":27035,"enabled":true,"region":"eu","cc":"pl","latitude":52.2297,"longitude":21.017532,"reserved":0,"last_update":"0001-01-01T00:00:00Z","name_a2s":"Uncletopia | Warsaw | 3 | All Maps","protocol":17,"map":"plr_pipeline","folder":"tf","game":"Team Fortress","app_id":440,"player_count":0,"max_players":24,"Bots":0,"server_type":"Dedicated","server_os":"Linux","password":true,"vac":true,"version":"7961495","steam_id":85568392925397852,"keywords":["nocrits","nodmgspread","payload","uncletopia"],"game_id":440,"stv_port":27036,"stv_name":"Uncletopia | Warsaw | 3 | All Maps | STV","players":null},{"server_id":52,"name":"Uncletopia | Warsaw | 4 | All Maps","name_short":"waw-4","host":"waw-1.pl.uncletopia.com","port":27045,"enabled":true,"region":"eu","cc":"pl","latitude":52.2297,"longitude":21.017532,"reserved":0,"last_update":"0001-01-01T00:00:00Z","name_a2s":"Uncletopia | Warsaw | 4 | All Maps","protocol":17,"map":"pl_snowycoast","folder":"tf","game":"Team Fortress","app_id":440,"player_count":0,"max_players":24,"Bots":0,"server_type":"Dedicated","server_os":"Linux","password":true,"vac":true,"version":"7961495","steam_id":85568392925397853,"keywords":["nocrits","nodmgspread","payload","uncletopia"],"game_id":440,"stv_port":27046,"stv_name":"Uncletopia | Warsaw | 4 | All Maps | STV","players":null},{"server_id":53,"name":"Uncletopia | Warsaw | 5 | Stopwatch","name_short":"waw-5","host":"waw-1.pl.uncletopia.com","port":27055,"enabled":true,"region":"eu","cc":"pl","latitude":52.2297,"longitude":21.017532,"reserved":0,"last_update":"0001-01-01T00:00:00Z","name_a2s":"Uncletopia | Warsaw | 5 | Stopwatch","protocol":17,"map":"workshop/koth_bagel_rc6.ugc2514036946","folder":"tf","game":"Team Fortress","app_id":440,"player_count":0,"max_players":24,"Bots":0,"server_type":"Dedicated","server_os":"Linux","password":true,"vac":true,"version":"7961495","steam_id":85568392925397854,"keywords":["cp","nocrits","nodmgspread","uncletopia"],"game_id":440,"stv_port":27056,"stv_name":"Uncletopia | Warsaw | 5 | Stopwatch | STV","players":null},{"server_id":54,"name":"Uncletopia | Warsaw | 6 | Community","name_short":"waw-6","host":"waw-1.pl.uncletopia.com","port":27065,"enabled":true,"region":"eu","cc":"pl","latitude":52.2297,"longitude":21.017532,"reserved":0,"last_update":"0001-01-01T00:00:00Z","name_a2s":"Uncletopia | Warsaw | 6 | Community","protocol":17,"map":"workshop/pl_badwater_pro_v12.ugc2142942074","folder":"tf","game":"Team Fortress","app_id":440,"player_count":0,"max_players":24,"Bots":0,"server_type":"Dedicated","server_os":"Linux","password":true,"vac":true,"version":"7961495","steam_id":85568392925397856,"keywords":["nocrits","nodmgspread","payload","uncletopia"],"game_id":440,"stv_port":27066,"stv_name":"Uncletopia | Warsaw | 6 | Community | STV","players":null}]}