{"status":true,"message":"","result":[{"server_id":9,"name":"Uncletopia | Atlanta | 1 | All Maps","name_short":"atl-1","host":"atl-1.us.uncletopia.com","port":27015,"enabled":true,"region":"us-east","cc":"us","latitude":33.753746,"longitude":-84.38633,"reserved":0,"last_update":"0001-01-01T00:00:00Z","name_a2s":"Uncletopia | Atlanta | 1 | All Maps","protocol":17,"map":"pl_pier","folder":"tf","game":"Team Fortress","app_id":440,"player_count":23,"max_players":24,"Bots":0,"server_type":"Dedicated","server_os":"Linux","password":true,"vac":true,"version":"7961495","steam_id":85568392924469982,"keywords":["nocrits","nodmgspread","payload","uncletopia"],"game_id":440,"stv_port":27016,"stv_name":"Uncletopia | Atlanta | 1 | All Maps | STV","players":[{"user_id":170,"name":"Gram Tokers Count Doinkula","steam_id":76561198112811565,"connected_time":340000000000,"state":"active","ping":76},{"user_id":165,"name":"DAR","steam_id":76561198006306720,"connected_time":500000000000,"state":"active","ping":79},{"user_id":145,"name":"Howell at the Moon","steam_id":76561198060827426,"connected_time":1968000000000,"state":"active","ping":94},{"user_id":160,"name":"The creator(made twitter)","steam_id":76561198870900265,"connected_time":1031000000000,"state":"active","ping":91},{"user_id":150,"name":"gerf.","steam_id":76561198811706201,"connected_time":1905000000000,"state":"active","ping":44},{"user_id":166,"name":"ⒷİⒼ Ⓑó ỿ","steam_id":76561198178816365,"connected_time":496000000000,"state":"active","ping":46},{"user_id":135,"name":"rico \"tristen\" suave","steam_id":76561198093252989,"connected_time":2348000000000,"state":"active","ping":69},{"user_id":101,"name":"Daddy Topps","steam_id":76561198203594332,"connected_time":4962000000000,"state":"active","ping":106},{"user_id":167,"name":"Whyamidoingthisaaaa","steam_id":76561199168837342,"connected_time":451000000000,"state":"active","ping":71},{"user_id":95,"name":"ed","steam_id":76561198083276946,"connected_time":5173000000000,"state":"active","ping":63},{"user_id":161,"name":"spid","steam_id":76561199102823714,"connected_time":1007000000000,"state":"active","ping":57},{"user_id":162,"name":"BaconLol","steam_id":76561199125317999,"connected_time":748000000000,"state":"active","ping":181},{"user_id":132,"name":"Im High","steam_id":76561198049954886,"connected_time":2415000000000,"state":"active","ping":75},{"user_id":163,"name":"kite","steam_id":76561198346516392,"connected_time":742000000000,"state":"active","ping":81},{"user_id":128,"name":"Boneless Blithen","steam_id":76561197989955619,"connected_time":2674000000000,"state":"active","ping":126},{"user_id":148,"name":"Saint Pepsi","steam_id":76561198956680869,"connected_time":1938000000000,"state":"active","ping":73},{"user_id":156,"name":"Motorolª","steam_id":76561198358119669,"connected_time":1540000000000,"state":"active","ping":113},{"user_id":158,"name":"Nomadic Skippy","steam_id":76561198082376596,"connected_time":1361000000000,"state":"active","ping":55},{"user_id":105,"name":"Heathcliff","steam_id":76561198044288534,"connected_time":4461000000000,"state":"active","ping":80},{"user_id":171,"name":"✪ ..........","steam_id":76561198205816444,"connected_time":205000000000,"state":"active","ping":118},{"user_id":151,"name":"big play","steam_id":76561198011675372,"connected_time":1904000000000,"state":"active","ping":124},{"user_id":169,"name":"bigmacjesus","steam_id":76561199103766971,"connected_time":426000000000,"state":"active","ping":77},{"user_id":172,"name":"dr. stretch nuts","steam_id":76561198057076267,"connected_time":129000000000,"state":"active","ping":70}]},{"server_id":104,"name":"Uncletopia | Atlanta | 2 | All Maps","name_short":"atl-2","host":"atl-1.us.uncletopia.com","port":27025,"enabled":true,"region":"us-east","cc":"us","latitude":33.753746,"longitude":-84.38633,"reserved":0,"last_update":"0001-01-01T00:00:00Z","name_a2s":"Uncletopia | Atlanta | 2 | All Maps","protocol":17,"map":"pl_badwater","folder":"tf","game":"Team Fortress","app_id":440,"player_count":0,"max_players":24,"Bots":0,"server_type":"Dedicated","server_os":"Linux","password":true,"vac":true,"version":"7961495","steam_id":85568392924469983,"keywords":["nocrits","nodmgspread","payload","uncletopia"],"game_id":440,"stv_port":27026,"stv_name":"Uncletopia | Atlanta | 2 | All Maps | STV","players":null},{"server_id":400,"name":"Uncletopia | Atlanta | 3 | Stopwatch","name_short":"atl-3","host":"atl-1.us.uncletopia.com","port":27035,"enabled":true,"region":"us-east","cc":"us","latitude":33.753746,"longitude":-84.38633,"reserved":0,"last_update":"0001-01-01T00:00:00Z","name_a2s":"Uncletopia | Atlanta | 3 | Stopwatch","protocol":17,"map":"workshop/koth_ashville_final.ugc2130459942","folder":"tf","game":"Team Fortress","app_id":440,"player_count":2,"max_players":24,"Bots":0,"server_type":"Dedicated","server_os":"Linux","password":true,"vac":true,"version":"7961495","steam_id":85568392924515187,"keywords":["cp","nocrits","nodmgspread","uncletopia"],"game_id":440,"stv_port":27036,"stv_name":"Uncletopia | Atlanta | 3 | Stopwatch | STV","players":[{"user_id":7,"name":"mini-sentry","steam_id":76561198884712155,"connected_time":3886000000000,"state":"active","ping":89},{"user_id":8,"name":"mewop","steam_id":76561198840465284,"connected_time":3581000000000,"state":"active","ping":118}]},{"server_id":401,"name":"Uncletopia | Atlanta | 4 | Community","name_short":"atl-4","host":"atl-1.us.uncletopia.com","port":27045,"enabled":true,"region":"us-east","cc":"us","latitude":33.753746,"longitude":-84.38633,"reserved":0,"last_update":"0001-01-01T00:00:00Z","name_a2s":"Uncletopia | Atlanta | 4 | Community","protocol":17,"map":"cp_sunshine","folder":"tf","game":"Team Fortress","app_id":440,"player_count":0,"max_players":24,"Bots":0,"server_type":"Dedicated","server_os":"Linux","password":true,"vac":true,"version":"7961495","steam_id":85568392924515188,"keywords":["cp","nocrits","nodmgspread","uncletopia"],"game_id":440,"stv_port":27046,"stv_name":"Uncletopia | Atlanta | 4 | Community | STV","players":null},{"server_id":2,"name":"Uncletopia | Chicago | 1 | All Maps","name_short":"chi-1","host":"chi-1.us.uncletopia.com","port":27015,"enabled":true,"region":"us-central","cc":"us","latitude":41.881832,"longitude":-87.62318,"reserved":0,"last_update":"0001-01-01T00:00:00Z","name_a2s":"Uncletopia | Chicago | 1 | All Maps","protocol":17,"map":"pl_swiftwater_final1","folder":"tf","game":"Team Fortress","app_id":440,"player_count":24,"max_players":24,"Bots":0,"server_type":"Dedicated","server_os":"Linux","password":true,"vac":true,"version":"7961495","steam_id":85568392924469984,"keywords":["nocrits","nodmgspread","payload","uncletopia"],"game_id":440,"stv_port":27016,"stv_name":"Uncletopia | Chicago | 1 | All Maps | STV","players":[{"user_id":338,"name":"eNIGma","steam_id":76561198879961615,"connected_time":1449000000000,"state":"active","ping":59},{"user_id":340,"name":"Lighto","steam_id":76561198396340174,"connected_time":1429000000000,"state":"active","ping":72},{"user_id":238,"name":"Jayne Cobb","steam_id":76561198080585050,"connected_time":8509000000000,"state":"active","ping":93},{"user_id":337,"name":"real alex","steam_id":76561199148512586,"connected_time":1636000000000,"state":"active","ping":55},{"user_id":346,"name":"Engideer","steam_id":76561198145733164,"connected_time":707000000000,"state":"active","ping":75},{"user_id":336,"name":"denzy_","steam_id":76561198873788683,"connected_time":1663000000000,"state":"active","ping":73},{"user_id":331,"name":"Melody","steam_id":76561198407789232,"connected_time":1725000000000,"state":"active","ping":119},{"user_id":353,"name":"Chernov","steam_id":76561198014463424,"connected_time":411000000000,"state":"active","ping":55},{"user_id":348,"name":"boombox","steam_id":76561198237013798,"connected_time":556000000000,"state":"active","ping":69},{"user_id":339,"name":"80proof","steam_id":76561198076695816,"connected_time":1448000000000,"state":"active","ping":60},{"user_id":329,"name":"allahsdroptop (Bag/Chaser)","steam_id":76561198133195238,"connected_time":1734000000000,"state":"active","ping":107},{"user_id":298,"name":"eyes on the prize","steam_id":76561198184076165,"connected_time":3752000000000,"state":"active","ping":147},{"user_id":308,"name":"onionunderdose","steam_id":76561198201259645,"connected_time":3540000000000,"state":"active","ping":76},{"user_id":347,"name":"{ null }","steam_id":76561197960366877,"connected_time":696000000000,"state":"active","ping":53},{"user_id":343,"name":"BradB.","steam_id":76561199163905036,"connected_time":724000000000,"state":"active","ping":77},{"user_id":280,"name":"eloressa","steam_id":76561198120330867,"connected_time":5077000000000,"state":"active","ping":62},{"user_id":354,"name":"Sodsboy","steam_id":76561198030482006,"connected_time":296000000000,"state":"active","ping":135},{"user_id":350,"name":"Pikmin526","steam_id":76561198086560205,"connected_time":535000000000,"state":"active","ping":45},{"user_id":351,"name":"Artic_Ryuu","steam_id":76561198182194918,"connected_time":528000000000,"state":"active","ping":104},{"user_id":345,"name":"Tsars","steam_id":76561198220145115,"connected_time":713000000000,"state":"active","ping":60},{"user_id":318,"name":"Krissy","steam_id":76561197960848174,"connected_time":3297000000000,"state":"active","ping":71},{"user_id":352,"name":"bogdagod","steam_id":76561198286968297,"connected_time":486000000000,"state":"active","ping":92},{"user_id":328,"name":"Jellypeen","steam_id":76561198034158810,"connected_time":2089000000000,"state":"active","ping":52},{"user_id":330,"name":"Mellow Yellow","steam_id":76561198406276981,"connected_time":1731000000000,"state":"active","ping":57}]},{"server_id":106,"name":"Uncletopia | Chicago | 2 | All Maps","name_short":"chi-2","host":"chi-1.us.uncletopia.com","port":27025,"enabled":true,"region":"us-central","cc":"us","latitude":41.881832,"longitude":-87.62318,"reserved":0,"last_update":"0001-01-01T00:00:00Z","name_a2s":"Uncletopia | Chicago | 2 | All Maps","protocol":17,"map":"koth_viaduct","folder":"tf","game":"Team Fortress","app_id":440,"player_count":24,"max_players":24,"Bots":0,"server_type":"Dedicated","server_os":"Linux","password":true,"vac":true,"version":"7961495","steam_id":85568392924469985,"keywords":["cp","nocrits","nodmgspread","uncletopia"],"game_id":440,"stv_port":27026,"stv_name":"Uncletopia | Chicago | 2 | All Maps | STV","players":[{"user_id":290,"name":"Sergeant Joker LFT","steam_id":76561198854616604,"connected_time":2559000000000,"state":"active","ping":60},{"user_id":264,"name":"Mr. Tickle","steam_id":76561198126684647,"connected_time":4486000000000,"state":"active","ping":57},{"user_id":312,"name":"Vodka Slut","steam_id":76561198079594847,"connected_time":1649000000000,"state":"active","ping":60},{"user_id":319,"name":"Zezzdr","steam_id":76561198135844269,"connected_time":1320000000000,"state":"active","ping":67},{"user_id":328,"name":"darkgentleman1","steam_id":76561199368295990,"connected_time":532000000000,"state":"active","ping":83},{"user_id":313,"name":"Bigburgers","steam_id":76561198165013808,"connected_time":1629000000000,"state":"active","ping":50},{"user_id":323,"name":"☢ Lime ☢","steam_id":76561199102839784,"connected_time":923000000000,"state":"active","ping":97},{"user_id":324,"name":"Gocky","steam_id":76561198188499703,"connected_time":913000000000,"state":"active","ping":84},{"user_id":326,"name":"Hobbes","steam_id":76561197967448497,"connected_time":574000000000,"state":"active","ping":84},{"user_id":302,"name":"jerma but crying and lesbian","steam_id":76561198110661425,"connected_time":1825000000000,"state":"active","ping":53},{"user_id":336,"name":"fat fox tiddies","steam_id":76561198056432756,"connected_time":12000000000,"state":"spawning","ping":57},{"user_id":303,"name":"Quarkyツ","steam_id":76561198116411387,"connected_time":1810000000000,"state":"active","ping":103},{"user_id":327,"name":"cleanlaundry","steam_id":76561199165098525,"connected_time":572000000000,"state":"active","ping":70},{"user_id":320,"name":"lego star wars on the psp","steam_id":76561198148014773,"connected_time":1270000000000,"state":"active","ping":78},{"user_id":322,"name":"thehookerslammer","steam_id":76561198050136796,"connected_time":989000000000,"state":"active","ping":87},{"user_id":329,"name":"feleven","steam_id":76561198853721046,"connected_time":511000000000,"state":"active","ping":71},{"user_id":286,"name":"bloodyboorp","steam_id":76561199177105829,"connected_time":2926000000000,"state":"active","ping":149},{"user_id":331,"name":"Miller™","steam_id":76561198085090516,"connected_time":464000000000,"state":"active","ping":83},{"user_id":335,"name":"zeeette","steam_id":76561198325344637,"connected_time":316000000000,"state":"active","ping":88},{"user_id":332,"name":"Wolfking450","steam_id":76561198399975373,"connected_time":463000000000,"state":"active","ping":86},{"user_id":229,"name":"MechaSixVII","steam_id":76561198014927379,"connected_time":6455000000000,"state":"active","ping":83},{"user_id":333,"name":"LikeASir","steam_id":76561198042209721,"connected_time":449000000000,"state":"active","ping":45},{"user_id":325,"name":"i eat glue","steam_id":76561198827026673,"connected_time":750000000000,"state":"active","ping":71},{"user_id":311,"name":"owlbortch","steam_id":76561198042849350,"connected_time":1715000000000,"state":"active","ping":77}]},{"server_id":402,"name":"Uncletopia | Chicago | 3 | All Maps","name_short":"chi-3","host":"chi-1.us.uncletopia.com","port":27035,"enabled":true,"region":"us-central","cc":"us","latitude":41.881832,"longitude":-87.62318,"reserved":0,"last_update":"0001-01-01T00:00:00Z","name_a2s":"Uncletopia | Chicago | 3 | All Maps","protocol":17,"map":"koth_viaduct","folder":"tf","game":"Team Fortress","app_id":440,"player_count":24,"max_players":24,"Bots":0,"server_type":"Dedicated","server_os":"Linux","password":true,"vac":true,"version":"7961495","steam_id":85568392924515191,"keywords":["cp","nocrits","nodmgspread","uncletopia"],"game_id":440,"stv_port":27036,"stv_name":"Uncletopia | Chicago | 3 | All Maps | STV","players":[{"user_id":173,"name":"corned beef","steam_id":76561199366782761,"connected_time":1989000000000,"state":"active","ping":145},{"user_id":174,"name":"Coach McFish","steam_id":76561198210456405,"connected_time":1988000000000,"state":"active","ping":75},{"user_id":200,"name":"janitor","steam_id":76561198166433332,"connected_time":657000000000,"state":"active","ping":105},{"user_id":201,"name":"NikoOS (NO SOUND)","steam_id":76561198180020521,"connected_time":647000000000,"state":"active","ping":134},{"user_id":190,"name":"Untermensch","steam_id":76561198149634242,"connected_time":1303000000000,"state":"active","ping":96},{"user_id":175,"name":"Young-OG","steam_id":76561198058800479,"connected_time":1963000000000,"state":"active","ping":77},{"user_id":112,"name":"Fobby #Savetf2","steam_id":76561198047681469,"connected_time":5531000000000,"state":"active","ping":78},{"user_id":202,"name":"yourlocalforecast","steam_id":76561198042243083,"connected_time":639000000000,"state":"active","ping":69},{"user_id":168,"name":"Amari","steam_id":76561198272446730,"connected_time":2373000000000,"state":"active","ping":57},{"user_id":193,"name":"unfrigginbelievable","steam_id":76561198835673715,"connected_time":1015000000000,"state":"active","ping":49},{"user_id":203,"name":"fritzthecat","steam_id":76561199180497813,"connected_time":452000000000,"state":"active","ping":76},{"user_id":206,"name":"asscastle 2","steam_id":76561198097330521,"connected_time":57000000000,"state":"active","ping":152},{"user_id":198,"name":"autisthicc","steam_id":76561198003918928,"connected_time":835000000000,"state":"active","ping":164},{"user_id":188,"name":"Satori Komeiji","steam_id":76561198158211423,"connected_time":1542000000000,"state":"active","ping":102},{"user_id":197,"name":"Rein","steam_id":76561198300340427,"connected_time":848000000000,"state":"active","ping":64},{"user_id":180,"name":"tlar","steam_id":76561198060117460,"connected_time":1899000000000,"state":"active","ping":68},{"user_id":191,"name":"crabapples","steam_id":76561198075818655,"connected_time":1043000000000,"state":"active","ping":61},{"user_id":184,"name":"Novu","steam_id":76561198886997024,"connected_time":1793000000000,"state":"active","ping":87},{"user_id":195,"name":"Riltreks","steam_id":76561198800482183,"connected_time":1004000000000,"state":"active","ping":87},{"user_id":70,"name":"Shooter of Walls","steam_id":76561197988105207,"connected_time":8317000000000,"state":"active","ping":70},{"user_id":183,"name":"DuckKey","steam_id":76561198904477889,"connected_time":1837000000000,"state":"active","ping":59},{"user_id":151,"name":"Kritzburgh","steam_id":76561198149466938,"connected_time":3869000000000,"state":"active","ping":63},{"user_id":148,"name":"Dreamzapp","steam_id":76561199084936632,"connected_time":3892000000000,"state":"active","ping":119},{"user_id":196,"name":"TheApartmentRat","steam_id":76561199120215026,"connected_time":998000000000,"state":"active","ping":57}]},{"server_id":403,"name":"Uncletopia | Chicago | 4 | All Maps","name_short":"chi-4","host":"chi-1.us.uncletopia.com","port":27045,"enabled":true,"region":"us-central","cc":"us","latitude":41.881832,"longitude":-87.62318,"reserved":0,"last_update":"0001-01-01T00:00:00Z","name_a2s":"Uncletopia | Chicago | 4 | All Maps","protocol":17,"map":"pl_barnblitz","folder":"tf","game":"Team Fortress","app_id":440,"player_count":24,"max_players":24,"Bots":0,"server_type":"Dedicated","server_os":"Linux","password":true,"vac":true,"version":"7961495","steam_id":85568392924515193,"keywords":["nocrits","nodmgspread","payload","uncletopia"],"game_id":440,"stv_port":27046,"stv_name":"Uncletopia | Chicago | 4 | All Maps | STV","players":[{"user_id":74,"name":"Indigolake","steam_id":76561198202215807,"connected_time":684000000000,"state":"active","ping":75},{"user_id":77,"name":"Vegerot","steam_id":76561197997843710,"connected_time":528000000000,"state":"active","ping":61},{"user_id":79,"name":"Swifgz","steam_id":76561198162875756,"connected_time":408000000000,"state":"active","ping":62},{"user_id":32,"name":"chungoose","steam_id":76561198215559840,"connected_time":2240000000000,"state":"active","ping":68},{"user_id":16,"name":"TheGreythreat","steam_id":76561198021995538,"connected_time":2559000000000,"state":"active","ping":60},{"user_id":59,"name":"❤Womp❤","steam_id":76561198167488304,"connected_time":1232000000000,"state":"active","ping":46},{"user_id":48,"name":"Ceige LFT","steam_id":76561198068538473,"connected_time":1878000000000,"state":"active","ping":76},{"user_id":58,"name":"Pwntato","steam_id":76561197983648544,"connected_time":1238000000000,"state":"active","ping":82},{"user_id":62,"name":"♥Gothie♥","steam_id":76561198166814648,"connected_time":980000000000,"state":"active","ping":119},{"user_id":51,"name":"Chubbles","steam_id":76561198237619472,"connected_time":1683000000000,"state":"active","ping":68},{"user_id":67,"name":"AlFury1003","steam_id":76561198219881904,"connected_time":779000000000,"state":"active","ping":84},{"user_id":50,"name":"Fluffeline","steam_id":76561198352909489,"connected_time":1699000000000,"state":"active","ping":149},{"user_id":52,"name":"C∅RVUS","steam_id":76561198100640019,"connected_time":1668000000000,"state":"active","ping":119},{"user_id":45,"name":"JustAnotherHuman","steam_id":76561199018122924,"connected_time":1958000000000,"state":"active","ping":75},{"user_id":36,"name":"garbo","steam_id":76561198149280150,"connected_time":2119000000000,"state":"active","ping":90},{"user_id":68,"name":"Nordie","steam_id":76561198102297774,"connected_time":778000000000,"state":"active","ping":59},{"user_id":39,"name":"boe jiden","steam_id":76561198041048289,"connected_time":2057000000000,"state":"active","ping":59},{"user_id":34,"name":"goofbears","steam_id":76561199100831175,"connected_time":2205000000000,"state":"active","ping":59},{"user_id":80,"name":"Joe Swanson","steam_id":76561198065327106,"connected_time":65000000000,"state":"active","ping":70},{"user_id":81,"name":"Gamering_funy","steam_id":76561199006503777,"connected_time":63000000000,"state":"spawning","ping":83},{"user_id":46,"name":"Ryxie","steam_id":76561198032404752,"connected_time":1908000000000,"state":"active","ping":68},{"user_id":82,"name":"Laventhey","steam_id":76561198977523626,"connected_time":30000000000,"state":"active","ping":71},{"user_id":61,"name":"Legit_Jaxer","steam_id":76561198172234053,"connected_time":1107000000000,"state":"active","ping":111},{"user_id":49,"name":"Jazzy","steam_id":76561199472391166,"connected_time":1875000000000,"state":"active","ping":69}]},{"server_id":36,"name":"Uncletopia | Chicago | 5 | All Maps","name_short":"chi-5","host":"chi-2.us.uncletopia.com","port":27015,"enabled":true,"region":"us-central","cc":"us","latitude":41.881832,"longitude":-87.62318,"reserved":0,"last_update":"0001-01-01T00:00:00Z","name_a2s":"Uncletopia | Chicago | 5 | All Maps","protocol":17,"map":"cp_snakewater_final1","folder":"tf","game":"Team Fortress","app_id":440,"player_count":24,"max_players":24,"Bots":0,"server_type":"Dedicated","server_os":"Linux","password":true,"vac":true,"version":"7961495","steam_id":85568392924866362,"keywords":["cp","nocrits","nodmgspread","uncletopia"],"game_id":440,"stv_port":27016,"stv_name":"Uncletopia | Chicago | 5 | All Maps | STV","players":[{"user_id":214,"name":"my pitbull eats women under 5'7","steam_id":76561198142756572,"connected_time":2529000000000,"state":"active","ping":66},{"user_id":255,"name":"Landlord","steam_id":76561198987913057,"connected_time":285000000000,"state":"active","ping":167},{"user_id":261,"name":"TrashBoat","steam_id":76561199089671432,"connected_time":41000000000,"state":"spawning","ping":69},{"user_id":225,"name":"roto","steam_id":76561198138735860,"connected_time":1700000000000,"state":"active","ping":66},{"user_id":200,"name":"A_Malebolgia","steam_id":76561198097722818,"connected_time":2965000000000,"state":"active","ping":92},{"user_id":253,"name":"momus","steam_id":76561198966979196,"connected_time":381000000000,"state":"active","ping":101},{"user_id":204,"name":"Doom Cart","steam_id":76561198158543955,"connected_time":2881000000000,"state":"active","ping":60},{"user_id":223,"name":"SuperEvilPasta","steam_id":76561198078258907,"connected_time":1711000000000,"state":"active","ping":90},{"user_id":259,"name":"ziggy","steam_id":76561199097683320,"connected_time":156000000000,"state":"active","ping":76},{"user_id":235,"name":"Not pawky","steam_id":76561198148738849,"connected_time":1486000000000,"state":"active","ping":98},{"user_id":135,"name":"Echolu","steam_id":76561198158613750,"connected_time":8149000000000,"state":"active","ping":107},{"user_id":245,"name":"BigBubble42","steam_id":76561198136286123,"connected_time":1127000000000,"state":"active","ping":50},{"user_id":243,"name":"SoWhich","steam_id":76561198237125842,"connected_time":1200000000000,"state":"active","ping":59},{"user_id":123,"name":"Fresh Lychee","steam_id":76561198045399559,"connected_time":9120000000000,"state":"active","ping":58},{"user_id":257,"name":"sock","steam_id":76561199117597830,"connected_time":187000000000,"state":"spawning","ping":94},{"user_id":250,"name":"jubanya","steam_id":76561198830921046,"connected_time":705000000000,"state":"active","ping":64},{"user_id":252,"name":"Inevitable","steam_id":76561198210050169,"connected_time":563000000000,"state":"active","ping":74},{"user_id":248,"name":"Buttons :)","steam_id":76561198139478534,"connected_time":912000000000,"state":"active","ping":130},{"user_id":120,"name":"The World's Softest Sandwich","steam_id":76561198015577707,"connected_time":9287000000000,"state":"active","ping":79},{"user_id":258,"name":"I. P. Freely","steam_id":76561198155176802,"connected_time":184000000000,"state":"active","ping":79},{"user_id":251,"name":"Beebo, Son of Beebo","steam_id":76561198055948497,"connected_time":629000000000,"state":"active","ping":57},{"user_id":206,"name":"fresco","steam_id":76561199101199477,"connected_time":2799000000000,"state":"active","ping":67},{"user_id":260,"name":"An Electric Blue Lobster","steam_id":76561198303125229,"connected_time":111000000000,"state":"active","ping":53},{"user_id":254,"name":"Darkmaen","steam_id":76561198060543390,"connected_time":337000000000,"state":"active","ping":135}]},{"server_id":37,"name":"Uncletopia | Chicago | 6 | All Maps","name_short":"chi-6","host":"chi-2.us.uncletopia.com","port":27025,"enabled":true,"region":"us-central","cc":"us","latitude":41.881832,"longitude":-87.62318,"reserved":0,"last_update":"0001-01-01T00:00:00Z","name_a2s":"Uncletopia | Chicago | 6 | All Maps","protocol":17,"map":"pl_pier","folder":"tf","game":"Team Fortress","app_id":440,"player_count":0,"max_players":24,"Bots":0,"server_type":"Dedicated","server_os":"Linux","password":true,"vac":true,"version":"7961495","steam_id":85568392924866363,"keywords":["nocrits","nodmgspread","payload","uncletopia"],"game_id":440,"stv_port":27026,"stv_name":"Uncletopia | Chicago | 6 | All Maps | STV","players":null},{"server_id":38,"name":"Uncletopia | Chicago | 7 | Stopwatch","name_short":"chi-7","host":"chi-2.us.uncletopia.com","port":27035,"enabled":true,"region":"us-central","cc":"us","latitude":41.881832,"longitude":-87.62318,"reserved":0,"last_update":"0001-01-01T00:00:00Z","name_a2s":"Uncletopia | Chicago | 7 | Stopwatch","protocol":17,"map":"koth_highpass","folder":"tf","game":"Team Fortress","app_id":440,"player_count":0,"max_players":24,"Bots":0,"server_type":"Dedicated","server_os":"Linux","password":true,"vac":true,"version":"7961495","steam_id":85568392924866364,"keywords":["cp","nocrits","nodmgspread","uncletopia"],"game_id":440,"stv_port":27036,"stv_name":"Uncletopia | Chicago | 7 | Stopwatch | STV","players":null},{"server_id":39,"name":"Uncletopia | Chicago | 8 | Community","name_short":"chi-8","host":"chi-2.us.uncletopia.com","port":27045,"enabled":true,"region":"us-central","cc":"us","latitude":41.881832,"longitude":-87.62318,"reserved":0,"last_update":"0001-01-01T00:00:00Z","name_a2s":"Uncletopia | Chicago | 8 | Community","protocol":17,"map":"pl_pier","folder":"tf","game":"Team Fortress","app_id":440,"player_count":0,"max_players":24,"Bots":0,"server_type":"Dedicated","server_os":"Linux","password":true,"vac":true,"version":"7961495","steam_id":85568392924866365,"keywords":["nocrits","nodmgspread","payload","uncletopia"],"game_id":440,"stv_port":27046,"stv_name":"Uncletopia | Chicago | 8 | Community | STV","players":null},{"server_id":8,"name":"Uncletopia | Dallas | 1 | All Maps","name_short":"dal-1","host":"dal-1.us.uncletopia.com","port":27015,"enabled":true,"region":"us-central","cc":"us","latitude":32.779167,"longitude":-96.80889,"reserved":0,"last_update":"0001-01-01T00:00:00Z","name_a2s":"Uncletopia | Dallas | 1 | All Maps","protocol":17,"map":"pl_barnblitz","folder":"tf","game":"Team Fortress","app_id":440,"player_count":24,"max_players":24,"Bots":0,"server_type":"Dedicated","server_os":"Linux","password":true,"vac":true,"version":"7961495","steam_id":85568392924469986,"keywords":["nocrits","nodmgspread","payload","uncletopia"],"game_id":440,"stv_port":27016,"stv_name":"Uncletopia | Dallas | 1 | All Maps | STV","players":[{"user_id":234,"name":"porfer","steam_id":76561199118049168,"connected_time":144000000000,"state":"active","ping":77},{"user_id":232,"name":"Salty Holly","steam_id":76561198091451483,"connected_time":153000000000,"state":"active","ping":68},{"user_id":227,"name":"ihave80hp","steam_id":76561199251621911,"connected_time":702000000000,"state":"active","ping":66},{"user_id":233,"name":"lol55434","steam_id":76561198381841894,"connected_time":147000000000,"state":"active","ping":90},{"user_id":235,"name":"not butter","steam_id":76561198100503104,"connected_time":120000000000,"state":"active","ping":116},{"user_id":209,"name":"Smug","steam_id":76561198448205229,"connected_time":1424000000000,"state":"active","ping":74},{"user_id":213,"name":"chill","steam_id":76561198313364985,"connected_time":1260000000000,"state":"active","ping":86},{"user_id":195,"name":"WashingMachine","steam_id":76561198318572060,"connected_time":2962000000000,"state":"active","ping":63},{"user_id":208,"name":"Certified Hood Classic","steam_id":76561199086159354,"connected_time":1462000000000,"state":"active","ping":58},{"user_id":204,"name":"Final Boss","steam_id":76561198006081383,"connected_time":2226000000000,"state":"active","ping":86},{"user_id":236,"name":"mothsprings","steam_id":76561198928604937,"connected_time":94000000000,"state":"active","ping":97},{"user_id":170,"name":"dance monkey","steam_id":76561198188722751,"connected_time":5248000000000,"state":"active","ping":89},{"user_id":237,"name":"Dreszerg","steam_id":76561198838757422,"connected_time":92000000000,"state":"active","ping":80},{"user_id":216,"name":"a b o m","steam_id":76561198167974713,"connected_time":1235000000000,"state":"active","ping":74},{"user_id":238,"name":"DesolateCabbage","steam_id":76561198064467423,"connected_time":92000000000,"state":"active","ping":52},{"user_id":197,"name":"Walrusto","steam_id":76561198829644616,"connected_time":2928000000000,"state":"active","ping":73},{"user_id":239,"name":"JNGthree","steam_id":76561198166002579,"connected_time":77000000000,"state":"active","ping":68},{"user_id":230,"name":"SuperRuskii","steam_id":76561199455324778,"connected_time":556000000000,"state":"active","ping":56},{"user_id":164,"name":"Mania13","steam_id":76561198334886955,"connected_time":5560000000000,"state":"active","ping":71},{"user_id":240,"name":"Flaymeso","steam_id":76561198341619023,"connected_time":11000000000,"state":"spawning","ping":74},{"user_id":217,"name":"shnowshner","steam_id":76561198066450438,"connected_time":1231000000000,"state":"active","ping":90},{"user_id":218,"name":"Rappy \u003c3","steam_id":76561198105613110,"connected_time":1230000000000,"state":"active","ping":75},{"user_id":144,"name":"Alkimia","steam_id":76561198385763137,"connected_time":7130000000000,"state":"active","ping":105},{"user_id":221,"name":"Cyborgx10","steam_id":76561198951730223,"connected_time":1094000000000,"state":"active","ping":94}]},{"server_id":108,"name":"Uncletopia | Dallas | 2 | All Maps","name_short":"dal-2","host":"dal-1.us.uncletopia.com","port":27025,"enabled":true,"region":"us-central","cc":"us","latitude":32.779167,"longitude":-96.80889,"reserved":0,"last_update":"0001-01-01T00:00:00Z","name_a2s":"Uncletopia | Dallas | 2 | All Maps","protocol":17,"map":"koth_lakeside_final","folder":"tf","game":"Team Fortress","app_id":440,"player_count":23,"max_players":24,"Bots":0,"server_type":"Dedicated","server_os":"Linux","password":true,"vac":true,"version":"7961495","steam_id":85568392924469988,"keywords":["cp","nocrits","nodmgspread","uncletopia"],"game_id":440,"stv_port":27026,"stv_name":"Uncletopia | Dallas | 2 | All Maps | STV","players":[{"user_id":191,"name":"Squagol","steam_id":76561197987486159,"connected_time":32000000000,"state":"connecting","ping":71},{"user_id":185,"name":"Sahalanthro","steam_id":76561199073298722,"connected_time":219000000000,"state":"connecting","ping":87},{"user_id":152,"name":"Saiki K.","steam_id":76561199187226776,"connected_time":1095000000000,"state":"connecting","ping":80},{"user_id":180,"name":"SmiggleGiggle","steam_id":76561198171810677,"connected_time":424000000000,"state":"connecting","ping":137},{"user_id":188,"name":"oog","steam_id":76561198272986152,"connected_time":131000000000,"state":"connecting","ping":108},{"user_id":154,"name":"shaunrq","steam_id":76561199136585297,"connected_time":1082000000000,"state":"connecting","ping":174},{"user_id":178,"name":"Frost Paraselene","steam_id":76561198007332517,"connected_time":657000000000,"state":"connecting","ping":74},{"user_id":179,"name":"mush","steam_id":76561198117471415,"connected_time":561000000000,"state":"connecting","ping":99},{"user_id":189,"name":"bottom pride burger","steam_id":76561198322247602,"connected_time":128000000000,"state":"connecting","ping":108},{"user_id":181,"name":"backshot overlord","steam_id":76561198984612489,"connected_time":403000000000,"state":"connecting","ping":95},{"user_id":169,"name":"Blippy","steam_id":76561198225904600,"connected_time":804000000000,"state":"connecting","ping":57},{"user_id":192,"name":"merk","steam_id":76561198434609353,"connected_time":8000000000,"state":"connecting","ping":73},{"user_id":172,"name":"MancalaMadMan","steam_id":76561198347324053,"connected_time":744000000000,"state":"connecting","ping":115},{"user_id":167,"name":"GibbusGod","steam_id":76561199232436690,"connected_time":849000000000,"state":"connecting","ping":82},{"user_id":139,"name":"ACK","steam_id":76561198130390689,"connected_time":2646000000000,"state":"connecting","ping":111},{"user_id":173,"name":"FlameShake","steam_id":76561198084021005,"connected_time":718000000000,"state":"connecting","ping":92},{"user_id":170,"name":"Knart","steam_id":76561198053299594,"connected_time":779000000000,"state":"connecting","ping":82},{"user_id":171,"name":"Max-E-Boy","steam_id":76561198155979735,"connected_time":778000000000,"state":"connecting","ping":90},{"user_id":174,"name":"dawgamez","steam_id":76561198089293509,"connected_time":698000000000,"state":"connecting","ping":56},{"user_id":184,"name":"artichoke","steam_id":76561198980994364,"connected_time":242000000000,"state":"connecting","ping":103},{"user_id":183,"name":"._.","steam_id":76561198300316801,"connected_time":330000000000,"state":"connecting","ping":94},{"user_id":190,"name":"frank","steam_id":76561198137777483,"connected_time":50000000000,"state":"connecting","ping":101},{"user_id":177,"name":"Chhaam","steam_id":76561198058508132,"connected_time":688000000000,"state":"connecting","ping":93}]},{"server_id":404,"name":"Uncletopia | Dallas | 3 | All Maps","name_short":"dal-3","host":"dal-1.us.uncletopia.com","port":27035,"enabled":true,"region":"us-central","cc":"us","latitude":32.779167,"longitude":-96.80889,"reserved":0,"last_update":"0001-01-01T00:00:00Z","name_a2s":"Uncletopia | Dallas | 3 | All Maps","protocol":17,"map":"koth_lakeside_final","folder":"tf","game":"Team Fortress","app_id":440,"player_count":4,"max_players":24,"Bots":0,"server_type":"Dedicated","server_os":"Linux","password":true,"vac":true,"version":"7961495","steam_id":85568392924515219,"keywords":["cp","nocrits","nodmgspread","uncletopia"],"game_id":440,"stv_port":27036,"stv_name":"Uncletopia | Dallas | 3 | All Maps | STV","players":[{"user_id":8,"name":"teddy \"based\"evelt","steam_id":76561198870403302,"connected_time":894000000000,"state":"active","ping":56},{"user_id":10,"name":"Heavy “Enjoyer”","steam_id":76561199467918010,"connected_time":811000000000,"state":"active","ping":80},{"user_id":11,"name":"Celcel512","steam_id":76561199164683421,"connected_time":736000000000,"state":"active","ping":88},{"user_id":13,"name":"TheSmolPopato","steam_id":76561199076606348,"connected_time":260000000000,"state":"active","ping":76}]},{"server_id":405,"name":"Uncletopia | Dallas | 4 | Community","name_short":"dal-4","host":"dal-1.us.uncletopia.com","port":27045,"enabled":true,"region":"us-central","cc":"us","latitude":32.779167,"longitude":-96.80889,"reserved":0,"last_update":"0001-01-01T00:00:00Z","name_a2s":"Uncletopia | Dallas | 4 | Community","protocol":17,"map":"workshop/pl_badwater_pro_v12.ugc2142942074","folder":"tf","game":"Team Fortress","app_id":440,"player_count":0,"max_players":24,"Bots":0,"server_type":"Dedicated","server_os":"Linux","password":true,"vac":true,"version":"7961495","steam_id":85568392924515220,"keywords":["nocrits","nodmgspread","payload","uncletopia"],"game_id":440,"stv_port":27046,"stv_name":"Uncletopia | Dallas | 4 | Community | STV","players":null},{"server_id":5,"name":"Uncletopia | Frankfurt | 1 | All Maps","name_short":"frk-1","host":"frk-1.de.uncletopia.com","port":27015,"enabled":true,"region":"eu","cc":"de","latitude":50.110924,"longitude":8.682127,"reserved":0,"last_update":"0001-01-01T00:00:00Z","name_a2s":"Uncletopia | Frankfurt | 1 | All Maps","protocol":17,"map":"pl_upward","folder":"tf","game":"Team Fortress","app_id":440,"player_count":24,"max_players":24,"Bots":0,"server_type":"Dedicated","server_os":"Linux","password":true,"vac":true,"version":"7961495","steam_id":85568392924469989,"keywords":["nocrits","nodmgspread","payload","uncletopia"],"game_id":440,"stv_port":27016,"stv_name":"Uncletopia | Frankfurt | 1 | All Maps | STV","players":[{"user_id":495,"name":"Erection Man","steam_id":76561198021714542,"connected_time":4281000000000,"state":"active","ping":60},{"user_id":530,"name":"Ducobu 3 for Nintendo Wii NOW","steam_id":76561198056221804,"connected_time":1753000000000,"state":"active","ping":65},{"user_id":560,"name":"Silver","steam_id":76561198175238807,"connected_time":223000000000,"state":"active","ping":63},{"user_id":557,"name":"Qwerty","steam_id":76561198023525894,"connected_time":484000000000,"state":"active","ping":84},{"user_id":544,"name":"Smoking problem","steam_id":76561198361351449,"connected_time":1530000000000,"state":"active","ping":57},{"user_id":558,"name":"Vallu","steam_id":76561197998153952,"connected_time":481000000000,"state":"active","ping":111},{"user_id":534,"name":"ma","steam_id":76561198055745563,"connected_time":1732000000000,"state":"active","ping":64},{"user_id":535,"name":"ඞ","steam_id":76561199500311813,"connected_time":1731000000000,"state":"active","ping":231},{"user_id":566,"name":"Tfuj Stary","steam_id":76561198126681452,"connected_time":18000000000,"state":"spawning","ping":102},{"user_id":545,"name":"Chappi","steam_id":76561198075512843,"connected_time":1499000000000,"state":"active","ping":84},{"user_id":547,"name":"Milten","steam_id":76561198191768569,"connected_time":1311000000000,"state":"active","ping":72},{"user_id":548,"name":"Sirzen","steam_id":76561198170155434,"connected_time":1309000000000,"state":"active","ping":47},{"user_id":552,"name":"Skarp","steam_id":76561198034398376,"connected_time":1050000000000,"state":"active","ping":50},{"user_id":527,"name":"Laki","steam_id":76561198126078953,"connected_time":2278000000000,"state":"active","ping":112},{"user_id":559,"name":"guru{Hari}","steam_id":76561197997001681,"connected_time":471000000000,"state":"active","ping":61},{"user_id":551,"name":"Dot","steam_id":76561198047299145,"connected_time":1086000000000,"state":"active","ping":81},{"user_id":546,"name":"BELADIT","steam_id":76561198011911501,"connected_time":1457000000000,"state":"active","ping":72},{"user_id":523,"name":"humanity's companion","steam_id":76561198101039650,"connected_time":2559000000000,"state":"active","ping":54},{"user_id":562,"name":"精薄","steam_id":76561198103633797,"connected_time":178000000000,"state":"active","ping":78},{"user_id":563,"name":"nordstream bomber","steam_id":76561199401283123,"connected_time":163000000000,"state":"active","ping":64},{"user_id":550,"name":"༼ ຈل͜ຈ༽","steam_id":76561198027166144,"connected_time":1202000000000,"state":"active","ping":85},{"user_id":565,"name":"leychanus","steam_id":76561198035380064,"connected_time":29000000000,"state":"active","ping":48},{"user_id":496,"name":"MR BUBBLES","steam_id":76561198019005259,"connected_time":4006000000000,"state":"active","ping":126},{"user_id":542,"name":"Drinking Problem","steam_id":76561198319162953,"connected_time":1672000000000,"state":"active","ping":68}]},{"server_id":110,"name":"Uncletopia | Frankfurt | 2 | All Maps","name_short":"frk-2","host":"frk-1.de.uncletopia.com","port":27025,"enabled":true,"region":"eu","cc":"de","latitude":50.110924,"longitude":8.682127,"reserved":0,"last_update":"0001-01-01T00:00:00Z","name_a2s":"Uncletopia | Frankfurt | 2 | All Maps","protocol":17,"map":"koth_badlands","folder":"tf","game":"Team Fortress","app_id":440,"player_count":23,"max_players":24,"Bots":0,"server_type":"Dedicated","server_os":"Linux","password":true,"vac":true,"version":"7961495","steam_id":85568392924469990,"keywords":["cp","nocrits","nodmgspread","uncletopia"],"game_id":440,"stv_port":27026,"stv_name":"Uncletopia | Frankfurt | 2 | All Maps | STV","players":[{"user_id":516,"name":"Skatnaset","steam_id":76561198298457353,"connected_time":672000000000,"state":"active","ping":72},{"user_id":525,"name":"aja","steam_id":76561198972253395,"connected_time":239000000000,"state":"active","ping":62},{"user_id":506,"name":"Whirlo","steam_id":76561198116130783,"connected_time":1575000000000,"state":"active","ping":37},{"user_id":472,"name":"KNARRER","steam_id":76561199130777953,"connected_time":4260000000000,"state":"active","ping":56},{"user_id":491,"name":"myon","steam_id":76561197992528570,"connected_time":2504000000000,"state":"active","ping":85},{"user_id":520,"name":"EuropaWaifu enjoyer","steam_id":76561198173218318,"connected_time":332000000000,"state":"active","ping":63},{"user_id":530,"name":"Nev.","steam_id":76561199081625951,"connected_time":31000000000,"state":"active","ping":69},{"user_id":526,"name":"PaasiPiru","steam_id":76561198013325816,"connected_time":205000000000,"state":"active","ping":104},{"user_id":492,"name":"ThellanM","steam_id":76561199014222387,"connected_time":2154000000000,"state":"active","ping":74},{"user_id":531,"name":"hyvakii705","steam_id":76561198086630552,"connected_time":31000000000,"state":"active","ping":79},{"user_id":498,"name":"tofu","steam_id":76561198136525279,"connected_time":1808000000000,"state":"active","ping":60},{"user_id":522,"name":"b","steam_id":76561198200529559,"connected_time":320000000000,"state":"active","ping":62},{"user_id":523,"name":"Lessoz","steam_id":76561199211572036,"connected_time":301000000000,"state":"active","ping":85},{"user_id":518,"name":"void","steam_id":76561198035831433,"connected_time":604000000000,"state":"active","ping":62},{"user_id":443,"name":"Illy","steam_id":76561198045537823,"connected_time":5389000000000,"state":"active","ping":69},{"user_id":524,"name":"Sharp Shooter","steam_id":76561197998617945,"connected_time":281000000000,"state":"active","ping":122},{"user_id":463,"name":"elkku26","steam_id":76561198982055716,"connected_time":4828000000000,"state":"active","ping":80},{"user_id":527,"name":"Taskrabbits","steam_id":76561198366682546,"connected_time":199000000000,"state":"active","ping":190},{"user_id":528,"name":"Ned","steam_id":76561198014012014,"connected_time":179000000000,"state":"active","ping":43},{"user_id":529,"name":"tadisab","steam_id":76561199484049632,"connected_time":164000000000,"state":"active","ping":207},{"user_id":479,"name":"Soerlssoelssöen","steam_id":76561197993060585,"connected_time":3585000000000,"state":"active","ping":69},{"user_id":514,"name":"Unemployed Gaming","steam_id":76561198982674420,"connected_time":1083000000000,"state":"active","ping":59},{"user_id":503,"name":"$t@lker_Tim","steam_id":76561198963658042,"connected_time":1790000000000,"state":"active","ping":117}]},{"server_id":308,"name":"Uncletopia | Frankfurt | 3 | All Maps","name_short":"frk-3","host":"frk-1.de.uncletopia.com","port":27035,"enabled":true,"region":"eu","cc":"de","latitude":50.110924,"longitude":8.682127,"reserved":0,"last_update":"0001-01-01T00:00:00Z","name_a2s":"Uncletopia | Frankfurt | 3 | All Maps","protocol":17,"map":"pl_barnblitz","folder":"tf","game":"Team Fortress","app_id":440,"player_count":18,"max_players":24,"Bots":0,"server_type":"Dedicated","server_os":"Linux","password":true,"vac":true,"version":"7961495","steam_id":85568392924504274,"keywords":["nocrits","nodmgspread","payload","uncletopia"],"game_id":440,"stv_port":27036,"stv_name":"Uncletopia | Frankfurt | 3 | All Maps | STV","players":[{"user_id":594,"name":"Kili","steam_id":76561198138456346,"connected_time":0,"state":"spawning","ping":27},{"user_id":586,"name":"Sondre","steam_id":76561198023013092,"connected_time":1171000000000,"state":"active","ping":91},{"user_id":487,"name":"mr mufasi","steam_id":76561198068453867,"connected_time":7240000000000,"state":"active","ping":68},{"user_id":566,"name":"Pudlich","steam_id":76561198300089671,"connected_time":3032000000000,"state":"active","ping":60},{"user_id":589,"name":"Majami","steam_id":76561198054365738,"connected_time":724000000000,"state":"active","ping":77},{"user_id":584,"name":"Hector","steam_id":76561198028618586,"connected_time":1222000000000,"state":"active","ping":57},{"user_id":585,"name":"Skipper","steam_id":76561198156847466,"connected_time":1218000000000,"state":"active","ping":71},{"user_id":573,"name":"Frozteen","steam_id":76561198280062997,"connected_time":2322000000000,"state":"active","ping":98},{"user_id":567,"name":"Swoekie","steam_id":76561198028690614,"connected_time":2995000000000,"state":"active","ping":60},{"user_id":579,"name":"Towercat","steam_id":76561198013141793,"connected_time":2075000000000,"state":"active","ping":69},{"user_id":560,"name":"S0rdini","steam_id":76561198986246118,"connected_time":3366000000000,"state":"active","ping":75},{"user_id":593,"name":"Bill Clinton","steam_id":76561198060011032,"connected_time":73000000000,"state":"active","ping":62},{"user_id":507,"name":"keepflatandenjoy","steam_id":76561198976062150,"connected_time":6370000000000,"state":"active","ping":69},{"user_id":565,"name":"War","steam_id":76561198083923174,"connected_time":3057000000000,"state":"active","ping":72},{"user_id":592,"name":"catboy extraordinaire","steam_id":76561197983889333,"connected_time":212000000000,"state":"active","ping":60},{"user_id":524,"name":"EVL1","steam_id":76561198308280944,"connected_time":5754000000000,"state":"active","ping":93},{"user_id":590,"name":"sork","steam_id":76561198082446459,"connected_time":511000000000,"state":"active","ping":64},{"user_id":545,"name":"Birch","steam_id":76561197998712822,"connected_time":3978000000000,"state":"active","ping":38}]},{"server_id":309,"name":"Uncletopia | Frankfurt | 4 | All Maps","name_short":"frk-4","host":"frk-1.de.uncletopia.com","port":27045,"enabled":true,"region":"eu","cc":"de","latitude":50.110924,"longitude":8.682127,"reserved":0,"last_update":"0001-01-01T00:00:00Z","name_a2s":"Uncletopia | Frankfurt | 4 | All Maps","protocol":17,"map":"pl_frontier_final","folder":"tf","game":"Team Fortress","app_id":440,"player_count":24,"max_players":24,"Bots":0,"server_type":"Dedicated","server_os":"Linux","password":true,"vac":true,"version":"7961495","steam_id":85568392924504275,"keywords":["nocrits","nodmgspread","payload","uncletopia"],"game_id":440,"stv_port":27046,"stv_name":"Uncletopia | Frankfurt | 4 | All Maps | STV","players":[{"user_id":618,"name":"Koalified","steam_id":76561198095350290,"connected_time":4204000000000,"state":"active","ping":178},{"user_id":632,"name":"lulu","steam_id":76561199147764133,"connected_time":3552000000000,"state":"active","ping":62},{"user_id":655,"name":"Hrrr","steam_id":76561198106920678,"connected_time":1825000000000,"state":"active","ping":45},{"user_id":658,"name":"Warrior555MainsGanon","steam_id":76561198388627786,"connected_time":1780000000000,"state":"active","ping":69},{"user_id":643,"name":"Flight of the Blonde Giraffes","steam_id":76561198451585571,"connected_time":2652000000000,"state":"active","ping":72},{"user_id":673,"name":"[P-roc] Cmm Bert","steam_id":76561198016658674,"connected_time":252000000000,"state":"active","ping":72},{"user_id":674,"name":"Max Power","steam_id":76561198019269089,"connected_time":171000000000,"state":"active","ping":47},{"user_id":675,"name":"Haschgott 2.0","steam_id":76561198049820307,"connected_time":161000000000,"state":"active","ping":62},{"user_id":656,"name":"Luuk","steam_id":76561198088266026,"connected_time":1808000000000,"state":"active","ping":51},{"user_id":666,"name":"Mayor Wank from Wanker Town","steam_id":76561197998253588,"connected_time":1351000000000,"state":"active","ping":45},{"user_id":664,"name":"energiske erik","steam_id":76561198044616068,"connected_time":1379000000000,"state":"active","ping":100},{"user_id":650,"name":"Largo","steam_id":76561198844368927,"connected_time":2274000000000,"state":"active","ping":72},{"user_id":676,"name":"Dim Ass","steam_id":76561198219297851,"connected_time":160000000000,"state":"active","ping":114},{"user_id":606,"name":"Hepçil","steam_id":76561199113978553,"connected_time":4432000000000,"state":"active","ping":106},{"user_id":677,"name":"Gent","steam_id":76561198037167890,"connected_time":124000000000,"state":"active","ping":81},{"user_id":672,"name":"bruh","steam_id":76561197993922244,"connected_time":282000000000,"state":"active","ping":50},{"user_id":665,"name":"DirtyFred","steam_id":76561198031814950,"connected_time":1366000000000,"state":"active","ping":72},{"user_id":669,"name":"Mr_Pulse_","steam_id":76561198095001602,"connected_time":1290000000000,"state":"active","ping":106},{"user_id":678,"name":"Marukuso","steam_id":76561198154229845,"connected_time":73000000000,"state":"active","ping":63},{"user_id":679,"name":"catstew","steam_id":76561198119449463,"connected_time":56000000000,"state":"active","ping":69},{"user_id":671,"name":"Driver's drunkest God","steam_id":76561198969373800,"connected_time":651000000000,"state":"active","ping":76},{"user_id":668,"name":"Hey, I´m Andy!","steam_id":76561198060337777,"connected_time":1349000000000,"state":"active","ping":76},{"user_id":659,"name":"Xeno","steam_id":76561198975556646,"connected_time":1775000000000,"state":"active","ping":49},{"user_id":646,"name":"darke","steam_id":76561198211553036,"connected_time":2539000000000,"state":"active","ping":80}]},{"server_id":310,"name":"Uncletopia | Frankfurt | 5 | All Maps","name_short":"frk-5","host":"frk-1.de.uncletopia.com","port":27055,"enabled":true,"region":"eu","cc":"de","latitude":50.110924,"longitude":8.682127,"reserved":0,"last_update":"0001-01-01T00:00:00Z","name_a2s":"Uncletopia | Frankfurt | 5 | All Maps","protocol":17,"map":"pl_badwater","folder":"tf","game":"Team Fortress","app_id":440,"player_count":24,"max_players":24,"Bots":0,"server_type":"Dedicated","server_os":"Linux","password":true,"vac":true,"version":"7961495","steam_id":85568392924504277,"keywords":["nocrits","nodmgspread","payload","uncletopia"],"game_id":440,"stv_port":27056,"stv_name":"Uncletopia | Frankfurt | 5 | All Maps | STV","players":[{"user_id":493,"name":"Kitten","steam_id":76561198019027657,"connected_time":3759000000000,"state":"active","ping":69},{"user_id":475,"name":"chair 2.0","steam_id":76561199233470150,"connected_time":4962000000000,"state":"active","ping":42},{"user_id":511,"name":"Müesli","steam_id":76561198183105149,"connected_time":1535000000000,"state":"active","ping":30},{"user_id":549,"name":"2s","steam_id":76561198153971923,"connected_time":275000000000,"state":"active","ping":68},{"user_id":513,"name":"Duktigafred","steam_id":76561199211222396,"connected_time":1523000000000,"state":"active","ping":69},{"user_id":490,"name":"TheWinter","steam_id":76561198285640556,"connected_time":3826000000000,"state":"active","ping":79},{"user_id":512,"name":"WildRode","steam_id":76561199199446240,"connected_time":1532000000000,"state":"active","ping":81},{"user_id":453,"name":"autotopilot","steam_id":76561198261922138,"connected_time":6704000000000,"state":"active","ping":71},{"user_id":468,"name":"Demo #saveTF2","steam_id":76561198102850854,"connected_time":5932000000000,"state":"active","ping":61},{"user_id":543,"name":"Cosmetic brain","steam_id":76561198055936410,"connected_time":1123000000000,"state":"active","ping":87},{"user_id":481,"name":"KnusprigeKloake","steam_id":76561198051422734,"connected_time":4412000000000,"state":"active","ping":44},{"user_id":272,"name":"MEDiUM","steam_id":76561198112328561,"connected_time":16840000000000,"state":"active","ping":69},{"user_id":547,"name":"Mimic","steam_id":76561198064890253,"connected_time":923000000000,"state":"active","ping":113},{"user_id":469,"name":"gagalak","steam_id":76561198089979108,"connected_time":5925000000000,"state":"active","ping":90},{"user_id":548,"name":"Odin","steam_id":76561198087800030,"connected_time":884000000000,"state":"active","ping":45},{"user_id":506,"name":"[T]aKer","steam_id":76561198001778013,"connected_time":2157000000000,"state":"active","ping":53},{"user_id":509,"name":"omony","steam_id":76561197983750025,"connected_time":1559000000000,"state":"active","ping":89},{"user_id":442,"name":"OldCentury","steam_id":76561198061616092,"connected_time":7297000000000,"state":"active","ping":72},{"user_id":515,"name":"etc","steam_id":76561197998394797,"connected_time":1496000000000,"state":"active","ping":53},{"user_id":545,"name":"mitkodimov0155","steam_id":76561199361875001,"connected_time":1013000000000,"state":"active","ping":98},{"user_id":544,"name":"Gucio","steam_id":76561198893157888,"connected_time":1087000000000,"state":"active","ping":60},{"user_id":508,"name":"Caliban","steam_id":76561197999696839,"connected_time":1888000000000,"state":"active","ping":115},{"user_id":505,"name":"Cypher","steam_id":76561197996967254,"connected_time":2319000000000,"state":"active","ping":59},{"user_id":546,"name":"Holy Bingle","steam_id":76561198349648942,"connected_time":967000000000,"state":"active","ping":89}]},{"server_id":311,"name":"Uncletopia | Frankfurt | 6 | All Maps","name_short":"frk-6","host":"frk-1.de.uncletopia.com","port":27065,"enabled":true,"region":"eu","cc":"de","latitude":50.110924,"longitude":8.682127,"reserved":0,"last_update":"0001-01-01T00:00:00Z","name_a2s":"Uncletopia | Frankfurt | 6 | All Maps","protocol":17,"map":"koth_harvest_final","folder":"tf","game":"Team Fortress","app_id":440,"player_count":24,"max_players":24,"Bots":0,"server_type":"Dedicated","server_os":"Linux","password":true,"vac":true,"version":"7961495","steam_id":85568392924504278,"keywords":["cp","nocrits","nodmgspread","uncletopia"],"game_id":440,"stv_port":27066,"stv_name":"Uncletopia | Frankfurt | 6 | All Maps | STV","players":[{"user_id":491,"name":"DwarfInYou","steam_id":76561198966341795,"connected_time":61000000000,"state":"active","ping":50},{"user_id":227,"name":"Finnish Farmer","steam_id":76561198205366043,"connected_time":9842000000000,"state":"active","ping":86},{"user_id":465,"name":"Quartzy","steam_id":76561198313301520,"connected_time":933000000000,"state":"active","ping":51},{"user_id":481,"name":"Defultplayer","steam_id":76561198105182562,"connected_time":791000000000,"state":"active","ping":54},{"user_id":402,"name":"FoOzTV","steam_id":76561197998636728,"connected_time":4065000000000,"state":"active","ping":69},{"user_id":470,"name":"EnergizedUraniun","steam_id":76561198130775583,"connected_time":909000000000,"state":"active","ping":49},{"user_id":471,"name":"DeleteTrickster","steam_id":76561198397120242,"connected_time":905000000000,"state":"active","ping":74},{"user_id":486,"name":"Alekk","steam_id":76561198093533143,"connected_time":416000000000,"state":"active","ping":72},{"user_id":454,"name":"d","steam_id":76561198084062882,"connected_time":1051000000000,"state":"active","ping":46},{"user_id":472,"name":"notna :)","steam_id":76561198059464571,"connected_time":902000000000,"state":"active","ping":53},{"user_id":474,"name":"[FP] Scewtch","steam_id":76561198120500488,"connected_time":847000000000,"state":"active","ping":73},{"user_id":488,"name":"去吃胡萝卜笨蛋","steam_id":76561198069649097,"connected_time":345000000000,"state":"active","ping":74},{"user_id":475,"name":"Itsuka","steam_id":76561198124507599,"connected_time":846000000000,"state":"active","ping":48},{"user_id":404,"name":"Eggy_The_Tyrone","steam_id":76561198036857277,"connected_time":4008000000000,"state":"active","ping":57},{"user_id":482,"name":"BRICK TOP","steam_id":76561198014366715,"connected_time":732000000000,"state":"active","ping":54},{"user_id":483,"name":"Femboy Thighs","steam_id":76561198115496457,"connected_time":625000000000,"state":"active","ping":54},{"user_id":477,"name":"[FP] Rune","steam_id":76561198030842879,"connected_time":840000000000,"state":"active","ping":60},{"user_id":410,"name":"TheEventGuy","steam_id":76561197972797744,"connected_time":3784000000000,"state":"active","ping":66},{"user_id":478,"name":"[FP] Shiken","steam_id":76561198257905663,"connected_time":838000000000,"state":"active","ping":77},{"user_id":490,"name":"Jazzu","steam_id":76561198065892693,"connected_time":228000000000,"state":"active","ping":69},{"user_id":418,"name":"dzgnated","steam_id":76561198026927089,"connected_time":2931000000000,"state":"active","ping":105},{"user_id":390,"name":"Zenhard","steam_id":76561198099744014,"connected_time":4286000000000,"state":"active","ping":87},{"user_id":485,"name":"Ghost11","steam_id":76561198068892992,"connected_time":430000000000,"state":"active","ping":108},{"user_id":446,"name":"meriones","steam_id":76561198034234373,"connected_time":1195000000000,"state":"active","ping":55}]},{"server_id":23,"name":"Uncletopia | Frankfurt | 7 | Stopwatch","name_short":"frk-7","host":"frk-1.de.uncletopia.com","port":27075,"enabled":true,"region":"eu","cc":"de","latitude":50.110924,"longitude":8.682127,"reserved":0,"last_update":"0001-01-01T00:00:00Z","name_a2s":"Uncletopia | Frankfurt | 7 | Stopwatch","protocol":17,"map":"workshop/koth_ramjam_rc1.ugc459778887","folder":"tf","game":"Team Fortress","app_id":440,"player_count":2,"max_players":24,"Bots":0,"server_type":"Dedicated","server_os":"Linux","password":true,"vac":true,"version":"7961495","steam_id":85568392924742827,"keywords":["cp","nocrits","nodmgspread","uncletopia"],"game_id":440,"stv_port":27076,"stv_name":"Uncletopia | Frankfurt | 7 | Stopwatch | STV","players":[{"user_id":16,"name":"ran is running","steam_id":76561199443185667,"connected_time":339000000000,"state":"active","ping":126},{"user_id":17,"name":"piss man (real)","steam_id":76561198839843428,"connected_time":321000000000,"state":"active","ping":119}]},{"server_id":24,"name":"Uncletopia | Frankfurt | 8 | Community","name_short":"frk-8","host":"frk-1.de.uncletopia.com","port":27085,"enabled":true,"region":"eu","cc":"de","latitude":50.110924,"longitude":8.682127,"reserved":0,"last_update":"0001-01-01T00:00:00Z","name_a2s":"Uncletopia | Frankfurt | 8 | Community","protocol":17,"map":"workshop/cp_bruhstbowl_b6.ugc2878604990","folder":"tf","game":"Team Fortress","app_id":440,"player_count":3,"max_players":24,"Bots":0,"server_type":"Dedicated","server_os":"Linux","password":true,"vac":true,"version":"7961495","steam_id":85568392924742828,"keywords":["cp","nocrits","nodmgspread","uncletopia"],"game_id":440,"stv_port":27086,"stv_name":"Uncletopia | Frankfurt | 8 | Community | STV","players":[{"user_id":49,"name":"Jethro Tull","steam_id":76561199034041634,"connected_time":546000000000,"state":"active","ping":60},{"user_id":20,"name":"maaslionel","steam_id":76561199122128928,"connected_time":5898000000000,"state":"active","ping":54},{"user_id":19,"name":"63756d","steam_id":76561198808699024,"connected_time":5914000000000,"state":"active","ping":67}]},{"server_id":202,"name":"Uncletopia | Hong Kong | 1 | All Maps","name_short":"hgk-1","host":"hgk-1.hk.uncletopia.com","port":27015,"enabled":true,"region":"asia","cc":"hk","latitude":22.302711,"longitude":114.177216,"reserved":0,"last_update":"0001-01-01T00:00:00Z","name_a2s":"Uncletopia | Hong Kong | 1 | All Maps","protocol":17,"map":"koth_viaduct","folder":"tf","game":"Team Fortress","app_id":440,"player_count":0,"max_players":24,"Bots":0,"server_type":"Dedicated","server_os":"Linux","password":true,"vac":true,"version":"7961495","steam_id":85568392924494504,"keywords":["cp","nocrits","nodmgspread","uncletopia"],"game_id":440,"stv_port":27016,"stv_name":"Uncletopia | Hong Kong | 1 | All Maps | STV","players":null},{"server_id":1,"name":"Uncletopia | Los Angeles | 1 | All Maps","name_short":"lax-1","host":"lax-1.us.uncletopia.com","port":27015,"enabled":true,"region":"us-west","cc":"us","latitude":33.94279,"longitude":-118.41004,"reserved":0,"last_update":"0001-01-01T00:00:00Z","name_a2s":"Uncletopia | Los Angeles | 1 | All Maps","protocol":17,"map":"pl_borneo","folder":"tf","game":"Team Fortress","app_id":440,"player_count":24,"max_players":24,"Bots":0,"server_type":"Dedicated","server_os":"Linux","password":true,"vac":true,"version":"7961495","steam_id":85568392924469991,"keywords":["nocrits","nodmgspread","payload","uncletopia"],"game_id":440,"stv_port":27016,"stv_name":"Uncletopia | Los Angeles | 1 | All Maps | STV","players":[{"user_id":76,"name":"grape","steam_id":76561197993980328,"connected_time":5162000000000,"state":"active","ping":87},{"user_id":145,"name":"heycaesar","steam_id":76561198273714368,"connected_time":1003000000000,"state":"active","ping":56},{"user_id":141,"name":"flo rida","steam_id":76561198226169704,"connected_time":1165000000000,"state":"active","ping":50},{"user_id":111,"name":"Several Ducks","steam_id":76561198010667854,"connected_time":2947000000000,"state":"active","ping":49},{"user_id":143,"name":"Fentanyl Warrior","steam_id":76561198074047574,"connected_time":1066000000000,"state":"active","ping":91},{"user_id":140,"name":"johnny","steam_id":76561198050225055,"connected_time":1180000000000,"state":"active","ping":46},{"user_id":146,"name":"Velgrauder","steam_id":76561198848526938,"connected_time":978000000000,"state":"active","ping":103},{"user_id":147,"name":"L-","steam_id":76561198046074220,"connected_time":963000000000,"state":"active","ping":31},{"user_id":138,"name":"oog","steam_id":76561199089730744,"connected_time":1636000000000,"state":"active","ping":67},{"user_id":89,"name":"Perfume Department","steam_id":76561198128299594,"connected_time":4028000000000,"state":"active","ping":53},{"user_id":137,"name":"Windows1800s","steam_id":76561198145093014,"connected_time":1657000000000,"state":"active","ping":46},{"user_id":144,"name":"♥Daydream♥","steam_id":76561198055641663,"connected_time":1065000000000,"state":"active","ping":118},{"user_id":132,"name":"Incomprehensible Gibberish","steam_id":76561198967650769,"connected_time":2449000000000,"state":"active","ping":51},{"user_id":122,"name":"Tehol Beddict","steam_id":76561198045603153,"connected_time":2666000000000,"state":"active","ping":97},{"user_id":120,"name":"Angus Mackenzie","steam_id":76561198060624982,"connected_time":2714000000000,"state":"active","ping":57},{"user_id":121,"name":"themagicbirdie","steam_id":76561198067516930,"connected_time":2696000000000,"state":"active","ping":92},{"user_id":131,"name":"eggplantgirl♥","steam_id":76561198811515692,"connected_time":2455000000000,"state":"active","ping":48},{"user_id":142,"name":"child labor","steam_id":76561198982415497,"connected_time":1091000000000,"state":"active","ping":66},{"user_id":134,"name":"nothowon","steam_id":76561198937601452,"connected_time":2047000000000,"state":"active","ping":106},{"user_id":36,"name":"hyaz, +rep.","steam_id":76561199100342013,"connected_time":8551000000000,"state":"active","ping":49},{"user_id":139,"name":"Keamy","steam_id":76561199471434875,"connected_time":1547000000000,"state":"active","ping":75},{"user_id":135,"name":"thatfoolralph","steam_id":76561199210333385,"connected_time":1844000000000,"state":"active","ping":57},{"user_id":136,"name":"Nyges","steam_id":76561198139236154,"connected_time":1752000000000,"state":"active","ping":58},{"user_id":124,"name":"RaspberryKetchup","steam_id":76561198397331700,"connected_time":2616000000000,"state":"active","ping":111}]},{"server_id":112,"name":"Uncletopia | Los Angeles | 2 | All Maps","name_short":"lax-2","host":"lax-1.us.uncletopia.com","port":27025,"enabled":true,"region":"us-west","cc":"us","latitude":33.94279,"longitude":-118.41004,"reserved":0,"last_update":"0001-01-01T00:00:00Z","name_a2s":"Uncletopia | Los Angeles | 2 | All Maps","protocol":17,"map":"koth_cascade","folder":"tf","game":"Team Fortress","app_id":440,"player_count":0,"max_players":24,"Bots":0,"server_type":"Dedicated","server_os":"Linux","password":true,"vac":true,"version":"7961495","steam_id":85568392924469992,"keywords":["cp","nocrits","nodmgspread","uncletopia"],"game_id":440,"stv_port":27026,"stv_name":"Uncletopia | Los Angeles | 2 | All Maps | STV","players":null},{"server_id":324,"name":"Uncletopia | Los Angeles | 3 | All Maps","name_short":"lax-3","host":"lax-1.us.uncletopia.com","port":27035,"enabled":true,"region":"us-west","cc":"us","latitude":33.94279,"longitude":-118.41004,"reserved":0,"last_update":"0001-01-01T00:00:00Z","name_a2s":"Uncletopia | Los Angeles | 3 | All Maps","protocol":17,"map":"pl_snowycoast","folder":"tf","game":"Team Fortress","app_id":440,"player_count":3,"max_players":24,"Bots":0,"server_type":"Dedicated","server_os":"Linux","password":true,"vac":true,"version":"7961495","steam_id":85568392924510198,"keywords":["nocrits","nodmgspread","payload","uncletopia"],"game_id":440,"stv_port":27036,"stv_name":"Uncletopia | Los Angeles | 3 | All Maps | STV","players":[{"user_id":7,"name":"Ơ̷͘n̶̨̡ ̵́͘G͢҉ơ̛","steam_id":76561198072089706,"connected_time":609000000000,"state":"active","ping":79},{"user_id":8,"name":"Muro_Mayo","steam_id":76561198329023209,"connected_time":602000000000,"state":"active","ping":100},{"user_id":10,"name":"5oc","steam_id":76561199196300397,"connected_time":202000000000,"state":"active","ping":55}]},{"server_id":25,"name":"Uncletopia | Los Angeles | 4 | Stopwatch","name_short":"lax-4","host":"lax-1.us.uncletopia.com","port":27045,"enabled":true,"region":"us-west","cc":"us","latitude":33.94279,"longitude":-118.41004,"reserved":0,"last_update":"0001-01-01T00:00:00Z","name_a2s":"Uncletopia | Los Angeles | 4 | Stopwatch","protocol":17,"map":"workshop/cp_process_f12.ugc2302948105","folder":"tf","game":"Team Fortress","app_id":440,"player_count":0,"max_players":24,"Bots":0,"server_type":"Dedicated","server_os":"Linux","password":true,"vac":true,"version":"7961495","steam_id":85568392924510199,"keywords":["cp","nocrits","nodmgspread","uncletopia"],"game_id":440,"stv_port":27046,"stv_name":"Uncletopia | Los Angeles | 4 | Stopwatch | STV","players":null},{"server_id":11,"name":"Uncletopia | London | 1 | All Maps","name_short":"lon-1","host":"lon-1.uk.uncletopia.com","port":27015,"enabled":true,"region":"eu","cc":"gb","latitude":51.509865,"longitude":-0.118092,"reserved":0,"last_update":"0001-01-01T00:00:00Z","name_a2s":"Uncletopia | London | 1 | All Maps","protocol":17,"map":"pl_badwater","folder":"tf","game":"Team Fortress","app_id":440,"player_count":24,"max_players":24,"Bots":0,"server_type":"Dedicated","server_os":"Linux","password":true,"vac":true,"version":"7961495","steam_id":85568392924367362,"keywords":["nocrits","nodmgspread","payload","uncletopia"],"game_id":440,"stv_port":27016,"stv_name":"Uncletopia | London | 1 | All Maps | STV","players":[{"user_id":548,"name":"dec","steam_id":76561198009660168,"connected_time":2999000000000,"state":"active","ping":56},{"user_id":348,"name":"neJ","steam_id":76561198003397488,"connected_time":22932000000000,"state":"active","ping":77},{"user_id":537,"name":"ExotiiC ☯","steam_id":76561198046149866,"connected_time":3930000000000,"state":"active","ping":65},{"user_id":565,"name":"Scorch","steam_id":76561198993322505,"connected_time":340000000000,"state":"active","ping":74},{"user_id":522,"name":"teddy","steam_id":76561198007436837,"connected_time":6461000000000,"state":"active","ping":39},{"user_id":553,"name":"steff","steam_id":76561198013306538,"connected_time":2735000000000,"state":"active","ping":54},{"user_id":500,"name":"Kuickfire","steam_id":76561198066476639,"connected_time":8107000000000,"state":"active","ping":96},{"user_id":532,"name":"Finkaksu Devourer of Sour Candy","steam_id":76561198201389163,"connected_time":4871000000000,"state":"active","ping":70},{"user_id":551,"name":"♛C4xSupreme♛","steam_id":76561199246030190,"connected_time":2762000000000,"state":"active","ping":75},{"user_id":550,"name":"I like apple","steam_id":76561198108115790,"connected_time":2764000000000,"state":"active","ping":49},{"user_id":523,"name":"Testy","steam_id":76561198169996602,"connected_time":6176000000000,"state":"active","ping":59},{"user_id":505,"name":"xx_tw1st3d_j0k3r_xx","steam_id":76561198043601838,"connected_time":7999000000000,"state":"active","ping":60},{"user_id":563,"name":"MSM","steam_id":76561198310095220,"connected_time":945000000000,"state":"active","ping":45},{"user_id":526,"name":"⸸aura⸸","steam_id":76561198066258544,"connected_time":5962000000000,"state":"active","ping":62},{"user_id":561,"name":"peruna","steam_id":76561198000721196,"connected_time":1467000000000,"state":"active","ping":80},{"user_id":554,"name":"Kahvi","steam_id":76561198723244199,"connected_time":2726000000000,"state":"active","ping":87},{"user_id":531,"name":"J3LLY","steam_id":76561198048453764,"connected_time":5047000000000,"state":"active","ping":56},{"user_id":552,"name":"sushii","steam_id":76561198297987372,"connected_time":2762000000000,"state":"active","ping":56},{"user_id":557,"name":"Purps","steam_id":76561198053886680,"connected_time":2692000000000,"state":"active","ping":46},{"user_id":556,"name":"milof","steam_id":76561198809199604,"connected_time":2694000000000,"state":"active","ping":91},{"user_id":562,"name":"Lartsa","steam_id":76561198275690230,"connected_time":1466000000000,"state":"active","ping":111},{"user_id":542,"name":"Plep","steam_id":76561198840259819,"connected_time":3661000000000,"state":"active","ping":60},{"user_id":543,"name":"so valid queen slay","steam_id":76561198190583242,"connected_time":3659000000000,"state":"active","ping":95},{"user_id":560,"name":"ein","steam_id":76561198152162834,"connected_time":1483000000000,"state":"active","ping":103}]},{"server_id":114,"name":"Uncletopia | London | 2 | All Maps","name_short":"lon-2","host":"lon-1.uk.uncletopia.com","port":27025,"enabled":true,"region":"eu","cc":"gb","latitude":51.509865,"longitude":-0.118092,"reserved":0,"last_update":"0001-01-01T00:00:00Z","name_a2s":"Uncletopia | London | 2 | All Maps","protocol":17,"map":"ctf_well","folder":"tf","game":"Team Fortress","app_id":440,"player_count":24,"max_players":24,"Bots":0,"server_type":"Dedicated","server_os":"Linux","password":true,"vac":true,"version":"7961495","steam_id":85568392924470941,"keywords":["ctf","nocrits","nodmgspread","uncletopia"],"game_id":440,"stv_port":27026,"stv_name":"Uncletopia | London | 2 | All Maps | STV","players":[{"user_id":432,"name":"Fissure","steam_id":76561198272595481,"connected_time":1182000000000,"state":"active","ping":79},{"user_id":419,"name":"1 toke 4 mars bars","steam_id":76561198056460000,"connected_time":2429000000000,"state":"active","ping":76},{"user_id":366,"name":"desmo_","steam_id":76561198023528339,"connected_time":5395000000000,"state":"active","ping":95},{"user_id":423,"name":"craig","steam_id":76561198907428350,"connected_time":2131000000000,"state":"active","ping":51},{"user_id":394,"name":"purplecan","steam_id":76561199208283508,"connected_time":3491000000000,"state":"active","ping":92},{"user_id":442,"name":"Garry_G","steam_id":76561198362834902,"connected_time":306000000000,"state":"active","ping":70},{"user_id":443,"name":"Reiyo the Interloper","steam_id":76561198155092485,"connected_time":276000000000,"state":"active","ping":67},{"user_id":364,"name":"CzechMate #SaveTF2","steam_id":76561198012687703,"connected_time":5422000000000,"state":"active","ping":55},{"user_id":444,"name":"Spooky","steam_id":76561199014023887,"connected_time":276000000000,"state":"active","ping":49},{"user_id":431,"name":"Rockwell Retro Encabulator","steam_id":76561198420349969,"connected_time":1320000000000,"state":"active","ping":108},{"user_id":389,"name":"Tremore","steam_id":76561198114176976,"connected_time":3689000000000,"state":"active","ping":86},{"user_id":388,"name":"Pogmanson","steam_id":76561198919953445,"connected_time":3708000000000,"state":"active","ping":40},{"user_id":438,"name":"Tvx","steam_id":76561198983247585,"connected_time":414000000000,"state":"active","ping":115},{"user_id":259,"name":"Adwulf","steam_id":76561198045489942,"connected_time":13815000000000,"state":"active","ping":40},{"user_id":317,"name":":3","steam_id":76561198169471853,"connected_time":9200000000000,"state":"active","ping":72},{"user_id":439,"name":"I am dating your grandmother","steam_id":76561198268159433,"connected_time":403000000000,"state":"active","ping":93},{"user_id":405,"name":"Rez","steam_id":76561198410598772,"connected_time":3104000000000,"state":"active","ping":45},{"user_id":435,"name":"пицца по-чикагск\ufffd","steam_id":76561198357334558,"connected_time":694000000000,"state":"active","ping":102},{"user_id":440,"name":"FurFox","steam_id":76561198807347164,"connected_time":396000000000,"state":"active","ping":66},{"user_id":323,"name":"randem_","steam_id":76561198338793755,"connected_time":8934000000000,"state":"active","ping":39},{"user_id":436,"name":"bloodsvscrips2","steam_id":76561198138928548,"connected_time":674000000000,"state":"active","ping":66},{"user_id":437,"name":"I used to be good [Hepbuz]","steam_id":76561198143816038,"connected_time":659000000000,"state":"active","ping":102},{"user_id":445,"name":"Lord Isaac","steam_id":76561197973779421,"connected_time":113000000000,"state":"active","ping":57},{"user_id":441,"name":"?TheEnd","steam_id":76561198055280327,"connected_time":385000000000,"state":"active","ping":58}]},{"server_id":320,"name":"Uncletopia | London | 3 | All Maps","name_short":"lon-3","host":"lon-1.uk.uncletopia.com","port":27035,"enabled":true,"region":"eu","cc":"gb","latitude":51.509865,"longitude":-0.118092,"reserved":0,"last_update":"0001-01-01T00:00:00Z","name_a2s":"Uncletopia | London | 3 | All Maps","protocol":17,"map":"pl_frontier_final","folder":"tf","game":"Team Fortress","app_id":440,"player_count":24,"max_players":24,"Bots":0,"server_type":"Dedicated","server_os":"Linux","password":true,"vac":true,"version":"7961495","steam_id":85568392924510192,"keywords":["nocrits","nodmgspread","payload","uncletopia"],"game_id":440,"stv_port":27036,"stv_name":"Uncletopia | London | 3 | All Maps | STV","players":[{"user_id":664,"name":"Lemon","steam_id":76561198093765664,"connected_time":498000000000,"state":"active","ping":65},{"user_id":649,"name":"Flint","steam_id":76561197995920776,"connected_time":1539000000000,"state":"active","ping":50},{"user_id":663,"name":"pavyonspor","steam_id":76561198116530769,"connected_time":523000000000,"state":"active","ping":93},{"user_id":650,"name":"Alegz","steam_id":76561198287810139,"connected_time":1489000000000,"state":"active","ping":88},{"user_id":657,"name":"powerviolentjunglist","steam_id":76561198193802523,"connected_time":752000000000,"state":"active","ping":46},{"user_id":658,"name":"DragonLord","steam_id":76561198074279225,"connected_time":746000000000,"state":"active","ping":50},{"user_id":642,"name":"Rummin","steam_id":76561198064739834,"connected_time":2570000000000,"state":"active","ping":61},{"user_id":647,"name":"emer","steam_id":76561198001420975,"connected_time":2063000000000,"state":"active","ping":101},{"user_id":616,"name":"cowböy","steam_id":76561198048990716,"connected_time":4147000000000,"state":"active","ping":96},{"user_id":666,"name":"After8","steam_id":76561198090750865,"connected_time":319000000000,"state":"active","ping":72},{"user_id":618,"name":"♥ Cirno ♥","steam_id":76561198834982738,"connected_time":4120000000000,"state":"active","ping":77},{"user_id":656,"name":"olof","steam_id":76561198095681561,"connected_time":779000000000,"state":"active","ping":99},{"user_id":646,"name":"Random Cap","steam_id":76561198129271321,"connected_time":2349000000000,"state":"active","ping":64},{"user_id":654,"name":"Fallen","steam_id":76561199445283186,"connected_time":1222000000000,"state":"active","ping":144},{"user_id":651,"name":"Tomato","steam_id":76561199124472513,"connected_time":1488000000000,"state":"active","ping":130},{"user_id":604,"name":"Fourged","steam_id":76561198082830930,"connected_time":5084000000000,"state":"active","ping":55},{"user_id":660,"name":"Olekman","steam_id":76561198035446981,"connected_time":681000000000,"state":"active","ping":70},{"user_id":561,"name":"Trexican","steam_id":76561198164129603,"connected_time":6350000000000,"state":"active","ping":37},{"user_id":661,"name":"7 7","steam_id":76561198190663138,"connected_time":673000000000,"state":"active","ping":105},{"user_id":628,"name":"Bob Sacamano","steam_id":76561198085610701,"connected_time":3354000000000,"state":"active","ping":97},{"user_id":625,"name":"cisgender clown","steam_id":76561199469909295,"connected_time":3860000000000,"state":"active","ping":74},{"user_id":623,"name":"Тяжелый","steam_id":76561198860424456,"connected_time":4049000000000,"state":"active","ping":73},{"user_id":637,"name":"Snaky","steam_id":76561199000954430,"connected_time":2887000000000,"state":"active","ping":111},{"user_id":662,"name":"LiterallyRyanGosling","steam_id":76561199017856691,"connected_time":655000000000,"state":"active","ping":58}]},{"server_id":321,"name":"Uncletopia | London | 4 | All Maps","name_short":"lon-4","host":"lon-1.uk.uncletopia.com","port":27045,"enabled":true,"region":"eu","cc":"gb","latitude":51.509865,"longitude":-0.118092,"reserved":0,"last_update":"0001-01-01T00:00:00Z","name_a2s":"Uncletopia | London | 4 | All Maps","protocol":17,"map":"cp_dustbowl","folder":"tf","game":"Team Fortress","app_id":440,"player_count":24,"max_players":24,"Bots":0,"server_type":"Dedicated","server_os":"Linux","password":true,"vac":true,"version":"7961495","steam_id":85568392924510193,"keywords":["cp","nocrits","nodmgspread","uncletopia"],"game_id":440,"stv_port":27046,"stv_name":"Uncletopia | London | 4 | All Maps | STV","players":[{"user_id":411,"name":"Merciz","steam_id":76561197971808715,"connected_time":774000000000,"state":"active","ping":93},{"user_id":425,"name":"RealKingMolly","steam_id":76561198053360386,"connected_time":82000000000,"state":"active","ping":163},{"user_id":421,"name":"МойНик","steam_id":76561198287439676,"connected_time":122000000000,"state":"active","ping":103},{"user_id":409,"name":"Fatmagic Mukbang ASMR","steam_id":76561198063492110,"connected_time":785000000000,"state":"active","ping":84},{"user_id":422,"name":"rClowny","steam_id":76561199074883856,"connected_time":119000000000,"state":"active","ping":56},{"user_id":417,"name":"Dispenser(Dispenser)","steam_id":76561199211831658,"connected_time":347000000000,"state":"active","ping":56},{"user_id":416,"name":"juni","steam_id":76561198036504214,"connected_time":554000000000,"state":"active","ping":57},{"user_id":423,"name":"xaniel","steam_id":76561198136603281,"connected_time":115000000000,"state":"active","ping":45},{"user_id":399,"name":"Mini","steam_id":76561197968634073,"connected_time":1973000000000,"state":"active","ping":85},{"user_id":412,"name":"edward cullen from twilight","steam_id":76561198038827937,"connected_time":759000000000,"state":"active","ping":50},{"user_id":401,"name":"s0mr","steam_id":76561198089904277,"connected_time":1773000000000,"state":"active","ping":78},{"user_id":413,"name":"blip","steam_id":76561198985467797,"connected_time":753000000000,"state":"active","ping":77},{"user_id":383,"name":"Clarnex","steam_id":76561198032438366,"connected_time":3005000000000,"state":"active","ping":62},{"user_id":386,"name":"Mastenbier","steam_id":76561199067658590,"connected_time":2743000000000,"state":"active","ping":121},{"user_id":345,"name":"Fenrisúlfr","steam_id":76561198042012705,"connected_time":5867000000000,"state":"active","ping":155},{"user_id":391,"name":"Jussukka","steam_id":76561198122894683,"connected_time":2309000000000,"state":"active","ping":90},{"user_id":402,"name":"ABSOLUTE UNIT","steam_id":76561197972287320,"connected_time":1689000000000,"state":"active","ping":68},{"user_id":398,"name":"muZ","steam_id":76561198060145190,"connected_time":1999000000000,"state":"active","ping":63},{"user_id":426,"name":"Lusitana","steam_id":76561198186320802,"connected_time":40000000000,"state":"active","ping":83},{"user_id":307,"name":"Dark","steam_id":76561198086889620,"connected_time":8505000000000,"state":"active","ping":55},{"user_id":360,"name":"Fu Manchu","steam_id":76561197995224539,"connected_time":4559000000000,"state":"active","ping":65},{"user_id":427,"name":"Tuosan","steam_id":76561198062611429,"connected_time":12000000000,"state":"spawning","ping":87},{"user_id":403,"name":"The Lady","steam_id":76561198029895809,"connected_time":1538000000000,"state":"active","ping":89},{"user_id":390,"name":"British Disapproval","steam_id":76561198001375260,"connected_time":2535000000000,"state":"active","ping":59}]},{"server_id":21,"name":"Uncletopia | London | 5 | All Maps","name_short":"lon-5","host":"lon-1.uk.uncletopia.com","port":27055,"enabled":true,"region":"eu","cc":"gb","latitude":51.509865,"longitude":-0.118092,"reserved":0,"last_update":"0001-01-01T00:00:00Z","name_a2s":"Uncletopia | London | 5 | All Maps","protocol":17,"map":"pl_upward","folder":"tf","game":"Team Fortress","app_id":440,"player_count":24,"max_players":24,"Bots":0,"server_type":"Dedicated","server_os":"Linux","password":true,"vac":true,"version":"7961495","steam_id":85568392924742829,"keywords":["nocrits","nodmgspread","payload","uncletopia"],"game_id":440,"stv_port":27056,"stv_name":"Uncletopia | London | 5 | All Maps | STV","players":[{"user_id":323,"name":"MK-Ultra Violence","steam_id":76561198081328238,"connected_time":7591000000000,"state":"active","ping":72},{"user_id":482,"name":"Gameing","steam_id":76561198199687607,"connected_time":614000000000,"state":"active","ping":71},{"user_id":459,"name":"Stereoman","steam_id":76561198799209184,"connected_time":1114000000000,"state":"active","ping":50},{"user_id":385,"name":"pieck peek","steam_id":76561198234248568,"connected_time":2360000000000,"state":"active","ping":36},{"user_id":377,"name":"john fortress","steam_id":76561198013237629,"connected_time":3149000000000,"state":"active","ping":100},{"user_id":478,"name":"Infekt","steam_id":76561198070472365,"connected_time":763000000000,"state":"active","ping":129},{"user_id":372,"name":"moglimbo","steam_id":76561198083937378,"connected_time":3847000000000,"state":"active","ping":46},{"user_id":333,"name":"Zerosiini","steam_id":76561198113771976,"connected_time":7244000000000,"state":"active","ping":63},{"user_id":464,"name":"magnos62564","steam_id":76561198356968225,"connected_time":1067000000000,"state":"active","ping":76},{"user_id":368,"name":"Lemmy","steam_id":76561199038870751,"connected_time":4319000000000,"state":"active","ping":65},{"user_id":471,"name":"Joo ♦","steam_id":76561197987609203,"connected_time":853000000000,"state":"active","ping":70},{"user_id":414,"name":"Autisticlaat","steam_id":76561198154078133,"connected_time":1898000000000,"state":"active","ping":44},{"user_id":467,"name":"GamerPro3000","steam_id":76561198216272715,"connected_time":920000000000,"state":"active","ping":60},{"user_id":480,"name":"DiracDeltaFunction","steam_id":76561199201624841,"connected_time":731000000000,"state":"active","ping":99},{"user_id":441,"name":"operating correctly","steam_id":76561198273358760,"connected_time":1380000000000,"state":"active","ping":67},{"user_id":406,"name":"blurst of times","steam_id":76561197972325640,"connected_time":1971000000000,"state":"active","ping":47},{"user_id":462,"name":"Taska","steam_id":76561198807325888,"connected_time":1097000000000,"state":"active","ping":96},{"user_id":474,"name":"katten","steam_id":76561198163615254,"connected_time":834000000000,"state":"active","ping":60},{"user_id":463,"name":"Denialman (Muted)","steam_id":76561198309182092,"connected_time":1091000000000,"state":"active","ping":59},{"user_id":367,"name":"dirhs","steam_id":76561198383867611,"connected_time":4660000000000,"state":"active","ping":52},{"user_id":481,"name":"SlonkyDonky","steam_id":76561198425787528,"connected_time":705000000000,"state":"active","ping":60},{"user_id":266,"name":"KFD","steam_id":76561198157183003,"connected_time":10175000000000,"state":"active","ping":86},{"user_id":458,"name":"Dr. Gruno","steam_id":76561198815633513,"connected_time":1123000000000,"state":"active","ping":103},{"user_id":362,"name":"Pixel-Jay","steam_id":76561198853840115,"connected_time":4899000000000,"state":"active","ping":52}]},{"server_id":22,"name":"Uncletopia | London | 6 | All Maps","name_short":"lon-6","host":"lon-1.uk.uncletopia.com","port":27065,"enabled":true,"region":"eu","cc":"gb","latitude":51.509865,"longitude":-0.118092,"reserved":0,"last_update":"0001-01-01T00:00:00Z","name_a2s":"Uncletopia | London | 6 | All Maps","protocol":17,"map":"pl_badwater","folder":"tf","game":"Team Fortress","app_id":440,"player_count":23,"max_players":24,"Bots":0,"server_type":"Dedicated","server_os":"Linux","password":true,"vac":true,"version":"7961495","steam_id":85568392924742830,"keywords":["nocrits","nodmgspread","payload","uncletopia"],"game_id":440,"stv_port":27066,"stv_name":"Uncletopia | London | 6 | All Maps | STV","players":[{"user_id":163,"name":"GREENbot","steam_id":76561198062378708,"connected_time":14000000000,"state":"spawning","ping":74},{"user_id":122,"name":"Peskyplumber64","steam_id":76561198044458330,"connected_time":3060000000000,"state":"active","ping":51},{"user_id":104,"name":"armadillo","steam_id":76561198324656652,"connected_time":3584000000000,"state":"active","ping":49},{"user_id":160,"name":"TylowStar","steam_id":76561198357107806,"connected_time":390000000000,"state":"active","ping":61},{"user_id":158,"name":"GazerBazer","steam_id":76561198879107565,"connected_time":447000000000,"state":"active","ping":59},{"user_id":132,"name":"jacio","steam_id":76561199491964000,"connected_time":2432000000000,"state":"active","ping":44},{"user_id":161,"name":"Dr. Livesey","steam_id":76561198071049943,"connected_time":390000000000,"state":"active","ping":60},{"user_id":148,"name":"Chikapu_Xek","steam_id":76561198428023493,"connected_time":1083000000000,"state":"active","ping":71},{"user_id":155,"name":"RandomName","steam_id":76561198055552108,"connected_time":596000000000,"state":"active","ping":59},{"user_id":133,"name":"NitPig","steam_id":76561198212991935,"connected_time":2422000000000,"state":"active","ping":93},{"user_id":94,"name":"Beanie","steam_id":76561198173882658,"connected_time":3889000000000,"state":"active","ping":51},{"user_id":95,"name":"skittish maiden","steam_id":76561198096856475,"connected_time":3869000000000,"state":"active","ping":54},{"user_id":116,"name":"IanThatMiner","steam_id":76561198079785511,"connected_time":3206000000000,"state":"active","ping":144},{"user_id":159,"name":"Doctor Mobius","steam_id":76561197971281806,"connected_time":436000000000,"state":"active","ping":74},{"user_id":162,"name":"yush","steam_id":76561198121688934,"connected_time":200000000000,"state":"active","ping":74},{"user_id":142,"name":"MS","steam_id":76561198037560108,"connected_time":1564000000000,"state":"active","ping":45},{"user_id":110,"name":"limbicsystem","steam_id":76561198025612680,"connected_time":3360000000000,"state":"active","ping":58},{"user_id":114,"name":"Frozen Ocelot","steam_id":76561198023761571,"connected_time":3209000000000,"state":"active","ping":53},{"user_id":149,"name":"Tavish","steam_id":76561197971486686,"connected_time":1079000000000,"state":"active","ping":40},{"user_id":153,"name":"nog digger","steam_id":76561198890409949,"connected_time":688000000000,"state":"active","ping":101},{"user_id":156,"name":"NatyX","steam_id":76561198107867144,"connected_time":519000000000,"state":"active","ping":40},{"user_id":139,"name":"lukearoonie","steam_id":76561198354480569,"connected_time":2134000000000,"state":"active","ping":67},{"user_id":130,"name":"SpiritStar","steam_id":76561198063920313,"connected_time":2556000000000,"state":"active","ping":121}]},{"server_id":40,"name":"Uncletopia | London | 7 | Stopwatch","name_short":"lon-7","host":"lon-1.uk.uncletopia.com","port":27075,"enabled":true,"region":"eu","cc":"gb","latitude":51.509865,"longitude":-0.118092,"reserved":0,"last_update":"0001-01-01T00:00:00Z","name_a2s":"Uncletopia | London | 7 | Stopwatch","protocol":17,"map":"workshop/koth_product_final.ugc454272353","folder":"tf","game":"Team Fortress","app_id":440,"player_count":0,"max_players":24,"Bots":0,"server_type":"Dedicated","server_os":"Linux","password":true,"vac":true,"version":"7961495","steam_id":85568392924964314,"keywords":["cp","nocrits","nodmgspread","uncletopia"],"game_id":440,"stv_port":27076,"stv_name":"Uncletopia | London | 7 | Stopwatch | STV","players":null},{"server_id":41,"name":"Uncletopia | London | 8 | Community","name_short":"lon-8","host":"lon-1.uk.uncletopia.com","port":27085,"enabled":true,"region":"eu","cc":"gb","latitude":51.509865,"longitude":-0.118092,"reserved":0,"last_update":"0001-01-01T00:00:00Z","name_a2s":"Uncletopia | London | 8 | Community","protocol":17,"map":"workshop/cp_mannbase_rc2a.ugc1900737467","folder":"tf","game":"Team Fortress","app_id":440,"player_count":2,"max_players":24,"Bots":0,"server_type":"Dedicated","server_os":"Linux","password":true,"vac":true,"version":"7961495","steam_id":85568392924964315,"keywords":["cp","nocrits","nodmgspread","uncletopia"],"game_id":440,"stv_port":27086,"stv_name":"Uncletopia | London | 8 | Community | STV","players":[{"user_id":25,"name":"im not handicapped","steam_id":76561198254024874,"connected_time":15000000000,"state":"spawning","ping":140},{"user_id":26,"name":"vagöruken","steam_id":76561198993820682,"connected_time":12000000000,"state":"spawning","ping":117}]},{"server_id":300,"name":"Uncletopia | Montréal | 1 | One Thousand Uncles","name_short":"mtl-1","host":"mtl-1.ca.uncletopia.com","port":27015,"enabled":true,"region":"us-east","cc":"ca","latitude":45.50889,"longitude":-73.56167,"reserved":0,"last_update":"0001-01-01T00:00:00Z","name_a2s":"","protocol":0,"map":"","folder":"","game":"","app_id":0,"player_count":0,"max_players":0,"Bots":0,"server_type":"","server_os":"","password":false,"vac":false,"version":"","steam_id":0,"keywords":null,"game_id":0,"stv_port":0,"stv_name":"","players":null},{"server_id":301,"name":"Uncletopia | Montréal | 2 | One Thousand Uncles","name_short":"mtl-2","host":"mtl-1.ca.uncletopia.com","port":27025,"enabled":true,"region":"us-east","cc":"ca","latitude":45.50889,"longitude":-73.56167,"reserved":0,"last_update":"0001-01-01T00:00:00Z","name_a2s":"","protocol":0,"map":"","folder":"","game":"","app_id":0,"player_count":5,"max_players":0,"Bots":0,"server_type":"","server_os":"","password":false,"vac":false,"version":"","steam_id":0,"keywords":null,"game_id":0,"stv_port":0,"stv_name":"","players":[{"user_id":53,"name":"Willi the Gifter of Chaos","steam_id":76561198066508251,"connected_time":3091000000000,"state":"active","ping":48},{"user_id":74,"name":"tuatramxo5","steam_id":76561198324441191,"connected_time":1524000000000,"state":"active","ping":59},{"user_id":71,"name":"princess fern \u003c3333","steam_id":76561198881792140,"connected_time":2683000000000,"state":"active","ping":51},{"user_id":72,"name":"puffy","steam_id":76561198411347037,"connected_time":2121000000000,"state":"active","ping":56},{"user_id":98,"name":"KittySlayer","steam_id":76561199230811439,"connected_time":336000000000,"state":"active","ping":82}]},{"server_id":302,"name":"Uncletopia | Montréal | 3 | One Thousand Uncles","name_short":"mtl-3","host":"mtl-1.ca.uncletopia.com","port":27035,"enabled":true,"region":"us-east","cc":"ca","latitude":45.50889,"longitude":-73.56167,"reserved":0,"last_update":"0001-01-01T00:00:00Z","name_a2s":"","protocol":0,"map":"","folder":"","game":"","app_id":0,"player_count":0,"max_players":0,"Bots":0,"server_type":"","server_os":"","password":false,"vac":false,"version":"","steam_id":0,"keywords":null,"game_id":0,"stv_port":0,"stv_name":"","players":null},{"server_id":13,"name":"Uncletopia | New York City | 1 | All Maps","name_short":"nyc-1","host":"nyc-1.us.uncletopia.com","port":27015,"enabled":true,"region":"us-east","cc":"us","latitude":40.73061,"longitude":-73.93524,"reserved":0,"last_update":"0001-01-01T00:00:00Z","name_a2s":"Uncletopia | New York City | 1 | All Maps","protocol":17,"map":"pl_pier","folder":"tf","game":"Team Fortress","app_id":440,"player_count":24,"max_players":24,"Bots":0,"server_type":"Dedicated","server_os":"Linux","password":true,"vac":true,"version":"7961495","steam_id":85568392924469993,"keywords":["nocrits","nodmgspread","payload","uncletopia"],"game_id":440,"stv_port":27016,"stv_name":"Uncletopia | New York City | 1 | All Maps | STV","players":[{"user_id":495,"name":"Gabeyboy321","steam_id":76561199379213615,"connected_time":2146000000000,"state":"active","ping":101},{"user_id":500,"name":"Joe Biden","steam_id":76561198056170906,"connected_time":1843000000000,"state":"active","ping":108},{"user_id":521,"name":"Quay","steam_id":76561198068924418,"connected_time":1146000000000,"state":"active","ping":77},{"user_id":497,"name":"The Creepy9","steam_id":76561198039104966,"connected_time":2024000000000,"state":"active","ping":65},{"user_id":517,"name":"eduard","steam_id":76561198136550093,"connected_time":1180000000000,"state":"active","ping":70},{"user_id":525,"name":"LazySushi","steam_id":76561198043802202,"connected_time":892000000000,"state":"active","ping":58},{"user_id":502,"name":"flm","steam_id":76561198144052860,"connected_time":1797000000000,"state":"active","ping":83},{"user_id":527,"name":"Nixon Me, Dixon Me","steam_id":76561198126519537,"connected_time":15000000000,"state":"spawning","ping":59},{"user_id":511,"name":"Weerk","steam_id":76561199209543551,"connected_time":1429000000000,"state":"active","ping":77},{"user_id":512,"name":"guy","steam_id":76561198187155303,"connected_time":1325000000000,"state":"active","ping":73},{"user_id":514,"name":"Cakepeep","steam_id":76561199168555813,"connected_time":1288000000000,"state":"active","ping":60},{"user_id":519,"name":"msay","steam_id":76561198170888029,"connected_time":1175000000000,"state":"active","ping":84},{"user_id":520,"name":"The Engineering Puro","steam_id":76561199186496740,"connected_time":1158000000000,"state":"active","ping":89},{"user_id":470,"name":"King Glouton","steam_id":76561197998979392,"connected_time":3691000000000,"state":"active","ping":63},{"user_id":522,"name":"FDA prime bootycheeks","steam_id":76561198073269122,"connected_time":1111000000000,"state":"active","ping":46},{"user_id":513,"name":"Jpxfred","steam_id":76561199414783749,"connected_time":1302000000000,"state":"active","ping":115},{"user_id":488,"name":"Hot Apple Cider","steam_id":76561198094641783,"connected_time":2551000000000,"state":"active","ping":67},{"user_id":492,"name":"Simmons","steam_id":76561198024778135,"connected_time":2352000000000,"state":"active","ping":58},{"user_id":506,"name":"Half石","steam_id":76561198815038242,"connected_time":1728000000000,"state":"active","ping":151},{"user_id":485,"name":"ุ","steam_id":76561198118480346,"connected_time":2835000000000,"state":"active","ping":84},{"user_id":507,"name":"PewPew","steam_id":76561198011299099,"connected_time":1716000000000,"state":"active","ping":69},{"user_id":510,"name":"Smoke","steam_id":76561199485943796,"connected_time":1493000000000,"state":"active","ping":133},{"user_id":523,"name":"Cat_Gaben","steam_id":76561198308094558,"connected_time":1108000000000,"state":"active","ping":61},{"user_id":524,"name":"dogdotflac","steam_id":76561198201609928,"connected_time":1087000000000,"state":"active","ping":74}]},{"server_id":14,"name":"Uncletopia | New York City | 2 | All Maps","name_short":"nyc-2","host":"nyc-1.us.uncletopia.com","port":27025,"enabled":true,"region":"us-east","cc":"us","latitude":40.73061,"longitude":-73.93524,"reserved":0,"last_update":"0001-01-01T00:00:00Z","name_a2s":"Uncletopia | New York City | 2 | All Maps","protocol":17,"map":"pl_snowycoast","folder":"tf","game":"Team Fortress","app_id":440,"player_count":23,"max_players":24,"Bots":0,"server_type":"Dedicated","server_os":"Linux","password":true,"vac":true,"version":"7961495","steam_id":85568392924469994,"keywords":["nocrits","nodmgspread","payload","uncletopia"],"game_id":440,"stv_port":27026,"stv_name":"Uncletopia | New York City | 2 | All Maps | STV","players":[{"user_id":353,"name":"for the king","steam_id":76561197973488858,"connected_time":558000000000,"state":"active","ping":45},{"user_id":354,"name":"Khvicha Kvaraskhelia","steam_id":76561198985309519,"connected_time":488000000000,"state":"active","ping":137},{"user_id":369,"name":"MontellWilliams","steam_id":76561198172143015,"connected_time":161000000000,"state":"active","ping":45},{"user_id":370,"name":"Average JoJo Fan","steam_id":76561198863432523,"connected_time":114000000000,"state":"active","ping":122},{"user_id":356,"name":"trzepaczkaadam","steam_id":76561199480520243,"connected_time":473000000000,"state":"active","ping":72},{"user_id":357,"name":"SolmonFish","steam_id":76561198942169006,"connected_time":469000000000,"state":"active","ping":68},{"user_id":358,"name":"The Caretaker","steam_id":76561198125241411,"connected_time":451000000000,"state":"active","ping":121},{"user_id":257,"name":"Mr. Milk","steam_id":76561198068902833,"connected_time":7009000000000,"state":"active","ping":83},{"user_id":359,"name":"pipebombrater","steam_id":76561199029030831,"connected_time":406000000000,"state":"active","ping":61},{"user_id":371,"name":"No Credit","steam_id":76561198110245806,"connected_time":34000000000,"state":"active","ping":68},{"user_id":361,"name":"8BitWyatt","steam_id":76561198453336518,"connected_time":374000000000,"state":"active","ping":137},{"user_id":340,"name":"Lucky Roux","steam_id":76561198298884337,"connected_time":2022000000000,"state":"active","ping":58},{"user_id":362,"name":"mollusk_obliteration","steam_id":76561198085388962,"connected_time":371000000000,"state":"active","ping":81},{"user_id":363,"name":"Stupid","steam_id":76561198127348089,"connected_time":368000000000,"state":"active","ping":59},{"user_id":368,"name":":o","steam_id":76561198204995668,"connected_time":163000000000,"state":"active","ping":77},{"user_id":364,"name":"barefoot fruitscato","steam_id":76561198094225038,"connected_time":333000000000,"state":"active","ping":115},{"user_id":365,"name":"Manners","steam_id":76561198890681464,"connected_time":321000000000,"state":"active","ping":101},{"user_id":324,"name":"Chicken Burger","steam_id":76561198358529311,"connected_time":3154000000000,"state":"active","ping":91},{"user_id":338,"name":"SpongedSocks","steam_id":76561198374009086,"connected_time":2221000000000,"state":"active","ping":54},{"user_id":366,"name":"LimBooKit","steam_id":76561198008953177,"connected_time":312000000000,"state":"active","ping":70},{"user_id":342,"name":"WiresMadeMan","steam_id":76561199184340915,"connected_time":1199000000000,"state":"active","ping":116},{"user_id":367,"name":"DethSQRL","steam_id":76561199149628610,"connected_time":233000000000,"state":"active","ping":87},{"user_id":321,"name":"vastrobotmax","steam_id":76561198417110724,"connected_time":3229000000000,"state":"active","ping":70}]},{"server_id":15,"name":"Uncletopia | New York City | 3 | Stopwatch","name_short":"nyc-3","host":"nyc-1.us.uncletopia.com","port":27035,"enabled":true,"region":"us-east","cc":"us","latitude":40.73061,"longitude":-73.93524,"reserved":0,"last_update":"0001-01-01T00:00:00Z","name_a2s":"Uncletopia | New York City | 3 | Stopwatch","protocol":17,"map":"workshop/koth_product_final.ugc454272353","folder":"tf","game":"Team Fortress","app_id":440,"player_count":0,"max_players":24,"Bots":0,"server_type":"Dedicated","server_os":"Linux","password":true,"vac":true,"version":"7961495","steam_id":85568392924742820,"keywords":["cp","nocrits","nodmgspread","uncletopia"],"game_id":440,"stv_port":27036,"stv_name":"Uncletopia | New York City | 3 | Stopwatch | STV","players":null},{"server_id":16,"name":"Uncletopia | New York City | 4 | Community","name_short":"nyc-4","host":"nyc-1.us.uncletopia.com","port":27045,"enabled":true,"region":"us-east","cc":"us","latitude":40.73061,"longitude":-73.93524,"reserved":0,"last_update":"0001-01-01T00:00:00Z","name_a2s":"Uncletopia | New York City | 4 | Community","protocol":17,"map":"workshop/pl_emerge_rc2.ugc888027758","folder":"tf","game":"Team Fortress","app_id":440,"player_count":0,"max_players":24,"Bots":0,"server_type":"Dedicated","server_os":"Linux","password":true,"vac":true,"version":"7961495","steam_id":85568392924742821,"keywords":["nocrits","nodmgspread","payload","uncletopia"],"game_id":440,"stv_port":27046,"stv_name":"Uncletopia | New York City | 4 | Community | STV","players":null},{"server_id":142,"name":"Uncletopia | São Paulo | 1 | All Maps","name_short":"sao-1","host":"sao-1.br.uncletopia.com","port":27015,"enabled":true,"region":"sa","cc":"br","latitude":-23.533773,"longitude":-46.62529,"reserved":0,"last_update":"0001-01-01T00:00:00Z","name_a2s":"Uncletopia | São Paulo | 1 | All Maps","protocol":17,"map":"pl_barnblitz","folder":"tf","game":"Team Fortress","app_id":440,"player_count":0,"max_players":24,"Bots":0,"server_type":"Dedicated","server_os":"Linux","password":true,"vac":true,"version":"7961495","steam_id":85568392924469996,"keywords":["nocrits","nodmgspread","payload","uncletopia"],"game_id":440,"stv_port":27016,"stv_name":"Uncletopia | São Paulo | 1 | All Maps | STV","players":null},{"server_id":143,"name":"Uncletopia | São Paulo | 2 | Community","name_short":"sao-2","host":"sao-2.br.uncletopia.com","port":27015,"enabled":true,"region":"sa","cc":"br","latitude":-23.533773,"longitude":-46.62529,"reserved":0,"last_update":"0001-01-01T00:00:00Z","name_a2s":"Uncletopia | São Paulo | 2 | Community","protocol":17,"map":"workshop/pl_badwater_pro_v12.ugc2142942074","folder":"tf","game":"Team Fortress","app_id":440,"player_count":0,"max_players":24,"Bots":0,"server_type":"Dedicated","server_os":"Linux","password":true,"vac":true,"version":"7961495","steam_id":85568392924485349,"keywords":["nocrits","nodmgspread","payload","uncletopia"],"game_id":440,"stv_port":27016,"stv_name":"Uncletopia | São Paulo | 2 | Community | STV","players":null},{"server_id":7,"name":"Uncletopia | Seattle | 1 | All Maps","name_short":"sea-1","host":"sea-1.us.uncletopia.com","port":27015,"enabled":true,"region":"us-west","cc":"us","latitude":47.608013,"longitude":-122.33517,"reserved":0,"last_update":"0001-01-01T00:00:00Z","name_a2s":"Uncletopia | Seattle | 1 | All Maps","protocol":17,"map":"koth_viaduct","folder":"tf","game":"Team Fortress","app_id":440,"player_count":23,"max_players":24,"Bots":0,"server_type":"Dedicated","server_os":"Linux","password":true,"vac":true,"version":"7961495","steam_id":85568392924469997,"keywords":["cp","nocrits","nodmgspread","uncletopia"],"game_id":440,"stv_port":27016,"stv_name":"Uncletopia | Seattle | 1 | All Maps | STV","players":[{"user_id":294,"name":"devamar","steam_id":76561198069115467,"connected_time":680000000000,"state":"active","ping":70},{"user_id":276,"name":"TheMagicMrWaffle","steam_id":76561198104357256,"connected_time":2298000000000,"state":"active","ping":70},{"user_id":264,"name":"Biomechanical Necromancer","steam_id":76561198958876163,"connected_time":2813000000000,"state":"active","ping":53},{"user_id":292,"name":"Palamute Jho","steam_id":76561199219936729,"connected_time":899000000000,"state":"active","ping":60},{"user_id":38,"name":"Zee✞","steam_id":76561198274550638,"connected_time":14401000000000,"state":"active","ping":112},{"user_id":273,"name":"♥ Osana Najimi ♥ (Soupcan)","steam_id":76561198056269538,"connected_time":2408000000000,"state":"active","ping":44},{"user_id":231,"name":"Spectre","steam_id":76561198037535169,"connected_time":4724000000000,"state":"active","ping":68},{"user_id":305,"name":"Callie","steam_id":76561198131833567,"connected_time":383000000000,"state":"active","ping":68},{"user_id":255,"name":"shrigma","steam_id":76561198101301195,"connected_time":3148000000000,"state":"active","ping":75},{"user_id":295,"name":"elephantofdoom","steam_id":76561198062436835,"connected_time":661000000000,"state":"active","ping":106},{"user_id":283,"name":"dodecadron","steam_id":76561198027397222,"connected_time":2041000000000,"state":"active","ping":68},{"user_id":280,"name":"lasky","steam_id":76561198017030029,"connected_time":2113000000000,"state":"active","ping":66},{"user_id":281,"name":"Buswolley","steam_id":76561197995205571,"connected_time":2093000000000,"state":"active","ping":59},{"user_id":296,"name":"SWISS!","steam_id":76561198271971252,"connected_time":655000000000,"state":"active","ping":88},{"user_id":298,"name":"[Name Pending]","steam_id":76561198094685223,"connected_time":623000000000,"state":"active","ping":89},{"user_id":293,"name":"H.A.Z.E","steam_id":76561199247095754,"connected_time":729000000000,"state":"active","ping":60},{"user_id":307,"name":"Phoysh","steam_id":76561198137111021,"connected_time":157000000000,"state":"active","ping":72},{"user_id":290,"name":"Marcy The Spoony Bard","steam_id":76561198097413073,"connected_time":1079000000000,"state":"active","ping":42},{"user_id":300,"name":"goofy goober","steam_id":76561199024079388,"connected_time":613000000000,"state":"active","ping":47},{"user_id":306,"name":"Deff","steam_id":76561198050815620,"connected_time":333000000000,"state":"active","ping":46},{"user_id":205,"name":"Little Linguine","steam_id":76561198816986370,"connected_time":5804000000000,"state":"active","ping":46},{"user_id":302,"name":"Fishandfish","steam_id":76561198298483804,"connected_time":493000000000,"state":"active","ping":51},{"user_id":287,"name":"Anstorner","steam_id":76561198274026015,"connected_time":1392000000000,"state":"active","ping":72}]},{"server_id":119,"name":"Uncletopia | Seattle | 2 | All Maps","name_short":"sea-2","host":"sea-1.us.uncletopia.com","port":27025,"enabled":true,"region":"us-west","cc":"us","latitude":47.608013,"longitude":-122.33517,"reserved":0,"last_update":"0001-01-01T00:00:00Z","name_a2s":"Uncletopia | Seattle | 2 | All Maps","protocol":17,"map":"pl_badwater","folder":"tf","game":"Team Fortress","app_id":440,"player_count":0,"max_players":24,"Bots":0,"server_type":"Dedicated","server_os":"Linux","password":true,"vac":true,"version":"7961495","steam_id":85568392924469998,"keywords":["nocrits","nodmgspread","payload","uncletopia"],"game_id":440,"stv_port":27026,"stv_name":"Uncletopia | Seattle | 2 | All Maps | STV","players":null},{"server_id":406,"name":"Uncletopia | Seattle | 3 | Stopwatch","name_short":"sea-3","host":"sea-1.us.uncletopia.com","port":27035,"enabled":true,"region":"us-west","cc":"us","latitude":47.608013,"longitude":-122.33517,"reserved":0,"last_update":"0001-01-01T00:00:00Z","name_a2s":"Uncletopia | Seattle | 3 | Stopwatch","protocol":17,"map":"pl_pier","folder":"tf","game":"Team Fortress","app_id":440,"player_count":0,"max_players":24,"Bots":0,"server_type":"Dedicated","server_os":"Linux","password":true,"vac":true,"version":"7961495","steam_id":85568392924515217,"keywords":["nocrits","nodmgspread","payload","uncletopia"],"game_id":440,"stv_port":27036,"stv_name":"Uncletopia | Seattle | 3 | Stopwatch | STV","players":null},{"server_id":17,"name":"Uncletopia | San Francisco | 1 | All Maps","name_short":"sfo-1","host":"sfo-1.us.uncletopia.com","port":27015,"enabled":true,"region":"us-west","cc":"us","latitude":37.77397,"longitude":-122.4313,"reserved":0,"last_update":"0001-01-01T00:00:00Z","name_a2s":"Uncletopia | San Francisco | 1 | All Maps","protocol":17,"map":"koth_cascade","folder":"tf","game":"Team Fortress","app_id":440,"player_count":0,"max_players":24,"Bots":0,"server_type":"Dedicated","server_os":"Linux","password":true,"vac":true,"version":"7961495","steam_id":85568392924469999,"keywords":["cp","nocrits","nodmgspread","uncletopia"],"game_id":440,"stv_port":27016,"stv_name":"Uncletopia | San Francisco | 1 | All Maps | STV","players":null},{"server_id":18,"name":"Uncletopia | San Francisco | 2 | All Maps","name_short":"sfo-2","host":"sfo-1.us.uncletopia.com","port":27025,"enabled":true,"region":"us-west","cc":"us","latitude":37.77397,"longitude":-122.4313,"reserved":0,"last_update":"0001-01-01T00:00:00Z","name_a2s":"Uncletopia | San Francisco | 2 | All Maps","protocol":17,"map":"cp_sunshine","folder":"tf","game":"Team Fortress","app_id":440,"player_count":0,"max_players":24,"Bots":0,"server_type":"Dedicated","server_os":"Linux","password":true,"vac":true,"version":"7961495","steam_id":85568392924470000,"keywords":["cp","nocrits","nodmgspread","uncletopia"],"game_id":440,"stv_port":27026,"stv_name":"Uncletopia | San Francisco | 2 | All Maps | STV","players":null},{"server_id":19,"name":"Uncletopia | San Francisco | 3 | Stopwatch","name_short":"sfo-3","host":"sfo-1.us.uncletopia.com","port":27035,"enabled":true,"region":"us-west","cc":"us","latitude":37.77397,"longitude":-122.4313,"reserved":0,"last_update":"0001-01-01T00:00:00Z","name_a2s":"Uncletopia | San Francisco | 3 | Stopwatch","protocol":17,"map":"pl_pier","folder":"tf","game":"Team Fortress","app_id":440,"player_count":0,"max_players":24,"Bots":0,"server_type":"Dedicated","server_os":"Linux","password":true,"vac":true,"version":"7961495","steam_id":85568392924742824,"keywords":["nocrits","nodmgspread","payload","uncletopia"],"game_id":440,"stv_port":27036,"stv_name":"Uncletopia | San Francisco | 3 | Stopwatch | STV","players":null},{"server_id":20,"name":"Uncletopia | San Francisco | 4 | Community","name_short":"sfo-4","host":"sfo-1.us.uncletopia.com","port":27045,"enabled":true,"region":"us-west","cc":"us","latitude":37.77397,"longitude":-122.4313,"reserved":0,"last_update":"0001-01-01T00:00:00Z","name_a2s":"Uncletopia | San Francisco | 4 | Community","protocol":17,"map":"pl_pier","folder":"tf","game":"Team Fortress","app_id":440,"player_count":0,"max_players":24,"Bots":0,"server_type":"Dedicated","server_os":"Linux","password":true,"vac":true,"version":"7961495","steam_id":85568392924742826,"keywords":["nocrits","nodmgspread","payload","uncletopia"],"game_id":440,"stv_port":27046,"stv_name":"Uncletopia | San Francisco | 4 | Community | STV","players":null},{"server_id":141,"name":"Uncletopia | Sydney | 1 | All Maps","name_short":"syd-1","host":"syd-1.au.uncletopia.com","port":27015,"enabled":true,"region":"au","cc":"au","latitude":-33.865143,"longitude":151.2099,"reserved":0,"last_update":"0001-01-01T00:00:00Z","name_a2s":"Uncletopia | Sydney | 1 | All Maps","protocol":17,"map":"cp_altitude","folder":"tf","game":"Team Fortress","app_id":440,"player_count":0,"max_players":24,"Bots":0,"server_type":"Dedicated","server_os":"Linux","password":true,"vac":true,"version":"7961495","steam_id":85568392924470001,"keywords":["cp","nocrits","nodmgspread","uncletopia"],"game_id":440,"stv_port":27016,"stv_name":"Uncletopia | Sydney | 1 | All Maps | STV","players":null},{"server_id":123,"name":"Uncletopia | Sydney | 2 | All Maps","name_short":"syd-2","host":"syd-1.au.uncletopia.com","port":27025,"enabled":true,"region":"au","cc":"au","latitude":-33.865143,"longitude":151.2099,"reserved":0,"last_update":"0001-01-01T00:00:00Z","name_a2s":"Uncletopia | Sydney | 2 | All Maps","protocol":17,"map":"cp_snakewater_final1","folder":"tf","game":"Team Fortress","app_id":440,"player_count":0,"max_players":24,"Bots":0,"server_type":"Dedicated","server_os":"Linux","password":true,"vac":true,"version":"7961495","steam_id":85568392924470002,"keywords":["cp","nocrits","nodmgspread","uncletopia"],"game_id":440,"stv_port":27026,"stv_name":"Uncletopia | Sydney | 2 | All Maps | STV","players":null},{"server_id":395,"name":"Uncletopia | Sydney | 3 | All Maps","name_short":"syd-3","host":"syd-1.au.uncletopia.com","port":27035,"enabled":true,"region":"au","cc":"au","latitude":-33.865143,"longitude":151.2099,"reserved":0,"last_update":"0001-01-01T00:00:00Z","name_a2s":"Uncletopia | Sydney | 3 | All Maps","protocol":17,"map":"koth_king","folder":"tf","game":"Team Fortress","app_id":440,"player_count":0,"max_players":24,"Bots":0,"server_type":"Dedicated","server_os":"Linux","password":true,"vac":true,"version":"7961495","steam_id":85568392925194467,"keywords":["cp","nocrits","nodmgspread","uncletopia"],"game_id":440,"stv_port":27036,"stv_name":"Uncletopia | Sydney | 3 | All Maps | STV","players":null},{"server_id":396,"name":"Uncletopia | Sydney | 4 | All Maps","name_short":"syd-4","host":"syd-1.au.uncletopia.com","port":27045,"enabled":true,"region":"au","cc":"au","latitude":-33.865143,"longitude":151.2099,"reserved":0,"last_update":"0001-01-01T00:00:00Z","name_a2s":"Uncletopia | Sydney | 4 | All Maps","protocol":17,"map":"cp_process_final","folder":"tf","game":"Team Fortress","app_id":440,"player_count":0,"max_players":24,"Bots":0,"server_type":"Dedicated","server_os":"Linux","password":true,"vac":true,"version":"7961495","steam_id":85568392925397958,"keywords":["cp","nocrits","nodmgspread","uncletopia"],"game_id":440,"stv_port":27046,"stv_name":"Uncletopia | Sydney | 4 | All Maps | STV","players":null},{"server_id":58,"name":"Uncletopia | Sydney | 5 | Stopwatch","name_short":"syd-5","host":"syd-1.au.uncletopia.com","port":27055,"enabled":true,"region":"au","cc":"au","latitude":-33.865143,"longitude":151.2099,"reserved":0,"last_update":"0001-01-01T00:00:00Z","name_a2s":"Uncletopia | Sydney | 5 | Stopwatch","protocol":17,"map":"pl_frontier_final","folder":"tf","game":"Team Fortress","app_id":440,"player_count":0,"max_players":24,"Bots":0,"server_type":"Dedicated","server_os":"Linux","password":true,"vac":true,"version":"7961495","steam_id":85568392925397959,"keywords":["nocrits","nodmgspread","payload","uncletopia"],"game_id":440,"stv_port":27056,"stv_name":"Uncletopia | Sydney | 5 | Stopwatch | STV","players":null},{"server_id":59,"name":"Uncletopia | Sydney | 6 | Community","name_short":"syd-6","host":"syd-1.au.uncletopia.com","port":27065,"enabled":true,"region":"au","cc":"au","latitude":-33.865143,"longitude":151.2099,"reserved":0,"last_update":"0001-01-01T00:00:00Z","name_a2s":"Uncletopia | Sydney | 6 | Community","protocol":17,"map":"cp_sunshine","folder":"tf","game":"Team Fortress","app_id":440,"player_count":0,"max_players":24,"Bots":0,"server_type":"Dedicated","server_os":"Linux","password":true,"vac":true,"version":"7961495","steam_id":85568392925397960,"keywords":["cp","nocrits","nodmgspread","uncletopia"],"game_id":440,"stv_port":27066,"stv_name":"Uncletopia | Sydney | 6 | Community | STV","players":null},{"server_id":49,"name":"Uncletopia | Warsaw | 1 | One Thousand Uncles","name_short":"waw-1","host":"waw-1.pl.uncletopia.com","port":27015,"enabled":true,"region":"eu","cc":"pl","latitude":52.2297,"longitude":21.017532,"reserved":0,"last_update":"0001-01-01T00:00:00Z","name_a2s":"Uncletopia | Warsaw | 1 | One Thousand Uncles","protocol":17,"map":"pl_swiftwater_final1","folder":"tf","game":"Team Fortress","app_id":440,"player_count":21,"max_players":32,"Bots":16,"server_type":"Dedicated","server_os":"Linux","password":true,"vac":true,"version":"7961495","steam_id":85568392925397850,"keywords":["alltalk","bots","danepve","increased_maxplayers","nocrits","norespawntime","payload","uncletopia"],"game_id":440,"stv_port":0,"stv_name":"","players":[{"user_id":707,"name":"ChrisLuckycharm","steam_id":76561199490969322,"connected_time":524000000000,"state":"active","ping":87},{"user_id":714,"name":"Narvhalø","steam_id":76561198147495474,"connected_time":20000000000,"state":"active","ping":73},{"user_id":666,"name":"۞hexsagon۞","steam_id":76561199337619633,"connected_time":2784000000000,"state":"active","ping":85},{"user_id":711,"name":"xMilitmer","steam_id":76561199438393283,"connected_time":352000000000,"state":"active","ping":32},{"user_id":713,"name":"Mateusz Ƿαρŕστηιҝ","steam_id":76561198420162435,"connected_time":139000000000,"state":"active","ping":64}]},{"server_id":50,"name":"Uncletopia | Warsaw | 2 | One Thousand Uncles","name_short":"waw-2","host":"waw-1.pl.uncletopia.com","port":27025,"enabled":true,"region":"eu","cc":"pl","latitude":52.2297,"longitude":21.017532,"reserved":0,"last_update":"0001-01-01T00:00:00Z","name_a2s":"Uncletopia | Warsaw | 2 | One Thousand Uncles","protocol":17,"map":"cp_mercenarypark","folder":"tf","game":"Team Fortress","app_id":440,"player_count":24,"max_players":32,"Bots":16,"server_type":"Dedicated","server_os":"Linux","password":true,"vac":true,"version":"7961495","steam_id":85568392925397851,"keywords":["alltalk","bots","cp","danepve","increased_maxplayers","nocrits","norespawntime","uncletopia"],"game_id":440,"stv_port":0,"stv_name":"","players":[{"user_id":495,"name":"Dark Wizart","steam_id":76561198377689439,"connected_time":498000000000,"state":"active","ping":62},{"user_id":492,"name":"I.C. Wiener","steam_id":76561197999912254,"connected_time":961000000000,"state":"active","ping":59},{"user_id":494,"name":"best player","steam_id":76561198078363186,"connected_time":836000000000,"state":"active","ping":77},{"user_id":500,"name":"Hazisher","steam_id":76561199244861836,"connected_time":190000000000,"state":"active","ping":113},{"user_id":498,"name":"AftiksPL","steam_id":76561198875182686,"connected_time":380000000000,"state":"active","ping":61},{"user_id":501,"name":"Riky95","steam_id":76561198095289436,"connected_time":175000000000,"state":"active","ping":62},{"user_id":475,"name":"Mr.CatAstrophe","steam_id":76561198007941826,"connected_time":2145000000000,"state":"active","ping":179},{"user_id":483,"name":"The Baphomet","steam_id":76561198051424707,"connected_time":1655000000000,"state":"active","ping":195}]},{"server_id":51,"name":"Uncletopia | Warsaw | 3 | All Maps","name_short":"waw-3","host":"waw-1.pl.uncletopia.com","port":27035,"enabled":true,"region":"eu","cc":"pl","latitude":52.2297,"longitude":21.017532,"reserved":0,"last_update":"0001-01-01T00:00:00Z","name_a2s":"Uncletopia | Warsaw | 3 | All Maps","protocol":17,"map":"pl_barnblitz","folder":"tf","game":"Team Fortress","app_id":440,"player_count":0,"max_players":24,"Bots":0,"server_type":"Dedicated","server_os":"Linux","password":true,"vac":true,"version":"7961495","steam_id":85568392925397852,"keywords":["nocrits","nodmgspread","payload","uncletopia"],"game_id":440,"stv_port":27036,"stv_name":"Uncletopia | Warsaw | 3 | All Maps | STV","players":null},{"server_id":52,"name":"Uncletopia | Warsaw | 4 | All Maps","name_short":"waw-4","host":"waw-1.pl.uncletopia.com","port":27045,"enabled":true,"region":"eu","cc":"pl","latitude":52.2297,"longitude":21.017532,"reserved":0,"last_update":"0001-01-01T00:00:00Z","name_a2s":"Uncletopia | Warsaw | 4 | All Maps","protocol":17,"map":"cp_snakewater_final1","folder":"tf","game":"Team Fortress","app_id":440,"player_count":0,"max_players":24,"Bots":0,"server_type":"Dedicated","server_os":"Linux","password":true,"vac":true,"version":"7961495","steam_id":85568392925397853,"keywords":["cp","nocrits","nodmgspread","uncletopia"],"game_id":440,"stv_port":27046,"stv_name":"Uncletopia | Warsaw | 4 | All Maps | STV","players":null},{"server_id":53,"name":"Uncletopia | Warsaw | 5 | Stopwatch","name_short":"waw-5","host":"waw-1.pl.uncletopia.com","port":27055,"enabled":true,"region":"eu","cc":"pl","latitude":52.2297,"longitude":21.017532,"reserved":0,"last_update":"0001-01-01T00:00:00Z","name_a2s":"Uncletopia | Warsaw | 5 | Stopwatch","protocol":17,"map":"workshop/pl_barnblitz_pro7.ugc582280235","folder":"tf","game":"Team Fortress","app_id":440,"player_count":0,"max_players":24,"Bots":0,"server_type":"Dedicated","server_os":"Linux","password":true,"vac":true,"version":"7961495","steam_id":85568392925397854,"keywords":["nocrits","nodmgspread","payload","uncletopia"],"game_id":440,"stv_port":27056,"stv_name":"Uncletopia | Warsaw | 5 | Stopwatch | STV","players":null},{"server_id":54,"name":"Uncletopia | Warsaw | 6 | Community","name_short":"waw-6","host":"waw-1.pl.uncletopia.com","port":27065,"enabled":true,"region":"eu","cc":"pl","latitude":52.2297,"longitude":21.017532,"reserved":0,"last_update":"0001-01-01T00:00:00Z","name_a2s":"Uncletopia | Warsaw | 6 | Community","protocol":17,"map":"workshop/rd_asteroid_redux_b1.ugc2154902912","folder":"tf","game":"Team Fortress","app_id":440,"player_count":0,"max_players":24,"Bots":0,"server_type":"Dedicated","server_os":"Linux","password":true,"vac":true,"version":"7961495","steam_id":85568392925397856,"keywords":["beta","nocrits","nodmgspread","rd","uncletopia"],"game_id":440,"stv_port":27066,"stv_name":"Uncletopia | Warsaw | 6 | Community | STV","players":null}]}