{"status":true,"message":"","result":[{"server_id":9,"name":"Uncletopia | Atlanta | 1 | All Maps","name_short":"atl-1","host":"atl-1.us.uncletopia.com","port":27015,"enabled":true,"region":"us-east","cc":"us","latitude":33.753746,"longitude":-84.38633,"reserved":0,"last_update":"0001-01-01T00:00:00Z","name_a2s":"Uncletopia | Atlanta | 1 | All Maps","protocol":17,"map":"cp_metalworks","folder":"tf","game":"Team Fortress","app_id":440,"player_count":24,"max_players":24,"Bots":0,"server_type":"Dedicated","server_os":"Linux","password":true,"vac":true,"version":"7708610","steam_id":85568392924469982,"keywords":["cp","nocrits","nodmgspread","uncletopia"],"game_id":440,"stv_port":27016,"stv_name":"Uncletopia | Atlanta | 1 | All Maps | STV","players":[{"user_id":299,"name":"Quansen","steam_id":76561198151594550,"connected_time":1965000000000,"state":"active","ping":75},{"user_id":323,"name":"The Dead Weight","steam_id":76561198056694098,"connected_time":78000000000,"state":"active","ping":67},{"user_id":291,"name":"Intestinal Straw","steam_id":76561198082095303,"connected_time":2659000000000,"state":"active","ping":63},{"user_id":285,"name":"abomination","steam_id":76561198167974713,"connected_time":3825000000000,"state":"active","ping":49},{"user_id":255,"name":"Pills","steam_id":76561198799440163,"connected_time":6260000000000,"state":"active","ping":90},{"user_id":325,"name":"Rockgraham101","steam_id":76561198171740458,"connected_time":7000000000,"state":"active","ping":75},{"user_id":263,"name":"Wug","steam_id":76561198084112264,"connected_time":5065000000000,"state":"active","ping":100},{"user_id":298,"name":"gummie","steam_id":76561198998340318,"connected_time":1975000000000,"state":"active","ping":150},{"user_id":289,"name":"cola","steam_id":76561198374390458,"connected_time":2863000000000,"state":"active","ping":58},{"user_id":324,"name":"James","steam_id":76561198081313916,"connected_time":78000000000,"state":"active","ping":68},{"user_id":296,"name":"Jhon Ultrakill","steam_id":76561198207877387,"connected_time":2120000000000,"state":"active","ping":73},{"user_id":316,"name":"soup#savetf2","steam_id":76561198972506893,"connected_time":613000000000,"state":"active","ping":58},{"user_id":256,"name":"shaderoses","steam_id":76561198070800500,"connected_time":6203000000000,"state":"active","ping":67},{"user_id":322,"name":"=PB=","steam_id":76561197999146612,"connected_time":94000000000,"state":"active","ping":137},{"user_id":275,"name":"Uung","steam_id":76561198183956731,"connected_time":4801000000000,"state":"active","ping":46},{"user_id":311,"name":"MameXLIII","steam_id":76561198178285962,"connected_time":1620000000000,"state":"active","ping":79},{"user_id":286,"name":"inebriated newt fancier","steam_id":76561197985428155,"connected_time":3569000000000,"state":"active","ping":83},{"user_id":276,"name":"IMPACT CPU","steam_id":76561198001344879,"connected_time":4727000000000,"state":"active","ping":94},{"user_id":313,"name":"ATL6 Deez Noel","steam_id":76561198246700372,"connected_time":1187000000000,"state":"active","ping":79},{"user_id":314,"name":"Boggerung","steam_id":76561198111417325,"connected_time":865000000000,"state":"active","ping":80},{"user_id":308,"name":"SwooWoop","steam_id":76561199244312225,"connected_time":1795000000000,"state":"active","ping":140},{"user_id":294,"name":"cl","steam_id":76561199436640904,"connected_time":2612000000000,"state":"active","ping":170},{"user_id":312,"name":"joe","steam_id":76561198045781320,"connected_time":1395000000000,"state":"active","ping":69},{"user_id":319,"name":"Giant","steam_id":76561198851536991,"connected_time":423000000000,"state":"active","ping":112}]},{"server_id":400,"name":"Uncletopia | Atlanta | 3 | All Maps","name_short":"atl-3","host":"atl-1.us.uncletopia.com","port":27035,"enabled":true,"region":"us-east","cc":"us","latitude":33.753746,"longitude":-84.38633,"reserved":0,"last_update":"0001-01-01T00:00:00Z","name_a2s":"Uncletopia | Atlanta | 3 | All Maps","protocol":17,"map":"pl_upward","folder":"tf","game":"Team Fortress","app_id":440,"player_count":0,"max_players":24,"Bots":0,"server_type":"Dedicated","server_os":"Linux","password":true,"vac":true,"version":"7708610","steam_id":85568392924515187,"keywords":["nocrits","nodmgspread","payload","uncletopia"],"game_id":440,"stv_port":27036,"stv_name":"Uncletopia | Atlanta | 3 | All Maps | STV","players":null},{"server_id":401,"name":"Uncletopia | Atlanta | 4 | No Payload","name_short":"atl-4","host":"atl-1.us.uncletopia.com","port":27045,"enabled":true,"region":"us-east","cc":"us","latitude":33.753746,"longitude":-84.38633,"reserved":0,"last_update":"0001-01-01T00:00:00Z","name_a2s":"Uncletopia | Atlanta | 4 | No Payload","protocol":17,"map":"pl_snowycoast","folder":"tf","game":"Team Fortress","app_id":440,"player_count":3,"max_players":24,"Bots":0,"server_type":"Dedicated","server_os":"Linux","password":true,"vac":true,"version":"7708610","steam_id":85568392924515188,"keywords":["nocrits","nodmgspread","payload","uncletopia"],"game_id":440,"stv_port":27046,"stv_name":"Uncletopia | Atlanta | 4 | No Payload | STV","players":[{"user_id":4,"name":"GiantGummyLizard","steam_id":76561198998278930,"connected_time":607000000000,"state":"active","ping":68},{"user_id":5,"name":"9:02","steam_id":76561198795862574,"connected_time":164000000000,"state":"active","ping":61},{"user_id":6,"name":"Shame","steam_id":76561198100490994,"connected_time":36000000000,"state":"active","ping":58}]},{"server_id":2,"name":"Uncletopia | Chicago | 1 | All Maps","name_short":"chi-1","host":"chi-1.us.uncletopia.com","port":27015,"enabled":true,"region":"us-central","cc":"us","latitude":41.881832,"longitude":-87.62318,"reserved":0,"last_update":"0001-01-01T00:00:00Z","name_a2s":"Uncletopia | Chicago | 1 | All Maps","protocol":17,"map":"koth_nucleus","folder":"tf","game":"Team Fortress","app_id":440,"player_count":24,"max_players":24,"Bots":0,"server_type":"Dedicated","server_os":"Linux","password":true,"vac":true,"version":"7708610","steam_id":85568392924469984,"keywords":["cp","nocrits","nodmgspread","uncletopia"],"game_id":440,"stv_port":27016,"stv_name":"Uncletopia | Chicago | 1 | All Maps | STV","players":[{"user_id":206,"name":"asbestos","steam_id":76561198079178866,"connected_time":4529000000000,"state":"active","ping":64},{"user_id":249,"name":"Seth6537","steam_id":76561198404633529,"connected_time":1147000000000,"state":"active","ping":56},{"user_id":250,"name":"Wang of Wall St","steam_id":76561198047460598,"connected_time":1083000000000,"state":"active","ping":75},{"user_id":247,"name":"CyberZayne","steam_id":76561198002351356,"connected_time":1185000000000,"state":"active","ping":80},{"user_id":265,"name":"KennytheHedgehog","steam_id":76561198094607721,"connected_time":226000000000,"state":"active","ping":71},{"user_id":257,"name":"[K.Y.L.L.]Logic (They/Them)","steam_id":76561198027321950,"connected_time":966000000000,"state":"active","ping":92},{"user_id":251,"name":"月 (tsuki)","steam_id":76561198053829724,"connected_time":1034000000000,"state":"active","ping":76},{"user_id":224,"name":"dr peppah chug!","steam_id":76561198068835693,"connected_time":2841000000000,"state":"active","ping":86},{"user_id":252,"name":"jacospoo","steam_id":76561198076364156,"connected_time":1032000000000,"state":"active","ping":62},{"user_id":259,"name":"Ras","steam_id":76561198123546775,"connected_time":705000000000,"state":"active","ping":61},{"user_id":240,"name":"MrActionJaxon","steam_id":76561198093549908,"connected_time":2025000000000,"state":"active","ping":76},{"user_id":245,"name":"Errrmmett","steam_id":76561198041314051,"connected_time":1190000000000,"state":"active","ping":60},{"user_id":166,"name":"Dude Named Bob","steam_id":76561198310448093,"connected_time":7970000000000,"state":"active","ping":56},{"user_id":207,"name":"Kevin Y.","steam_id":76561198364331423,"connected_time":4528000000000,"state":"active","ping":80},{"user_id":111,"name":"Potato-Protein-Pancake","steam_id":76561198027198306,"connected_time":11619000000000,"state":"active","ping":60},{"user_id":246,"name":"CAdaverOusPRophet","steam_id":76561198045304110,"connected_time":1190000000000,"state":"active","ping":49},{"user_id":229,"name":"Daz","steam_id":76561198041431938,"connected_time":2824000000000,"state":"active","ping":75},{"user_id":253,"name":"frid","steam_id":76561198005806915,"connected_time":1027000000000,"state":"active","ping":60},{"user_id":230,"name":"toastman","steam_id":76561198207073088,"connected_time":2823000000000,"state":"active","ping":73},{"user_id":248,"name":"ikea pipebomb","steam_id":76561198071451771,"connected_time":1180000000000,"state":"active","ping":91},{"user_id":262,"name":"SeaBass","steam_id":76561198278914206,"connected_time":509000000000,"state":"active","ping":121},{"user_id":255,"name":"BlueStripe355","steam_id":76561198144211518,"connected_time":994000000000,"state":"active","ping":70},{"user_id":263,"name":"PKBEAST_7","steam_id":76561198177136537,"connected_time":472000000000,"state":"active","ping":86},{"user_id":258,"name":"Be Gay, Do Crimes, Smoke Weed!","steam_id":76561198092419868,"connected_time":716000000000,"state":"active","ping":91}]},{"server_id":106,"name":"Uncletopia | Chicago | 2 | All Maps","name_short":"chi-2","host":"chi-1.us.uncletopia.com","port":27025,"enabled":true,"region":"us-central","cc":"us","latitude":41.881832,"longitude":-87.62318,"reserved":0,"last_update":"0001-01-01T00:00:00Z","name_a2s":"Uncletopia | Chicago | 2 | All Maps","protocol":17,"map":"koth_nucleus","folder":"tf","game":"Team Fortress","app_id":440,"player_count":22,"max_players":24,"Bots":0,"server_type":"Dedicated","server_os":"Linux","password":true,"vac":true,"version":"7708610","steam_id":85568392924469985,"keywords":["cp","nocrits","nodmgspread","uncletopia"],"game_id":440,"stv_port":27026,"stv_name":"Uncletopia | Chicago | 2 | All Maps | STV","players":[{"user_id":79,"name":"IRAcide","steam_id":76561198236149504,"connected_time":1208000000000,"state":"active","ping":93},{"user_id":107,"name":"Anxiety","steam_id":76561198365627687,"connected_time":30000000000,"state":"active","ping":93},{"user_id":108,"name":"P.C. Baby","steam_id":76561198067011379,"connected_time":3000000000,"state":"spawning","ping":117},{"user_id":98,"name":"Fruitcake","steam_id":76561198068250662,"connected_time":163000000000,"state":"active","ping":120},{"user_id":100,"name":"Pathara44","steam_id":76561198048238620,"connected_time":155000000000,"state":"active","ping":52},{"user_id":87,"name":"Festive Cheese","steam_id":76561199207081299,"connected_time":1091000000000,"state":"active","ping":114},{"user_id":96,"name":"Big Tobacco","steam_id":76561198130165656,"connected_time":176000000000,"state":"active","ping":46},{"user_id":81,"name":"yitz","steam_id":76561198375575841,"connected_time":1149000000000,"state":"active","ping":48},{"user_id":103,"name":"Dr. Birb","steam_id":76561198141939154,"connected_time":122000000000,"state":"active","ping":85},{"user_id":83,"name":"Rornir","steam_id":76561198081829615,"connected_time":1133000000000,"state":"active","ping":31},{"user_id":104,"name":"The Potato Romancer","steam_id":76561198204197648,"connected_time":120000000000,"state":"active","ping":95},{"user_id":105,"name":"no i wont pocket you","steam_id":76561199095310302,"connected_time":110000000000,"state":"active","ping":70},{"user_id":97,"name":"ExtremeDucks","steam_id":76561198351756464,"connected_time":173000000000,"state":"active","ping":68},{"user_id":38,"name":"Griffin.","steam_id":76561197994750414,"connected_time":4098000000000,"state":"active","ping":87},{"user_id":75,"name":"MikeLovesRabbit","steam_id":76561197997742625,"connected_time":1414000000000,"state":"active","ping":53},{"user_id":106,"name":"ReformedOrthodoxRabbiBillClinto","steam_id":76561198401455467,"connected_time":96000000000,"state":"active","ping":99},{"user_id":92,"name":"Pan Crab (REAL!!!111!!)","steam_id":76561198823465309,"connected_time":374000000000,"state":"active","ping":74},{"user_id":40,"name":"xenolith","steam_id":76561198041496496,"connected_time":4070000000000,"state":"active","ping":61},{"user_id":86,"name":"Super Noob","steam_id":76561199179611350,"connected_time":1104000000000,"state":"active","ping":52},{"user_id":95,"name":"Gaming Pro","steam_id":76561198979637556,"connected_time":206000000000,"state":"active","ping":62},{"user_id":90,"name":"goop","steam_id":76561198214461775,"connected_time":470000000000,"state":"active","ping":76},{"user_id":71,"name":"Zeadros","steam_id":76561198170158482,"connected_time":2010000000000,"state":"active","ping":61}]},{"server_id":402,"name":"Uncletopia | Chicago | 3 | All Maps","name_short":"chi-3","host":"chi-1.us.uncletopia.com","port":27035,"enabled":true,"region":"us-central","cc":"us","latitude":41.881832,"longitude":-87.62318,"reserved":0,"last_update":"0001-01-01T00:00:00Z","name_a2s":"Uncletopia | Chicago | 3 | All Maps","protocol":17,"map":"pl_swiftwater_final1","folder":"tf","game":"Team Fortress","app_id":440,"player_count":0,"max_players":24,"Bots":0,"server_type":"Dedicated","server_os":"Linux","password":true,"vac":true,"version":"7708610","steam_id":85568392924515191,"keywords":["nocrits","nodmgspread","payload","uncletopia"],"game_id":440,"stv_port":27036,"stv_name":"Uncletopia | Chicago | 3 | All Maps | STV","players":null},{"server_id":403,"name":"Uncletopia | Chicago | 4 | All Maps","name_short":"chi-4","host":"chi-1.us.uncletopia.com","port":27045,"enabled":true,"region":"us-central","cc":"us","latitude":41.881832,"longitude":-87.62318,"reserved":0,"last_update":"0001-01-01T00:00:00Z","name_a2s":"Uncletopia | Chicago | 4 | All Maps","protocol":17,"map":"pl_swiftwater_final1","folder":"tf","game":"Team Fortress","app_id":440,"player_count":0,"max_players":24,"Bots":0,"server_type":"Dedicated","server_os":"Linux","password":true,"vac":true,"version":"7708610","steam_id":85568392924515193,"keywords":["nocrits","nodmgspread","payload","uncletopia"],"game_id":440,"stv_port":27046,"stv_name":"Uncletopia | Chicago | 4 | All Maps | STV","players":null},{"server_id":36,"name":"Uncletopia | Chicago | 5 | All Maps","name_short":"chi-5","host":"chi-2.us.uncletopia.com","port":27015,"enabled":true,"region":"us-central","cc":"us","latitude":41.881832,"longitude":-87.62318,"reserved":0,"last_update":"0001-01-01T00:00:00Z","name_a2s":"Uncletopia | Chicago | 5 | All Maps","protocol":17,"map":"koth_lakeside_final","folder":"tf","game":"Team Fortress","app_id":440,"player_count":0,"max_players":24,"Bots":0,"server_type":"Dedicated","server_os":"Linux","password":true,"vac":true,"version":"7708610","steam_id":85568392924866362,"keywords":["cp","nocrits","nodmgspread","uncletopia"],"game_id":440,"stv_port":27016,"stv_name":"Uncletopia | Chicago | 5 | All Maps | STV","players":null},{"server_id":37,"name":"Uncletopia | Chicago | 6 | All Maps","name_short":"chi-6","host":"chi-2.us.uncletopia.com","port":27025,"enabled":true,"region":"us-central","cc":"us","latitude":41.881832,"longitude":-87.62318,"reserved":0,"last_update":"0001-01-01T00:00:00Z","name_a2s":"Uncletopia | Chicago | 6 | All Maps","protocol":17,"map":"pl_swiftwater_final1","folder":"tf","game":"Team Fortress","app_id":440,"player_count":0,"max_players":24,"Bots":0,"server_type":"Dedicated","server_os":"Linux","password":true,"vac":true,"version":"7708610","steam_id":85568392924866363,"keywords":["nocrits","nodmgspread","payload","uncletopia"],"game_id":440,"stv_port":27026,"stv_name":"Uncletopia | Chicago | 6 | All Maps | STV","players":null},{"server_id":38,"name":"Uncletopia | Chicago | 7 | No Payload","name_short":"chi-7","host":"chi-2.us.uncletopia.com","port":27035,"enabled":true,"region":"us-central","cc":"us","latitude":41.881832,"longitude":-87.62318,"reserved":0,"last_update":"0001-01-01T00:00:00Z","name_a2s":"Uncletopia | Chicago | 7 | No Payload","protocol":17,"map":"koth_badlands","folder":"tf","game":"Team Fortress","app_id":440,"player_count":0,"max_players":24,"Bots":0,"server_type":"Dedicated","server_os":"Linux","password":true,"vac":true,"version":"7708610","steam_id":85568392924866364,"keywords":["cp","nocrits","nodmgspread","uncletopia"],"game_id":440,"stv_port":27036,"stv_name":"Uncletopia | Chicago | 7 | No Payload | STV","players":null},{"server_id":39,"name":"Uncletopia | Chicago | 8 | Community","name_short":"chi-8","host":"chi-2.us.uncletopia.com","port":27045,"enabled":true,"region":"us-central","cc":"us","latitude":41.881832,"longitude":-87.62318,"reserved":0,"last_update":"0001-01-01T00:00:00Z","name_a2s":"Uncletopia | Chicago | 8 | Community","protocol":17,"map":"workshop/koth_ashville_final.ugc2130459942","folder":"tf","game":"Team Fortress","app_id":440,"player_count":0,"max_players":24,"Bots":0,"server_type":"Dedicated","server_os":"Linux","password":true,"vac":true,"version":"7708610","steam_id":85568392924866365,"keywords":["cp","nocrits","nodmgspread","uncletopia"],"game_id":440,"stv_port":27046,"stv_name":"Uncletopia | Chicago | 8 | Community | STV","players":null},{"server_id":8,"name":"Uncletopia | Dallas | 1 | All Maps","name_short":"dal-1","host":"dal-1.us.uncletopia.com","port":27015,"enabled":true,"region":"us-central","cc":"us","latitude":32.779167,"longitude":-96.80889,"reserved":0,"last_update":"0001-01-01T00:00:00Z","name_a2s":"Uncletopia | Dallas | 1 | All Maps","protocol":17,"map":"pl_barnblitz","folder":"tf","game":"Team Fortress","app_id":440,"player_count":24,"max_players":24,"Bots":0,"server_type":"Dedicated","server_os":"Linux","password":true,"vac":true,"version":"7708610","steam_id":85568392924469986,"keywords":["nocrits","nodmgspread","payload","uncletopia"],"game_id":440,"stv_port":27016,"stv_name":"Uncletopia | Dallas | 1 | All Maps | STV","players":[{"user_id":63,"name":"Molotov","steam_id":76561198038074174,"connected_time":3889000000000,"state":"active","ping":75},{"user_id":92,"name":"Winter the Witchie","steam_id":76561198151971178,"connected_time":1658000000000,"state":"active","ping":82},{"user_id":113,"name":"Gian","steam_id":76561198041434512,"connected_time":85000000000,"state":"active","ping":107},{"user_id":110,"name":"Brison","steam_id":76561197993377761,"connected_time":425000000000,"state":"active","ping":85},{"user_id":17,"name":"katryna","steam_id":76561198023440304,"connected_time":6772000000000,"state":"active","ping":73},{"user_id":102,"name":"Oakspace_","steam_id":76561198132487015,"connected_time":848000000000,"state":"active","ping":84},{"user_id":114,"name":"Oak","steam_id":76561198092135570,"connected_time":59000000000,"state":"active","ping":46},{"user_id":99,"name":"Donkski","steam_id":76561198406895347,"connected_time":1293000000000,"state":"active","ping":68},{"user_id":111,"name":"Goldbug","steam_id":76561198025221202,"connected_time":376000000000,"state":"active","ping":86},{"user_id":103,"name":"Sheppy","steam_id":76561198295126940,"connected_time":847000000000,"state":"active","ping":67},{"user_id":115,"name":"ToddGold","steam_id":76561198186920331,"connected_time":0,"state":"spawning","ping":0},{"user_id":98,"name":"Female Gamer","steam_id":76561199366482682,"connected_time":1355000000000,"state":"active","ping":100},{"user_id":69,"name":"cosmik","steam_id":76561198071193180,"connected_time":3610000000000,"state":"active","ping":69},{"user_id":108,"name":"Sauce Lord","steam_id":76561198059103441,"connected_time":763000000000,"state":"active","ping":69},{"user_id":101,"name":"Disbicord","steam_id":76561198145228904,"connected_time":957000000000,"state":"active","ping":68},{"user_id":96,"name":"Tmiracle","steam_id":76561198052375275,"connected_time":1609000000000,"state":"active","ping":74},{"user_id":105,"name":"SanitysEdge","steam_id":76561198130732813,"connected_time":841000000000,"state":"active","ping":76},{"user_id":94,"name":"A Weird Bunny","steam_id":76561198302882736,"connected_time":1644000000000,"state":"active","ping":79},{"user_id":85,"name":"Hat Kid","steam_id":76561198218897383,"connected_time":2112000000000,"state":"active","ping":73},{"user_id":36,"name":"denk","steam_id":76561198049702548,"connected_time":5823000000000,"state":"active","ping":76},{"user_id":109,"name":"the biggest bird","steam_id":76561198026393621,"connected_time":576000000000,"state":"active","ping":86},{"user_id":56,"name":"Lady Duckland","steam_id":76561198077092840,"connected_time":4516000000000,"state":"active","ping":77},{"user_id":77,"name":"John16Mark","steam_id":76561198119445407,"connected_time":2907000000000,"state":"active","ping":62}]},{"server_id":108,"name":"Uncletopia | Dallas | 2 | All Maps","name_short":"dal-2","host":"dal-1.us.uncletopia.com","port":27025,"enabled":true,"region":"us-central","cc":"us","latitude":32.779167,"longitude":-96.80889,"reserved":0,"last_update":"0001-01-01T00:00:00Z","name_a2s":"Uncletopia | Dallas | 2 | All Maps","protocol":17,"map":"koth_highpass","folder":"tf","game":"Team Fortress","app_id":440,"player_count":0,"max_players":24,"Bots":0,"server_type":"Dedicated","server_os":"Linux","password":true,"vac":true,"version":"7708610","steam_id":85568392924469988,"keywords":["cp","nocrits","nodmgspread","uncletopia"],"game_id":440,"stv_port":27026,"stv_name":"Uncletopia | Dallas | 2 | All Maps | STV","players":null},{"server_id":5,"name":"Uncletopia | Frankfurt | 1 | All Maps","name_short":"frk-1","host":"frk-1.de.uncletopia.com","port":27015,"enabled":true,"region":"eu","cc":"de","latitude":50.110924,"longitude":8.682127,"reserved":0,"last_update":"0001-01-01T00:00:00Z","name_a2s":"Uncletopia | Frankfurt | 1 | All Maps","protocol":17,"map":"pl_frontier_final","folder":"tf","game":"Team Fortress","app_id":440,"player_count":24,"max_players":24,"Bots":0,"server_type":"Dedicated","server_os":"Linux","password":true,"vac":true,"version":"7708610","steam_id":85568392924469989,"keywords":["nocrits","nodmgspread","payload","uncletopia"],"game_id":440,"stv_port":27016,"stv_name":"Uncletopia | Frankfurt | 1 | All Maps | STV","players":[{"user_id":765,"name":"Gabys","steam_id":76561198282892553,"connected_time":1096000000000,"state":"active","ping":71},{"user_id":725,"name":"Efmixos","steam_id":76561198393929835,"connected_time":3926000000000,"state":"active","ping":105},{"user_id":754,"name":"I LOVE FENTANYL","steam_id":76561198198977226,"connected_time":2118000000000,"state":"active","ping":69},{"user_id":760,"name":"justify.egl","steam_id":76561199227541378,"connected_time":1763000000000,"state":"active","ping":155},{"user_id":766,"name":"Posture Check","steam_id":76561198053897197,"connected_time":1087000000000,"state":"active","ping":51},{"user_id":745,"name":"ralph62x","steam_id":76561198865294231,"connected_time":3205000000000,"state":"active","ping":62},{"user_id":744,"name":"Standingo","steam_id":76561198035642311,"connected_time":3231000000000,"state":"active","ping":89},{"user_id":719,"name":"Doggo","steam_id":76561198091909701,"connected_time":4126000000000,"state":"active","ping":94},{"user_id":770,"name":"ÃNVS DRÃNVS","steam_id":76561198138733015,"connected_time":321000000000,"state":"active","ping":105},{"user_id":762,"name":"cazador","steam_id":76561198123096922,"connected_time":1294000000000,"state":"active","ping":90},{"user_id":756,"name":"MAKENTAKEN","steam_id":76561199127359587,"connected_time":2083000000000,"state":"active","ping":96},{"user_id":757,"name":"Gety0","steam_id":76561198044387185,"connected_time":2079000000000,"state":"active","ping":76},{"user_id":731,"name":"RogatiyZhuk","steam_id":76561199386822589,"connected_time":3755000000000,"state":"active","ping":63},{"user_id":750,"name":"i heal gay people","steam_id":76561198032167311,"connected_time":3151000000000,"state":"active","ping":76},{"user_id":767,"name":"Fan","steam_id":76561198210792815,"connected_time":1068000000000,"state":"active","ping":60},{"user_id":740,"name":"dddd","steam_id":76561198120894372,"connected_time":3520000000000,"state":"active","ping":109},{"user_id":748,"name":"Kotlet schabowy","steam_id":76561198048983509,"connected_time":3189000000000,"state":"active","ping":74},{"user_id":759,"name":"YEEET","steam_id":76561198914938199,"connected_time":1938000000000,"state":"active","ping":91},{"user_id":758,"name":"FZStick","steam_id":76561198086617223,"connected_time":2062000000000,"state":"active","ping":63},{"user_id":693,"name":"Mannifest Destiny","steam_id":76561198253006719,"connected_time":5507000000000,"state":"active","ping":74},{"user_id":674,"name":"dotdotdot","steam_id":76561198057628751,"connected_time":7207000000000,"state":"active","ping":60},{"user_id":751,"name":"Shark","steam_id":76561198879649757,"connected_time":3137000000000,"state":"active","ping":59},{"user_id":771,"name":"Jedi Knight","steam_id":76561198039030709,"connected_time":0,"state":"connecting","ping":0},{"user_id":769,"name":"Menty","steam_id":76561198036748212,"connected_time":691000000000,"state":"active","ping":30}]},{"server_id":110,"name":"Uncletopia | Frankfurt | 2 | All Maps","name_short":"frk-2","host":"frk-1.de.uncletopia.com","port":27025,"enabled":true,"region":"eu","cc":"de","latitude":50.110924,"longitude":8.682127,"reserved":0,"last_update":"0001-01-01T00:00:00Z","name_a2s":"Uncletopia | Frankfurt | 2 | All Maps","protocol":17,"map":"cp_sunshine","folder":"tf","game":"Team Fortress","app_id":440,"player_count":24,"max_players":24,"Bots":0,"server_type":"Dedicated","server_os":"Linux","password":true,"vac":true,"version":"7708610","steam_id":85568392924469990,"keywords":["cp","nocrits","nodmgspread","uncletopia"],"game_id":440,"stv_port":27026,"stv_name":"Uncletopia | Frankfurt | 2 | All Maps | STV","players":[{"user_id":537,"name":"demoknight tf2","steam_id":76561199082083780,"connected_time":330000000000,"state":"active","ping":61},{"user_id":538,"name":"desnot","steam_id":76561198862581894,"connected_time":326000000000,"state":"active","ping":75},{"user_id":539,"name":"FeeXy","steam_id":76561198028633251,"connected_time":299000000000,"state":"active","ping":51},{"user_id":540,"name":"OVERLORDMALARKEY","steam_id":76561198098267117,"connected_time":276000000000,"state":"active","ping":65},{"user_id":535,"name":"ldshwt","steam_id":76561198090364357,"connected_time":575000000000,"state":"active","ping":55},{"user_id":541,"name":"Browlin","steam_id":76561198860807512,"connected_time":180000000000,"state":"active","ping":82},{"user_id":511,"name":"VibeCheck","steam_id":76561198425961218,"connected_time":1834000000000,"state":"active","ping":114},{"user_id":506,"name":"Bones","steam_id":76561198091494675,"connected_time":2862000000000,"state":"active","ping":83},{"user_id":457,"name":"dansci","steam_id":76561198269530717,"connected_time":7013000000000,"state":"active","ping":156},{"user_id":513,"name":"SkullBurner","steam_id":76561198357531846,"connected_time":1806000000000,"state":"active","ping":70},{"user_id":542,"name":"Lag","steam_id":76561198159360376,"connected_time":150000000000,"state":"active","ping":63},{"user_id":546,"name":"business spy","steam_id":76561198215876044,"connected_time":84000000000,"state":"active","ping":114},{"user_id":543,"name":"Mr.Schnittlauch","steam_id":76561198295868113,"connected_time":129000000000,"state":"active","ping":54},{"user_id":497,"name":"KRUFI","steam_id":76561198355525978,"connected_time":4048000000000,"state":"active","ping":67},{"user_id":496,"name":"aion","steam_id":76561198980665401,"connected_time":4056000000000,"state":"active","ping":89},{"user_id":518,"name":"87rubberducks","steam_id":76561198992460116,"connected_time":1646000000000,"state":"active","ping":88},{"user_id":517,"name":"specimen","steam_id":76561199008480793,"connected_time":1697000000000,"state":"active","ping":54},{"user_id":544,"name":"syla8215","steam_id":76561199007869949,"connected_time":128000000000,"state":"active","ping":96},{"user_id":529,"name":"a Sin","steam_id":76561198114382011,"connected_time":1184000000000,"state":"active","ping":118},{"user_id":530,"name":"BrickBobBrick","steam_id":76561198931770279,"connected_time":1179000000000,"state":"active","ping":60},{"user_id":524,"name":"WeyBean","steam_id":76561198094478611,"connected_time":1415000000000,"state":"active","ping":93},{"user_id":527,"name":"Emil","steam_id":76561198084773066,"connected_time":1323000000000,"state":"active","ping":54},{"user_id":534,"name":"The demoman bottle wizard","steam_id":76561199050127577,"connected_time":595000000000,"state":"active","ping":142},{"user_id":545,"name":"Kapitan Polska","steam_id":76561197968069413,"connected_time":118000000000,"state":"active","ping":68}]},{"server_id":308,"name":"Uncletopia | Frankfurt | 3 | All Maps","name_short":"frk-3","host":"frk-1.de.uncletopia.com","port":27035,"enabled":true,"region":"eu","cc":"de","latitude":50.110924,"longitude":8.682127,"reserved":0,"last_update":"0001-01-01T00:00:00Z","name_a2s":"Uncletopia | Frankfurt | 3 | All Maps","protocol":17,"map":"cp_snakewater_final1","folder":"tf","game":"Team Fortress","app_id":440,"player_count":24,"max_players":24,"Bots":0,"server_type":"Dedicated","server_os":"Linux","password":true,"vac":true,"version":"7708610","steam_id":85568392924504274,"keywords":["cp","nocrits","nodmgspread","uncletopia"],"game_id":440,"stv_port":27036,"stv_name":"Uncletopia | Frankfurt | 3 | All Maps | STV","players":[{"user_id":495,"name":"BigZZZ","steam_id":76561197998461614,"connected_time":1824000000000,"state":"active","ping":67},{"user_id":524,"name":"tshirt","steam_id":76561198040757844,"connected_time":665000000000,"state":"active","ping":99},{"user_id":367,"name":"LasagnaLarry22","steam_id":76561198089478290,"connected_time":4799000000000,"state":"active","ping":56},{"user_id":502,"name":"wasto-/-™","steam_id":76561198102888038,"connected_time":1540000000000,"state":"active","ping":45},{"user_id":522,"name":"Tom Foolery","steam_id":76561198358895809,"connected_time":969000000000,"state":"active","ping":73},{"user_id":503,"name":"BMJ","steam_id":76561198256866267,"connected_time":1443000000000,"state":"active","ping":85},{"user_id":528,"name":"3te Liga","steam_id":76561198009922500,"connected_time":413000000000,"state":"active","ping":50},{"user_id":499,"name":"Durandal","steam_id":76561198067929423,"connected_time":1781000000000,"state":"active","ping":107},{"user_id":506,"name":"Manbagi","steam_id":76561198318637309,"connected_time":1344000000000,"state":"active","ping":76},{"user_id":507,"name":"Arkham","steam_id":76561198968406671,"connected_time":1329000000000,"state":"active","ping":92},{"user_id":529,"name":"Honest Tom's Discount Beef","steam_id":76561198029971392,"connected_time":411000000000,"state":"active","ping":68},{"user_id":509,"name":"hal","steam_id":76561198169859157,"connected_time":1313000000000,"state":"active","ping":54},{"user_id":510,"name":"Flostro","steam_id":76561198259793697,"connected_time":1296000000000,"state":"active","ping":58},{"user_id":518,"name":"Yuka","steam_id":76561198152009749,"connected_time":1118000000000,"state":"active","ping":60},{"user_id":473,"name":"mr sir","steam_id":76561198047828651,"connected_time":2277000000000,"state":"active","ping":60},{"user_id":513,"name":"Bancsli (Help me pls)","steam_id":76561198144783422,"connected_time":1245000000000,"state":"active","ping":85},{"user_id":514,"name":"Hahaha rifle go brrrr","steam_id":76561198002162167,"connected_time":1199000000000,"state":"active","ping":86},{"user_id":376,"name":"Fat Pigeon","steam_id":76561198817940142,"connected_time":4436000000000,"state":"active","ping":58},{"user_id":526,"name":"FreeZ","steam_id":76561199070093469,"connected_time":475000000000,"state":"active","ping":73},{"user_id":519,"name":"Feelin' Supersonic","steam_id":76561198005738407,"connected_time":1111000000000,"state":"active","ping":75},{"user_id":525,"name":"baldski gaming","steam_id":76561198986260493,"connected_time":646000000000,"state":"active","ping":105},{"user_id":382,"name":"Oak_Tree_From_Minecraft","steam_id":76561199223984137,"connected_time":4215000000000,"state":"active","ping":58},{"user_id":521,"name":"fanyul","steam_id":76561198030894721,"connected_time":1096000000000,"state":"active","ping":80},{"user_id":392,"name":"links7890","steam_id":76561199322683109,"connected_time":4018000000000,"state":"active","ping":88}]},{"server_id":309,"name":"Uncletopia | Frankfurt | 4 | All Maps","name_short":"frk-4","host":"frk-1.de.uncletopia.com","port":27045,"enabled":true,"region":"eu","cc":"de","latitude":50.110924,"longitude":8.682127,"reserved":0,"last_update":"0001-01-01T00:00:00Z","name_a2s":"Uncletopia | Frankfurt | 4 | All Maps","protocol":17,"map":"pl_thundermountain","folder":"tf","game":"Team Fortress","app_id":440,"player_count":24,"max_players":24,"Bots":0,"server_type":"Dedicated","server_os":"Linux","password":true,"vac":true,"version":"7708610","steam_id":85568392924504275,"keywords":["nocrits","nodmgspread","payload","uncletopia"],"game_id":440,"stv_port":27046,"stv_name":"Uncletopia | Frankfurt | 4 | All Maps | STV","players":[{"user_id":241,"name":"Luke SpyWalker","steam_id":76561198008643276,"connected_time":2557000000000,"state":"active","ping":63},{"user_id":205,"name":"Towercat","steam_id":76561198013141793,"connected_time":5179000000000,"state":"active","ping":58},{"user_id":225,"name":"Somario","steam_id":76561198046598526,"connected_time":3820000000000,"state":"active","ping":65},{"user_id":256,"name":"Welder","steam_id":76561198355300561,"connected_time":1422000000000,"state":"active","ping":74},{"user_id":260,"name":"omnibombulator","steam_id":76561198025858897,"connected_time":1298000000000,"state":"active","ping":64},{"user_id":265,"name":"Kutuzov","steam_id":76561198060988694,"connected_time":250000000000,"state":"active","ping":102},{"user_id":263,"name":"Ged The Bombad General","steam_id":76561198079288943,"connected_time":460000000000,"state":"active","ping":113},{"user_id":252,"name":"Dewotter","steam_id":76561198007653168,"connected_time":1684000000000,"state":"active","ping":75},{"user_id":168,"name":"Mari Christmas","steam_id":76561197997020707,"connected_time":7263000000000,"state":"active","ping":62},{"user_id":253,"name":"Grote piemel","steam_id":76561198166357571,"connected_time":1658000000000,"state":"active","ping":51},{"user_id":264,"name":"kreeekz","steam_id":76561198014431602,"connected_time":322000000000,"state":"active","ping":78},{"user_id":266,"name":"Gotharski","steam_id":76561198012263719,"connected_time":10000000000,"state":"spawning","ping":78},{"user_id":262,"name":"it just ain't fair","steam_id":76561198418538887,"connected_time":583000000000,"state":"active","ping":91},{"user_id":230,"name":"deri100","steam_id":76561198397588574,"connected_time":3177000000000,"state":"active","ping":64},{"user_id":250,"name":"Noob_with_source","steam_id":76561198870362103,"connected_time":1852000000000,"state":"active","ping":60},{"user_id":229,"name":"Mollendokter","steam_id":76561198070015781,"connected_time":3218000000000,"state":"active","ping":63},{"user_id":243,"name":"JujuBalu","steam_id":76561198207253071,"connected_time":2448000000000,"state":"active","ping":53},{"user_id":218,"name":"nedilya","steam_id":76561198039692077,"connected_time":4597000000000,"state":"active","ping":56},{"user_id":245,"name":"Jimbox Sat","steam_id":76561199088912150,"connected_time":2212000000000,"state":"active","ping":119},{"user_id":238,"name":"Bobo","steam_id":76561198052308399,"connected_time":2759000000000,"state":"active","ping":56},{"user_id":254,"name":"Grossaaa","steam_id":76561198113268599,"connected_time":1646000000000,"state":"active","ping":54},{"user_id":251,"name":"CactusFarms","steam_id":76561199009131802,"connected_time":1846000000000,"state":"active","ping":62},{"user_id":212,"name":"maxugo","steam_id":76561198444339944,"connected_time":4880000000000,"state":"active","ping":62},{"user_id":239,"name":"Zerfesh","steam_id":76561198117534358,"connected_time":2755000000000,"state":"active","ping":96}]},{"server_id":310,"name":"Uncletopia | Frankfurt | 5 | All Maps","name_short":"frk-5","host":"frk-1.de.uncletopia.com","port":27055,"enabled":true,"region":"eu","cc":"de","latitude":50.110924,"longitude":8.682127,"reserved":0,"last_update":"0001-01-01T00:00:00Z","name_a2s":"Uncletopia | Frankfurt | 5 | All Maps","protocol":17,"map":"koth_lakeside_final","folder":"tf","game":"Team Fortress","app_id":440,"player_count":23,"max_players":24,"Bots":0,"server_type":"Dedicated","server_os":"Linux","password":true,"vac":true,"version":"7708610","steam_id":85568392924504277,"keywords":["cp","nocrits","nodmgspread","uncletopia"],"game_id":440,"stv_port":27056,"stv_name":"Uncletopia | Frankfurt | 5 | All Maps | STV","players":[{"user_id":430,"name":"girth gremlin","steam_id":76561198436424012,"connected_time":1433000000000,"state":"active","ping":60},{"user_id":444,"name":"Frazzles","steam_id":76561199228009586,"connected_time":472000000000,"state":"active","ping":66},{"user_id":431,"name":"realistic scientist of blackmes","steam_id":76561198423398942,"connected_time":1416000000000,"state":"active","ping":61},{"user_id":461,"name":"Madoga0 EU","steam_id":76561198102371701,"connected_time":86000000000,"state":"active","ping":136},{"user_id":445,"name":"BD[PL]","steam_id":76561198115995871,"connected_time":452000000000,"state":"active","ping":84},{"user_id":462,"name":"Mecro","steam_id":76561198331574409,"connected_time":61000000000,"state":"active","ping":75},{"user_id":424,"name":"Laxslow","steam_id":76561198065361846,"connected_time":2401000000000,"state":"active","ping":60},{"user_id":446,"name":"gorgie","steam_id":76561199032591040,"connected_time":415000000000,"state":"active","ping":82},{"user_id":435,"name":"busy busy bee :D","steam_id":76561198128222331,"connected_time":1134000000000,"state":"active","ping":147},{"user_id":458,"name":"sun tzu","steam_id":76561198121667402,"connected_time":196000000000,"state":"active","ping":75},{"user_id":447,"name":"LuGiO","steam_id":76561198404105206,"connected_time":394000000000,"state":"active","ping":58},{"user_id":448,"name":"wieto","steam_id":76561198050626427,"connected_time":384000000000,"state":"active","ping":58},{"user_id":427,"name":"guarda-chuva","steam_id":76561198078694330,"connected_time":2089000000000,"state":"active","ping":49},{"user_id":456,"name":"Human bean","steam_id":76561198261377744,"connected_time":300000000000,"state":"active","ping":111},{"user_id":455,"name":"Ork","steam_id":76561197968575924,"connected_time":304000000000,"state":"active","ping":72},{"user_id":459,"name":"round object","steam_id":76561198136239861,"connected_time":129000000000,"state":"active","ping":65},{"user_id":450,"name":"chachiply","steam_id":76561198316355509,"connected_time":359000000000,"state":"active","ping":74},{"user_id":451,"name":"GOUD","steam_id":76561198071823072,"connected_time":355000000000,"state":"active","ping":74},{"user_id":437,"name":"Raldow","steam_id":76561198021389301,"connected_time":792000000000,"state":"active","ping":74},{"user_id":452,"name":"Kvikk","steam_id":76561198063104117,"connected_time":352000000000,"state":"active","ping":88},{"user_id":453,"name":"Liba","steam_id":76561198118006754,"connected_time":351000000000,"state":"active","ping":76},{"user_id":373,"name":"Ross from F.R.I.E.N.D.S.","steam_id":76561198008511665,"connected_time":5490000000000,"state":"active","ping":62},{"user_id":454,"name":"manure merchant","steam_id":76561198010109316,"connected_time":345000000000,"state":"active","ping":59}]},{"server_id":311,"name":"Uncletopia | Frankfurt | 6 | All Maps","name_short":"frk-6","host":"frk-1.de.uncletopia.com","port":27065,"enabled":true,"region":"eu","cc":"de","latitude":50.110924,"longitude":8.682127,"reserved":0,"last_update":"0001-01-01T00:00:00Z","name_a2s":"Uncletopia | Frankfurt | 6 | All Maps","protocol":17,"map":"koth_viaduct","folder":"tf","game":"Team Fortress","app_id":440,"player_count":0,"max_players":24,"Bots":0,"server_type":"Dedicated","server_os":"Linux","password":true,"vac":true,"version":"7708610","steam_id":85568392924504278,"keywords":["cp","nocrits","nodmgspread","uncletopia"],"game_id":440,"stv_port":27066,"stv_name":"Uncletopia | Frankfurt | 6 | All Maps | STV","players":null},{"server_id":23,"name":"Uncletopia | Frankfurt | 7 | No Payload","name_short":"frk-7","host":"frk-1.de.uncletopia.com","port":27075,"enabled":true,"region":"eu","cc":"de","latitude":50.110924,"longitude":8.682127,"reserved":0,"last_update":"0001-01-01T00:00:00Z","name_a2s":"Uncletopia | Frankfurt | 7 | No Payload","protocol":17,"map":"cp_5gorge","folder":"tf","game":"Team Fortress","app_id":440,"player_count":8,"max_players":24,"Bots":0,"server_type":"Dedicated","server_os":"Linux","password":true,"vac":true,"version":"7708610","steam_id":85568392924742827,"keywords":["cp","nocrits","nodmgspread","uncletopia"],"game_id":440,"stv_port":27076,"stv_name":"Uncletopia | Frankfurt | 7 | No Payload | STV","players":[{"user_id":46,"name":"Thors","steam_id":76561197968739075,"connected_time":788000000000,"state":"active","ping":45},{"user_id":44,"name":"Pan Pan","steam_id":76561199074670515,"connected_time":1358000000000,"state":"active","ping":94},{"user_id":48,"name":"Stargaming1 [G.E.W.P]","steam_id":76561198253167070,"connected_time":476000000000,"state":"active","ping":55},{"user_id":49,"name":"Arch","steam_id":76561198079416022,"connected_time":439000000000,"state":"active","ping":50},{"user_id":50,"name":"Ghozt","steam_id":76561198289838374,"connected_time":257000000000,"state":"active","ping":60},{"user_id":29,"name":"ayuumi","steam_id":76561198796327257,"connected_time":2368000000000,"state":"active","ping":46},{"user_id":27,"name":"autotopilot","steam_id":76561198261922138,"connected_time":2566000000000,"state":"active","ping":72},{"user_id":42,"name":"Gloteran","steam_id":76561199092623161,"connected_time":1980000000000,"state":"active","ping":52}]},{"server_id":24,"name":"Uncletopia | Frankfurt | 8 | Community","name_short":"frk-8","host":"frk-1.de.uncletopia.com","port":27085,"enabled":true,"region":"eu","cc":"de","latitude":50.110924,"longitude":8.682127,"reserved":0,"last_update":"0001-01-01T00:00:00Z","name_a2s":"Uncletopia | Frankfurt | 8 | Community","protocol":17,"map":"workshop/koth_ramjam_v2_b2.ugc2865676487","folder":"tf","game":"Team Fortress","app_id":440,"player_count":0,"max_players":24,"Bots":0,"server_type":"Dedicated","server_os":"Linux","password":true,"vac":true,"version":"7708610","steam_id":85568392924742828,"keywords":["cp","nocrits","nodmgspread","uncletopia"],"game_id":440,"stv_port":27086,"stv_name":"Uncletopia | Frankfurt | 8 | Community | STV","players":null},{"server_id":202,"name":"Uncletopia | Hong Kong | 1 | All Maps","name_short":"hgk-1","host":"hgk-1.hk.uncletopia.com","port":27015,"enabled":true,"region":"asia","cc":"hk","latitude":22.302711,"longitude":114.177216,"reserved":0,"last_update":"0001-01-01T00:00:00Z","name_a2s":"Uncletopia | Hong Kong | 1 | All Maps","protocol":17,"map":"koth_cascade","folder":"tf","game":"Team Fortress","app_id":440,"player_count":0,"max_players":24,"Bots":0,"server_type":"Dedicated","server_os":"Linux","password":true,"vac":true,"version":"7708610","steam_id":85568392924494504,"keywords":["cp","nocrits","nodmgspread","uncletopia"],"game_id":440,"stv_port":27016,"stv_name":"Uncletopia | Hong Kong | 1 | All Maps | STV","players":null},{"server_id":1,"name":"Uncletopia | Los Angeles | 1 | All Maps","name_short":"lax-1","host":"lax-1.us.uncletopia.com","port":27015,"enabled":true,"region":"us-west","cc":"us","latitude":33.94279,"longitude":-118.41004,"reserved":0,"last_update":"0001-01-01T00:00:00Z","name_a2s":"Uncletopia | Los Angeles | 1 | All Maps","protocol":17,"map":"koth_highpass","folder":"tf","game":"Team Fortress","app_id":440,"player_count":12,"max_players":24,"Bots":0,"server_type":"Dedicated","server_os":"Linux","password":true,"vac":true,"version":"7708610","steam_id":85568392924469991,"keywords":["cp","nocrits","nodmgspread","uncletopia"],"game_id":440,"stv_port":27016,"stv_name":"Uncletopia | Los Angeles | 1 | All Maps | STV","players":[{"user_id":6,"name":"Werewolfo","steam_id":76561198143597449,"connected_time":2492000000000,"state":"active","ping":63},{"user_id":24,"name":"❤ Alice","steam_id":76561198869945051,"connected_time":80000000000,"state":"active","ping":88},{"user_id":8,"name":"luke8538","steam_id":76561198067480563,"connected_time":1929000000000,"state":"active","ping":199},{"user_id":12,"name":"jerma enthusiast","steam_id":76561198359466264,"connected_time":1243000000000,"state":"active","ping":112},{"user_id":15,"name":"BlockBurst","steam_id":76561199220851075,"connected_time":889000000000,"state":"active","ping":38},{"user_id":26,"name":"Varry","steam_id":76561198093696872,"connected_time":56000000000,"state":"spawning","ping":189},{"user_id":16,"name":"marrimae","steam_id":76561198077579990,"connected_time":644000000000,"state":"active","ping":126},{"user_id":22,"name":"Jimmy Foo","steam_id":76561198119623731,"connected_time":241000000000,"state":"active","ping":123},{"user_id":25,"name":"Continue?]","steam_id":76561199174579733,"connected_time":60000000000,"state":"active","ping":224},{"user_id":27,"name":"B-0-D-I-E ✓","steam_id":76561198079474904,"connected_time":42000000000,"state":"active","ping":75},{"user_id":20,"name":"Neco sk8er","steam_id":76561198296295074,"connected_time":311000000000,"state":"active","ping":109},{"user_id":21,"name":"StarGuyVI","steam_id":76561199366304746,"connected_time":261000000000,"state":"active","ping":96}]},{"server_id":112,"name":"Uncletopia | Los Angeles | 2 | All Maps","name_short":"lax-2","host":"lax-1.us.uncletopia.com","port":27025,"enabled":true,"region":"us-west","cc":"us","latitude":33.94279,"longitude":-118.41004,"reserved":0,"last_update":"0001-01-01T00:00:00Z","name_a2s":"Uncletopia | Los Angeles | 2 | All Maps","protocol":17,"map":"pl_snowycoast","folder":"tf","game":"Team Fortress","app_id":440,"player_count":0,"max_players":24,"Bots":0,"server_type":"Dedicated","server_os":"Linux","password":true,"vac":true,"version":"7708610","steam_id":85568392924469992,"keywords":["nocrits","nodmgspread","payload","uncletopia"],"game_id":440,"stv_port":27026,"stv_name":"Uncletopia | Los Angeles | 2 | All Maps | STV","players":null},{"server_id":324,"name":"Uncletopia | Los Angeles | 3 | All Maps","name_short":"lax-3","host":"lax-1.us.uncletopia.com","port":27035,"enabled":true,"region":"us-west","cc":"us","latitude":33.94279,"longitude":-118.41004,"reserved":0,"last_update":"0001-01-01T00:00:00Z","name_a2s":"Uncletopia | Los Angeles | 3 | All Maps","protocol":17,"map":"koth_viaduct","folder":"tf","game":"Team Fortress","app_id":440,"player_count":0,"max_players":24,"Bots":0,"server_type":"Dedicated","server_os":"Linux","password":true,"vac":true,"version":"7708610","steam_id":85568392924510198,"keywords":["cp","nocrits","nodmgspread","uncletopia"],"game_id":440,"stv_port":27036,"stv_name":"Uncletopia | Los Angeles | 3 | All Maps | STV","players":null},{"server_id":25,"name":"Uncletopia | Los Angeles | 4 | No Payload","name_short":"lax-4","host":"lax-1.us.uncletopia.com","port":27045,"enabled":true,"region":"us-west","cc":"us","latitude":33.94279,"longitude":-118.41004,"reserved":0,"last_update":"0001-01-01T00:00:00Z","name_a2s":"Uncletopia | Los Angeles | 4 | No Payload","protocol":17,"map":"ctf_well","folder":"tf","game":"Team Fortress","app_id":440,"player_count":0,"max_players":24,"Bots":0,"server_type":"Dedicated","server_os":"Linux","password":true,"vac":true,"version":"7708610","steam_id":85568392924510199,"keywords":["ctf","nocrits","nodmgspread","uncletopia"],"game_id":440,"stv_port":27046,"stv_name":"Uncletopia | Los Angeles | 4 | No Payload | STV","players":null},{"server_id":11,"name":"Uncletopia | London | 1 | All Maps","name_short":"lon-1","host":"lon-1.uk.uncletopia.com","port":27015,"enabled":true,"region":"eu","cc":"gb","latitude":51.509865,"longitude":-0.118092,"reserved":0,"last_update":"0001-01-01T00:00:00Z","name_a2s":"Uncletopia | London | 1 | All Maps","protocol":17,"map":"pl_barnblitz","folder":"tf","game":"Team Fortress","app_id":440,"player_count":24,"max_players":24,"Bots":0,"server_type":"Dedicated","server_os":"Linux","password":true,"vac":true,"version":"7708610","steam_id":85568392924367362,"keywords":["nocrits","nodmgspread","payload","uncletopia"],"game_id":440,"stv_port":27016,"stv_name":"Uncletopia | London | 1 | All Maps | STV","players":[{"user_id":776,"name":"BadFemboy","steam_id":76561198072320671,"connected_time":4540000000000,"state":"active","ping":32},{"user_id":808,"name":"Davidoff","steam_id":76561199099163283,"connected_time":1453000000000,"state":"active","ping":74},{"user_id":800,"name":"Talento","steam_id":76561198163890959,"connected_time":2468000000000,"state":"active","ping":30},{"user_id":817,"name":"Nostradamus","steam_id":76561198349792686,"connected_time":927000000000,"state":"active","ping":62},{"user_id":813,"name":"LordTrap.exe","steam_id":76561198318089716,"connected_time":998000000000,"state":"active","ping":53},{"user_id":815,"name":"haah waaw","steam_id":76561197997807016,"connected_time":945000000000,"state":"active","ping":89},{"user_id":786,"name":"TheFlames","steam_id":76561198179314694,"connected_time":3848000000000,"state":"active","ping":60},{"user_id":810,"name":"most sane Midnight barber","steam_id":76561198310095220,"connected_time":1249000000000,"state":"active","ping":44},{"user_id":816,"name":"Senior","steam_id":76561198065014164,"connected_time":943000000000,"state":"active","ping":45},{"user_id":818,"name":"Posho","steam_id":76561198062396436,"connected_time":648000000000,"state":"active","ping":44},{"user_id":819,"name":"Big_Bunda","steam_id":76561198429058028,"connected_time":243000000000,"state":"active","ping":54},{"user_id":778,"name":"soft G","steam_id":76561198109876007,"connected_time":4490000000000,"state":"active","ping":147},{"user_id":812,"name":"Linus Mudrocket","steam_id":76561197979606110,"connected_time":1193000000000,"state":"active","ping":51},{"user_id":762,"name":"stupidugly","steam_id":76561198914610283,"connected_time":6034000000000,"state":"active","ping":75},{"user_id":811,"name":"JohnMat2","steam_id":76561199007662486,"connected_time":1239000000000,"state":"active","ping":58},{"user_id":780,"name":"xXx_Twink_Hunter_xXx","steam_id":76561198397024973,"connected_time":4117000000000,"state":"active","ping":31},{"user_id":809,"name":"BX","steam_id":76561197962889211,"connected_time":1271000000000,"state":"active","ping":55},{"user_id":745,"name":"lvl. 50 honkler","steam_id":76561198061688660,"connected_time":7155000000000,"state":"active","ping":115},{"user_id":804,"name":"Whyx","steam_id":76561198064909404,"connected_time":1911000000000,"state":"active","ping":64},{"user_id":794,"name":"KPhii","steam_id":76561198970587061,"connected_time":2986000000000,"state":"active","ping":56},{"user_id":722,"name":"Brumple Tumpus","steam_id":76561198259668029,"connected_time":8271000000000,"state":"active","ping":48},{"user_id":807,"name":"AvocadoConstant","steam_id":76561198343031982,"connected_time":1681000000000,"state":"active","ping":71},{"user_id":797,"name":"Aaron","steam_id":76561197990046953,"connected_time":2735000000000,"state":"active","ping":58},{"user_id":814,"name":"sova","steam_id":76561199040246790,"connected_time":995000000000,"state":"active","ping":50}]},{"server_id":114,"name":"Uncletopia | London | 2 | All Maps","name_short":"lon-2","host":"lon-1.uk.uncletopia.com","port":27025,"enabled":true,"region":"eu","cc":"gb","latitude":51.509865,"longitude":-0.118092,"reserved":0,"last_update":"0001-01-01T00:00:00Z","name_a2s":"Uncletopia | London | 2 | All Maps","protocol":17,"map":"pl_frontier_final","folder":"tf","game":"Team Fortress","app_id":440,"player_count":23,"max_players":24,"Bots":0,"server_type":"Dedicated","server_os":"Linux","password":true,"vac":true,"version":"7708610","steam_id":85568392924470941,"keywords":["nocrits","nodmgspread","payload","uncletopia"],"game_id":440,"stv_port":27026,"stv_name":"Uncletopia | London | 2 | All Maps | STV","players":[{"user_id":175,"name":"Tj0ckis","steam_id":76561198108854226,"connected_time":292000000000,"state":"active","ping":76},{"user_id":160,"name":"Mr. Pink","steam_id":76561198065858172,"connected_time":1303000000000,"state":"active","ping":111},{"user_id":178,"name":"lelop","steam_id":76561198277363229,"connected_time":243000000000,"state":"active","ping":59},{"user_id":169,"name":"moser23","steam_id":76561197960543171,"connected_time":1123000000000,"state":"active","ping":50},{"user_id":176,"name":"Axio","steam_id":76561198046826031,"connected_time":266000000000,"state":"active","ping":60},{"user_id":142,"name":"Millero15","steam_id":76561198143105719,"connected_time":2456000000000,"state":"active","ping":81},{"user_id":148,"name":"NotFionn","steam_id":76561198890525176,"connected_time":2247000000000,"state":"active","ping":64},{"user_id":140,"name":"def","steam_id":76561198857396812,"connected_time":2495000000000,"state":"active","ping":57},{"user_id":174,"name":"Dakkafex","steam_id":76561198020254869,"connected_time":439000000000,"state":"active","ping":45},{"user_id":150,"name":"LoboPaciente","steam_id":76561198088870962,"connected_time":2138000000000,"state":"active","ping":54},{"user_id":177,"name":"Bloofred","steam_id":76561198111778052,"connected_time":253000000000,"state":"active","ping":49},{"user_id":149,"name":"Raven","steam_id":76561198087296188,"connected_time":2154000000000,"state":"active","ping":61},{"user_id":179,"name":"Dolphin2011","steam_id":76561197997323419,"connected_time":139000000000,"state":"active","ping":89},{"user_id":139,"name":"Spajro","steam_id":76561198257383813,"connected_time":2502000000000,"state":"active","ping":53},{"user_id":163,"name":"Tryrn","steam_id":76561198075487436,"connected_time":1277000000000,"state":"active","ping":99},{"user_id":166,"name":"Mor'du","steam_id":76561198274105878,"connected_time":1252000000000,"state":"active","ping":87},{"user_id":164,"name":"( ]KROAN[ )","steam_id":76561198022840710,"connected_time":1273000000000,"state":"active","ping":73},{"user_id":125,"name":"tob:ias","steam_id":76561198832146626,"connected_time":4008000000000,"state":"active","ping":56},{"user_id":180,"name":"Choruptian","steam_id":76561198017686366,"connected_time":42000000000,"state":"spawning","ping":76},{"user_id":151,"name":"N64","steam_id":76561199077495290,"connected_time":2097000000000,"state":"active","ping":82},{"user_id":173,"name":"Krabs","steam_id":76561198161679477,"connected_time":492000000000,"state":"active","ping":40},{"user_id":167,"name":"Bob_Tostas","steam_id":76561198249006560,"connected_time":1248000000000,"state":"active","ping":78},{"user_id":147,"name":"Bosnian Genocide 1992-1995","steam_id":76561199042202558,"connected_time":2398000000000,"state":"active","ping":59}]},{"server_id":320,"name":"Uncletopia | London | 3 | All Maps","name_short":"lon-3","host":"lon-1.uk.uncletopia.com","port":27035,"enabled":true,"region":"eu","cc":"gb","latitude":51.509865,"longitude":-0.118092,"reserved":0,"last_update":"0001-01-01T00:00:00Z","name_a2s":"Uncletopia | London | 3 | All Maps","protocol":17,"map":"pl_snowycoast","folder":"tf","game":"Team Fortress","app_id":440,"player_count":24,"max_players":24,"Bots":0,"server_type":"Dedicated","server_os":"Linux","password":true,"vac":true,"version":"7708610","steam_id":85568392924510192,"keywords":["nocrits","nodmgspread","payload","uncletopia"],"game_id":440,"stv_port":27036,"stv_name":"Uncletopia | London | 3 | All Maps | STV","players":[{"user_id":254,"name":"Nassu","steam_id":76561198147367577,"connected_time":641000000000,"state":"active","ping":158},{"user_id":241,"name":"yummy_treat_for_mr_beast","steam_id":76561198010251613,"connected_time":1560000000000,"state":"active","ping":76},{"user_id":266,"name":"Ecy","steam_id":76561198110756682,"connected_time":402000000000,"state":"active","ping":47},{"user_id":255,"name":"Zelmor","steam_id":76561197997708311,"connected_time":638000000000,"state":"active","ping":55},{"user_id":236,"name":"Alegz","steam_id":76561198287810139,"connected_time":2266000000000,"state":"active","ping":83},{"user_id":265,"name":"dunduu","steam_id":76561198875240717,"connected_time":421000000000,"state":"active","ping":74},{"user_id":258,"name":"lupe.-","steam_id":76561198079813788,"connected_time":586000000000,"state":"active","ping":61},{"user_id":226,"name":"herman","steam_id":76561198217512589,"connected_time":2379000000000,"state":"active","ping":108},{"user_id":256,"name":"BepisR47","steam_id":76561198084515716,"connected_time":630000000000,"state":"active","ping":34},{"user_id":227,"name":"toe eater","steam_id":76561199272782484,"connected_time":2373000000000,"state":"active","ping":68},{"user_id":259,"name":"Rappin' Sebastian","steam_id":76561198453928256,"connected_time":576000000000,"state":"active","ping":60},{"user_id":260,"name":"Blink","steam_id":76561198144033005,"connected_time":521000000000,"state":"active","ping":52},{"user_id":243,"name":"king251311","steam_id":76561199063310889,"connected_time":1496000000000,"state":"active","ping":87},{"user_id":239,"name":"Sweetcheesus","steam_id":76561198022299033,"connected_time":1710000000000,"state":"active","ping":55},{"user_id":251,"name":"Metka","steam_id":76561197996044178,"connected_time":1112000000000,"state":"active","ping":60},{"user_id":271,"name":"jose.gonzales.2005","steam_id":76561199116830181,"connected_time":124000000000,"state":"active","ping":67},{"user_id":188,"name":"Dane","steam_id":76561198312362896,"connected_time":5436000000000,"state":"active","ping":58},{"user_id":267,"name":"Washed up","steam_id":76561198347336086,"connected_time":397000000000,"state":"active","ping":45},{"user_id":268,"name":"Ben UFO","steam_id":76561198001648348,"connected_time":393000000000,"state":"active","ping":54},{"user_id":231,"name":"Panda","steam_id":76561198176342325,"connected_time":2332000000000,"state":"active","ping":95},{"user_id":264,"name":"Pizza/Cheese/Pepperoni","steam_id":76561198174510235,"connected_time":440000000000,"state":"active","ping":57},{"user_id":249,"name":"Tiliwen","steam_id":76561198334705554,"connected_time":1388000000000,"state":"active","ping":100},{"user_id":235,"name":"jo bidn' | ETLARTORM","steam_id":76561198869576262,"connected_time":2277000000000,"state":"active","ping":118},{"user_id":218,"name":"Инспектор Атас","steam_id":76561199175688390,"connected_time":3376000000000,"state":"active","ping":88}]},{"server_id":321,"name":"Uncletopia | London | 4 | All Maps","name_short":"lon-4","host":"lon-1.uk.uncletopia.com","port":27045,"enabled":true,"region":"eu","cc":"gb","latitude":51.509865,"longitude":-0.118092,"reserved":0,"last_update":"0001-01-01T00:00:00Z","name_a2s":"Uncletopia | London | 4 | All Maps","protocol":17,"map":"pl_frontier_final","folder":"tf","game":"Team Fortress","app_id":440,"player_count":0,"max_players":24,"Bots":0,"server_type":"Dedicated","server_os":"Linux","password":true,"vac":true,"version":"7708610","steam_id":85568392924510193,"keywords":["nocrits","nodmgspread","payload","uncletopia"],"game_id":440,"stv_port":27046,"stv_name":"Uncletopia | London | 4 | All Maps | STV","players":null},{"server_id":21,"name":"Uncletopia | London | 5 | All Maps","name_short":"lon-5","host":"lon-1.uk.uncletopia.com","port":27055,"enabled":true,"region":"eu","cc":"gb","latitude":51.509865,"longitude":-0.118092,"reserved":0,"last_update":"0001-01-01T00:00:00Z","name_a2s":"Uncletopia | London | 5 | All Maps","protocol":17,"map":"pl_barnblitz","folder":"tf","game":"Team Fortress","app_id":440,"player_count":24,"max_players":24,"Bots":0,"server_type":"Dedicated","server_os":"Linux","password":true,"vac":true,"version":"7708610","steam_id":85568392924742829,"keywords":["nocrits","nodmgspread","payload","uncletopia"],"game_id":440,"stv_port":27056,"stv_name":"Uncletopia | London | 5 | All Maps | STV","players":[{"user_id":364,"name":"abigail","steam_id":76561198132932617,"connected_time":848000000000,"state":"active","ping":65},{"user_id":378,"name":"bored","steam_id":76561198981796805,"connected_time":538000000000,"state":"active","ping":62},{"user_id":347,"name":"Edtwee","steam_id":76561198079372656,"connected_time":2038000000000,"state":"active","ping":53},{"user_id":340,"name":"R8N - Obismal","steam_id":76561198007482714,"connected_time":2666000000000,"state":"active","ping":72},{"user_id":370,"name":"Čika Kure","steam_id":76561199002244505,"connected_time":684000000000,"state":"active","ping":69},{"user_id":381,"name":"fénix","steam_id":76561198083199151,"connected_time":492000000000,"state":"active","ping":56},{"user_id":384,"name":"tf2 enjoyer","steam_id":76561199043416615,"connected_time":199000000000,"state":"active","ping":73},{"user_id":352,"name":"Timo010","steam_id":76561198832395256,"connected_time":1090000000000,"state":"active","ping":81},{"user_id":349,"name":"󠀡󠀡⁧⁧爪卂Ꮆ乇","steam_id":76561198353389145,"connected_time":1918000000000,"state":"active","ping":66},{"user_id":368,"name":"Xenny femmy","steam_id":76561198299269074,"connected_time":739000000000,"state":"active","ping":125},{"user_id":360,"name":"greenilus","steam_id":76561199107086705,"connected_time":1020000000000,"state":"active","ping":42},{"user_id":311,"name":"Sonnakai","steam_id":76561198051688749,"connected_time":4754000000000,"state":"active","ping":42},{"user_id":361,"name":"R!not","steam_id":76561197986328786,"connected_time":1012000000000,"state":"active","ping":44},{"user_id":382,"name":"Some dude who plays tf2","steam_id":76561199257287496,"connected_time":282000000000,"state":"active","ping":122},{"user_id":379,"name":"your dads bald spot","steam_id":76561199383437138,"connected_time":535000000000,"state":"active","ping":119},{"user_id":330,"name":"When Life gives you Lemons","steam_id":76561198318290663,"connected_time":3123000000000,"state":"active","ping":59},{"user_id":365,"name":"Valfezant","steam_id":76561199063983797,"connected_time":812000000000,"state":"active","ping":68},{"user_id":380,"name":"Sexy Medic","steam_id":76561199137711547,"connected_time":507000000000,"state":"active","ping":78},{"user_id":296,"name":"Smag","steam_id":76561198153675141,"connected_time":6027000000000,"state":"active","ping":51},{"user_id":363,"name":"Oak","steam_id":76561198067315672,"connected_time":971000000000,"state":"active","ping":53},{"user_id":346,"name":"queerio","steam_id":76561199400809482,"connected_time":2336000000000,"state":"active","ping":60},{"user_id":327,"name":"coachnetworkoperared514","steam_id":76561198236015392,"connected_time":3342000000000,"state":"active","ping":120},{"user_id":372,"name":"Freakyluap","steam_id":76561198010564385,"connected_time":682000000000,"state":"active","ping":56},{"user_id":351,"name":"grim reaper god","steam_id":76561199394194512,"connected_time":1613000000000,"state":"active","ping":55}]},{"server_id":22,"name":"Uncletopia | London | 6 | All Maps","name_short":"lon-6","host":"lon-1.uk.uncletopia.com","port":27065,"enabled":true,"region":"eu","cc":"gb","latitude":51.509865,"longitude":-0.118092,"reserved":0,"last_update":"0001-01-01T00:00:00Z","name_a2s":"Uncletopia | London | 6 | All Maps","protocol":17,"map":"cp_sunshine","folder":"tf","game":"Team Fortress","app_id":440,"player_count":0,"max_players":24,"Bots":0,"server_type":"Dedicated","server_os":"Linux","password":true,"vac":true,"version":"7708610","steam_id":85568392924742830,"keywords":["cp","nocrits","nodmgspread","uncletopia"],"game_id":440,"stv_port":27066,"stv_name":"Uncletopia | London | 6 | All Maps | STV","players":null},{"server_id":40,"name":"Uncletopia | London | 7 | No Payload","name_short":"lon-7","host":"lon-1.uk.uncletopia.com","port":27075,"enabled":true,"region":"eu","cc":"gb","latitude":51.509865,"longitude":-0.118092,"reserved":0,"last_update":"0001-01-01T00:00:00Z","name_a2s":"Uncletopia | London | 7 | No Payload","protocol":17,"map":"koth_lazarus","folder":"tf","game":"Team Fortress","app_id":440,"player_count":2,"max_players":24,"Bots":0,"server_type":"Dedicated","server_os":"Linux","password":true,"vac":true,"version":"7708610","steam_id":85568392924964314,"keywords":["cp","nocrits","nodmgspread","uncletopia"],"game_id":440,"stv_port":27076,"stv_name":"Uncletopia | London | 7 | No Payload | STV","players":[{"user_id":7,"name":"Le Chevalier Pingouin","steam_id":76561198221355000,"connected_time":2309000000000,"state":"active","ping":35},{"user_id":8,"name":"ginaocallaghan","steam_id":76561198427110116,"connected_time":962000000000,"state":"active","ping":60}]},{"server_id":41,"name":"Uncletopia | London | 8 | Community","name_short":"lon-8","host":"lon-1.uk.uncletopia.com","port":27085,"enabled":true,"region":"eu","cc":"gb","latitude":51.509865,"longitude":-0.118092,"reserved":0,"last_update":"0001-01-01T00:00:00Z","name_a2s":"Uncletopia | London | 8 | Community","protocol":17,"map":"workshop/pl_cactuscanyon_redux_rc4b.ugc2579644293","folder":"tf","game":"Team Fortress","app_id":440,"player_count":0,"max_players":24,"Bots":0,"server_type":"Dedicated","server_os":"Linux","password":true,"vac":true,"version":"7708610","steam_id":85568392924964315,"keywords":["nocrits","nodmgspread","payload","uncletopia"],"game_id":440,"stv_port":27086,"stv_name":"Uncletopia | London | 8 | Community | STV","players":null},{"server_id":300,"name":"Uncletopia | Montréal | 1 | All Maps","name_short":"mtl-1","host":"mtl-1.ca.uncletopia.com","port":27015,"enabled":true,"region":"us-east","cc":"ca","latitude":45.50889,"longitude":-73.56167,"reserved":0,"last_update":"0001-01-01T00:00:00Z","name_a2s":"Uncletopia | Montréal | 1 | All Maps","protocol":17,"map":"pl_borneo","folder":"tf","game":"Team Fortress","app_id":440,"player_count":0,"max_players":24,"Bots":0,"server_type":"Dedicated","server_os":"Linux","password":true,"vac":true,"version":"7708610","steam_id":85568392924500087,"keywords":["nocrits","nodmgspread","payload","uncletopia"],"game_id":440,"stv_port":27016,"stv_name":"Uncletopia | Montréal | 1 | All Maps | STV","players":null},{"server_id":301,"name":"Uncletopia | Montréal | 2 | All Maps","name_short":"mtl-2","host":"mtl-1.ca.uncletopia.com","port":27025,"enabled":true,"region":"us-east","cc":"ca","latitude":45.50889,"longitude":-73.56167,"reserved":0,"last_update":"0001-01-01T00:00:00Z","name_a2s":"Uncletopia | Montréal | 2 | All Maps","protocol":17,"map":"pl_borneo","folder":"tf","game":"Team Fortress","app_id":440,"player_count":0,"max_players":24,"Bots":0,"server_type":"Dedicated","server_os":"Linux","password":true,"vac":true,"version":"7708610","steam_id":85568392924500088,"keywords":["nocrits","nodmgspread","payload","uncletopia"],"game_id":440,"stv_port":27026,"stv_name":"Uncletopia | Montréal | 2 | All Maps | STV","players":null},{"server_id":302,"name":"Uncletopia | Montréal | 3 | All Maps","name_short":"mtl-3","host":"mtl-1.ca.uncletopia.com","port":27035,"enabled":true,"region":"us-east","cc":"ca","latitude":45.50889,"longitude":-73.56167,"reserved":0,"last_update":"0001-01-01T00:00:00Z","name_a2s":"Uncletopia | Montréal | 3 | All Maps","protocol":17,"map":"pl_swiftwater_final1","folder":"tf","game":"Team Fortress","app_id":440,"player_count":0,"max_players":24,"Bots":0,"server_type":"Dedicated","server_os":"Linux","password":true,"vac":true,"version":"7708610","steam_id":85568392924500089,"keywords":["nocrits","nodmgspread","payload","uncletopia"],"game_id":440,"stv_port":27036,"stv_name":"Uncletopia | Montréal | 3 | All Maps | STV","players":null},{"server_id":303,"name":"Uncletopia | Montréal | 4 | No Payload","name_short":"mtl-4","host":"mtl-1.ca.uncletopia.com","port":27045,"enabled":true,"region":"us-east","cc":"ca","latitude":45.50889,"longitude":-73.56167,"reserved":0,"last_update":"0001-01-01T00:00:00Z","name_a2s":"Uncletopia | Montréal | 4 | No Payload","protocol":17,"map":"cp_gorge","folder":"tf","game":"Team Fortress","app_id":440,"player_count":0,"max_players":24,"Bots":0,"server_type":"Dedicated","server_os":"Linux","password":true,"vac":true,"version":"7708610","steam_id":85568392924500090,"keywords":["cp","nocrits","nodmgspread","uncletopia"],"game_id":440,"stv_port":27046,"stv_name":"Uncletopia | Montréal | 4 | No Payload | STV","players":null},{"server_id":13,"name":"Uncletopia | New York City | 1 | All Maps","name_short":"nyc-1","host":"nyc-1.us.uncletopia.com","port":27015,"enabled":true,"region":"us-east","cc":"us","latitude":40.73061,"longitude":-73.93524,"reserved":0,"last_update":"0001-01-01T00:00:00Z","name_a2s":"Uncletopia | New York City | 1 | All Maps","protocol":17,"map":"pl_wutville_event","folder":"tf","game":"Team Fortress","app_id":440,"player_count":23,"max_players":24,"Bots":0,"server_type":"Dedicated","server_os":"Linux","password":true,"vac":true,"version":"7708610","steam_id":85568392924469993,"keywords":["nocrits","nodmgspread","payload","uncletopia"],"game_id":440,"stv_port":27016,"stv_name":"Uncletopia | New York City | 1 | All Maps | STV","players":[{"user_id":49,"name":"swiffie","steam_id":76561198226286700,"connected_time":1253000000000,"state":"active","ping":144},{"user_id":65,"name":"OrangeShoes","steam_id":76561197971249940,"connected_time":68000000000,"state":"active","ping":81},{"user_id":66,"name":"Bychopy","steam_id":76561198356288911,"connected_time":63000000000,"state":"active","ping":124},{"user_id":42,"name":"tulpa","steam_id":76561198013253513,"connected_time":1562000000000,"state":"active","ping":58},{"user_id":46,"name":"onyxmckoy","steam_id":76561198047037902,"connected_time":1302000000000,"state":"active","ping":110},{"user_id":15,"name":"Daksuki","steam_id":76561198084127751,"connected_time":2855000000000,"state":"active","ping":94},{"user_id":67,"name":"Goreguy122","steam_id":76561198063359352,"connected_time":57000000000,"state":"active","ping":65},{"user_id":17,"name":"SlitherDoodle","steam_id":76561198000275473,"connected_time":2769000000000,"state":"active","ping":85},{"user_id":64,"name":"veewon","steam_id":76561198276513608,"connected_time":193000000000,"state":"active","ping":156},{"user_id":55,"name":"static","steam_id":76561199093261935,"connected_time":1143000000000,"state":"active","ping":59},{"user_id":21,"name":"azzy","steam_id":76561198825918211,"connected_time":2604000000000,"state":"active","ping":165},{"user_id":33,"name":"M14","steam_id":76561199238019920,"connected_time":2366000000000,"state":"active","ping":83},{"user_id":61,"name":"Lemony Lilly (She/Her)","steam_id":76561198042479066,"connected_time":285000000000,"state":"active","ping":78},{"user_id":24,"name":"igbygames","steam_id":76561199169224041,"connected_time":2571000000000,"state":"active","ping":80},{"user_id":26,"name":"Jeffenthropus","steam_id":76561198134204248,"connected_time":2523000000000,"state":"active","ping":60},{"user_id":41,"name":"JelloMotion","steam_id":76561198045892038,"connected_time":1604000000000,"state":"active","ping":65},{"user_id":53,"name":"Diamond Jack","steam_id":76561198321304762,"connected_time":1178000000000,"state":"active","ping":43},{"user_id":68,"name":"flappyflap2","steam_id":76561198285048973,"connected_time":27000000000,"state":"spawning","ping":33},{"user_id":56,"name":"Monolate","steam_id":76561199081379410,"connected_time":1090000000000,"state":"active","ping":75},{"user_id":35,"name":"Bother","steam_id":76561198336750909,"connected_time":2307000000000,"state":"active","ping":34},{"user_id":38,"name":"stellatheknave","steam_id":76561198264327844,"connected_time":2195000000000,"state":"active","ping":117},{"user_id":39,"name":"Soda","steam_id":76561198219209367,"connected_time":2167000000000,"state":"active","ping":90},{"user_id":63,"name":"kametro4","steam_id":76561198835430429,"connected_time":281000000000,"state":"active","ping":77}]},{"server_id":14,"name":"Uncletopia | New York City | 2 | All Maps","name_short":"nyc-2","host":"nyc-1.us.uncletopia.com","port":27025,"enabled":true,"region":"us-east","cc":"us","latitude":40.73061,"longitude":-73.93524,"reserved":0,"last_update":"0001-01-01T00:00:00Z","name_a2s":"Uncletopia | New York City | 2 | All Maps","protocol":17,"map":"cp_altitude","folder":"tf","game":"Team Fortress","app_id":440,"player_count":0,"max_players":24,"Bots":0,"server_type":"Dedicated","server_os":"Linux","password":true,"vac":true,"version":"7708610","steam_id":85568392924469994,"keywords":["cp","nocrits","nodmgspread","uncletopia"],"game_id":440,"stv_port":27026,"stv_name":"Uncletopia | New York City | 2 | All Maps | STV","players":null},{"server_id":15,"name":"Uncletopia | New York City | 3 | All Maps","name_short":"nyc-3","host":"nyc-1.us.uncletopia.com","port":27035,"enabled":true,"region":"us-east","cc":"us","latitude":40.73061,"longitude":-73.93524,"reserved":0,"last_update":"0001-01-01T00:00:00Z","name_a2s":"Uncletopia | New York City | 3 | All Maps","protocol":17,"map":"koth_cascade","folder":"tf","game":"Team Fortress","app_id":440,"player_count":0,"max_players":24,"Bots":0,"server_type":"Dedicated","server_os":"Linux","password":true,"vac":true,"version":"7708610","steam_id":85568392924742820,"keywords":["cp","nocrits","nodmgspread","uncletopia"],"game_id":440,"stv_port":27036,"stv_name":"Uncletopia | New York City | 3 | All Maps | STV","players":null},{"server_id":16,"name":"Uncletopia | New York City | 4 | Community","name_short":"nyc-4","host":"nyc-1.us.uncletopia.com","port":27045,"enabled":true,"region":"us-east","cc":"us","latitude":40.73061,"longitude":-73.93524,"reserved":0,"last_update":"0001-01-01T00:00:00Z","name_a2s":"Uncletopia | New York City | 4 | Community","protocol":17,"map":"workshop/rd_asteroid_redux_rc9.ugc2154902912","folder":"tf","game":"Team Fortress","app_id":440,"player_count":0,"max_players":24,"Bots":0,"server_type":"Dedicated","server_os":"Linux","password":true,"vac":true,"version":"7708610","steam_id":85568392924742821,"keywords":["beta","nocrits","nodmgspread","rd","uncletopia"],"game_id":440,"stv_port":27046,"stv_name":"Uncletopia | New York City | 4 | Community | STV","players":null},{"server_id":142,"name":"Uncletopia | São Paulo | 1 | All Maps","name_short":"sao-1","host":"sao-1.br.uncletopia.com","port":27015,"enabled":true,"region":"sa","cc":"br","latitude":-23.533773,"longitude":-46.62529,"reserved":0,"last_update":"0001-01-01T00:00:00Z","name_a2s":"Uncletopia | São Paulo | 1 | All Maps","protocol":17,"map":"pl_upward","folder":"tf","game":"Team Fortress","app_id":440,"player_count":0,"max_players":24,"Bots":0,"server_type":"Dedicated","server_os":"Linux","password":true,"vac":true,"version":"7708610","steam_id":85568392924469996,"keywords":["nocrits","nodmgspread","payload","uncletopia"],"game_id":440,"stv_port":27016,"stv_name":"Uncletopia | São Paulo | 1 | All Maps | STV","players":null},{"server_id":143,"name":"Uncletopia | São Paulo | 2 | All Maps","name_short":"sao-2","host":"sao-2.br.uncletopia.com","port":27015,"enabled":true,"region":"sa","cc":"br","latitude":-23.533773,"longitude":-46.62529,"reserved":0,"last_update":"0001-01-01T00:00:00Z","name_a2s":"Uncletopia | São Paulo | 2 | All Maps","protocol":17,"map":"koth_nucleus","folder":"tf","game":"Team Fortress","app_id":440,"player_count":0,"max_players":24,"Bots":0,"server_type":"Dedicated","server_os":"Linux","password":true,"vac":true,"version":"7708610","steam_id":85568392924485349,"keywords":["cp","nocrits","nodmgspread","uncletopia"],"game_id":440,"stv_port":27016,"stv_name":"Uncletopia | São Paulo | 2 | All Maps | STV","players":null},{"server_id":7,"name":"Uncletopia | Seattle | 1 | All Maps","name_short":"sea-1","host":"sea-1.us.uncletopia.com","port":27015,"enabled":true,"region":"us-west","cc":"us","latitude":47.608013,"longitude":-122.33517,"reserved":0,"last_update":"0001-01-01T00:00:00Z","name_a2s":"Uncletopia | Seattle | 1 | All Maps","protocol":17,"map":"pl_swiftwater_final1","folder":"tf","game":"Team Fortress","app_id":440,"player_count":24,"max_players":24,"Bots":0,"server_type":"Dedicated","server_os":"Linux","password":true,"vac":true,"version":"7708610","steam_id":85568392924469997,"keywords":["nocrits","nodmgspread","payload","uncletopia"],"game_id":440,"stv_port":27016,"stv_name":"Uncletopia | Seattle | 1 | All Maps | STV","players":[{"user_id":331,"name":"[AS]","steam_id":76561198094990358,"connected_time":493000000000,"state":"active","ping":75},{"user_id":325,"name":"WildCard","steam_id":76561198314058014,"connected_time":945000000000,"state":"active","ping":46},{"user_id":332,"name":"Some Genius","steam_id":76561198101868089,"connected_time":401000000000,"state":"active","ping":61},{"user_id":298,"name":"mhmyeah_yeahmhm","steam_id":76561198341190679,"connected_time":2678000000000,"state":"active","ping":51},{"user_id":270,"name":"MY FAVORITE TYPE OF VIOLENCE","steam_id":76561198011675372,"connected_time":4900000000000,"state":"active","ping":58},{"user_id":337,"name":"¿skitt1eS?","steam_id":76561198330093211,"connected_time":228000000000,"state":"active","ping":151},{"user_id":339,"name":"a chicken","steam_id":76561198313121580,"connected_time":164000000000,"state":"active","ping":74},{"user_id":308,"name":"Wind Fucker","steam_id":76561198275362375,"connected_time":1739000000000,"state":"active","ping":66},{"user_id":327,"name":"NotAWeeb","steam_id":76561198165530739,"connected_time":761000000000,"state":"active","ping":60},{"user_id":293,"name":"Mr. Ruckus","steam_id":76561198339566190,"connected_time":3348000000000,"state":"active","ping":134},{"user_id":340,"name":"DJHyper777","steam_id":76561198304548526,"connected_time":53000000000,"state":"spawning","ping":59},{"user_id":311,"name":"mega","steam_id":76561198089520959,"connected_time":1541000000000,"state":"active","ping":86},{"user_id":336,"name":"Shark Sandwich","steam_id":76561198025007938,"connected_time":303000000000,"state":"active","ping":119},{"user_id":329,"name":"Camfour","steam_id":76561198083090140,"connected_time":584000000000,"state":"active","ping":78},{"user_id":303,"name":"D34dR4bbit","steam_id":76561198167411455,"connected_time":2441000000000,"state":"active","ping":43},{"user_id":338,"name":"Tuki","steam_id":76561198226746584,"connected_time":222000000000,"state":"active","ping":165},{"user_id":316,"name":"kebo","steam_id":76561198237159430,"connected_time":1399000000000,"state":"active","ping":79},{"user_id":274,"name":"Mr.Pan","steam_id":76561198069030613,"connected_time":4844000000000,"state":"active","ping":73},{"user_id":341,"name":"cookiegenius2398.r2","steam_id":76561198970759258,"connected_time":52000000000,"state":"spawning","ping":87},{"user_id":324,"name":"Seriously Bruh","steam_id":76561198070408485,"connected_time":961000000000,"state":"active","ping":63},{"user_id":286,"name":"Croxsbow","steam_id":76561198893327481,"connected_time":3727000000000,"state":"active","ping":48},{"user_id":292,"name":"EatSomeBEES","steam_id":76561198047334307,"connected_time":3407000000000,"state":"active","ping":77},{"user_id":185,"name":"THUD","steam_id":76561198009630323,"connected_time":10341000000000,"state":"active","ping":56},{"user_id":314,"name":"nintendofan712","steam_id":76561198067232540,"connected_time":1513000000000,"state":"active","ping":123}]},{"server_id":119,"name":"Uncletopia | Seattle | 2 | All Maps","name_short":"sea-2","host":"sea-1.us.uncletopia.com","port":27025,"enabled":true,"region":"us-west","cc":"us","latitude":47.608013,"longitude":-122.33517,"reserved":0,"last_update":"0001-01-01T00:00:00Z","name_a2s":"Uncletopia | Seattle | 2 | All Maps","protocol":17,"map":"pl_pier","folder":"tf","game":"Team Fortress","app_id":440,"player_count":0,"max_players":24,"Bots":0,"server_type":"Dedicated","server_os":"Linux","password":true,"vac":true,"version":"7708610","steam_id":85568392924469998,"keywords":["nocrits","nodmgspread","payload","uncletopia"],"game_id":440,"stv_port":27026,"stv_name":"Uncletopia | Seattle | 2 | All Maps | STV","players":null},{"server_id":17,"name":"Uncletopia | San Francisco | 1 | All Maps","name_short":"sfo-1","host":"sfo-1.us.uncletopia.com","port":27015,"enabled":true,"region":"us-west","cc":"us","latitude":37.77397,"longitude":-122.4313,"reserved":0,"last_update":"0001-01-01T00:00:00Z","name_a2s":"Uncletopia | San Francisco | 1 | All Maps","protocol":17,"map":"pl_barnblitz","folder":"tf","game":"Team Fortress","app_id":440,"player_count":0,"max_players":24,"Bots":0,"server_type":"Dedicated","server_os":"Linux","password":true,"vac":true,"version":"7708610","steam_id":85568392924469999,"keywords":["nocrits","nodmgspread","payload","uncletopia"],"game_id":440,"stv_port":27016,"stv_name":"Uncletopia | San Francisco | 1 | All Maps | STV","players":null},{"server_id":18,"name":"Uncletopia | San Francisco | 2 | All Maps","name_short":"sfo-2","host":"sfo-1.us.uncletopia.com","port":27025,"enabled":true,"region":"us-west","cc":"us","latitude":37.77397,"longitude":-122.4313,"reserved":0,"last_update":"0001-01-01T00:00:00Z","name_a2s":"Uncletopia | San Francisco | 2 | All Maps","protocol":17,"map":"pl_upward","folder":"tf","game":"Team Fortress","app_id":440,"player_count":0,"max_players":24,"Bots":0,"server_type":"Dedicated","server_os":"Linux","password":true,"vac":true,"version":"7708610","steam_id":85568392924470000,"keywords":["nocrits","nodmgspread","payload","uncletopia"],"game_id":440,"stv_port":27026,"stv_name":"Uncletopia | San Francisco | 2 | All Maps | STV","players":null},{"server_id":19,"name":"Uncletopia | San Francisco | 3 | No Payload","name_short":"sfo-3","host":"sfo-1.us.uncletopia.com","port":27035,"enabled":true,"region":"us-west","cc":"us","latitude":37.77397,"longitude":-122.4313,"reserved":0,"last_update":"0001-01-01T00:00:00Z","name_a2s":"Uncletopia | San Francisco | 3 | No Payload","protocol":17,"map":"koth_lazarus","folder":"tf","game":"Team Fortress","app_id":440,"player_count":0,"max_players":24,"Bots":0,"server_type":"Dedicated","server_os":"Linux","password":true,"vac":true,"version":"7708610","steam_id":85568392924742824,"keywords":["cp","nocrits","nodmgspread","uncletopia"],"game_id":440,"stv_port":27036,"stv_name":"Uncletopia | San Francisco | 3 | No Payload | STV","players":null},{"server_id":20,"name":"Uncletopia | San Francisco | 4 | Community","name_short":"sfo-4","host":"sfo-1.us.uncletopia.com","port":27045,"enabled":true,"region":"us-west","cc":"us","latitude":37.77397,"longitude":-122.4313,"reserved":0,"last_update":"0001-01-01T00:00:00Z","name_a2s":"Uncletopia | San Francisco | 4 | Community","protocol":17,"map":"pl_frontier_final","folder":"tf","game":"Team Fortress","app_id":440,"player_count":0,"max_players":24,"Bots":0,"server_type":"Dedicated","server_os":"Linux","password":true,"vac":true,"version":"7708610","steam_id":85568392924742826,"keywords":["nocrits","nodmgspread","payload","uncletopia"],"game_id":440,"stv_port":27046,"stv_name":"Uncletopia | San Francisco | 4 | Community | STV","players":null},{"server_id":141,"name":"Uncletopia | Sydney | 1 | All Maps","name_short":"syd-1","host":"syd-1.au.uncletopia.com","port":27015,"enabled":true,"region":"au","cc":"au","latitude":-33.865143,"longitude":151.2099,"reserved":0,"last_update":"0001-01-01T00:00:00Z","name_a2s":"Uncletopia | Sydney | 1 | All Maps","protocol":17,"map":"koth_cascade","folder":"tf","game":"Team Fortress","app_id":440,"player_count":0,"max_players":24,"Bots":0,"server_type":"Dedicated","server_os":"Linux","password":true,"vac":true,"version":"7708610","steam_id":85568392924470001,"keywords":["cp","nocrits","nodmgspread","uncletopia"],"game_id":440,"stv_port":27016,"stv_name":"Uncletopia | Sydney | 1 | All Maps | STV","players":null},{"server_id":123,"name":"Uncletopia | Sydney | 2 | All Maps","name_short":"syd-2","host":"syd-1.au.uncletopia.com","port":27025,"enabled":true,"region":"au","cc":"au","latitude":-33.865143,"longitude":151.2099,"reserved":0,"last_update":"0001-01-01T00:00:00Z","name_a2s":"Uncletopia | Sydney | 2 | All Maps","protocol":17,"map":"pl_barnblitz","folder":"tf","game":"Team Fortress","app_id":440,"player_count":0,"max_players":24,"Bots":0,"server_type":"Dedicated","server_os":"Linux","password":true,"vac":true,"version":"7708610","steam_id":85568392924470002,"keywords":["nocrits","nodmgspread","payload","uncletopia"],"game_id":440,"stv_port":27026,"stv_name":"Uncletopia | Sydney | 2 | All Maps | STV","players":null},{"server_id":395,"name":"Uncletopia | Sydney | 3 | All Maps","name_short":"syd-3","host":"syd-1.au.uncletopia.com","port":27035,"enabled":true,"region":"au","cc":"au","latitude":-33.865143,"longitude":151.2099,"reserved":0,"last_update":"0001-01-01T00:00:00Z","name_a2s":"Uncletopia | Sydney | 3 | All Maps","protocol":17,"map":"koth_viaduct","folder":"tf","game":"Team Fortress","app_id":440,"player_count":0,"max_players":24,"Bots":0,"server_type":"Dedicated","server_os":"Linux","password":true,"vac":true,"version":"7708610","steam_id":85568392925194467,"keywords":["cp","nocrits","nodmgspread","uncletopia"],"game_id":440,"stv_port":27036,"stv_name":"Uncletopia | Sydney | 3 | All Maps | STV","players":null},{"server_id":396,"name":"Uncletopia | Sydney | 4 | All Maps","name_short":"syd-4","host":"syd-1.au.uncletopia.com","port":27045,"enabled":true,"region":"au","cc":"au","latitude":-33.865143,"longitude":151.2099,"reserved":0,"last_update":"0001-01-01T00:00:00Z","name_a2s":"Uncletopia | Sydney | 4 | All Maps","protocol":17,"map":"pl_frontier_final","folder":"tf","game":"Team Fortress","app_id":440,"player_count":0,"max_players":24,"Bots":0,"server_type":"Dedicated","server_os":"Linux","password":true,"vac":true,"version":"7708610","steam_id":85568392925397958,"keywords":["nocrits","nodmgspread","payload","uncletopia"],"game_id":440,"stv_port":27046,"stv_name":"Uncletopia | Sydney | 4 | All Maps | STV","players":null},{"server_id":58,"name":"Uncletopia | Sydney | 5 | No Payload","name_short":"syd-5","host":"syd-1.au.uncletopia.com","port":27055,"enabled":true,"region":"au","cc":"au","latitude":-33.865143,"longitude":151.2099,"reserved":0,"last_update":"0001-01-01T00:00:00Z","name_a2s":"Uncletopia | Sydney | 5 | No Payload","protocol":17,"map":"pl_pier","folder":"tf","game":"Team Fortress","app_id":440,"player_count":0,"max_players":24,"Bots":0,"server_type":"Dedicated","server_os":"Linux","password":true,"vac":true,"version":"7708610","steam_id":85568392925397959,"keywords":["nocrits","nodmgspread","payload","uncletopia"],"game_id":440,"stv_port":27056,"stv_name":"Uncletopia | Sydney | 5 | No Payload | STV","players":null},{"server_id":59,"name":"Uncletopia | Sydney | 6 | Community","name_short":"syd-6","host":"syd-1.au.uncletopia.com","port":27065,"enabled":true,"region":"au","cc":"au","latitude":-33.865143,"longitude":151.2099,"reserved":0,"last_update":"0001-01-01T00:00:00Z","name_a2s":"Uncletopia | Sydney | 6 | Community","protocol":17,"map":"pl_badwater","folder":"tf","game":"Team Fortress","app_id":440,"player_count":0,"max_players":24,"Bots":0,"server_type":"Dedicated","server_os":"Linux","password":true,"vac":true,"version":"7708610","steam_id":85568392925397960,"keywords":["nocrits","nodmgspread","payload","uncletopia"],"game_id":440,"stv_port":27066,"stv_name":"Uncletopia | Sydney | 6 | Community | STV","players":null},{"server_id":49,"name":"Uncletopia | Warsaw | 1 | All Maps","name_short":"waw-1","host":"waw-1.pl.uncletopia.com","port":27015,"enabled":true,"region":"eu","cc":"pl","latitude":52.2297,"longitude":21.017532,"reserved":0,"last_update":"0001-01-01T00:00:00Z","name_a2s":"Uncletopia | Warsaw | 1 | All Maps","protocol":17,"map":"koth_cascade","folder":"tf","game":"Team Fortress","app_id":440,"player_count":1,"max_players":24,"Bots":0,"server_type":"Dedicated","server_os":"Linux","password":true,"vac":true,"version":"7708610","steam_id":85568392925397850,"keywords":["cp","nocrits","nodmgspread","uncletopia"],"game_id":440,"stv_port":27016,"stv_name":"Uncletopia | Warsaw | 1 | All Maps | STV","players":[{"user_id":16,"name":"SawdustixPQ","steam_id":76561198815127418,"connected_time":2116000000000,"state":"active","ping":94}]},{"server_id":50,"name":"Uncletopia | Warsaw | 2 | All Maps","name_short":"waw-2","host":"waw-1.pl.uncletopia.com","port":27025,"enabled":true,"region":"eu","cc":"pl","latitude":52.2297,"longitude":21.017532,"reserved":0,"last_update":"0001-01-01T00:00:00Z","name_a2s":"Uncletopia | Warsaw | 2 | All Maps","protocol":17,"map":"pl_swiftwater_final1","folder":"tf","game":"Team Fortress","app_id":440,"player_count":22,"max_players":24,"Bots":0,"server_type":"Dedicated","server_os":"Linux","password":true,"vac":true,"version":"7708610","steam_id":85568392925397851,"keywords":["nocrits","nodmgspread","payload","uncletopia"],"game_id":440,"stv_port":27026,"stv_name":"Uncletopia | Warsaw | 2 | All Maps | STV","players":[{"user_id":251,"name":"ck","steam_id":76561197984084920,"connected_time":901000000000,"state":"active","ping":79},{"user_id":229,"name":"Can't be Erased","steam_id":76561198131231278,"connected_time":2197000000000,"state":"active","ping":73},{"user_id":172,"name":"Nick","steam_id":76561198036109469,"connected_time":7107000000000,"state":"active","ping":56},{"user_id":256,"name":"curse these metal hands","steam_id":76561198056531586,"connected_time":761000000000,"state":"active","ping":76},{"user_id":231,"name":"rel","steam_id":76561198992148678,"connected_time":2158000000000,"state":"active","ping":74},{"user_id":242,"name":"Fran","steam_id":76561199070516960,"connected_time":1489000000000,"state":"active","ping":44},{"user_id":265,"name":"heykikidom","steam_id":76561198267574417,"connected_time":22000000000,"state":"active","ping":115},{"user_id":263,"name":"KAKTyC","steam_id":76561198019296536,"connected_time":93000000000,"state":"active","ping":62},{"user_id":254,"name":"Zembis","steam_id":76561198008017918,"connected_time":829000000000,"state":"active","ping":88},{"user_id":225,"name":"tim_ka_","steam_id":76561198174946801,"connected_time":3097000000000,"state":"active","ping":110},{"user_id":255,"name":"Dr Sex","steam_id":76561198029044617,"connected_time":826000000000,"state":"active","ping":82},{"user_id":261,"name":"Samwise","steam_id":76561198160115838,"connected_time":341000000000,"state":"active","ping":86},{"user_id":234,"name":"Denialman (Muted)","steam_id":76561198309182092,"connected_time":1963000000000,"state":"active","ping":70},{"user_id":259,"name":"Jonathan","steam_id":76561198087988880,"connected_time":675000000000,"state":"active","ping":68},{"user_id":236,"name":"linkinparkfan123","steam_id":76561199033782005,"connected_time":1930000000000,"state":"active","ping":75},{"user_id":237,"name":"Swedde","steam_id":76561198297296440,"connected_time":1907000000000,"state":"active","ping":88},{"user_id":227,"name":"Toaster1337","steam_id":76561198103706881,"connected_time":2563000000000,"state":"active","ping":79},{"user_id":249,"name":"Syd","steam_id":76561198020515027,"connected_time":1158000000000,"state":"active","ping":131},{"user_id":258,"name":"Notnaton","steam_id":76561198057438672,"connected_time":725000000000,"state":"active","ping":143},{"user_id":238,"name":"Clitorina","steam_id":76561198077570815,"connected_time":1885000000000,"state":"active","ping":76},{"user_id":239,"name":"THE ScrapCafe","steam_id":76561198381509944,"connected_time":1884000000000,"state":"active","ping":81},{"user_id":210,"name":"Hexagon","steam_id":76561198151205758,"connected_time":4461000000000,"state":"active","ping":72}]},{"server_id":51,"name":"Uncletopia | Warsaw | 3 | All Maps","name_short":"waw-3","host":"waw-1.pl.uncletopia.com","port":27035,"enabled":true,"region":"eu","cc":"pl","latitude":52.2297,"longitude":21.017532,"reserved":0,"last_update":"0001-01-01T00:00:00Z","name_a2s":"Uncletopia | Warsaw | 3 | All Maps","protocol":17,"map":"cp_sunshine","folder":"tf","game":"Team Fortress","app_id":440,"player_count":0,"max_players":24,"Bots":0,"server_type":"Dedicated","server_os":"Linux","password":true,"vac":true,"version":"7708610","steam_id":85568392925397852,"keywords":["cp","nocrits","nodmgspread","uncletopia"],"game_id":440,"stv_port":27036,"stv_name":"Uncletopia | Warsaw | 3 | All Maps | STV","players":null},{"server_id":52,"name":"Uncletopia | Warsaw | 4 | All Maps","name_short":"waw-4","host":"waw-1.pl.uncletopia.com","port":27045,"enabled":true,"region":"eu","cc":"pl","latitude":52.2297,"longitude":21.017532,"reserved":0,"last_update":"0001-01-01T00:00:00Z","name_a2s":"Uncletopia | Warsaw | 4 | All Maps","protocol":17,"map":"pl_pier","folder":"tf","game":"Team Fortress","app_id":440,"player_count":0,"max_players":24,"Bots":0,"server_type":"Dedicated","server_os":"Linux","password":true,"vac":true,"version":"7708610","steam_id":85568392925397853,"keywords":["nocrits","nodmgspread","payload","uncletopia"],"game_id":440,"stv_port":27046,"stv_name":"Uncletopia | Warsaw | 4 | All Maps | STV","players":null},{"server_id":53,"name":"Uncletopia | Warsaw | 5 | No Payload","name_short":"waw-5","host":"waw-1.pl.uncletopia.com","port":27055,"enabled":true,"region":"eu","cc":"pl","latitude":52.2297,"longitude":21.017532,"reserved":0,"last_update":"0001-01-01T00:00:00Z","name_a2s":"Uncletopia | Warsaw | 5 | No Payload","protocol":17,"map":"pl_borneo","folder":"tf","game":"Team Fortress","app_id":440,"player_count":0,"max_players":24,"Bots":0,"server_type":"Dedicated","server_os":"Linux","password":true,"vac":true,"version":"7708610","steam_id":85568392925397854,"keywords":["nocrits","nodmgspread","payload","uncletopia"],"game_id":440,"stv_port":27056,"stv_name":"Uncletopia | Warsaw | 5 | No Payload | STV","players":null},{"server_id":54,"name":"Uncletopia | Warsaw | 6 | Community","name_short":"waw-6","host":"waw-1.pl.uncletopia.com","port":27065,"enabled":true,"region":"eu","cc":"pl","latitude":52.2297,"longitude":21.017532,"reserved":0,"last_update":"0001-01-01T00:00:00Z","name_a2s":"Uncletopia | Warsaw | 6 | Community","protocol":17,"map":"workshop/pl_barnblitz_pro7.ugc582280235","folder":"tf","game":"Team Fortress","app_id":440,"player_count":0,"max_players":24,"Bots":0,"server_type":"Dedicated","server_os":"Linux","password":true,"vac":true,"version":"7708610","steam_id":85568392925397856,"keywords":["nocrits","nodmgspread","payload","uncletopia"],"game_id":440,"stv_port":27066,"stv_name":"Uncletopia | Warsaw | 6 | Community | STV","players":null}]}