{"status":true,"message":"","result":[{"server_id":9,"name":"Uncletopia | Atlanta | 1 | All Maps","name_short":"atl-1","host":"atl-1.us.uncletopia.com","port":27015,"enabled":true,"region":"us-east","cc":"us","latitude":33.753746,"longitude":-84.38633,"reserved":0,"last_update":"0001-01-01T00:00:00Z","name_a2s":"Uncletopia | Atlanta | 1 | All Maps","protocol":17,"map":"cp_sunshine","folder":"tf","game":"Team Fortress","app_id":440,"player_count":24,"max_players":24,"Bots":0,"server_type":"Dedicated","server_os":"Linux","password":true,"vac":true,"version":"7961495","steam_id":85568392924469982,"keywords":["cp","nocrits","nodmgspread","uncletopia"],"game_id":440,"stv_port":27016,"stv_name":"Uncletopia | Atlanta | 1 | All Maps | STV","players":[{"user_id":3,"name":"Temmie_Destructo","steam_id":76561199058428655,"connected_time":12518000000000,"state":"active","ping":39},{"user_id":112,"name":"Genetic Komodo (He/Him)","steam_id":76561198174806758,"connected_time":1893000000000,"state":"active","ping":58},{"user_id":100,"name":"Danger Dwarf","steam_id":76561198059490571,"connected_time":2719000000000,"state":"active","ping":75},{"user_id":134,"name":"WhiTe","steam_id":76561199508767541,"connected_time":32000000000,"state":"active","ping":75},{"user_id":84,"name":"9/11 Airlines","steam_id":76561198096306325,"connected_time":4274000000000,"state":"active","ping":99},{"user_id":115,"name":"gregor","steam_id":76561198057076267,"connected_time":1561000000000,"state":"active","ping":78},{"user_id":114,"name":"ZestyTrev","steam_id":76561198253391039,"connected_time":1561000000000,"state":"active","ping":67},{"user_id":121,"name":"ryce","steam_id":76561198114572309,"connected_time":607000000000,"state":"active","ping":45},{"user_id":107,"name":"Oopsie Daisy ❋","steam_id":76561198042144492,"connected_time":2416000000000,"state":"active","ping":40},{"user_id":94,"name":"MinimanC","steam_id":76561198071475084,"connected_time":3383000000000,"state":"active","ping":60},{"user_id":126,"name":"Universe","steam_id":76561198137611973,"connected_time":375000000000,"state":"active","ping":110},{"user_id":122,"name":"lu","steam_id":76561198080731872,"connected_time":473000000000,"state":"active","ping":74},{"user_id":129,"name":"lil hog","steam_id":76561199230929836,"connected_time":209000000000,"state":"active","ping":91},{"user_id":96,"name":"z","steam_id":76561198377478982,"connected_time":2998000000000,"state":"active","ping":70},{"user_id":74,"name":"loot","steam_id":76561198069954956,"connected_time":5432000000000,"state":"active","ping":48},{"user_id":131,"name":"oopsboom24","steam_id":76561199105248648,"connected_time":175000000000,"state":"active","ping":56},{"user_id":130,"name":"D(b) Hell","steam_id":76561198067869016,"connected_time":191000000000,"state":"active","ping":61},{"user_id":108,"name":"HeadOfB.O.XNews","steam_id":76561198823322405,"connected_time":2375000000000,"state":"active","ping":70},{"user_id":127,"name":"Weather Report","steam_id":76561199109494283,"connected_time":298000000000,"state":"active","ping":61},{"user_id":58,"name":"Obelisk","steam_id":76561198049416866,"connected_time":6508000000000,"state":"active","ping":53},{"user_id":118,"name":"DeezNoodlez","steam_id":76561198246700372,"connected_time":1406000000000,"state":"active","ping":53},{"user_id":119,"name":"Carl, Good to see you","steam_id":76561198070574075,"connected_time":1061000000000,"state":"active","ping":45},{"user_id":113,"name":"TheOnlyRufio","steam_id":76561199201933811,"connected_time":1729000000000,"state":"active","ping":61},{"user_id":133,"name":"joe","steam_id":76561198133033006,"connected_time":156000000000,"state":"active","ping":66}]},{"server_id":104,"name":"Uncletopia | Atlanta | 2 | All Maps","name_short":"atl-2","host":"atl-1.us.uncletopia.com","port":27025,"enabled":true,"region":"us-east","cc":"us","latitude":33.753746,"longitude":-84.38633,"reserved":0,"last_update":"0001-01-01T00:00:00Z","name_a2s":"Uncletopia | Atlanta | 2 | All Maps","protocol":17,"map":"cp_badlands","folder":"tf","game":"Team Fortress","app_id":440,"player_count":0,"max_players":24,"Bots":0,"server_type":"Dedicated","server_os":"Linux","password":true,"vac":true,"version":"7961495","steam_id":85568392924469983,"keywords":["cp","nocrits","nodmgspread","uncletopia"],"game_id":440,"stv_port":27026,"stv_name":"Uncletopia | Atlanta | 2 | All Maps | STV","players":null},{"server_id":400,"name":"Uncletopia | Atlanta | 3 | Stopwatch","name_short":"atl-3","host":"atl-1.us.uncletopia.com","port":27035,"enabled":true,"region":"us-east","cc":"us","latitude":33.753746,"longitude":-84.38633,"reserved":0,"last_update":"0001-01-01T00:00:00Z","name_a2s":"Uncletopia | Atlanta | 3 | Stopwatch","protocol":17,"map":"cp_metalworks","folder":"tf","game":"Team Fortress","app_id":440,"player_count":0,"max_players":24,"Bots":0,"server_type":"Dedicated","server_os":"Linux","password":true,"vac":true,"version":"7961495","steam_id":85568392924515187,"keywords":["cp","nocrits","nodmgspread","uncletopia"],"game_id":440,"stv_port":27036,"stv_name":"Uncletopia | Atlanta | 3 | Stopwatch | STV","players":null},{"server_id":401,"name":"Uncletopia | Atlanta | 4 | Community","name_short":"atl-4","host":"atl-1.us.uncletopia.com","port":27045,"enabled":true,"region":"us-east","cc":"us","latitude":33.753746,"longitude":-84.38633,"reserved":0,"last_update":"0001-01-01T00:00:00Z","name_a2s":"Uncletopia | Atlanta | 4 | Community","protocol":17,"map":"workshop/pl_badwater_pro_v12.ugc2142942074","folder":"tf","game":"Team Fortress","app_id":440,"player_count":0,"max_players":24,"Bots":0,"server_type":"Dedicated","server_os":"Linux","password":true,"vac":true,"version":"7961495","steam_id":85568392924515188,"keywords":["nocrits","nodmgspread","payload","uncletopia"],"game_id":440,"stv_port":27046,"stv_name":"Uncletopia | Atlanta | 4 | Community | STV","players":null},{"server_id":2,"name":"Uncletopia | Chicago | 1 | All Maps","name_short":"chi-1","host":"chi-1.us.uncletopia.com","port":27015,"enabled":true,"region":"us-central","cc":"us","latitude":41.881832,"longitude":-87.62318,"reserved":0,"last_update":"0001-01-01T00:00:00Z","name_a2s":"Uncletopia | Chicago | 1 | All Maps","protocol":17,"map":"cp_process_final","folder":"tf","game":"Team Fortress","app_id":440,"player_count":1,"max_players":24,"Bots":0,"server_type":"Dedicated","server_os":"Linux","password":true,"vac":true,"version":"7961495","steam_id":85568392924469984,"keywords":["cp","nocrits","nodmgspread","uncletopia"],"game_id":440,"stv_port":27016,"stv_name":"Uncletopia | Chicago | 1 | All Maps | STV","players":[{"user_id":12,"name":"Mellow Yellow","steam_id":76561198406276981,"connected_time":583000000000,"state":"active","ping":54}]},{"server_id":106,"name":"Uncletopia | Chicago | 2 | All Maps","name_short":"chi-2","host":"chi-1.us.uncletopia.com","port":27025,"enabled":true,"region":"us-central","cc":"us","latitude":41.881832,"longitude":-87.62318,"reserved":0,"last_update":"0001-01-01T00:00:00Z","name_a2s":"Uncletopia | Chicago | 2 | All Maps","protocol":17,"map":"pl_pier","folder":"tf","game":"Team Fortress","app_id":440,"player_count":24,"max_players":24,"Bots":0,"server_type":"Dedicated","server_os":"Linux","password":true,"vac":true,"version":"7961495","steam_id":85568392924469985,"keywords":["nocrits","nodmgspread","payload","uncletopia"],"game_id":440,"stv_port":27026,"stv_name":"Uncletopia | Chicago | 2 | All Maps | STV","players":[{"user_id":232,"name":"ORANGE","steam_id":76561198000401769,"connected_time":2937000000000,"state":"active","ping":92},{"user_id":239,"name":"what the freak","steam_id":76561198080754727,"connected_time":1683000000000,"state":"active","ping":87},{"user_id":231,"name":"Yeti™","steam_id":76561199151545966,"connected_time":2972000000000,"state":"active","ping":45},{"user_id":60,"name":"tuz","steam_id":76561197979961213,"connected_time":16667000000000,"state":"active","ping":92},{"user_id":228,"name":"Harry S. Truman","steam_id":76561197993339757,"connected_time":2991000000000,"state":"active","ping":73},{"user_id":233,"name":"Poppet","steam_id":76561198012301951,"connected_time":2742000000000,"state":"active","ping":69},{"user_id":250,"name":"Tony Slark","steam_id":76561198151256410,"connected_time":588000000000,"state":"active","ping":143},{"user_id":254,"name":"GorbTheImmortal","steam_id":76561198125936721,"connected_time":129000000000,"state":"active","ping":72},{"user_id":237,"name":"The Ambiguous Briton","steam_id":76561198007495748,"connected_time":1799000000000,"state":"active","ping":90},{"user_id":191,"name":"Mr. Tickle","steam_id":76561198126684647,"connected_time":7080000000000,"state":"active","ping":59},{"user_id":215,"name":"Chicken Nugget","steam_id":76561198082601232,"connected_time":4903000000000,"state":"active","ping":74},{"user_id":246,"name":"Makima Enjoyer","steam_id":76561198852044774,"connected_time":893000000000,"state":"active","ping":79},{"user_id":248,"name":"Distraction","steam_id":76561199445895882,"connected_time":763000000000,"state":"active","ping":53},{"user_id":230,"name":"Gram Tokers Count Doinkula","steam_id":76561198112811565,"connected_time":2986000000000,"state":"active","ping":71},{"user_id":234,"name":"@ 人 @","steam_id":76561198043684960,"connected_time":2707000000000,"state":"active","ping":73},{"user_id":253,"name":"MjrMovnTARGET","steam_id":76561199125908849,"connected_time":392000000000,"state":"active","ping":70},{"user_id":245,"name":"Mr. Fluffy Penguins","steam_id":76561198172538149,"connected_time":1255000000000,"state":"active","ping":95},{"user_id":244,"name":"Noise indicating burger flip","steam_id":76561198306965757,"connected_time":1446000000000,"state":"active","ping":79},{"user_id":240,"name":"Hovg9000","steam_id":76561199191556710,"connected_time":1496000000000,"state":"active","ping":78},{"user_id":224,"name":"Mixomin","steam_id":76561198295061570,"connected_time":3679000000000,"state":"active","ping":59},{"user_id":227,"name":"majorbobfunction","steam_id":76561198042464632,"connected_time":3007000000000,"state":"active","ping":60},{"user_id":213,"name":"PurplePond","steam_id":76561199062421006,"connected_time":4940000000000,"state":"active","ping":40},{"user_id":249,"name":"Always Here for You","steam_id":76561198219252313,"connected_time":749000000000,"state":"active","ping":70},{"user_id":252,"name":"JAKandBEL","steam_id":76561198213060931,"connected_time":416000000000,"state":"active","ping":49}]},{"server_id":402,"name":"Uncletopia | Chicago | 3 | All Maps","name_short":"chi-3","host":"chi-1.us.uncletopia.com","port":27035,"enabled":true,"region":"us-central","cc":"us","latitude":41.881832,"longitude":-87.62318,"reserved":0,"last_update":"0001-01-01T00:00:00Z","name_a2s":"Uncletopia | Chicago | 3 | All Maps","protocol":17,"map":"plr_pipeline","folder":"tf","game":"Team Fortress","app_id":440,"player_count":0,"max_players":24,"Bots":0,"server_type":"Dedicated","server_os":"Linux","password":true,"vac":true,"version":"7961495","steam_id":85568392924515191,"keywords":["nocrits","nodmgspread","payload","uncletopia"],"game_id":440,"stv_port":27036,"stv_name":"Uncletopia | Chicago | 3 | All Maps | STV","players":null},{"server_id":403,"name":"Uncletopia | Chicago | 4 | All Maps","name_short":"chi-4","host":"chi-1.us.uncletopia.com","port":27045,"enabled":true,"region":"us-central","cc":"us","latitude":41.881832,"longitude":-87.62318,"reserved":0,"last_update":"0001-01-01T00:00:00Z","name_a2s":"Uncletopia | Chicago | 4 | All Maps","protocol":17,"map":"pl_rumford_event","folder":"tf","game":"Team Fortress","app_id":440,"player_count":0,"max_players":24,"Bots":0,"server_type":"Dedicated","server_os":"Linux","password":true,"vac":true,"version":"7961495","steam_id":85568392924515193,"keywords":["nocrits","nodmgspread","payload","uncletopia"],"game_id":440,"stv_port":27046,"stv_name":"Uncletopia | Chicago | 4 | All Maps | STV","players":null},{"server_id":36,"name":"Uncletopia | Chicago | 5 | All Maps","name_short":"chi-5","host":"chi-2.us.uncletopia.com","port":27015,"enabled":true,"region":"us-central","cc":"us","latitude":41.881832,"longitude":-87.62318,"reserved":0,"last_update":"0001-01-01T00:00:00Z","name_a2s":"Uncletopia | Chicago | 5 | All Maps","protocol":17,"map":"pl_snowycoast","folder":"tf","game":"Team Fortress","app_id":440,"player_count":24,"max_players":24,"Bots":0,"server_type":"Dedicated","server_os":"Linux","password":true,"vac":true,"version":"7961495","steam_id":85568392924866362,"keywords":["nocrits","nodmgspread","payload","uncletopia"],"game_id":440,"stv_port":27016,"stv_name":"Uncletopia | Chicago | 5 | All Maps | STV","players":[{"user_id":257,"name":"YouR dad","steam_id":76561198044013623,"connected_time":1369000000000,"state":"active","ping":60},{"user_id":238,"name":"Spinch","steam_id":76561198296224166,"connected_time":2939000000000,"state":"active","ping":82},{"user_id":249,"name":"hogwart","steam_id":76561198093995793,"connected_time":1607000000000,"state":"active","ping":73},{"user_id":208,"name":"DiscoTraveler","steam_id":76561199240168088,"connected_time":5193000000000,"state":"active","ping":65},{"user_id":251,"name":"John Jameson","steam_id":76561198065238093,"connected_time":1572000000000,"state":"active","ping":67},{"user_id":252,"name":"opamojab","steam_id":76561198284988954,"connected_time":1570000000000,"state":"active","ping":52},{"user_id":253,"name":"peace dog","steam_id":76561198267988522,"connected_time":1565000000000,"state":"active","ping":72},{"user_id":239,"name":"Orange","steam_id":76561198282214019,"connected_time":2890000000000,"state":"active","ping":62},{"user_id":178,"name":"Hertz","steam_id":76561198310927351,"connected_time":8020000000000,"state":"active","ping":128},{"user_id":265,"name":"Quack","steam_id":76561198346033880,"connected_time":259000000000,"state":"active","ping":102},{"user_id":266,"name":"black mold shooter","steam_id":76561198309823950,"connected_time":223000000000,"state":"active","ping":86},{"user_id":262,"name":"UGLYBUGLY","steam_id":76561198095312764,"connected_time":476000000000,"state":"active","ping":75},{"user_id":261,"name":"Sammich","steam_id":76561198010543087,"connected_time":527000000000,"state":"active","ping":72},{"user_id":263,"name":"Azalea","steam_id":76561199491138825,"connected_time":439000000000,"state":"active","ping":78},{"user_id":255,"name":"pittypier","steam_id":76561199447222783,"connected_time":1499000000000,"state":"active","ping":154},{"user_id":231,"name":"Siz","steam_id":76561198072962154,"connected_time":3399000000000,"state":"active","ping":60},{"user_id":264,"name":"/dev/null","steam_id":76561198042144148,"connected_time":355000000000,"state":"active","ping":60},{"user_id":247,"name":"Your dead Granmas yardloot","steam_id":76561198011675372,"connected_time":2155000000000,"state":"active","ping":96},{"user_id":223,"name":"jacob.cheezits","steam_id":76561198879017672,"connected_time":3639000000000,"state":"active","ping":61},{"user_id":176,"name":"serialnumber435","steam_id":76561199466187650,"connected_time":8211000000000,"state":"active","ping":134},{"user_id":267,"name":"Dips","steam_id":76561198251975850,"connected_time":174000000000,"state":"active","ping":79},{"user_id":259,"name":"dan","steam_id":76561197984998426,"connected_time":987000000000,"state":"active","ping":91},{"user_id":215,"name":"Cosmic Torgue","steam_id":76561198828724945,"connected_time":4736000000000,"state":"active","ping":75},{"user_id":218,"name":"Miss Pauling","steam_id":76561198102043913,"connected_time":4090000000000,"state":"active","ping":100}]},{"server_id":37,"name":"Uncletopia | Chicago | 6 | All Maps","name_short":"chi-6","host":"chi-2.us.uncletopia.com","port":27025,"enabled":true,"region":"us-central","cc":"us","latitude":41.881832,"longitude":-87.62318,"reserved":0,"last_update":"0001-01-01T00:00:00Z","name_a2s":"Uncletopia | Chicago | 6 | All Maps","protocol":17,"map":"pl_badwater","folder":"tf","game":"Team Fortress","app_id":440,"player_count":0,"max_players":24,"Bots":0,"server_type":"Dedicated","server_os":"Linux","password":true,"vac":true,"version":"7961495","steam_id":85568392924866363,"keywords":["nocrits","nodmgspread","payload","uncletopia"],"game_id":440,"stv_port":27026,"stv_name":"Uncletopia | Chicago | 6 | All Maps | STV","players":null},{"server_id":38,"name":"Uncletopia | Chicago | 7 | Stopwatch","name_short":"chi-7","host":"chi-2.us.uncletopia.com","port":27035,"enabled":true,"region":"us-central","cc":"us","latitude":41.881832,"longitude":-87.62318,"reserved":0,"last_update":"0001-01-01T00:00:00Z","name_a2s":"Uncletopia | Chicago | 7 | Stopwatch","protocol":17,"map":"cp_snakewater_final1","folder":"tf","game":"Team Fortress","app_id":440,"player_count":0,"max_players":24,"Bots":0,"server_type":"Dedicated","server_os":"Linux","password":true,"vac":true,"version":"7961495","steam_id":85568392924866364,"keywords":["cp","nocrits","nodmgspread","uncletopia"],"game_id":440,"stv_port":27036,"stv_name":"Uncletopia | Chicago | 7 | Stopwatch | STV","players":null},{"server_id":39,"name":"Uncletopia | Chicago | 8 | Community","name_short":"chi-8","host":"chi-2.us.uncletopia.com","port":27045,"enabled":true,"region":"us-central","cc":"us","latitude":41.881832,"longitude":-87.62318,"reserved":0,"last_update":"0001-01-01T00:00:00Z","name_a2s":"Uncletopia | Chicago | 8 | Community","protocol":17,"map":"workshop/koth_slaughter_rc1.ugc1712845210","folder":"tf","game":"Team Fortress","app_id":440,"player_count":0,"max_players":24,"Bots":0,"server_type":"Dedicated","server_os":"Linux","password":true,"vac":true,"version":"7961495","steam_id":85568392924866365,"keywords":["cp","nocrits","nodmgspread","uncletopia"],"game_id":440,"stv_port":27046,"stv_name":"Uncletopia | Chicago | 8 | Community | STV","players":null},{"server_id":8,"name":"Uncletopia | Dallas | 1 | All Maps","name_short":"dal-1","host":"dal-1.us.uncletopia.com","port":27015,"enabled":true,"region":"us-central","cc":"us","latitude":32.779167,"longitude":-96.80889,"reserved":0,"last_update":"0001-01-01T00:00:00Z","name_a2s":"Uncletopia | Dallas | 1 | All Maps","protocol":17,"map":"cp_gorge","folder":"tf","game":"Team Fortress","app_id":440,"player_count":0,"max_players":24,"Bots":0,"server_type":"Dedicated","server_os":"Linux","password":true,"vac":true,"version":"7961495","steam_id":85568392924469986,"keywords":["cp","nocrits","nodmgspread","uncletopia"],"game_id":440,"stv_port":27016,"stv_name":"Uncletopia | Dallas | 1 | All Maps | STV","players":null},{"server_id":108,"name":"Uncletopia | Dallas | 2 | All Maps","name_short":"dal-2","host":"dal-1.us.uncletopia.com","port":27025,"enabled":true,"region":"us-central","cc":"us","latitude":32.779167,"longitude":-96.80889,"reserved":0,"last_update":"0001-01-01T00:00:00Z","name_a2s":"Uncletopia | Dallas | 2 | All Maps","protocol":17,"map":"cp_mountainlab","folder":"tf","game":"Team Fortress","app_id":440,"player_count":0,"max_players":24,"Bots":0,"server_type":"Dedicated","server_os":"Linux","password":true,"vac":true,"version":"7961495","steam_id":85568392924469988,"keywords":["cp","nocrits","nodmgspread","uncletopia"],"game_id":440,"stv_port":27026,"stv_name":"Uncletopia | Dallas | 2 | All Maps | STV","players":null},{"server_id":404,"name":"Uncletopia | Dallas | 3 | All Maps","name_short":"dal-3","host":"dal-1.us.uncletopia.com","port":27035,"enabled":true,"region":"us-central","cc":"us","latitude":32.779167,"longitude":-96.80889,"reserved":0,"last_update":"0001-01-01T00:00:00Z","name_a2s":"Uncletopia | Dallas | 3 | All Maps","protocol":17,"map":"cp_coldfront","folder":"tf","game":"Team Fortress","app_id":440,"player_count":0,"max_players":24,"Bots":0,"server_type":"Dedicated","server_os":"Linux","password":true,"vac":true,"version":"7961495","steam_id":85568392924515219,"keywords":["cp","nocrits","nodmgspread","uncletopia"],"game_id":440,"stv_port":27036,"stv_name":"Uncletopia | Dallas | 3 | All Maps | STV","players":null},{"server_id":405,"name":"Uncletopia | Dallas | 4 | Community","name_short":"dal-4","host":"dal-1.us.uncletopia.com","port":27045,"enabled":true,"region":"us-central","cc":"us","latitude":32.779167,"longitude":-96.80889,"reserved":0,"last_update":"0001-01-01T00:00:00Z","name_a2s":"Uncletopia | Dallas | 4 | Community","protocol":17,"map":"workshop/koth_synthetic_rc6a.ugc1549817316","folder":"tf","game":"Team Fortress","app_id":440,"player_count":0,"max_players":24,"Bots":0,"server_type":"Dedicated","server_os":"Linux","password":true,"vac":true,"version":"7961495","steam_id":85568392924515220,"keywords":["cp","nocrits","nodmgspread","uncletopia"],"game_id":440,"stv_port":27046,"stv_name":"Uncletopia | Dallas | 4 | Community | STV","players":null},{"server_id":5,"name":"Uncletopia | Frankfurt | 1 | All Maps","name_short":"frk-1","host":"frk-1.de.uncletopia.com","port":27015,"enabled":true,"region":"eu","cc":"de","latitude":50.110924,"longitude":8.682127,"reserved":0,"last_update":"0001-01-01T00:00:00Z","name_a2s":"Uncletopia | Frankfurt | 1 | All Maps","protocol":17,"map":"koth_viaduct","folder":"tf","game":"Team Fortress","app_id":440,"player_count":0,"max_players":24,"Bots":0,"server_type":"Dedicated","server_os":"Linux","password":true,"vac":true,"version":"7961495","steam_id":85568392924469989,"keywords":["cp","nocrits","nodmgspread","uncletopia"],"game_id":440,"stv_port":27016,"stv_name":"Uncletopia | Frankfurt | 1 | All Maps | STV","players":null},{"server_id":110,"name":"Uncletopia | Frankfurt | 2 | All Maps","name_short":"frk-2","host":"frk-1.de.uncletopia.com","port":27025,"enabled":true,"region":"eu","cc":"de","latitude":50.110924,"longitude":8.682127,"reserved":0,"last_update":"0001-01-01T00:00:00Z","name_a2s":"Uncletopia | Frankfurt | 2 | All Maps","protocol":17,"map":"cp_process_final","folder":"tf","game":"Team Fortress","app_id":440,"player_count":24,"max_players":24,"Bots":0,"server_type":"Dedicated","server_os":"Linux","password":true,"vac":true,"version":"7961495","steam_id":85568392924469990,"keywords":["cp","nocrits","nodmgspread","uncletopia"],"game_id":440,"stv_port":27026,"stv_name":"Uncletopia | Frankfurt | 2 | All Maps | STV","players":[{"user_id":315,"name":"SomethingDeveloper","steam_id":76561198369567080,"connected_time":1879000000000,"state":"active","ping":59},{"user_id":335,"name":"ⓅⓁⓈ | Pink Panther","steam_id":76561198046434381,"connected_time":253000000000,"state":"active","ping":46},{"user_id":320,"name":"laido riteris","steam_id":76561199098499873,"connected_time":1480000000000,"state":"active","ping":59},{"user_id":336,"name":"FLAKEZ4REAL","steam_id":76561197978361391,"connected_time":39000000000,"state":"active","ping":48},{"user_id":206,"name":"john fortress","steam_id":76561198013237629,"connected_time":9886000000000,"state":"active","ping":103},{"user_id":323,"name":"NALA","steam_id":76561198039806469,"connected_time":1277000000000,"state":"active","ping":69},{"user_id":328,"name":"Na'vi Misato (by popular demand","steam_id":76561198130860698,"connected_time":1072000000000,"state":"active","ping":50},{"user_id":276,"name":"TurnaJ","steam_id":76561198189223495,"connected_time":4359000000000,"state":"active","ping":65},{"user_id":270,"name":"Admiral Ackbar","steam_id":76561198131881705,"connected_time":4854000000000,"state":"active","ping":74},{"user_id":311,"name":"Udinese Dion","steam_id":76561198067931573,"connected_time":2212000000000,"state":"active","ping":54},{"user_id":329,"name":"karcia","steam_id":76561198045538788,"connected_time":1053000000000,"state":"active","ping":74},{"user_id":312,"name":"we do a little tomfoolery","steam_id":76561198169208730,"connected_time":2184000000000,"state":"active","ping":75},{"user_id":330,"name":"Sultan Mohammad Süleyman II.","steam_id":76561198124568025,"connected_time":823000000000,"state":"active","ping":52},{"user_id":310,"name":"-LPD-Eldariub","steam_id":76561198039852722,"connected_time":2558000000000,"state":"active","ping":76},{"user_id":277,"name":"Sam","steam_id":76561198273913888,"connected_time":4350000000000,"state":"active","ping":77},{"user_id":313,"name":"Umbro","steam_id":76561198087930438,"connected_time":2154000000000,"state":"active","ping":74},{"user_id":333,"name":"etc","steam_id":76561197998394797,"connected_time":515000000000,"state":"active","ping":86},{"user_id":314,"name":"Nick","steam_id":76561198036109469,"connected_time":2028000000000,"state":"active","ping":78},{"user_id":334,"name":"Bobirulez","steam_id":76561198009125458,"connected_time":395000000000,"state":"active","ping":79},{"user_id":331,"name":"ᴀꜱᴋᴜʟᴀᴘ","steam_id":76561197992018795,"connected_time":820000000000,"state":"active","ping":74},{"user_id":322,"name":"Serg","steam_id":76561198218959001,"connected_time":1323000000000,"state":"active","ping":59},{"user_id":278,"name":"Hydrate","steam_id":76561198128935775,"connected_time":4348000000000,"state":"active","ping":75},{"user_id":318,"name":"Peat","steam_id":76561197992168067,"connected_time":1663000000000,"state":"active","ping":67},{"user_id":324,"name":"WHUSSKEY","steam_id":76561198137827441,"connected_time":1273000000000,"state":"active","ping":50}]},{"server_id":308,"name":"Uncletopia | Frankfurt | 3 | All Maps","name_short":"frk-3","host":"frk-1.de.uncletopia.com","port":27035,"enabled":true,"region":"eu","cc":"de","latitude":50.110924,"longitude":8.682127,"reserved":0,"last_update":"0001-01-01T00:00:00Z","name_a2s":"Uncletopia | Frankfurt | 3 | All Maps","protocol":17,"map":"koth_viaduct","folder":"tf","game":"Team Fortress","app_id":440,"player_count":22,"max_players":24,"Bots":0,"server_type":"Dedicated","server_os":"Linux","password":true,"vac":true,"version":"7961495","steam_id":85568392924504274,"keywords":["cp","nocrits","nodmgspread","uncletopia"],"game_id":440,"stv_port":27036,"stv_name":"Uncletopia | Frankfurt | 3 | All Maps | STV","players":[{"user_id":9,"name":"Graham","steam_id":76561198062668942,"connected_time":2187000000000,"state":"active","ping":45},{"user_id":10,"name":"PoisionFox","steam_id":76561198864161505,"connected_time":2157000000000,"state":"active","ping":62},{"user_id":11,"name":"Errordood","steam_id":76561198263263692,"connected_time":2079000000000,"state":"active","ping":62},{"user_id":17,"name":"simeswipe","steam_id":76561198188471097,"connected_time":1034000000000,"state":"active","ping":61},{"user_id":13,"name":"Mozzaza","steam_id":76561198156316111,"connected_time":1993000000000,"state":"active","ping":132},{"user_id":14,"name":"Zulik92","steam_id":76561198152442373,"connected_time":1539000000000,"state":"active","ping":47},{"user_id":38,"name":"Brian","steam_id":76561198077756206,"connected_time":19000000000,"state":"spawning","ping":45},{"user_id":18,"name":"Andreus","steam_id":76561199403926001,"connected_time":1014000000000,"state":"active","ping":61},{"user_id":19,"name":"monk10223","steam_id":76561199113508755,"connected_time":678000000000,"state":"active","ping":61},{"user_id":20,"name":"=[o.W.n]= prokopec","steam_id":76561198373933625,"connected_time":552000000000,"state":"active","ping":180},{"user_id":21,"name":"JC","steam_id":76561198029213352,"connected_time":500000000000,"state":"active","ping":46},{"user_id":32,"name":"wife beater gaming","steam_id":76561199454266479,"connected_time":147000000000,"state":"active","ping":59},{"user_id":26,"name":"Happy Di Piero","steam_id":76561199206603810,"connected_time":393000000000,"state":"active","ping":74},{"user_id":28,"name":"st. pheenis hell","steam_id":76561198128250460,"connected_time":218000000000,"state":"active","ping":84},{"user_id":29,"name":"yes","steam_id":76561198088924666,"connected_time":201000000000,"state":"active","ping":74},{"user_id":37,"name":"ᛀᚩᛏ ᛖᛞᚷᚤ","steam_id":76561198842950723,"connected_time":36000000000,"state":"active","ping":83},{"user_id":31,"name":"Playback_time","steam_id":76561198349426598,"connected_time":189000000000,"state":"active","ping":45},{"user_id":34,"name":"SaladFromTheHell","steam_id":76561199017153269,"connected_time":119000000000,"state":"active","ping":65},{"user_id":35,"name":"Rodak","steam_id":76561199135986344,"connected_time":107000000000,"state":"active","ping":50},{"user_id":36,"name":"Jeffrey Harpen","steam_id":76561199073314677,"connected_time":51000000000,"state":"active","ping":57},{"user_id":39,"name":"Gay Truck","steam_id":76561198123648967,"connected_time":17000000000,"state":"active","ping":81},{"user_id":40,"name":"frbuz (ع)","steam_id":76561198327135462,"connected_time":3000000000,"state":"spawning","ping":153}]},{"server_id":309,"name":"Uncletopia | Frankfurt | 4 | All Maps","name_short":"frk-4","host":"frk-1.de.uncletopia.com","port":27045,"enabled":true,"region":"eu","cc":"de","latitude":50.110924,"longitude":8.682127,"reserved":0,"last_update":"0001-01-01T00:00:00Z","name_a2s":"Uncletopia | Frankfurt | 4 | All Maps","protocol":17,"map":"pl_frontier_final","folder":"tf","game":"Team Fortress","app_id":440,"player_count":24,"max_players":24,"Bots":0,"server_type":"Dedicated","server_os":"Linux","password":true,"vac":true,"version":"7961495","steam_id":85568392924504275,"keywords":["nocrits","nodmgspread","payload","uncletopia"],"game_id":440,"stv_port":27046,"stv_name":"Uncletopia | Frankfurt | 4 | All Maps | STV","players":[{"user_id":116,"name":"Maoma112","steam_id":76561199012536447,"connected_time":668000000000,"state":"active","ping":69},{"user_id":124,"name":"joebot","steam_id":76561197975606100,"connected_time":266000000000,"state":"active","ping":143},{"user_id":123,"name":"Edsuedi","steam_id":76561198074722832,"connected_time":283000000000,"state":"active","ping":50},{"user_id":109,"name":"DarkMelody","steam_id":76561198063225937,"connected_time":1228000000000,"state":"active","ping":134},{"user_id":73,"name":"cwasòn the croissant","steam_id":76561198317643652,"connected_time":3059000000000,"state":"active","ping":57},{"user_id":92,"name":"Killer Bean","steam_id":76561198072567787,"connected_time":1985000000000,"state":"active","ping":54},{"user_id":93,"name":"sheep","steam_id":76561199220109827,"connected_time":1878000000000,"state":"active","ping":59},{"user_id":102,"name":"Nejt","steam_id":76561199264515158,"connected_time":1480000000000,"state":"active","ping":54},{"user_id":127,"name":"Frazzles","steam_id":76561199228009586,"connected_time":99000000000,"state":"active","ping":61},{"user_id":49,"name":"Teddy","steam_id":76561198074888415,"connected_time":3884000000000,"state":"active","ping":51},{"user_id":128,"name":"Neon","steam_id":76561198069049007,"connected_time":91000000000,"state":"active","ping":115},{"user_id":115,"name":"cirrem","steam_id":76561198265192382,"connected_time":746000000000,"state":"active","ping":63},{"user_id":129,"name":"tan","steam_id":76561199081305365,"connected_time":36000000000,"state":"active","ping":65},{"user_id":103,"name":"Piss","steam_id":76561198122801176,"connected_time":1479000000000,"state":"active","ping":41},{"user_id":47,"name":"Rejdory","steam_id":76561198416604100,"connected_time":3895000000000,"state":"active","ping":57},{"user_id":100,"name":"Carry Krypl","steam_id":76561198136938121,"connected_time":1542000000000,"state":"active","ping":47},{"user_id":117,"name":"Tekor","steam_id":76561198088542862,"connected_time":623000000000,"state":"active","ping":55},{"user_id":107,"name":"Doctor Mobius","steam_id":76561197971281806,"connected_time":1325000000000,"state":"active","ping":48},{"user_id":114,"name":"ChrisLuckycharm","steam_id":76561199490969322,"connected_time":914000000000,"state":"active","ping":69},{"user_id":88,"name":"Adamkarz","steam_id":76561198796428403,"connected_time":2364000000000,"state":"active","ping":82},{"user_id":120,"name":"Virgil","steam_id":76561198248786778,"connected_time":565000000000,"state":"active","ping":119},{"user_id":85,"name":"Suolainen","steam_id":76561198133341026,"connected_time":2595000000000,"state":"active","ping":86},{"user_id":122,"name":"Speedyjoestar","steam_id":76561198907130963,"connected_time":369000000000,"state":"active","ping":65},{"user_id":121,"name":"Combat Wombat","steam_id":76561197994720068,"connected_time":563000000000,"state":"active","ping":57}]},{"server_id":310,"name":"Uncletopia | Frankfurt | 5 | All Maps","name_short":"frk-5","host":"frk-1.de.uncletopia.com","port":27055,"enabled":true,"region":"eu","cc":"de","latitude":50.110924,"longitude":8.682127,"reserved":0,"last_update":"0001-01-01T00:00:00Z","name_a2s":"Uncletopia | Frankfurt | 5 | All Maps","protocol":17,"map":"pl_badwater","folder":"tf","game":"Team Fortress","app_id":440,"player_count":24,"max_players":24,"Bots":0,"server_type":"Dedicated","server_os":"Linux","password":true,"vac":true,"version":"7961495","steam_id":85568392924504277,"keywords":["nocrits","nodmgspread","payload","uncletopia"],"game_id":440,"stv_port":27056,"stv_name":"Uncletopia | Frankfurt | 5 | All Maps | STV","players":[{"user_id":400,"name":"compact disc","steam_id":76561198154677956,"connected_time":4637000000000,"state":"active","ping":60},{"user_id":432,"name":"Drillboy Jenkins","steam_id":76561198160497421,"connected_time":2816000000000,"state":"active","ping":75},{"user_id":465,"name":"♣Генсек Поноса","steam_id":76561198796404149,"connected_time":413000000000,"state":"active","ping":93},{"user_id":466,"name":"You slumber","steam_id":76561198344639692,"connected_time":385000000000,"state":"active","ping":76},{"user_id":449,"name":"james_bondage","steam_id":76561199476062624,"connected_time":992000000000,"state":"active","ping":140},{"user_id":454,"name":"bitkomet","steam_id":76561198058232147,"connected_time":650000000000,"state":"active","ping":64},{"user_id":446,"name":"HuHD3я_B_Ad1dAsE","steam_id":76561198110470565,"connected_time":1273000000000,"state":"active","ping":104},{"user_id":445,"name":"janvaljen","steam_id":76561198017781450,"connected_time":1463000000000,"state":"active","ping":89},{"user_id":420,"name":"☁ Lou1smeister ☁","steam_id":76561198004032968,"connected_time":3717000000000,"state":"active","ping":73},{"user_id":425,"name":"Hej sokoły!","steam_id":76561198406300604,"connected_time":3379000000000,"state":"active","ping":70},{"user_id":399,"name":"OMG IS THAT SPY FROM TF2?","steam_id":76561199291684647,"connected_time":4702000000000,"state":"active","ping":60},{"user_id":444,"name":"The One (and only)","steam_id":76561198827193499,"connected_time":1909000000000,"state":"active","ping":56},{"user_id":429,"name":"TTVHackstipulate","steam_id":76561198053667941,"connected_time":3167000000000,"state":"active","ping":135},{"user_id":409,"name":"bongo","steam_id":76561198015489880,"connected_time":4295000000000,"state":"active","ping":45},{"user_id":436,"name":"German Prick","steam_id":76561198181410637,"connected_time":2554000000000,"state":"active","ping":39},{"user_id":441,"name":"Josh","steam_id":76561198274546904,"connected_time":2123000000000,"state":"active","ping":135},{"user_id":368,"name":"jeff","steam_id":76561198272815746,"connected_time":5821000000000,"state":"active","ping":84},{"user_id":468,"name":"COTHuK","steam_id":76561198330633932,"connected_time":91000000000,"state":"active","ping":74},{"user_id":455,"name":"精薄","steam_id":76561198103633797,"connected_time":636000000000,"state":"active","ping":79},{"user_id":451,"name":"nappo","steam_id":76561198060105180,"connected_time":884000000000,"state":"active","ping":79},{"user_id":467,"name":"I Don't Know","steam_id":76561198841011430,"connected_time":133000000000,"state":"active","ping":56},{"user_id":469,"name":"SimplyJarvis","steam_id":76561198000654287,"connected_time":11000000000,"state":"spawning","ping":74},{"user_id":447,"name":"Kodutah","steam_id":76561198203405574,"connected_time":1132000000000,"state":"active","ping":86},{"user_id":463,"name":"W","steam_id":76561199501358967,"connected_time":456000000000,"state":"active","ping":69}]},{"server_id":311,"name":"Uncletopia | Frankfurt | 6 | All Maps","name_short":"frk-6","host":"frk-1.de.uncletopia.com","port":27065,"enabled":true,"region":"eu","cc":"de","latitude":50.110924,"longitude":8.682127,"reserved":0,"last_update":"0001-01-01T00:00:00Z","name_a2s":"Uncletopia | Frankfurt | 6 | All Maps","protocol":17,"map":"pl_borneo","folder":"tf","game":"Team Fortress","app_id":440,"player_count":5,"max_players":24,"Bots":0,"server_type":"Dedicated","server_os":"Linux","password":true,"vac":true,"version":"7961495","steam_id":85568392924504278,"keywords":["nocrits","nodmgspread","payload","uncletopia"],"game_id":440,"stv_port":27066,"stv_name":"Uncletopia | Frankfurt | 6 | All Maps | STV","players":[{"user_id":145,"name":"Piquesque","steam_id":76561198286763046,"connected_time":630000000000,"state":"active","ping":81},{"user_id":151,"name":"minespweper","steam_id":76561199096919345,"connected_time":58000000000,"state":"active","ping":64},{"user_id":148,"name":"Lowtidey","steam_id":76561198994887486,"connected_time":456000000000,"state":"active","ping":107},{"user_id":137,"name":"Name","steam_id":76561197990757157,"connected_time":1101000000000,"state":"active","ping":71},{"user_id":128,"name":"Churre Murre","steam_id":76561199013316825,"connected_time":1737000000000,"state":"active","ping":54}]},{"server_id":23,"name":"Uncletopia | Frankfurt | 7 | Stopwatch","name_short":"frk-7","host":"frk-1.de.uncletopia.com","port":27075,"enabled":true,"region":"eu","cc":"de","latitude":50.110924,"longitude":8.682127,"reserved":0,"last_update":"0001-01-01T00:00:00Z","name_a2s":"Uncletopia | Frankfurt | 7 | Stopwatch","protocol":17,"map":"cp_metalworks","folder":"tf","game":"Team Fortress","app_id":440,"player_count":0,"max_players":24,"Bots":0,"server_type":"Dedicated","server_os":"Linux","password":true,"vac":true,"version":"7961495","steam_id":85568392924742827,"keywords":["cp","nocrits","nodmgspread","uncletopia"],"game_id":440,"stv_port":27076,"stv_name":"Uncletopia | Frankfurt | 7 | Stopwatch | STV","players":null},{"server_id":24,"name":"Uncletopia | Frankfurt | 8 | Community","name_short":"frk-8","host":"frk-1.de.uncletopia.com","port":27085,"enabled":true,"region":"eu","cc":"de","latitude":50.110924,"longitude":8.682127,"reserved":0,"last_update":"0001-01-01T00:00:00Z","name_a2s":"Uncletopia | Frankfurt | 8 | Community","protocol":17,"map":"workshop/cp_reckoner_rc6.ugc674719999","folder":"tf","game":"Team Fortress","app_id":440,"player_count":0,"max_players":24,"Bots":0,"server_type":"Dedicated","server_os":"Linux","password":true,"vac":true,"version":"7961495","steam_id":85568392924742828,"keywords":["cp","nocrits","nodmgspread","uncletopia"],"game_id":440,"stv_port":27086,"stv_name":"Uncletopia | Frankfurt | 8 | Community | STV","players":null},{"server_id":202,"name":"Uncletopia | Hong Kong | 1 | All Maps","name_short":"hgk-1","host":"hgk-1.hk.uncletopia.com","port":27015,"enabled":true,"region":"asia","cc":"hk","latitude":22.302711,"longitude":114.177216,"reserved":0,"last_update":"0001-01-01T00:00:00Z","name_a2s":"Uncletopia | Hong Kong | 1 | All Maps","protocol":17,"map":"cp_mountainlab","folder":"tf","game":"Team Fortress","app_id":440,"player_count":2,"max_players":24,"Bots":0,"server_type":"Dedicated","server_os":"Linux","password":true,"vac":true,"version":"7961495","steam_id":85568392924494504,"keywords":["cp","nocrits","nodmgspread","uncletopia"],"game_id":440,"stv_port":27016,"stv_name":"Uncletopia | Hong Kong | 1 | All Maps | STV","players":[{"user_id":454,"name":"Reggie","steam_id":76561199206904501,"connected_time":4079000000000,"state":"active","ping":53},{"user_id":465,"name":"hoza","steam_id":76561199115236634,"connected_time":2318000000000,"state":"active","ping":147}]},{"server_id":1,"name":"Uncletopia | Los Angeles | 1 | All Maps","name_short":"lax-1","host":"lax-1.us.uncletopia.com","port":27015,"enabled":true,"region":"us-west","cc":"us","latitude":33.94279,"longitude":-118.41004,"reserved":0,"last_update":"0001-01-01T00:00:00Z","name_a2s":"Uncletopia | Los Angeles | 1 | All Maps","protocol":17,"map":"pl_upward","folder":"tf","game":"Team Fortress","app_id":440,"player_count":0,"max_players":24,"Bots":0,"server_type":"Dedicated","server_os":"Linux","password":true,"vac":true,"version":"7961495","steam_id":85568392924469991,"keywords":["nocrits","nodmgspread","payload","uncletopia"],"game_id":440,"stv_port":27016,"stv_name":"Uncletopia | Los Angeles | 1 | All Maps | STV","players":null},{"server_id":112,"name":"Uncletopia | Los Angeles | 2 | All Maps","name_short":"lax-2","host":"lax-1.us.uncletopia.com","port":27025,"enabled":true,"region":"us-west","cc":"us","latitude":33.94279,"longitude":-118.41004,"reserved":0,"last_update":"0001-01-01T00:00:00Z","name_a2s":"Uncletopia | Los Angeles | 2 | All Maps","protocol":17,"map":"koth_cascade","folder":"tf","game":"Team Fortress","app_id":440,"player_count":0,"max_players":24,"Bots":0,"server_type":"Dedicated","server_os":"Linux","password":true,"vac":true,"version":"7961495","steam_id":85568392924469992,"keywords":["cp","nocrits","nodmgspread","uncletopia"],"game_id":440,"stv_port":27026,"stv_name":"Uncletopia | Los Angeles | 2 | All Maps | STV","players":null},{"server_id":324,"name":"Uncletopia | Los Angeles | 3 | All Maps","name_short":"lax-3","host":"lax-1.us.uncletopia.com","port":27035,"enabled":true,"region":"us-west","cc":"us","latitude":33.94279,"longitude":-118.41004,"reserved":0,"last_update":"0001-01-01T00:00:00Z","name_a2s":"Uncletopia | Los Angeles | 3 | All Maps","protocol":17,"map":"pl_hoodoo_final","folder":"tf","game":"Team Fortress","app_id":440,"player_count":0,"max_players":24,"Bots":0,"server_type":"Dedicated","server_os":"Linux","password":true,"vac":true,"version":"7961495","steam_id":85568392924510198,"keywords":["nocrits","nodmgspread","payload","uncletopia"],"game_id":440,"stv_port":27036,"stv_name":"Uncletopia | Los Angeles | 3 | All Maps | STV","players":null},{"server_id":25,"name":"Uncletopia | Los Angeles | 4 | Stopwatch","name_short":"lax-4","host":"lax-1.us.uncletopia.com","port":27045,"enabled":true,"region":"us-west","cc":"us","latitude":33.94279,"longitude":-118.41004,"reserved":0,"last_update":"0001-01-01T00:00:00Z","name_a2s":"Uncletopia | Los Angeles | 4 | Stopwatch","protocol":17,"map":"pl_upward","folder":"tf","game":"Team Fortress","app_id":440,"player_count":0,"max_players":24,"Bots":0,"server_type":"Dedicated","server_os":"Linux","password":true,"vac":true,"version":"7961495","steam_id":85568392924510199,"keywords":["nocrits","nodmgspread","payload","uncletopia"],"game_id":440,"stv_port":27046,"stv_name":"Uncletopia | Los Angeles | 4 | Stopwatch | STV","players":null},{"server_id":11,"name":"Uncletopia | London | 1 | All Maps","name_short":"lon-1","host":"lon-1.uk.uncletopia.com","port":27015,"enabled":true,"region":"eu","cc":"gb","latitude":51.509865,"longitude":-0.118092,"reserved":0,"last_update":"0001-01-01T00:00:00Z","name_a2s":"Uncletopia | London | 1 | All Maps","protocol":17,"map":"pl_upward","folder":"tf","game":"Team Fortress","app_id":440,"player_count":24,"max_players":24,"Bots":0,"server_type":"Dedicated","server_os":"Linux","password":true,"vac":true,"version":"7961495","steam_id":85568392924367362,"keywords":["nocrits","nodmgspread","payload","uncletopia"],"game_id":440,"stv_port":27016,"stv_name":"Uncletopia | London | 1 | All Maps | STV","players":[{"user_id":485,"name":"CiVillain","steam_id":76561198059617732,"connected_time":2160000000000,"state":"active","ping":61},{"user_id":486,"name":"Woman (Real)","steam_id":76561199151823932,"connected_time":2155000000000,"state":"active","ping":76},{"user_id":440,"name":"Sunshine","steam_id":76561198885528098,"connected_time":4020000000000,"state":"active","ping":119},{"user_id":509,"name":"Irme","steam_id":76561198161590299,"connected_time":886000000000,"state":"active","ping":76},{"user_id":487,"name":"radek","steam_id":76561197998883721,"connected_time":2155000000000,"state":"active","ping":76},{"user_id":488,"name":"Stefman","steam_id":76561199025104038,"connected_time":2135000000000,"state":"active","ping":41},{"user_id":497,"name":"worgeral","steam_id":76561198050781898,"connected_time":1860000000000,"state":"active","ping":62},{"user_id":489,"name":"Generál Kiwi","steam_id":76561198255946537,"connected_time":2126000000000,"state":"active","ping":47},{"user_id":510,"name":"Exe_Red","steam_id":76561198154952759,"connected_time":785000000000,"state":"active","ping":90},{"user_id":515,"name":"Kahvi","steam_id":76561198723244199,"connected_time":188000000000,"state":"active","ping":84},{"user_id":513,"name":"david zaydullin (Charles McGill","steam_id":76561198965191846,"connected_time":584000000000,"state":"active","ping":91},{"user_id":511,"name":"Dr. Cox","steam_id":76561198246629218,"connected_time":775000000000,"state":"active","ping":97},{"user_id":491,"name":"Dogii46_","steam_id":76561198798788069,"connected_time":2081000000000,"state":"active","ping":44},{"user_id":461,"name":"jack'o classes","steam_id":76561199030218131,"connected_time":3211000000000,"state":"active","ping":33},{"user_id":507,"name":"xD","steam_id":76561198210179771,"connected_time":1033000000000,"state":"active","ping":74},{"user_id":512,"name":"Blob","steam_id":76561197971418993,"connected_time":764000000000,"state":"active","ping":97},{"user_id":492,"name":"G_raff","steam_id":76561199048512726,"connected_time":2070000000000,"state":"active","ping":89},{"user_id":517,"name":"Slifer the Furry UwU","steam_id":76561198062255803,"connected_time":145000000000,"state":"active","ping":73},{"user_id":516,"name":"BigGreenButton","steam_id":76561198063604832,"connected_time":187000000000,"state":"active","ping":49},{"user_id":495,"name":"trite","steam_id":76561197983765323,"connected_time":1885000000000,"state":"active","ping":45},{"user_id":519,"name":"Neeeiks","steam_id":76561198009156801,"connected_time":120000000000,"state":"active","ping":74},{"user_id":501,"name":"Mr Krembo","steam_id":76561199093060828,"connected_time":1607000000000,"state":"active","ping":98},{"user_id":414,"name":"SuntanPikachu","steam_id":76561198121242476,"connected_time":5594000000000,"state":"active","ping":68},{"user_id":520,"name":"JamesPepega","steam_id":76561198019156154,"connected_time":119000000000,"state":"active","ping":91}]},{"server_id":114,"name":"Uncletopia | London | 2 | All Maps","name_short":"lon-2","host":"lon-1.uk.uncletopia.com","port":27025,"enabled":true,"region":"eu","cc":"gb","latitude":51.509865,"longitude":-0.118092,"reserved":0,"last_update":"0001-01-01T00:00:00Z","name_a2s":"Uncletopia | London | 2 | All Maps","protocol":17,"map":"pl_badwater","folder":"tf","game":"Team Fortress","app_id":440,"player_count":23,"max_players":24,"Bots":0,"server_type":"Dedicated","server_os":"Linux","password":true,"vac":true,"version":"7961495","steam_id":85568392924470941,"keywords":["nocrits","nodmgspread","payload","uncletopia"],"game_id":440,"stv_port":27026,"stv_name":"Uncletopia | London | 2 | All Maps | STV","players":[{"user_id":171,"name":"papa Sloath","steam_id":76561198046382160,"connected_time":4634000000000,"state":"active","ping":45},{"user_id":199,"name":"Rui","steam_id":76561198263735498,"connected_time":1912000000000,"state":"active","ping":93},{"user_id":201,"name":"Ixsus\u003c3","steam_id":76561198094756869,"connected_time":1833000000000,"state":"active","ping":59},{"user_id":213,"name":"I jazzed myself","steam_id":76561198203016603,"connected_time":660000000000,"state":"active","ping":45},{"user_id":212,"name":"Odinmuninn99","steam_id":76561198393712705,"connected_time":768000000000,"state":"active","ping":95},{"user_id":221,"name":"cuddles","steam_id":76561198805181599,"connected_time":403000000000,"state":"active","ping":56},{"user_id":188,"name":"pikeri mi kradnú žárofky","steam_id":76561198071882999,"connected_time":3443000000000,"state":"active","ping":103},{"user_id":207,"name":"Infantile Pillock","steam_id":76561198283851362,"connected_time":1237000000000,"state":"active","ping":72},{"user_id":209,"name":"DOKTOR MEOW","steam_id":76561198226378616,"connected_time":890000000000,"state":"active","ping":74},{"user_id":216,"name":"lion.mesi4","steam_id":76561198890409949,"connected_time":506000000000,"state":"active","ping":97},{"user_id":122,"name":"Snowy","steam_id":76561198169992461,"connected_time":8765000000000,"state":"active","ping":44},{"user_id":159,"name":"Brother Jiffy","steam_id":76561198028739532,"connected_time":5873000000000,"state":"active","ping":77},{"user_id":203,"name":"h","steam_id":76561198382509396,"connected_time":1800000000000,"state":"active","ping":53},{"user_id":219,"name":"d r i p Saucegay Uchiha","steam_id":76561198058740930,"connected_time":456000000000,"state":"active","ping":56},{"user_id":224,"name":"LOBZIK","steam_id":76561198114830120,"connected_time":227000000000,"state":"active","ping":77},{"user_id":220,"name":"bhop","steam_id":76561198064885639,"connected_time":425000000000,"state":"active","ping":123},{"user_id":225,"name":"Adam","steam_id":76561198083655265,"connected_time":13000000000,"state":"active","ping":78},{"user_id":215,"name":"smk","steam_id":76561198068027379,"connected_time":587000000000,"state":"active","ping":74},{"user_id":197,"name":"tube sock","steam_id":76561198073576350,"connected_time":2768000000000,"state":"active","ping":86},{"user_id":214,"name":"Farmercy","steam_id":76561198000038039,"connected_time":609000000000,"state":"active","ping":60},{"user_id":198,"name":"GogsCrunchyNuts","steam_id":76561198150599213,"connected_time":2596000000000,"state":"active","ping":82},{"user_id":146,"name":"dumo dumo","steam_id":76561198346638308,"connected_time":7020000000000,"state":"active","ping":46},{"user_id":206,"name":"Dei Genetrix","steam_id":76561198305678122,"connected_time":1468000000000,"state":"active","ping":45}]},{"server_id":320,"name":"Uncletopia | London | 3 | All Maps","name_short":"lon-3","host":"lon-1.uk.uncletopia.com","port":27035,"enabled":true,"region":"eu","cc":"gb","latitude":51.509865,"longitude":-0.118092,"reserved":0,"last_update":"0001-01-01T00:00:00Z","name_a2s":"Uncletopia | London | 3 | All Maps","protocol":17,"map":"cp_snakewater_final1","folder":"tf","game":"Team Fortress","app_id":440,"player_count":0,"max_players":24,"Bots":0,"server_type":"Dedicated","server_os":"Linux","password":true,"vac":true,"version":"7961495","steam_id":85568392924510192,"keywords":["cp","nocrits","nodmgspread","uncletopia"],"game_id":440,"stv_port":27036,"stv_name":"Uncletopia | London | 3 | All Maps | STV","players":null},{"server_id":321,"name":"Uncletopia | London | 4 | All Maps","name_short":"lon-4","host":"lon-1.uk.uncletopia.com","port":27045,"enabled":true,"region":"eu","cc":"gb","latitude":51.509865,"longitude":-0.118092,"reserved":0,"last_update":"0001-01-01T00:00:00Z","name_a2s":"Uncletopia | London | 4 | All Maps","protocol":17,"map":"koth_cascade","folder":"tf","game":"Team Fortress","app_id":440,"player_count":24,"max_players":24,"Bots":0,"server_type":"Dedicated","server_os":"Linux","password":true,"vac":true,"version":"7961495","steam_id":85568392924510193,"keywords":["cp","nocrits","nodmgspread","uncletopia"],"game_id":440,"stv_port":27046,"stv_name":"Uncletopia | London | 4 | All Maps | STV","players":[{"user_id":48,"name":"Skeletros","steam_id":76561198130969152,"connected_time":1953000000000,"state":"active","ping":131},{"user_id":57,"name":"Temp0_ ♥","steam_id":76561198162068639,"connected_time":1469000000000,"state":"active","ping":59},{"user_id":69,"name":"jabar7","steam_id":76561198055137986,"connected_time":454000000000,"state":"active","ping":71},{"user_id":50,"name":"skai -TA-","steam_id":76561198184881255,"connected_time":1797000000000,"state":"active","ping":68},{"user_id":13,"name":"LizaЯdlЧ","steam_id":76561198176750238,"connected_time":3518000000000,"state":"active","ping":68},{"user_id":58,"name":"Scout","steam_id":76561198041622040,"connected_time":1449000000000,"state":"active","ping":122},{"user_id":70,"name":"ASS?!?!?!?!?","steam_id":76561199159262388,"connected_time":392000000000,"state":"active","ping":100},{"user_id":15,"name":"cloud03","steam_id":76561199010969848,"connected_time":3342000000000,"state":"active","ping":116},{"user_id":59,"name":"FilipeLuk","steam_id":76561198150675438,"connected_time":1337000000000,"state":"active","ping":63},{"user_id":82,"name":"Jeff (♀)","steam_id":76561198280101970,"connected_time":29000000000,"state":"active","ping":40},{"user_id":79,"name":"Finn","steam_id":76561198112456809,"connected_time":65000000000,"state":"active","ping":62},{"user_id":62,"name":"The Abominable Frenchman","steam_id":76561198023811302,"connected_time":1164000000000,"state":"active","ping":147},{"user_id":72,"name":"63756d","steam_id":76561198808699024,"connected_time":374000000000,"state":"active","ping":62},{"user_id":78,"name":"Destinys","steam_id":76561198056132894,"connected_time":162000000000,"state":"active","ping":61},{"user_id":63,"name":"Sparky \u003c3","steam_id":76561199124621537,"connected_time":1027000000000,"state":"active","ping":76},{"user_id":41,"name":"Ullr","steam_id":76561198140547483,"connected_time":2279000000000,"state":"active","ping":45},{"user_id":52,"name":"Gravel Mercenary","steam_id":76561199019412162,"connected_time":1771000000000,"state":"active","ping":48},{"user_id":74,"name":"The Funny F2P Man","steam_id":76561199432400835,"connected_time":335000000000,"state":"active","ping":99},{"user_id":75,"name":"Jags","steam_id":76561198361725230,"connected_time":316000000000,"state":"active","ping":47},{"user_id":80,"name":"Supercoxylac","steam_id":76561198376300138,"connected_time":56000000000,"state":"active","ping":58},{"user_id":35,"name":"opportunity uteliser","steam_id":76561198051685232,"connected_time":2491000000000,"state":"active","ping":75},{"user_id":38,"name":"Jeryx","steam_id":76561197995602803,"connected_time":2346000000000,"state":"active","ping":46},{"user_id":77,"name":"Mr. Hunts","steam_id":76561197981910397,"connected_time":286000000000,"state":"active","ping":69},{"user_id":81,"name":"Aregularhuman","steam_id":76561198343319848,"connected_time":54000000000,"state":"active","ping":51}]},{"server_id":21,"name":"Uncletopia | London | 5 | All Maps","name_short":"lon-5","host":"lon-1.uk.uncletopia.com","port":27055,"enabled":true,"region":"eu","cc":"gb","latitude":51.509865,"longitude":-0.118092,"reserved":0,"last_update":"0001-01-01T00:00:00Z","name_a2s":"Uncletopia | London | 5 | All Maps","protocol":17,"map":"pl_upward","folder":"tf","game":"Team Fortress","app_id":440,"player_count":0,"max_players":24,"Bots":0,"server_type":"Dedicated","server_os":"Linux","password":true,"vac":true,"version":"7961495","steam_id":85568392924742829,"keywords":["nocrits","nodmgspread","payload","uncletopia"],"game_id":440,"stv_port":27056,"stv_name":"Uncletopia | London | 5 | All Maps | STV","players":null},{"server_id":22,"name":"Uncletopia | London | 6 | All Maps","name_short":"lon-6","host":"lon-1.uk.uncletopia.com","port":27065,"enabled":true,"region":"eu","cc":"gb","latitude":51.509865,"longitude":-0.118092,"reserved":0,"last_update":"0001-01-01T00:00:00Z","name_a2s":"Uncletopia | London | 6 | All Maps","protocol":17,"map":"cp_process_final","folder":"tf","game":"Team Fortress","app_id":440,"player_count":0,"max_players":24,"Bots":0,"server_type":"Dedicated","server_os":"Linux","password":true,"vac":true,"version":"7961495","steam_id":85568392924742830,"keywords":["cp","nocrits","nodmgspread","uncletopia"],"game_id":440,"stv_port":27066,"stv_name":"Uncletopia | London | 6 | All Maps | STV","players":null},{"server_id":40,"name":"Uncletopia | London | 7 | Stopwatch","name_short":"lon-7","host":"lon-1.uk.uncletopia.com","port":27075,"enabled":true,"region":"eu","cc":"gb","latitude":51.509865,"longitude":-0.118092,"reserved":0,"last_update":"0001-01-01T00:00:00Z","name_a2s":"Uncletopia | London | 7 | Stopwatch","protocol":17,"map":"workshop/cp_reckoner_rc6.ugc674719999","folder":"tf","game":"Team Fortress","app_id":440,"player_count":1,"max_players":24,"Bots":0,"server_type":"Dedicated","server_os":"Linux","password":true,"vac":true,"version":"7961495","steam_id":85568392924964314,"keywords":["cp","nocrits","nodmgspread","uncletopia"],"game_id":440,"stv_port":27076,"stv_name":"Uncletopia | London | 7 | Stopwatch | STV","players":[{"user_id":246,"name":"k4nk3r","steam_id":76561199388713923,"connected_time":9000000000,"state":"active","ping":66}]},{"server_id":41,"name":"Uncletopia | London | 8 | Community","name_short":"lon-8","host":"lon-1.uk.uncletopia.com","port":27085,"enabled":true,"region":"eu","cc":"gb","latitude":51.509865,"longitude":-0.118092,"reserved":0,"last_update":"0001-01-01T00:00:00Z","name_a2s":"Uncletopia | London | 8 | Community","protocol":17,"map":"workshop/cp_mannbase_rc2a.ugc1900737467","folder":"tf","game":"Team Fortress","app_id":440,"player_count":3,"max_players":24,"Bots":0,"server_type":"Dedicated","server_os":"Linux","password":true,"vac":true,"version":"7961495","steam_id":85568392924964315,"keywords":["cp","nocrits","nodmgspread","uncletopia"],"game_id":440,"stv_port":27086,"stv_name":"Uncletopia | London | 8 | Community | STV","players":[{"user_id":3,"name":"Nice Shot","steam_id":76561198267313008,"connected_time":458000000000,"state":"active","ping":94},{"user_id":5,"name":"yairshalemm","steam_id":76561199246496166,"connected_time":231000000000,"state":"active","ping":93},{"user_id":6,"name":"PANAANI","steam_id":76561198322322739,"connected_time":34000000000,"state":"active","ping":83}]},{"server_id":300,"name":"Uncletopia | Montréal | 1 | One Thousand Uncles","name_short":"mtl-1","host":"mtl-1.ca.uncletopia.com","port":27015,"enabled":true,"region":"us-east","cc":"ca","latitude":45.50889,"longitude":-73.56167,"reserved":0,"last_update":"0001-01-01T00:00:00Z","name_a2s":"Uncletopia | Montréal | 1 | One Thousand Uncles","protocol":17,"map":"pl_chilly","folder":"tf","game":"Team Fortress","app_id":440,"player_count":19,"max_players":32,"Bots":16,"server_type":"Dedicated","server_os":"Linux","password":true,"vac":true,"version":"7961495","steam_id":85568392924500087,"keywords":["alltalk","bots","danepve","increased_maxplayers","norespawntime","payload","uncletopia"],"game_id":440,"stv_port":0,"stv_name":"","players":[{"user_id":60,"name":"Why not Zoidberg?","steam_id":76561197982207556,"connected_time":2488000000000,"state":"active","ping":71},{"user_id":78,"name":"Yimberly","steam_id":76561199206923109,"connected_time":1106000000000,"state":"active","ping":82},{"user_id":80,"name":"Berlioz","steam_id":76561198040532757,"connected_time":890000000000,"state":"active","ping":79}]},{"server_id":301,"name":"Uncletopia | Montréal | 2 | One Thousand Uncles","name_short":"mtl-2","host":"mtl-1.ca.uncletopia.com","port":27025,"enabled":true,"region":"us-east","cc":"ca","latitude":45.50889,"longitude":-73.56167,"reserved":0,"last_update":"0001-01-01T00:00:00Z","name_a2s":"Uncletopia | Montréal | 2 | One Thousand Uncles","protocol":17,"map":"pl_chilly","folder":"tf","game":"Team Fortress","app_id":440,"player_count":0,"max_players":32,"Bots":0,"server_type":"Dedicated","server_os":"Linux","password":true,"vac":true,"version":"7961495","steam_id":85568392924500088,"keywords":["alltalk","danepve","increased_maxplayers","norespawntime","payload","uncletopia"],"game_id":440,"stv_port":0,"stv_name":"","players":null},{"server_id":302,"name":"Uncletopia | Montréal | 3 | One Thousand Uncles","name_short":"mtl-3","host":"mtl-1.ca.uncletopia.com","port":27035,"enabled":true,"region":"us-east","cc":"ca","latitude":45.50889,"longitude":-73.56167,"reserved":0,"last_update":"0001-01-01T00:00:00Z","name_a2s":"Uncletopia | Montréal | 3 | One Thousand Uncles","protocol":17,"map":"pl_upward","folder":"tf","game":"Team Fortress","app_id":440,"player_count":0,"max_players":32,"Bots":0,"server_type":"Dedicated","server_os":"Linux","password":true,"vac":true,"version":"7961495","steam_id":85568392924500089,"keywords":["alltalk","danepve","increased_maxplayers","norespawntime","payload","uncletopia"],"game_id":440,"stv_port":0,"stv_name":"","players":null},{"server_id":13,"name":"Uncletopia | New York City | 1 | All Maps","name_short":"nyc-1","host":"nyc-1.us.uncletopia.com","port":27015,"enabled":true,"region":"us-east","cc":"us","latitude":40.73061,"longitude":-73.93524,"reserved":0,"last_update":"0001-01-01T00:00:00Z","name_a2s":"Uncletopia | New York City | 1 | All Maps","protocol":17,"map":"koth_brazil","folder":"tf","game":"Team Fortress","app_id":440,"player_count":0,"max_players":24,"Bots":0,"server_type":"Dedicated","server_os":"Linux","password":true,"vac":true,"version":"7961495","steam_id":85568392924469993,"keywords":["cp","nocrits","nodmgspread","uncletopia"],"game_id":440,"stv_port":27016,"stv_name":"Uncletopia | New York City | 1 | All Maps | STV","players":null},{"server_id":14,"name":"Uncletopia | New York City | 2 | All Maps","name_short":"nyc-2","host":"nyc-1.us.uncletopia.com","port":27025,"enabled":true,"region":"us-east","cc":"us","latitude":40.73061,"longitude":-73.93524,"reserved":0,"last_update":"0001-01-01T00:00:00Z","name_a2s":"Uncletopia | New York City | 2 | All Maps","protocol":17,"map":"pl_hoodoo_final","folder":"tf","game":"Team Fortress","app_id":440,"player_count":24,"max_players":24,"Bots":0,"server_type":"Dedicated","server_os":"Linux","password":true,"vac":true,"version":"7961495","steam_id":85568392924469994,"keywords":["nocrits","nodmgspread","payload","uncletopia"],"game_id":440,"stv_port":27026,"stv_name":"Uncletopia | New York City | 2 | All Maps | STV","players":[{"user_id":6,"name":"Mr.Bady","steam_id":76561199094651706,"connected_time":3950000000000,"state":"active","ping":49},{"user_id":62,"name":"the pest","steam_id":76561198826298849,"connected_time":812000000000,"state":"active","ping":75},{"user_id":69,"name":"kill","steam_id":76561198257027820,"connected_time":385000000000,"state":"active","ping":64},{"user_id":70,"name":"GlitchNoodles","steam_id":76561199009135766,"connected_time":345000000000,"state":"active","ping":62},{"user_id":56,"name":"Camfour","steam_id":76561198083090140,"connected_time":1170000000000,"state":"active","ping":114},{"user_id":76,"name":"saurhead","steam_id":76561198132937722,"connected_time":206000000000,"state":"active","ping":44},{"user_id":59,"name":"Cooki","steam_id":76561198051705314,"connected_time":873000000000,"state":"active","ping":71},{"user_id":15,"name":"loscemo","steam_id":76561197994884609,"connected_time":2745000000000,"state":"active","ping":67},{"user_id":67,"name":"HungryPenguin","steam_id":76561198039803880,"connected_time":542000000000,"state":"active","ping":41},{"user_id":51,"name":"trilobita","steam_id":76561198428215606,"connected_time":1384000000000,"state":"active","ping":57},{"user_id":46,"name":"chief","steam_id":76561198012274834,"connected_time":1589000000000,"state":"active","ping":102},{"user_id":71,"name":"chrisd149","steam_id":76561198018710480,"connected_time":298000000000,"state":"active","ping":75},{"user_id":74,"name":"CaitSh*t","steam_id":76561198142406900,"connected_time":240000000000,"state":"active","ping":43},{"user_id":65,"name":"Voodo133","steam_id":76561198042670351,"connected_time":762000000000,"state":"active","ping":70},{"user_id":29,"name":"dadgummit","steam_id":76561198005806915,"connected_time":2362000000000,"state":"active","ping":75},{"user_id":48,"name":"King","steam_id":76561198039763676,"connected_time":1425000000000,"state":"active","ping":78},{"user_id":58,"name":"Pixeled","steam_id":76561198088917077,"connected_time":926000000000,"state":"active","ping":73},{"user_id":68,"name":"Bee","steam_id":76561198074681324,"connected_time":424000000000,"state":"active","ping":50},{"user_id":66,"name":"Window Licker #pride","steam_id":76561198386717007,"connected_time":762000000000,"state":"active","ping":79},{"user_id":53,"name":"Nathan Yeet","steam_id":76561198883966591,"connected_time":1329000000000,"state":"active","ping":74},{"user_id":64,"name":"DualiTea","steam_id":76561198081733870,"connected_time":790000000000,"state":"active","ping":76},{"user_id":75,"name":"𝒯⁶","steam_id":76561198095558953,"connected_time":233000000000,"state":"active","ping":78},{"user_id":47,"name":"soup","steam_id":76561198880568662,"connected_time":1464000000000,"state":"active","ping":69},{"user_id":61,"name":"PK","steam_id":76561198368722500,"connected_time":835000000000,"state":"active","ping":53}]},{"server_id":15,"name":"Uncletopia | New York City | 3 | Stopwatch","name_short":"nyc-3","host":"nyc-1.us.uncletopia.com","port":27035,"enabled":true,"region":"us-east","cc":"us","latitude":40.73061,"longitude":-73.93524,"reserved":0,"last_update":"0001-01-01T00:00:00Z","name_a2s":"Uncletopia | New York City | 3 | Stopwatch","protocol":17,"map":"workshop/cp_reckoner_rc6.ugc674719999","folder":"tf","game":"Team Fortress","app_id":440,"player_count":0,"max_players":24,"Bots":0,"server_type":"Dedicated","server_os":"Linux","password":true,"vac":true,"version":"7961495","steam_id":85568392924742820,"keywords":["cp","nocrits","nodmgspread","uncletopia"],"game_id":440,"stv_port":27036,"stv_name":"Uncletopia | New York City | 3 | Stopwatch | STV","players":null},{"server_id":16,"name":"Uncletopia | New York City | 4 | Community","name_short":"nyc-4","host":"nyc-1.us.uncletopia.com","port":27045,"enabled":true,"region":"us-east","cc":"us","latitude":40.73061,"longitude":-73.93524,"reserved":0,"last_update":"0001-01-01T00:00:00Z","name_a2s":"Uncletopia | New York City | 4 | Community","protocol":17,"map":"workshop/cp_indulge.ugc528106646","folder":"tf","game":"Team Fortress","app_id":440,"player_count":0,"max_players":24,"Bots":0,"server_type":"Dedicated","server_os":"Linux","password":true,"vac":true,"version":"7961495","steam_id":85568392924742821,"keywords":["cp","nocrits","nodmgspread","uncletopia"],"game_id":440,"stv_port":27046,"stv_name":"Uncletopia | New York City | 4 | Community | STV","players":null},{"server_id":142,"name":"Uncletopia | São Paulo | 1 | All Maps","name_short":"sao-1","host":"sao-1.br.uncletopia.com","port":27015,"enabled":true,"region":"sa","cc":"br","latitude":-23.533773,"longitude":-46.62529,"reserved":0,"last_update":"0001-01-01T00:00:00Z","name_a2s":"Uncletopia | São Paulo | 1 | All Maps","protocol":17,"map":"koth_viaduct","folder":"tf","game":"Team Fortress","app_id":440,"player_count":0,"max_players":24,"Bots":0,"server_type":"Dedicated","server_os":"Linux","password":true,"vac":true,"version":"7961495","steam_id":85568392924469996,"keywords":["cp","nocrits","nodmgspread","uncletopia"],"game_id":440,"stv_port":27016,"stv_name":"Uncletopia | São Paulo | 1 | All Maps | STV","players":null},{"server_id":143,"name":"Uncletopia | São Paulo | 2 | Community","name_short":"sao-2","host":"sao-2.br.uncletopia.com","port":27015,"enabled":true,"region":"sa","cc":"br","latitude":-23.533773,"longitude":-46.62529,"reserved":0,"last_update":"0001-01-01T00:00:00Z","name_a2s":"Uncletopia | São Paulo | 2 | Community","protocol":17,"map":"workshop/koth_product_final.ugc454272353","folder":"tf","game":"Team Fortress","app_id":440,"player_count":0,"max_players":24,"Bots":0,"server_type":"Dedicated","server_os":"Linux","password":true,"vac":true,"version":"7961495","steam_id":85568392924485349,"keywords":["cp","nocrits","nodmgspread","uncletopia"],"game_id":440,"stv_port":27016,"stv_name":"Uncletopia | São Paulo | 2 | Community | STV","players":null},{"server_id":7,"name":"Uncletopia | Seattle | 1 | All Maps","name_short":"sea-1","host":"sea-1.us.uncletopia.com","port":27015,"enabled":true,"region":"us-west","cc":"us","latitude":47.608013,"longitude":-122.33517,"reserved":0,"last_update":"0001-01-01T00:00:00Z","name_a2s":"Uncletopia | Seattle | 1 | All Maps","protocol":17,"map":"cp_egypt_final","folder":"tf","game":"Team Fortress","app_id":440,"player_count":24,"max_players":24,"Bots":0,"server_type":"Dedicated","server_os":"Linux","password":true,"vac":true,"version":"7961495","steam_id":85568392924469997,"keywords":["cp","nocrits","nodmgspread","uncletopia"],"game_id":440,"stv_port":27016,"stv_name":"Uncletopia | Seattle | 1 | All Maps | STV","players":[{"user_id":114,"name":"keffers","steam_id":76561198202338796,"connected_time":124000000000,"state":"active","ping":96},{"user_id":118,"name":"GreenBlah","steam_id":76561198009178916,"connected_time":4000000000,"state":"spawning","ping":77},{"user_id":100,"name":"Hazel","steam_id":76561199247095754,"connected_time":917000000000,"state":"active","ping":59},{"user_id":99,"name":"Cum King","steam_id":76561199366744222,"connected_time":1137000000000,"state":"active","ping":78},{"user_id":98,"name":"alexander the just ok","steam_id":76561199256886895,"connected_time":1648000000000,"state":"active","ping":103},{"user_id":89,"name":"Ichibanprofen","steam_id":76561199192132061,"connected_time":2985000000000,"state":"active","ping":92},{"user_id":40,"name":"FI LO","steam_id":76561198976530881,"connected_time":5293000000000,"state":"active","ping":63},{"user_id":107,"name":"AFunkyPigeon","steam_id":76561199350099870,"connected_time":513000000000,"state":"active","ping":117},{"user_id":110,"name":"Lovedaddy","steam_id":76561198006569710,"connected_time":436000000000,"state":"active","ping":122},{"user_id":90,"name":"amagicowl","steam_id":76561199060487814,"connected_time":2578000000000,"state":"active","ping":46},{"user_id":91,"name":"Hottodoggu","steam_id":76561198084080712,"connected_time":2471000000000,"state":"active","ping":80},{"user_id":105,"name":"Ulrich Stern","steam_id":76561198101739682,"connected_time":602000000000,"state":"active","ping":105},{"user_id":80,"name":"Blons","steam_id":76561198370402302,"connected_time":3648000000000,"state":"active","ping":115},{"user_id":115,"name":"Shark Sandwich","steam_id":76561198025007938,"connected_time":83000000000,"state":"active","ping":48},{"user_id":109,"name":"Babypool","steam_id":76561198329213832,"connected_time":502000000000,"state":"active","ping":84},{"user_id":117,"name":"not him","steam_id":76561198268254154,"connected_time":17000000000,"state":"active","ping":120},{"user_id":111,"name":"Boxpipe","steam_id":76561197964501915,"connected_time":432000000000,"state":"active","ping":73},{"user_id":66,"name":"Slightly Used Mango","steam_id":76561198293800794,"connected_time":4028000000000,"state":"active","ping":86},{"user_id":50,"name":"Torn Ligma Mint","steam_id":76561198046562161,"connected_time":4789000000000,"state":"active","ping":60},{"user_id":45,"name":"Jrock","steam_id":76561198045715996,"connected_time":5005000000000,"state":"active","ping":120},{"user_id":67,"name":"Hiro","steam_id":76561198103601761,"connected_time":4022000000000,"state":"active","ping":106},{"user_id":112,"name":"Damien","steam_id":76561198826034873,"connected_time":371000000000,"state":"active","ping":82},{"user_id":76,"name":"Choom","steam_id":76561197972654816,"connected_time":3764000000000,"state":"active","ping":49},{"user_id":95,"name":"Oktayey","steam_id":76561198143213426,"connected_time":2108000000000,"state":"active","ping":63}]},{"server_id":119,"name":"Uncletopia | Seattle | 2 | All Maps","name_short":"sea-2","host":"sea-1.us.uncletopia.com","port":27025,"enabled":true,"region":"us-west","cc":"us","latitude":47.608013,"longitude":-122.33517,"reserved":0,"last_update":"0001-01-01T00:00:00Z","name_a2s":"Uncletopia | Seattle | 2 | All Maps","protocol":17,"map":"cp_process_final","folder":"tf","game":"Team Fortress","app_id":440,"player_count":2,"max_players":24,"Bots":0,"server_type":"Dedicated","server_os":"Linux","password":true,"vac":true,"version":"7961495","steam_id":85568392924469998,"keywords":["cp","nocrits","nodmgspread","uncletopia"],"game_id":440,"stv_port":27026,"stv_name":"Uncletopia | Seattle | 2 | All Maps | STV","players":[{"user_id":4,"name":"mark.simfi","steam_id":76561198966432244,"connected_time":2284000000000,"state":"active","ping":183},{"user_id":8,"name":"tiniel.simfi","steam_id":76561198025695704,"connected_time":1990000000000,"state":"active","ping":191}]},{"server_id":406,"name":"Uncletopia | Seattle | 3 | Stopwatch","name_short":"sea-3","host":"sea-1.us.uncletopia.com","port":27035,"enabled":true,"region":"us-west","cc":"us","latitude":47.608013,"longitude":-122.33517,"reserved":0,"last_update":"0001-01-01T00:00:00Z","name_a2s":"Uncletopia | Seattle | 3 | Stopwatch","protocol":17,"map":"cp_gullywash_final1","folder":"tf","game":"Team Fortress","app_id":440,"player_count":0,"max_players":24,"Bots":0,"server_type":"Dedicated","server_os":"Linux","password":true,"vac":true,"version":"7961495","steam_id":85568392924515217,"keywords":["cp","nocrits","nodmgspread","uncletopia"],"game_id":440,"stv_port":27036,"stv_name":"Uncletopia | Seattle | 3 | Stopwatch | STV","players":null},{"server_id":17,"name":"Uncletopia | San Francisco | 1 | All Maps","name_short":"sfo-1","host":"sfo-1.us.uncletopia.com","port":27015,"enabled":true,"region":"us-west","cc":"us","latitude":37.77397,"longitude":-122.4313,"reserved":0,"last_update":"0001-01-01T00:00:00Z","name_a2s":"Uncletopia | San Francisco | 1 | All Maps","protocol":17,"map":"koth_highpass","folder":"tf","game":"Team Fortress","app_id":440,"player_count":0,"max_players":24,"Bots":0,"server_type":"Dedicated","server_os":"Linux","password":true,"vac":true,"version":"7961495","steam_id":85568392924469999,"keywords":["cp","nocrits","nodmgspread","uncletopia"],"game_id":440,"stv_port":27016,"stv_name":"Uncletopia | San Francisco | 1 | All Maps | STV","players":null},{"server_id":18,"name":"Uncletopia | San Francisco | 2 | All Maps","name_short":"sfo-2","host":"sfo-1.us.uncletopia.com","port":27025,"enabled":true,"region":"us-west","cc":"us","latitude":37.77397,"longitude":-122.4313,"reserved":0,"last_update":"0001-01-01T00:00:00Z","name_a2s":"Uncletopia | San Francisco | 2 | All Maps","protocol":17,"map":"cp_freight_final1","folder":"tf","game":"Team Fortress","app_id":440,"player_count":0,"max_players":24,"Bots":0,"server_type":"Dedicated","server_os":"Linux","password":true,"vac":true,"version":"7961495","steam_id":85568392924470000,"keywords":["cp","nocrits","nodmgspread","uncletopia"],"game_id":440,"stv_port":27026,"stv_name":"Uncletopia | San Francisco | 2 | All Maps | STV","players":null},{"server_id":19,"name":"Uncletopia | San Francisco | 3 | Stopwatch","name_short":"sfo-3","host":"sfo-1.us.uncletopia.com","port":27035,"enabled":true,"region":"us-west","cc":"us","latitude":37.77397,"longitude":-122.4313,"reserved":0,"last_update":"0001-01-01T00:00:00Z","name_a2s":"Uncletopia | San Francisco | 3 | Stopwatch","protocol":17,"map":"workshop/koth_jamram_rc1a.ugc2964065613","folder":"tf","game":"Team Fortress","app_id":440,"player_count":0,"max_players":24,"Bots":0,"server_type":"Dedicated","server_os":"Linux","password":true,"vac":true,"version":"7961495","steam_id":85568392924742824,"keywords":["cp","nocrits","nodmgspread","uncletopia"],"game_id":440,"stv_port":27036,"stv_name":"Uncletopia | San Francisco | 3 | Stopwatch | STV","players":null},{"server_id":20,"name":"Uncletopia | San Francisco | 4 | Community","name_short":"sfo-4","host":"sfo-1.us.uncletopia.com","port":27045,"enabled":true,"region":"us-west","cc":"us","latitude":37.77397,"longitude":-122.4313,"reserved":0,"last_update":"0001-01-01T00:00:00Z","name_a2s":"Uncletopia | San Francisco | 4 | Community","protocol":17,"map":"workshop/pl_cactuscanyon_redux_final2.ugc2579644293","folder":"tf","game":"Team Fortress","app_id":440,"player_count":0,"max_players":24,"Bots":0,"server_type":"Dedicated","server_os":"Linux","password":true,"vac":true,"version":"7961495","steam_id":85568392924742826,"keywords":["nocrits","nodmgspread","payload","uncletopia"],"game_id":440,"stv_port":27046,"stv_name":"Uncletopia | San Francisco | 4 | Community | STV","players":null},{"server_id":141,"name":"Uncletopia | Sydney | 1 | All Maps","name_short":"syd-1","host":"syd-1.au.uncletopia.com","port":27015,"enabled":true,"region":"au","cc":"au","latitude":-33.865143,"longitude":151.2099,"reserved":0,"last_update":"0001-01-01T00:00:00Z","name_a2s":"Uncletopia | Sydney | 1 | All Maps","protocol":17,"map":"koth_lakeside_final","folder":"tf","game":"Team Fortress","app_id":440,"player_count":0,"max_players":24,"Bots":0,"server_type":"Dedicated","server_os":"Linux","password":true,"vac":true,"version":"7961495","steam_id":85568392924470001,"keywords":["cp","nocrits","nodmgspread","uncletopia"],"game_id":440,"stv_port":27016,"stv_name":"Uncletopia | Sydney | 1 | All Maps | STV","players":null},{"server_id":123,"name":"Uncletopia | Sydney | 2 | All Maps","name_short":"syd-2","host":"syd-1.au.uncletopia.com","port":27025,"enabled":true,"region":"au","cc":"au","latitude":-33.865143,"longitude":151.2099,"reserved":0,"last_update":"0001-01-01T00:00:00Z","name_a2s":"Uncletopia | Sydney | 2 | All Maps","protocol":17,"map":"koth_viaduct","folder":"tf","game":"Team Fortress","app_id":440,"player_count":0,"max_players":24,"Bots":0,"server_type":"Dedicated","server_os":"Linux","password":true,"vac":true,"version":"7961495","steam_id":85568392924470002,"keywords":["cp","nocrits","nodmgspread","uncletopia"],"game_id":440,"stv_port":27026,"stv_name":"Uncletopia | Sydney | 2 | All Maps | STV","players":null},{"server_id":395,"name":"Uncletopia | Sydney | 3 | All Maps","name_short":"syd-3","host":"syd-1.au.uncletopia.com","port":27035,"enabled":true,"region":"au","cc":"au","latitude":-33.865143,"longitude":151.2099,"reserved":0,"last_update":"0001-01-01T00:00:00Z","name_a2s":"Uncletopia | Sydney | 3 | All Maps","protocol":17,"map":"pl_barnblitz","folder":"tf","game":"Team Fortress","app_id":440,"player_count":0,"max_players":24,"Bots":0,"server_type":"Dedicated","server_os":"Linux","password":true,"vac":true,"version":"7961495","steam_id":85568392925194467,"keywords":["nocrits","nodmgspread","payload","uncletopia"],"game_id":440,"stv_port":27036,"stv_name":"Uncletopia | Sydney | 3 | All Maps | STV","players":null},{"server_id":396,"name":"Uncletopia | Sydney | 4 | All Maps","name_short":"syd-4","host":"syd-1.au.uncletopia.com","port":27045,"enabled":true,"region":"au","cc":"au","latitude":-33.865143,"longitude":151.2099,"reserved":0,"last_update":"0001-01-01T00:00:00Z","name_a2s":"Uncletopia | Sydney | 4 | All Maps","protocol":17,"map":"cp_process_final","folder":"tf","game":"Team Fortress","app_id":440,"player_count":0,"max_players":24,"Bots":0,"server_type":"Dedicated","server_os":"Linux","password":true,"vac":true,"version":"7961495","steam_id":85568392925397958,"keywords":["cp","nocrits","nodmgspread","uncletopia"],"game_id":440,"stv_port":27046,"stv_name":"Uncletopia | Sydney | 4 | All Maps | STV","players":null},{"server_id":58,"name":"Uncletopia | Sydney | 5 | Stopwatch","name_short":"syd-5","host":"syd-1.au.uncletopia.com","port":27055,"enabled":true,"region":"au","cc":"au","latitude":-33.865143,"longitude":151.2099,"reserved":0,"last_update":"0001-01-01T00:00:00Z","name_a2s":"Uncletopia | Sydney | 5 | Stopwatch","protocol":17,"map":"workshop/koth_clearcut_b15.ugc2107050255","folder":"tf","game":"Team Fortress","app_id":440,"player_count":0,"max_players":24,"Bots":0,"server_type":"Dedicated","server_os":"Linux","password":true,"vac":true,"version":"7961495","steam_id":85568392925397959,"keywords":["cp","nocrits","nodmgspread","uncletopia"],"game_id":440,"stv_port":27056,"stv_name":"Uncletopia | Sydney | 5 | Stopwatch | STV","players":null},{"server_id":59,"name":"Uncletopia | Sydney | 6 | Community","name_short":"syd-6","host":"syd-1.au.uncletopia.com","port":27065,"enabled":true,"region":"au","cc":"au","latitude":-33.865143,"longitude":151.2099,"reserved":0,"last_update":"0001-01-01T00:00:00Z","name_a2s":"Uncletopia | Sydney | 6 | Community","protocol":17,"map":"workshop/koth_trenchfoot_ab1.ugc731436616","folder":"tf","game":"Team Fortress","app_id":440,"player_count":0,"max_players":24,"Bots":0,"server_type":"Dedicated","server_os":"Linux","password":true,"vac":true,"version":"7961495","steam_id":85568392925397960,"keywords":["cp","nocrits","nodmgspread","uncletopia"],"game_id":440,"stv_port":27066,"stv_name":"Uncletopia | Sydney | 6 | Community | STV","players":null},{"server_id":49,"name":"Uncletopia | Warsaw | 1 | One Thousand Uncles","name_short":"waw-1","host":"waw-1.pl.uncletopia.com","port":27015,"enabled":true,"region":"eu","cc":"pl","latitude":52.2297,"longitude":21.017532,"reserved":0,"last_update":"0001-01-01T00:00:00Z","name_a2s":"Uncletopia | Warsaw | 1 | One Thousand Uncles","protocol":17,"map":"pl_pier","folder":"tf","game":"Team Fortress","app_id":440,"player_count":27,"max_players":32,"Bots":16,"server_type":"Dedicated","server_os":"Linux","password":true,"vac":true,"version":"7961495","steam_id":85568392925397850,"keywords":["alltalk","bots","danepve","increased_maxplayers","norespawntime","payload","uncletopia"],"game_id":440,"stv_port":0,"stv_name":"","players":[{"user_id":459,"name":"D4RKERX","steam_id":76561198060537403,"connected_time":2236000000000,"state":"active","ping":226},{"user_id":483,"name":"Sakšn Kap Men","steam_id":76561198302091713,"connected_time":95000000000,"state":"active","ping":64},{"user_id":452,"name":"Mr.J","steam_id":76561199127439080,"connected_time":3604000000000,"state":"active","ping":96},{"user_id":458,"name":"Jansku","steam_id":76561198321340149,"connected_time":2670000000000,"state":"active","ping":105},{"user_id":470,"name":"Rayco","steam_id":76561198048013129,"connected_time":1192000000000,"state":"active","ping":65},{"user_id":463,"name":"Dr_Foxy_scp_sl_PL","steam_id":76561199438046064,"connected_time":1799000000000,"state":"active","ping":61},{"user_id":484,"name":"Loo32","steam_id":76561199094568704,"connected_time":41000000000,"state":"active","ping":64},{"user_id":465,"name":"Papa Stalin","steam_id":76561198298953716,"connected_time":1651000000000,"state":"active","ping":78},{"user_id":473,"name":"xanderomeister","steam_id":76561198882550389,"connected_time":1036000000000,"state":"active","ping":67},{"user_id":407,"name":"MrHenry","steam_id":76561199249662743,"connected_time":7842000000000,"state":"active","ping":148},{"user_id":482,"name":"Jared","steam_id":76561198020432651,"connected_time":324000000000,"state":"active","ping":145}]},{"server_id":50,"name":"Uncletopia | Warsaw | 2 | One Thousand Uncles","name_short":"waw-2","host":"waw-1.pl.uncletopia.com","port":27025,"enabled":true,"region":"eu","cc":"pl","latitude":52.2297,"longitude":21.017532,"reserved":0,"last_update":"0001-01-01T00:00:00Z","name_a2s":"Uncletopia | Warsaw | 2 | One Thousand Uncles","protocol":17,"map":"pl_pier","folder":"tf","game":"Team Fortress","app_id":440,"player_count":22,"max_players":32,"Bots":16,"server_type":"Dedicated","server_os":"Linux","password":true,"vac":true,"version":"7961495","steam_id":85568392925397851,"keywords":["alltalk","bots","danepve","increased_maxplayers","norespawntime","payload","uncletopia"],"game_id":440,"stv_port":0,"stv_name":"","players":[{"user_id":236,"name":"skike","steam_id":76561198071079992,"connected_time":1809000000000,"state":"active","ping":111},{"user_id":232,"name":"Damin","steam_id":76561198204500297,"connected_time":3330000000000,"state":"active","ping":60},{"user_id":233,"name":"Shadu","steam_id":76561198122663977,"connected_time":3280000000000,"state":"active","ping":90},{"user_id":234,"name":"What?","steam_id":76561198121960984,"connected_time":3097000000000,"state":"active","ping":53},{"user_id":235,"name":"kovajatkaolevinaan","steam_id":76561199471146687,"connected_time":2601000000000,"state":"active","ping":79},{"user_id":226,"name":"Phisor","steam_id":76561198233450952,"connected_time":6306000000000,"state":"active","ping":74}]},{"server_id":51,"name":"Uncletopia | Warsaw | 3 | All Maps","name_short":"waw-3","host":"waw-1.pl.uncletopia.com","port":27035,"enabled":true,"region":"eu","cc":"pl","latitude":52.2297,"longitude":21.017532,"reserved":0,"last_update":"0001-01-01T00:00:00Z","name_a2s":"Uncletopia | Warsaw | 3 | All Maps","protocol":17,"map":"cp_sunshine","folder":"tf","game":"Team Fortress","app_id":440,"player_count":0,"max_players":24,"Bots":0,"server_type":"Dedicated","server_os":"Linux","password":true,"vac":true,"version":"7961495","steam_id":85568392925397852,"keywords":["cp","nocrits","nodmgspread","uncletopia"],"game_id":440,"stv_port":27036,"stv_name":"Uncletopia | Warsaw | 3 | All Maps | STV","players":null},{"server_id":52,"name":"Uncletopia | Warsaw | 4 | All Maps","name_short":"waw-4","host":"waw-1.pl.uncletopia.com","port":27045,"enabled":true,"region":"eu","cc":"pl","latitude":52.2297,"longitude":21.017532,"reserved":0,"last_update":"0001-01-01T00:00:00Z","name_a2s":"Uncletopia | Warsaw | 4 | All Maps","protocol":17,"map":"cp_mountainlab","folder":"tf","game":"Team Fortress","app_id":440,"player_count":0,"max_players":24,"Bots":0,"server_type":"Dedicated","server_os":"Linux","password":true,"vac":true,"version":"7961495","steam_id":85568392925397853,"keywords":["cp","nocrits","nodmgspread","uncletopia"],"game_id":440,"stv_port":27046,"stv_name":"Uncletopia | Warsaw | 4 | All Maps | STV","players":null},{"server_id":53,"name":"Uncletopia | Warsaw | 5 | Stopwatch","name_short":"waw-5","host":"waw-1.pl.uncletopia.com","port":27055,"enabled":true,"region":"eu","cc":"pl","latitude":52.2297,"longitude":21.017532,"reserved":0,"last_update":"0001-01-01T00:00:00Z","name_a2s":"Uncletopia | Warsaw | 5 | Stopwatch","protocol":17,"map":"workshop/koth_product_final.ugc454272353","folder":"tf","game":"Team Fortress","app_id":440,"player_count":0,"max_players":24,"Bots":0,"server_type":"Dedicated","server_os":"Linux","password":true,"vac":true,"version":"7961495","steam_id":85568392925397854,"keywords":["cp","nocrits","nodmgspread","uncletopia"],"game_id":440,"stv_port":27056,"stv_name":"Uncletopia | Warsaw | 5 | Stopwatch | STV","players":null},{"server_id":54,"name":"Uncletopia | Warsaw | 6 | Community","name_short":"waw-6","host":"waw-1.pl.uncletopia.com","port":27065,"enabled":true,"region":"eu","cc":"pl","latitude":52.2297,"longitude":21.017532,"reserved":0,"last_update":"0001-01-01T00:00:00Z","name_a2s":"Uncletopia | Warsaw | 6 | Community","protocol":17,"map":"workshop/cp_fulgur_rc2a.ugc2068252300","folder":"tf","game":"Team Fortress","app_id":440,"player_count":0,"max_players":24,"Bots":0,"server_type":"Dedicated","server_os":"Linux","password":true,"vac":true,"version":"7961495","steam_id":85568392925397856,"keywords":["cp","nocrits","nodmgspread","uncletopia"],"game_id":440,"stv_port":27066,"stv_name":"Uncletopia | Warsaw | 6 | Community | STV","players":null}]}