{"status":true,"message":"","result":[{"server_id":9,"name":"Uncletopia | Atlanta | 1 | All Maps","name_short":"atl-1","host":"atl-1.us.uncletopia.com","port":27015,"enabled":true,"region":"us-east","cc":"us","latitude":33.753746,"longitude":-84.38633,"reserved":0,"last_update":"0001-01-01T00:00:00Z","name_a2s":"Uncletopia | Atlanta | 1 | All Maps","protocol":17,"map":"pl_pier","folder":"tf","game":"Team Fortress","app_id":440,"player_count":24,"max_players":24,"Bots":0,"server_type":"Dedicated","server_os":"Linux","password":true,"vac":true,"version":"7723704","steam_id":85568392924469982,"keywords":["nocrits","nodmgspread","payload","uncletopia"],"game_id":440,"stv_port":27016,"stv_name":"Uncletopia | Atlanta | 1 | All Maps | STV","players":[{"user_id":1236,"name":"Grilled Of The Cheese","steam_id":76561198145066749,"connected_time":437000000000,"state":"active","ping":74},{"user_id":1146,"name":"Brain","steam_id":76561198237850206,"connected_time":4378000000000,"state":"active","ping":71},{"user_id":1183,"name":"vid_","steam_id":76561198065159053,"connected_time":2191000000000,"state":"active","ping":45},{"user_id":1130,"name":"will b. gaming","steam_id":76561198101707249,"connected_time":6063000000000,"state":"active","ping":58},{"user_id":1164,"name":"mgmt deep cut time to pretend","steam_id":76561198110063909,"connected_time":2877000000000,"state":"active","ping":74},{"user_id":1239,"name":"L. Ron Hoyabembe","steam_id":76561198037786766,"connected_time":261000000000,"state":"active","ping":80},{"user_id":1235,"name":"Fish","steam_id":76561199016308078,"connected_time":484000000000,"state":"active","ping":113},{"user_id":1124,"name":"Riftex","steam_id":76561198124639698,"connected_time":6895000000000,"state":"active","ping":56},{"user_id":1237,"name":"SAM","steam_id":76561199229446265,"connected_time":427000000000,"state":"active","ping":65},{"user_id":1143,"name":"Zeetch","steam_id":76561198110579765,"connected_time":4511000000000,"state":"active","ping":75},{"user_id":1160,"name":"forklift circumcised","steam_id":76561198278756087,"connected_time":3149000000000,"state":"active","ping":86},{"user_id":1188,"name":"cirkuu","steam_id":76561198053465042,"connected_time":2150000000000,"state":"active","ping":74},{"user_id":1227,"name":"PaintMyMeow","steam_id":76561198056860387,"connected_time":829000000000,"state":"active","ping":92},{"user_id":1209,"name":"Brian D","steam_id":76561198074638559,"connected_time":1333000000000,"state":"active","ping":73},{"user_id":1154,"name":"Bali","steam_id":76561198038693845,"connected_time":3682000000000,"state":"active","ping":119},{"user_id":1210,"name":"THIRDPIERCE","steam_id":76561198405366314,"connected_time":1318000000000,"state":"active","ping":79},{"user_id":1199,"name":"xZackAttack27x","steam_id":76561198035446639,"connected_time":1753000000000,"state":"active","ping":60},{"user_id":1215,"name":"WhoIsFrosty","steam_id":76561198880588117,"connected_time":1232000000000,"state":"active","ping":81},{"user_id":1167,"name":"mudturtle","steam_id":76561198292734035,"connected_time":2748000000000,"state":"active","ping":60},{"user_id":1238,"name":"bogus","steam_id":76561198377555279,"connected_time":323000000000,"state":"active","ping":68},{"user_id":1212,"name":"drugsmoker117289","steam_id":76561198079009899,"connected_time":1290000000000,"state":"active","ping":77},{"user_id":1208,"name":"M4N","steam_id":76561199021460632,"connected_time":1417000000000,"state":"active","ping":85},{"user_id":1228,"name":"Spiffyputt","steam_id":76561198439345687,"connected_time":810000000000,"state":"active","ping":63},{"user_id":1163,"name":"dog","steam_id":76561198257924603,"connected_time":2927000000000,"state":"active","ping":79}]},{"server_id":400,"name":"Uncletopia | Atlanta | 3 | Stopwatch Beta","name_short":"atl-3","host":"atl-1.us.uncletopia.com","port":27035,"enabled":true,"region":"us-east","cc":"us","latitude":33.753746,"longitude":-84.38633,"reserved":0,"last_update":"0001-01-01T00:00:00Z","name_a2s":"Uncletopia | Atlanta | 3 | Stopwatch Beta","protocol":17,"map":"pl_borneo","folder":"tf","game":"Team Fortress","app_id":440,"player_count":0,"max_players":24,"Bots":0,"server_type":"Dedicated","server_os":"Linux","password":true,"vac":true,"version":"7723704","steam_id":85568392924515187,"keywords":["nocrits","nodmgspread","payload","uncletopia"],"game_id":440,"stv_port":27036,"stv_name":"Uncletopia | Atlanta | 3 | Stopwatch Beta | STV","players":null},{"server_id":401,"name":"Uncletopia | Atlanta | 4 | No Payload","name_short":"atl-4","host":"atl-1.us.uncletopia.com","port":27045,"enabled":true,"region":"us-east","cc":"us","latitude":33.753746,"longitude":-84.38633,"reserved":0,"last_update":"0001-01-01T00:00:00Z","name_a2s":"Uncletopia | Atlanta | 4 | No Payload","protocol":17,"map":"koth_badlands","folder":"tf","game":"Team Fortress","app_id":440,"player_count":0,"max_players":24,"Bots":0,"server_type":"Dedicated","server_os":"Linux","password":true,"vac":true,"version":"7723704","steam_id":85568392924515188,"keywords":["cp","nocrits","nodmgspread","uncletopia"],"game_id":440,"stv_port":27046,"stv_name":"Uncletopia | Atlanta | 4 | No Payload | STV","players":null},{"server_id":2,"name":"Uncletopia | Chicago | 1 | All Maps","name_short":"chi-1","host":"chi-1.us.uncletopia.com","port":27015,"enabled":true,"region":"us-central","cc":"us","latitude":41.881832,"longitude":-87.62318,"reserved":0,"last_update":"0001-01-01T00:00:00Z","name_a2s":"Uncletopia | Chicago | 1 | All Maps","protocol":17,"map":"pl_swiftwater_final1","folder":"tf","game":"Team Fortress","app_id":440,"player_count":0,"max_players":24,"Bots":0,"server_type":"Dedicated","server_os":"Linux","password":true,"vac":true,"version":"7723704","steam_id":85568392924469984,"keywords":["nocrits","nodmgspread","payload","uncletopia"],"game_id":440,"stv_port":27016,"stv_name":"Uncletopia | Chicago | 1 | All Maps | STV","players":null},{"server_id":106,"name":"Uncletopia | Chicago | 2 | All Maps","name_short":"chi-2","host":"chi-1.us.uncletopia.com","port":27025,"enabled":true,"region":"us-central","cc":"us","latitude":41.881832,"longitude":-87.62318,"reserved":0,"last_update":"0001-01-01T00:00:00Z","name_a2s":"Uncletopia | Chicago | 2 | All Maps","protocol":17,"map":"pl_frontier_final","folder":"tf","game":"Team Fortress","app_id":440,"player_count":7,"max_players":24,"Bots":0,"server_type":"Dedicated","server_os":"Linux","password":true,"vac":true,"version":"7723704","steam_id":85568392924469985,"keywords":["nocrits","nodmgspread","payload","uncletopia"],"game_id":440,"stv_port":27026,"stv_name":"Uncletopia | Chicago | 2 | All Maps | STV","players":[{"user_id":665,"name":"Akrin","steam_id":76561199254804349,"connected_time":1915000000000,"state":"active","ping":115},{"user_id":677,"name":"Top text","steam_id":76561198906113871,"connected_time":1174000000000,"state":"active","ping":80},{"user_id":686,"name":"PotatoIsUs","steam_id":76561198241109482,"connected_time":436000000000,"state":"active","ping":76},{"user_id":680,"name":"Chillin Turt","steam_id":76561198025796849,"connected_time":867000000000,"state":"active","ping":80},{"user_id":670,"name":"HeliCHAD","steam_id":76561199411677481,"connected_time":1546000000000,"state":"active","ping":286},{"user_id":684,"name":"Txhiggins","steam_id":76561198117531009,"connected_time":544000000000,"state":"active","ping":69},{"user_id":685,"name":"Sensei Wu","steam_id":76561198846623808,"connected_time":526000000000,"state":"active","ping":52}]},{"server_id":402,"name":"Uncletopia | Chicago | 3 | All Maps","name_short":"chi-3","host":"chi-1.us.uncletopia.com","port":27035,"enabled":true,"region":"us-central","cc":"us","latitude":41.881832,"longitude":-87.62318,"reserved":0,"last_update":"0001-01-01T00:00:00Z","name_a2s":"Uncletopia | Chicago | 3 | All Maps","protocol":17,"map":"koth_highpass","folder":"tf","game":"Team Fortress","app_id":440,"player_count":0,"max_players":24,"Bots":0,"server_type":"Dedicated","server_os":"Linux","password":true,"vac":true,"version":"7723704","steam_id":85568392924515191,"keywords":["cp","nocrits","nodmgspread","uncletopia"],"game_id":440,"stv_port":27036,"stv_name":"Uncletopia | Chicago | 3 | All Maps | STV","players":null},{"server_id":403,"name":"Uncletopia | Chicago | 4 | All Maps","name_short":"chi-4","host":"chi-1.us.uncletopia.com","port":27045,"enabled":true,"region":"us-central","cc":"us","latitude":41.881832,"longitude":-87.62318,"reserved":0,"last_update":"0001-01-01T00:00:00Z","name_a2s":"Uncletopia | Chicago | 4 | All Maps","protocol":17,"map":"koth_cascade","folder":"tf","game":"Team Fortress","app_id":440,"player_count":1,"max_players":24,"Bots":0,"server_type":"Dedicated","server_os":"Linux","password":true,"vac":true,"version":"7723704","steam_id":85568392924515193,"keywords":["cp","nocrits","nodmgspread","uncletopia"],"game_id":440,"stv_port":27046,"stv_name":"Uncletopia | Chicago | 4 | All Maps | STV","players":[{"user_id":467,"name":"xxxDABGODxxx","steam_id":76561199061979040,"connected_time":70000000000,"state":"active","ping":103}]},{"server_id":36,"name":"Uncletopia | Chicago | 5 | All Maps","name_short":"chi-5","host":"chi-2.us.uncletopia.com","port":27015,"enabled":true,"region":"us-central","cc":"us","latitude":41.881832,"longitude":-87.62318,"reserved":0,"last_update":"0001-01-01T00:00:00Z","name_a2s":"Uncletopia | Chicago | 5 | All Maps","protocol":17,"map":"pl_swiftwater_final1","folder":"tf","game":"Team Fortress","app_id":440,"player_count":20,"max_players":24,"Bots":0,"server_type":"Dedicated","server_os":"Linux","password":true,"vac":true,"version":"7723704","steam_id":85568392924866362,"keywords":["nocrits","nodmgspread","payload","uncletopia"],"game_id":440,"stv_port":27016,"stv_name":"Uncletopia | Chicago | 5 | All Maps | STV","players":[{"user_id":305,"name":"Rein","steam_id":76561198300340427,"connected_time":2019000000000,"state":"active","ping":62},{"user_id":323,"name":"Happy Yaoi Monday","steam_id":76561198111290441,"connected_time":146000000000,"state":"active","ping":46},{"user_id":326,"name":"xd Clover","steam_id":76561198038905361,"connected_time":110000000000,"state":"active","ping":52},{"user_id":325,"name":"Mattaroo","steam_id":76561198333076483,"connected_time":119000000000,"state":"active","ping":62},{"user_id":318,"name":"a table","steam_id":76561198158461279,"connected_time":604000000000,"state":"active","ping":69},{"user_id":328,"name":"Scaffie","steam_id":76561198216968391,"connected_time":85000000000,"state":"active","ping":75},{"user_id":322,"name":"toastman","steam_id":76561198207073088,"connected_time":182000000000,"state":"active","ping":62},{"user_id":321,"name":"M.L.JEW","steam_id":76561198997375055,"connected_time":295000000000,"state":"active","ping":76},{"user_id":291,"name":"i run red lights","steam_id":76561198021308963,"connected_time":2948000000000,"state":"active","ping":68},{"user_id":331,"name":"Blueboy1024","steam_id":76561198257520854,"connected_time":50000000000,"state":"active","ping":61},{"user_id":317,"name":"not skinless (i have skin)","steam_id":76561198214138391,"connected_time":679000000000,"state":"active","ping":73},{"user_id":330,"name":"THEGGLET","steam_id":76561198056803007,"connected_time":63000000000,"state":"active","ping":49},{"user_id":332,"name":"AFloatingShoppinList","steam_id":76561198300216562,"connected_time":25000000000,"state":"active","ping":66},{"user_id":309,"name":"DropBear","steam_id":76561197964435496,"connected_time":1945000000000,"state":"active","ping":58},{"user_id":302,"name":"stars","steam_id":76561198139857523,"connected_time":2303000000000,"state":"active","ping":75},{"user_id":314,"name":"Harry Bartolomue Dinglenut","steam_id":76561198071039218,"connected_time":1050000000000,"state":"active","ping":92},{"user_id":315,"name":"Woshingo","steam_id":76561199164819248,"connected_time":1021000000000,"state":"active","ping":103},{"user_id":316,"name":"TheSmartFella11","steam_id":76561198156775961,"connected_time":757000000000,"state":"active","ping":73},{"user_id":288,"name":"loco503","steam_id":76561198827495121,"connected_time":3466000000000,"state":"active","ping":101},{"user_id":320,"name":"Snoopy","steam_id":76561198273735974,"connected_time":490000000000,"state":"active","ping":99}]},{"server_id":37,"name":"Uncletopia | Chicago | 6 | All Maps","name_short":"chi-6","host":"chi-2.us.uncletopia.com","port":27025,"enabled":true,"region":"us-central","cc":"us","latitude":41.881832,"longitude":-87.62318,"reserved":0,"last_update":"0001-01-01T00:00:00Z","name_a2s":"Uncletopia | Chicago | 6 | All Maps","protocol":17,"map":"koth_cascade","folder":"tf","game":"Team Fortress","app_id":440,"player_count":0,"max_players":24,"Bots":0,"server_type":"Dedicated","server_os":"Linux","password":true,"vac":true,"version":"7723704","steam_id":85568392924866363,"keywords":["cp","nocrits","nodmgspread","uncletopia"],"game_id":440,"stv_port":27026,"stv_name":"Uncletopia | Chicago | 6 | All Maps | STV","players":null},{"server_id":38,"name":"Uncletopia | Chicago | 7 | Stopwatch Beta","name_short":"chi-7","host":"chi-2.us.uncletopia.com","port":27035,"enabled":true,"region":"us-central","cc":"us","latitude":41.881832,"longitude":-87.62318,"reserved":0,"last_update":"0001-01-01T00:00:00Z","name_a2s":"Uncletopia | Chicago | 7 | Stopwatch Beta","protocol":17,"map":"workshop/koth_clearcut_b15.ugc2107050255","folder":"tf","game":"Team Fortress","app_id":440,"player_count":0,"max_players":24,"Bots":0,"server_type":"Dedicated","server_os":"Linux","password":true,"vac":true,"version":"7723704","steam_id":85568392924866364,"keywords":["cp","nocrits","nodmgspread","uncletopia"],"game_id":440,"stv_port":27036,"stv_name":"Uncletopia | Chicago | 7 | Stopwatch Beta | STV","players":null},{"server_id":39,"name":"Uncletopia | Chicago | 8 | Community","name_short":"chi-8","host":"chi-2.us.uncletopia.com","port":27045,"enabled":true,"region":"us-central","cc":"us","latitude":41.881832,"longitude":-87.62318,"reserved":0,"last_update":"0001-01-01T00:00:00Z","name_a2s":"Uncletopia | Chicago | 8 | Community","protocol":17,"map":"workshop/cp_overgrown_rc7b.ugc503939302","folder":"tf","game":"Team Fortress","app_id":440,"player_count":0,"max_players":24,"Bots":0,"server_type":"Dedicated","server_os":"Linux","password":true,"vac":true,"version":"7723704","steam_id":85568392924866365,"keywords":["cp","nocrits","nodmgspread","uncletopia"],"game_id":440,"stv_port":27046,"stv_name":"Uncletopia | Chicago | 8 | Community | STV","players":null},{"server_id":8,"name":"Uncletopia | Dallas | 1 | All Maps","name_short":"dal-1","host":"dal-1.us.uncletopia.com","port":27015,"enabled":true,"region":"us-central","cc":"us","latitude":32.779167,"longitude":-96.80889,"reserved":0,"last_update":"0001-01-01T00:00:00Z","name_a2s":"Uncletopia | Dallas | 1 | All Maps","protocol":17,"map":"pl_barnblitz","folder":"tf","game":"Team Fortress","app_id":440,"player_count":24,"max_players":24,"Bots":0,"server_type":"Dedicated","server_os":"Linux","password":true,"vac":true,"version":"7723704","steam_id":85568392924469986,"keywords":["nocrits","nodmgspread","payload","uncletopia"],"game_id":440,"stv_port":27016,"stv_name":"Uncletopia | Dallas | 1 | All Maps | STV","players":[{"user_id":797,"name":"Merry Matches_","steam_id":76561198048925904,"connected_time":125000000000,"state":"active","ping":89},{"user_id":777,"name":"Sol","steam_id":76561198803824764,"connected_time":1573000000000,"state":"active","ping":122},{"user_id":746,"name":"Tripp","steam_id":76561198411779080,"connected_time":4614000000000,"state":"active","ping":92},{"user_id":793,"name":"Ap1hw","steam_id":76561199122883466,"connected_time":616000000000,"state":"active","ping":47},{"user_id":752,"name":"My controller broke","steam_id":76561198157280577,"connected_time":4470000000000,"state":"active","ping":48},{"user_id":794,"name":"Oscidor","steam_id":76561198362839738,"connected_time":616000000000,"state":"active","ping":60},{"user_id":716,"name":"CFGU || RAWRWAFL","steam_id":76561198032118386,"connected_time":7112000000000,"state":"active","ping":62},{"user_id":788,"name":"Souper Scott","steam_id":76561198045518926,"connected_time":1033000000000,"state":"active","ping":78},{"user_id":769,"name":"MK","steam_id":76561198044764469,"connected_time":2935000000000,"state":"active","ping":73},{"user_id":633,"name":"gyroFSnoob","steam_id":76561198158404683,"connected_time":11853000000000,"state":"active","ping":104},{"user_id":786,"name":"gasparmx","steam_id":76561197998611994,"connected_time":1346000000000,"state":"active","ping":95},{"user_id":745,"name":"namaste at home dad","steam_id":76561198056971063,"connected_time":4636000000000,"state":"active","ping":48},{"user_id":763,"name":"UncleJunkle","steam_id":76561198289559487,"connected_time":3239000000000,"state":"active","ping":54},{"user_id":781,"name":"Ahzain","steam_id":76561198035894333,"connected_time":1467000000000,"state":"active","ping":132},{"user_id":790,"name":"Mr War Crimes","steam_id":76561199115766913,"connected_time":1018000000000,"state":"active","ping":88},{"user_id":798,"name":"Moth (She/Her)","steam_id":76561198240217310,"connected_time":81000000000,"state":"active","ping":71},{"user_id":791,"name":"seeping","steam_id":76561198063862967,"connected_time":933000000000,"state":"active","ping":89},{"user_id":783,"name":"zonk","steam_id":76561198207253121,"connected_time":1406000000000,"state":"active","ping":78},{"user_id":724,"name":"G. Howard Dee","steam_id":76561198058382812,"connected_time":5996000000000,"state":"active","ping":68},{"user_id":772,"name":"Morbius","steam_id":76561198387984694,"connected_time":2128000000000,"state":"active","ping":80},{"user_id":799,"name":"Whoplops","steam_id":76561197977188933,"connected_time":59000000000,"state":"active","ping":83},{"user_id":785,"name":"The Muffin Man","steam_id":76561199088286427,"connected_time":1365000000000,"state":"active","ping":90},{"user_id":796,"name":"FG7","steam_id":76561198381197197,"connected_time":572000000000,"state":"active","ping":143},{"user_id":758,"name":"Arcana","steam_id":76561198120924164,"connected_time":3945000000000,"state":"active","ping":44}]},{"server_id":108,"name":"Uncletopia | Dallas | 2 | All Maps","name_short":"dal-2","host":"dal-1.us.uncletopia.com","port":27025,"enabled":true,"region":"us-central","cc":"us","latitude":32.779167,"longitude":-96.80889,"reserved":0,"last_update":"0001-01-01T00:00:00Z","name_a2s":"Uncletopia | Dallas | 2 | All Maps","protocol":17,"map":"pl_wutville_event","folder":"tf","game":"Team Fortress","app_id":440,"player_count":21,"max_players":24,"Bots":0,"server_type":"Dedicated","server_os":"Linux","password":true,"vac":true,"version":"7723704","steam_id":85568392924469988,"keywords":["nocrits","nodmgspread","payload","uncletopia"],"game_id":440,"stv_port":27026,"stv_name":"Uncletopia | Dallas | 2 | All Maps | STV","players":[{"user_id":678,"name":"Pimastr","steam_id":76561198230996464,"connected_time":143000000000,"state":"active","ping":90},{"user_id":680,"name":"memesy","steam_id":76561198256173108,"connected_time":18000000000,"state":"active","ping":219},{"user_id":605,"name":"Chafn","steam_id":76561197969386702,"connected_time":5877000000000,"state":"active","ping":83},{"user_id":670,"name":"「Saint」","steam_id":76561198241943070,"connected_time":443000000000,"state":"active","ping":82},{"user_id":647,"name":"Lightfeather","steam_id":76561198175792046,"connected_time":2135000000000,"state":"active","ping":132},{"user_id":648,"name":"roanispe","steam_id":76561198034950222,"connected_time":2111000000000,"state":"active","ping":83},{"user_id":668,"name":"Burgandy","steam_id":76561199162509578,"connected_time":517000000000,"state":"active","ping":103},{"user_id":671,"name":"CoryBaxterWH","steam_id":76561198060041823,"connected_time":443000000000,"state":"active","ping":89},{"user_id":681,"name":"Nnyllazxz","steam_id":76561198247797436,"connected_time":11000000000,"state":"spawning","ping":90},{"user_id":672,"name":"+","steam_id":76561198262422184,"connected_time":409000000000,"state":"active","ping":38},{"user_id":656,"name":"Divine Kitty","steam_id":76561198293490689,"connected_time":1660000000000,"state":"active","ping":132},{"user_id":669,"name":"McNamJam","steam_id":76561198028128686,"connected_time":514000000000,"state":"active","ping":82},{"user_id":632,"name":"Sylvaris","steam_id":76561198156678773,"connected_time":3337000000000,"state":"active","ping":45},{"user_id":675,"name":"Yugure","steam_id":76561198146200909,"connected_time":316000000000,"state":"active","ping":64},{"user_id":660,"name":"glass","steam_id":76561198845795659,"connected_time":1296000000000,"state":"active","ping":43},{"user_id":673,"name":"BurnN8or101","steam_id":76561198132668224,"connected_time":402000000000,"state":"active","ping":66},{"user_id":661,"name":"cofferhead","steam_id":76561199191108449,"connected_time":1280000000000,"state":"active","ping":80},{"user_id":676,"name":"SGT Disoriented","steam_id":76561198058177958,"connected_time":236000000000,"state":"active","ping":53},{"user_id":646,"name":"Help","steam_id":76561198016216730,"connected_time":2521000000000,"state":"active","ping":66},{"user_id":667,"name":"Glass Joe","steam_id":76561198317365741,"connected_time":1107000000000,"state":"active","ping":83},{"user_id":622,"name":"FatCuddlyBear","steam_id":76561198133613253,"connected_time":5202000000000,"state":"active","ping":64}]},{"server_id":5,"name":"Uncletopia | Frankfurt | 1 | All Maps","name_short":"frk-1","host":"frk-1.de.uncletopia.com","port":27015,"enabled":true,"region":"eu","cc":"de","latitude":50.110924,"longitude":8.682127,"reserved":0,"last_update":"0001-01-01T00:00:00Z","name_a2s":"Uncletopia | Frankfurt | 1 | All Maps","protocol":17,"map":"pl_pier","folder":"tf","game":"Team Fortress","app_id":440,"player_count":0,"max_players":24,"Bots":0,"server_type":"Dedicated","server_os":"Linux","password":true,"vac":true,"version":"7723704","steam_id":85568392924469989,"keywords":["nocrits","nodmgspread","payload","uncletopia"],"game_id":440,"stv_port":27016,"stv_name":"Uncletopia | Frankfurt | 1 | All Maps | STV","players":null},{"server_id":110,"name":"Uncletopia | Frankfurt | 2 | All Maps","name_short":"frk-2","host":"frk-1.de.uncletopia.com","port":27025,"enabled":true,"region":"eu","cc":"de","latitude":50.110924,"longitude":8.682127,"reserved":0,"last_update":"0001-01-01T00:00:00Z","name_a2s":"Uncletopia | Frankfurt | 2 | All Maps","protocol":17,"map":"cp_snakewater_final1","folder":"tf","game":"Team Fortress","app_id":440,"player_count":0,"max_players":24,"Bots":0,"server_type":"Dedicated","server_os":"Linux","password":true,"vac":true,"version":"7723704","steam_id":85568392924469990,"keywords":["cp","nocrits","nodmgspread","uncletopia"],"game_id":440,"stv_port":27026,"stv_name":"Uncletopia | Frankfurt | 2 | All Maps | STV","players":null},{"server_id":308,"name":"Uncletopia | Frankfurt | 3 | All Maps","name_short":"frk-3","host":"frk-1.de.uncletopia.com","port":27035,"enabled":true,"region":"eu","cc":"de","latitude":50.110924,"longitude":8.682127,"reserved":0,"last_update":"0001-01-01T00:00:00Z","name_a2s":"Uncletopia | Frankfurt | 3 | All Maps","protocol":17,"map":"pl_barnblitz","folder":"tf","game":"Team Fortress","app_id":440,"player_count":0,"max_players":24,"Bots":0,"server_type":"Dedicated","server_os":"Linux","password":true,"vac":true,"version":"7723704","steam_id":85568392924504274,"keywords":["nocrits","nodmgspread","payload","uncletopia"],"game_id":440,"stv_port":27036,"stv_name":"Uncletopia | Frankfurt | 3 | All Maps | STV","players":null},{"server_id":309,"name":"Uncletopia | Frankfurt | 4 | All Maps","name_short":"frk-4","host":"frk-1.de.uncletopia.com","port":27045,"enabled":true,"region":"eu","cc":"de","latitude":50.110924,"longitude":8.682127,"reserved":0,"last_update":"0001-01-01T00:00:00Z","name_a2s":"Uncletopia | Frankfurt | 4 | All Maps","protocol":17,"map":"pl_snowycoast","folder":"tf","game":"Team Fortress","app_id":440,"player_count":0,"max_players":24,"Bots":0,"server_type":"Dedicated","server_os":"Linux","password":true,"vac":true,"version":"7723704","steam_id":85568392924504275,"keywords":["nocrits","nodmgspread","payload","uncletopia"],"game_id":440,"stv_port":27046,"stv_name":"Uncletopia | Frankfurt | 4 | All Maps | STV","players":null},{"server_id":310,"name":"Uncletopia | Frankfurt | 5 | All Maps","name_short":"frk-5","host":"frk-1.de.uncletopia.com","port":27055,"enabled":true,"region":"eu","cc":"de","latitude":50.110924,"longitude":8.682127,"reserved":0,"last_update":"0001-01-01T00:00:00Z","name_a2s":"Uncletopia | Frankfurt | 5 | All Maps","protocol":17,"map":"cp_altitude","folder":"tf","game":"Team Fortress","app_id":440,"player_count":0,"max_players":24,"Bots":0,"server_type":"Dedicated","server_os":"Linux","password":true,"vac":true,"version":"7723704","steam_id":85568392924504277,"keywords":["cp","nocrits","nodmgspread","uncletopia"],"game_id":440,"stv_port":27056,"stv_name":"Uncletopia | Frankfurt | 5 | All Maps | STV","players":null},{"server_id":311,"name":"Uncletopia | Frankfurt | 6 | All Maps","name_short":"frk-6","host":"frk-1.de.uncletopia.com","port":27065,"enabled":true,"region":"eu","cc":"de","latitude":50.110924,"longitude":8.682127,"reserved":0,"last_update":"0001-01-01T00:00:00Z","name_a2s":"Uncletopia | Frankfurt | 6 | All Maps","protocol":17,"map":"pl_badwater","folder":"tf","game":"Team Fortress","app_id":440,"player_count":0,"max_players":24,"Bots":0,"server_type":"Dedicated","server_os":"Linux","password":true,"vac":true,"version":"7723704","steam_id":85568392924504278,"keywords":["nocrits","nodmgspread","payload","uncletopia"],"game_id":440,"stv_port":27066,"stv_name":"Uncletopia | Frankfurt | 6 | All Maps | STV","players":null},{"server_id":23,"name":"Uncletopia | Frankfurt | 7 | Stopwatch Beta","name_short":"frk-7","host":"frk-1.de.uncletopia.com","port":27075,"enabled":true,"region":"eu","cc":"de","latitude":50.110924,"longitude":8.682127,"reserved":0,"last_update":"0001-01-01T00:00:00Z","name_a2s":"Uncletopia | Frankfurt | 7 | Stopwatch Beta","protocol":17,"map":"koth_viaduct","folder":"tf","game":"Team Fortress","app_id":440,"player_count":0,"max_players":24,"Bots":0,"server_type":"Dedicated","server_os":"Linux","password":true,"vac":true,"version":"7723704","steam_id":85568392924742827,"keywords":["cp","nocrits","nodmgspread","uncletopia"],"game_id":440,"stv_port":27076,"stv_name":"Uncletopia | Frankfurt | 7 | Stopwatch Beta | STV","players":null},{"server_id":24,"name":"Uncletopia | Frankfurt | 8 | Community","name_short":"frk-8","host":"frk-1.de.uncletopia.com","port":27085,"enabled":true,"region":"eu","cc":"de","latitude":50.110924,"longitude":8.682127,"reserved":0,"last_update":"0001-01-01T00:00:00Z","name_a2s":"Uncletopia | Frankfurt | 8 | Community","protocol":17,"map":"pl_frontier_final","folder":"tf","game":"Team Fortress","app_id":440,"player_count":0,"max_players":24,"Bots":0,"server_type":"Dedicated","server_os":"Linux","password":true,"vac":true,"version":"7723704","steam_id":85568392924742828,"keywords":["nocrits","nodmgspread","payload","uncletopia"],"game_id":440,"stv_port":27086,"stv_name":"Uncletopia | Frankfurt | 8 | Community | STV","players":null},{"server_id":202,"name":"Uncletopia | Hong Kong | 1 | All Maps","name_short":"hgk-1","host":"hgk-1.hk.uncletopia.com","port":27015,"enabled":true,"region":"asia","cc":"hk","latitude":22.302711,"longitude":114.177216,"reserved":0,"last_update":"0001-01-01T00:00:00Z","name_a2s":"Uncletopia | Hong Kong | 1 | All Maps","protocol":17,"map":"cp_dustbowl","folder":"tf","game":"Team Fortress","app_id":440,"player_count":24,"max_players":24,"Bots":0,"server_type":"Dedicated","server_os":"Linux","password":true,"vac":true,"version":"7723704","steam_id":85568392924494504,"keywords":["cp","nocrits","nodmgspread","uncletopia"],"game_id":440,"stv_port":27016,"stv_name":"Uncletopia | Hong Kong | 1 | All Maps | STV","players":[{"user_id":182,"name":"Lud","steam_id":76561198828840546,"connected_time":4938000000000,"state":"active","ping":73},{"user_id":206,"name":"blahaj","steam_id":76561198061628689,"connected_time":2874000000000,"state":"active","ping":48},{"user_id":227,"name":"monkeyman536","steam_id":76561197997717737,"connected_time":705000000000,"state":"active","ping":119},{"user_id":229,"name":"water tastes good","steam_id":76561199375947670,"connected_time":499000000000,"state":"active","ping":70},{"user_id":230,"name":"Ocha","steam_id":76561199224096189,"connected_time":448000000000,"state":"active","ping":99},{"user_id":191,"name":"Milk❤ (most hated guy in ut)","steam_id":76561198163911560,"connected_time":4505000000000,"state":"active","ping":91},{"user_id":207,"name":"MR BEAST!!!!!!!","steam_id":76561199061052792,"connected_time":2859000000000,"state":"active","ping":86},{"user_id":224,"name":"Zen","steam_id":76561199110208070,"connected_time":889000000000,"state":"active","ping":91},{"user_id":154,"name":"3wfFbdrjEze5d2G","steam_id":76561198435900451,"connected_time":7676000000000,"state":"active","ping":89},{"user_id":219,"name":"Kiyomi","steam_id":76561198240627872,"connected_time":1336000000000,"state":"active","ping":50},{"user_id":188,"name":"Firefang099","steam_id":76561198136685157,"connected_time":4696000000000,"state":"active","ping":57},{"user_id":189,"name":"vintage","steam_id":76561198230213828,"connected_time":4553000000000,"state":"active","ping":64},{"user_id":217,"name":"bookman","steam_id":76561198989168133,"connected_time":1341000000000,"state":"active","ping":86},{"user_id":198,"name":"u/Plencers2","steam_id":76561198311052198,"connected_time":3612000000000,"state":"active","ping":78},{"user_id":216,"name":"Nano and Chernobyl","steam_id":76561199063193455,"connected_time":1441000000000,"state":"active","ping":70},{"user_id":221,"name":"The Dad","steam_id":76561198369523192,"connected_time":1313000000000,"state":"active","ping":64},{"user_id":211,"name":"hpeed","steam_id":76561198808595586,"connected_time":2299000000000,"state":"active","ping":74},{"user_id":222,"name":"GottieFrisk","steam_id":76561198968353045,"connected_time":1244000000000,"state":"active","ping":137},{"user_id":137,"name":"Me is gaming","steam_id":76561199025438331,"connected_time":8972000000000,"state":"active","ping":61},{"user_id":185,"name":"Lym0n","steam_id":76561199192420260,"connected_time":4817000000000,"state":"active","ping":105},{"user_id":164,"name":"Zacy","steam_id":76561198114841670,"connected_time":6705000000000,"state":"active","ping":69},{"user_id":226,"name":"Owmyn","steam_id":76561199239651098,"connected_time":726000000000,"state":"active","ping":113},{"user_id":214,"name":"+","steam_id":76561198121311286,"connected_time":2272000000000,"state":"active","ping":111},{"user_id":202,"name":"Krayken","steam_id":76561197997933283,"connected_time":3203000000000,"state":"active","ping":90}]},{"server_id":1,"name":"Uncletopia | Los Angeles | 1 | All Maps","name_short":"lax-1","host":"lax-1.us.uncletopia.com","port":27015,"enabled":true,"region":"us-west","cc":"us","latitude":33.94279,"longitude":-118.41004,"reserved":0,"last_update":"0001-01-01T00:00:00Z","name_a2s":"Uncletopia | Los Angeles | 1 | All Maps","protocol":17,"map":"koth_harvest_final","folder":"tf","game":"Team Fortress","app_id":440,"player_count":24,"max_players":24,"Bots":0,"server_type":"Dedicated","server_os":"Linux","password":true,"vac":true,"version":"7723704","steam_id":85568392924469991,"keywords":["cp","nocrits","nodmgspread","uncletopia"],"game_id":440,"stv_port":27016,"stv_name":"Uncletopia | Los Angeles | 1 | All Maps | STV","players":[{"user_id":459,"name":"dewey","steam_id":76561198132791511,"connected_time":917000000000,"state":"active","ping":49},{"user_id":460,"name":"Drool","steam_id":76561199045901994,"connected_time":916000000000,"state":"active","ping":45},{"user_id":463,"name":"soggymonki236","steam_id":76561198046953937,"connected_time":611000000000,"state":"active","ping":82},{"user_id":443,"name":"Brando","steam_id":76561198078306678,"connected_time":2619000000000,"state":"active","ping":55},{"user_id":385,"name":"DoomFox/Carcoon","steam_id":76561198435625652,"connected_time":7072000000000,"state":"active","ping":60},{"user_id":465,"name":"gonurlight","steam_id":76561198935839416,"connected_time":604000000000,"state":"active","ping":91},{"user_id":470,"name":"Dreamzapp","steam_id":76561199084936632,"connected_time":193000000000,"state":"active","ping":65},{"user_id":451,"name":"Werewolfo","steam_id":76561198143597449,"connected_time":2192000000000,"state":"active","ping":65},{"user_id":466,"name":"Anthoneeee","steam_id":76561199209220671,"connected_time":502000000000,"state":"active","ping":80},{"user_id":445,"name":"blue bird","steam_id":76561198438886184,"connected_time":2611000000000,"state":"active","ping":58},{"user_id":400,"name":"AStarryEyedPlayer","steam_id":76561199069003499,"connected_time":6574000000000,"state":"active","ping":52},{"user_id":467,"name":"Toasterduds","steam_id":76561198163477584,"connected_time":376000000000,"state":"active","ping":49},{"user_id":442,"name":"squinzi","steam_id":76561198086520846,"connected_time":2621000000000,"state":"active","ping":63},{"user_id":468,"name":"June","steam_id":76561198141803658,"connected_time":320000000000,"state":"active","ping":46},{"user_id":441,"name":"Black Jesus","steam_id":76561198076148442,"connected_time":2657000000000,"state":"active","ping":59},{"user_id":438,"name":"hotdog(no bitchs)","steam_id":76561198073395453,"connected_time":3447000000000,"state":"active","ping":108},{"user_id":401,"name":"Tako","steam_id":76561199264073138,"connected_time":6473000000000,"state":"active","ping":31},{"user_id":416,"name":"Potatobreeder","steam_id":76561199077867000,"connected_time":4862000000000,"state":"active","ping":89},{"user_id":452,"name":"The Squid Gamer™","steam_id":76561198340621517,"connected_time":2068000000000,"state":"active","ping":80},{"user_id":456,"name":"Frankbocean","steam_id":76561198094417536,"connected_time":1309000000000,"state":"active","ping":61},{"user_id":428,"name":"TheBold","steam_id":76561199194787298,"connected_time":4108000000000,"state":"active","ping":41},{"user_id":457,"name":"oil","steam_id":76561198099980149,"connected_time":1283000000000,"state":"active","ping":47},{"user_id":469,"name":"wife haver","steam_id":76561198248170354,"connected_time":305000000000,"state":"active","ping":81},{"user_id":449,"name":"Logan601 #savetf2","steam_id":76561198263116731,"connected_time":2518000000000,"state":"active","ping":56}]},{"server_id":112,"name":"Uncletopia | Los Angeles | 2 | All Maps","name_short":"lax-2","host":"lax-1.us.uncletopia.com","port":27025,"enabled":true,"region":"us-west","cc":"us","latitude":33.94279,"longitude":-118.41004,"reserved":0,"last_update":"0001-01-01T00:00:00Z","name_a2s":"Uncletopia | Los Angeles | 2 | All Maps","protocol":17,"map":"koth_cascade","folder":"tf","game":"Team Fortress","app_id":440,"player_count":0,"max_players":24,"Bots":0,"server_type":"Dedicated","server_os":"Linux","password":true,"vac":true,"version":"7723704","steam_id":85568392924469992,"keywords":["cp","nocrits","nodmgspread","uncletopia"],"game_id":440,"stv_port":27026,"stv_name":"Uncletopia | Los Angeles | 2 | All Maps | STV","players":null},{"server_id":324,"name":"Uncletopia | Los Angeles | 3 | All Maps","name_short":"lax-3","host":"lax-1.us.uncletopia.com","port":27035,"enabled":true,"region":"us-west","cc":"us","latitude":33.94279,"longitude":-118.41004,"reserved":0,"last_update":"0001-01-01T00:00:00Z","name_a2s":"Uncletopia | Los Angeles | 3 | All Maps","protocol":17,"map":"pl_swiftwater_final1","folder":"tf","game":"Team Fortress","app_id":440,"player_count":24,"max_players":24,"Bots":0,"server_type":"Dedicated","server_os":"Linux","password":true,"vac":true,"version":"7723704","steam_id":85568392924510198,"keywords":["nocrits","nodmgspread","payload","uncletopia"],"game_id":440,"stv_port":27036,"stv_name":"Uncletopia | Los Angeles | 3 | All Maps | STV","players":[{"user_id":369,"name":"Jerimiah :)","steam_id":76561198092084090,"connected_time":1064000000000,"state":"active","ping":45},{"user_id":368,"name":"andruwu","steam_id":76561198096912831,"connected_time":1076000000000,"state":"active","ping":49},{"user_id":373,"name":"General Spicy","steam_id":76561198298499187,"connected_time":1003000000000,"state":"active","ping":59},{"user_id":370,"name":"Meepster","steam_id":76561198146305159,"connected_time":1064000000000,"state":"active","ping":55},{"user_id":343,"name":"NooBHatteR","steam_id":76561198077662703,"connected_time":2335000000000,"state":"active","ping":61},{"user_id":385,"name":"jefe","steam_id":76561198025909307,"connected_time":250000000000,"state":"active","ping":49},{"user_id":383,"name":"Fresh Salt","steam_id":76561198405501885,"connected_time":547000000000,"state":"active","ping":89},{"user_id":386,"name":"Jarryl97","steam_id":76561198055451373,"connected_time":222000000000,"state":"active","ping":87},{"user_id":371,"name":"Pvt. Pahrts","steam_id":76561198260965241,"connected_time":1062000000000,"state":"active","ping":56},{"user_id":382,"name":"demon girl","steam_id":76561198100650222,"connected_time":671000000000,"state":"active","ping":54},{"user_id":330,"name":"OutspokenWeeb","steam_id":76561198062984704,"connected_time":4030000000000,"state":"active","ping":49},{"user_id":366,"name":"Randy \"the Man\" Johnson","steam_id":76561198039124445,"connected_time":1151000000000,"state":"active","ping":77},{"user_id":379,"name":"MR. MODE","steam_id":76561198046775352,"connected_time":878000000000,"state":"active","ping":58},{"user_id":303,"name":"Killroy NQP ❤","steam_id":76561198006983771,"connected_time":5917000000000,"state":"active","ping":114},{"user_id":387,"name":"MissyAerrow","steam_id":76561198211278840,"connected_time":61000000000,"state":"active","ping":108},{"user_id":375,"name":"jennco","steam_id":76561198212421513,"connected_time":990000000000,"state":"active","ping":49},{"user_id":388,"name":"TheBig1","steam_id":76561198010766059,"connected_time":5000000000,"state":"spawning","ping":90},{"user_id":337,"name":"goldhed","steam_id":76561198051751133,"connected_time":3408000000000,"state":"active","ping":80},{"user_id":384,"name":"eggo-on-a-stick","steam_id":76561198799357966,"connected_time":541000000000,"state":"active","ping":89},{"user_id":354,"name":"Biznickel","steam_id":76561199422511230,"connected_time":1992000000000,"state":"active","ping":75},{"user_id":378,"name":"Santa Claus","steam_id":76561199057899661,"connected_time":936000000000,"state":"active","ping":50},{"user_id":355,"name":"Big Herm","steam_id":76561199135213338,"connected_time":1981000000000,"state":"active","ping":86},{"user_id":389,"name":"Alltrex","steam_id":76561198202254225,"connected_time":2000000000,"state":"spawning","ping":96},{"user_id":358,"name":"merge without looking","steam_id":76561198975450630,"connected_time":1679000000000,"state":"active","ping":78}]},{"server_id":25,"name":"Uncletopia | Los Angeles | 4 | Stopwatch Beta","name_short":"lax-4","host":"lax-1.us.uncletopia.com","port":27045,"enabled":true,"region":"us-west","cc":"us","latitude":33.94279,"longitude":-118.41004,"reserved":0,"last_update":"0001-01-01T00:00:00Z","name_a2s":"Uncletopia | Los Angeles | 4 | Stopwatch Beta","protocol":17,"map":"workshop/pl_barnblitz_pro7.ugc582280235","folder":"tf","game":"Team Fortress","app_id":440,"player_count":0,"max_players":24,"Bots":0,"server_type":"Dedicated","server_os":"Linux","password":true,"vac":true,"version":"7723704","steam_id":85568392924510199,"keywords":["nocrits","nodmgspread","payload","uncletopia"],"game_id":440,"stv_port":27046,"stv_name":"Uncletopia | Los Angeles | 4 | Stopwatch Beta | STV","players":null},{"server_id":11,"name":"Uncletopia | London | 1 | All Maps","name_short":"lon-1","host":"lon-1.uk.uncletopia.com","port":27015,"enabled":true,"region":"eu","cc":"gb","latitude":51.509865,"longitude":-0.118092,"reserved":0,"last_update":"0001-01-01T00:00:00Z","name_a2s":"Uncletopia | London | 1 | All Maps","protocol":17,"map":"koth_viaduct","folder":"tf","game":"Team Fortress","app_id":440,"player_count":0,"max_players":24,"Bots":0,"server_type":"Dedicated","server_os":"Linux","password":true,"vac":true,"version":"7723704","steam_id":85568392924367362,"keywords":["cp","nocrits","nodmgspread","uncletopia"],"game_id":440,"stv_port":27016,"stv_name":"Uncletopia | London | 1 | All Maps | STV","players":null},{"server_id":114,"name":"Uncletopia | London | 2 | All Maps","name_short":"lon-2","host":"lon-1.uk.uncletopia.com","port":27025,"enabled":true,"region":"eu","cc":"gb","latitude":51.509865,"longitude":-0.118092,"reserved":0,"last_update":"0001-01-01T00:00:00Z","name_a2s":"Uncletopia | London | 2 | All Maps","protocol":17,"map":"pl_upward","folder":"tf","game":"Team Fortress","app_id":440,"player_count":7,"max_players":24,"Bots":0,"server_type":"Dedicated","server_os":"Linux","password":true,"vac":true,"version":"7723704","steam_id":85568392924470941,"keywords":["nocrits","nodmgspread","payload","uncletopia"],"game_id":440,"stv_port":27026,"stv_name":"Uncletopia | London | 2 | All Maps | STV","players":[{"user_id":3,"name":"Mogens Lightyear","steam_id":76561198024703004,"connected_time":1500000000000,"state":"active","ping":65},{"user_id":4,"name":"peruna","steam_id":76561198000721196,"connected_time":1395000000000,"state":"active","ping":75},{"user_id":5,"name":"Atomic homo","steam_id":76561198058944826,"connected_time":904000000000,"state":"active","ping":46},{"user_id":7,"name":"(Hu$tl3r) E1s","steam_id":76561198894958917,"connected_time":497000000000,"state":"active","ping":45},{"user_id":8,"name":"BBzx7","steam_id":76561198312409261,"connected_time":166000000000,"state":"active","ping":120},{"user_id":9,"name":"snoowbrigade","steam_id":76561197989507394,"connected_time":153000000000,"state":"active","ping":76},{"user_id":10,"name":"leaf eater","steam_id":76561198083359604,"connected_time":134000000000,"state":"active","ping":64}]},{"server_id":320,"name":"Uncletopia | London | 3 | All Maps","name_short":"lon-3","host":"lon-1.uk.uncletopia.com","port":27035,"enabled":true,"region":"eu","cc":"gb","latitude":51.509865,"longitude":-0.118092,"reserved":0,"last_update":"0001-01-01T00:00:00Z","name_a2s":"Uncletopia | London | 3 | All Maps","protocol":17,"map":"pl_snowycoast","folder":"tf","game":"Team Fortress","app_id":440,"player_count":0,"max_players":24,"Bots":0,"server_type":"Dedicated","server_os":"Linux","password":true,"vac":true,"version":"7723704","steam_id":85568392924510192,"keywords":["nocrits","nodmgspread","payload","uncletopia"],"game_id":440,"stv_port":27036,"stv_name":"Uncletopia | London | 3 | All Maps | STV","players":null},{"server_id":321,"name":"Uncletopia | London | 4 | All Maps","name_short":"lon-4","host":"lon-1.uk.uncletopia.com","port":27045,"enabled":true,"region":"eu","cc":"gb","latitude":51.509865,"longitude":-0.118092,"reserved":0,"last_update":"0001-01-01T00:00:00Z","name_a2s":"Uncletopia | London | 4 | All Maps","protocol":17,"map":"koth_lakeside_final","folder":"tf","game":"Team Fortress","app_id":440,"player_count":0,"max_players":24,"Bots":0,"server_type":"Dedicated","server_os":"Linux","password":true,"vac":true,"version":"7723704","steam_id":85568392924510193,"keywords":["cp","nocrits","nodmgspread","uncletopia"],"game_id":440,"stv_port":27046,"stv_name":"Uncletopia | London | 4 | All Maps | STV","players":null},{"server_id":21,"name":"Uncletopia | London | 5 | All Maps","name_short":"lon-5","host":"lon-1.uk.uncletopia.com","port":27055,"enabled":true,"region":"eu","cc":"gb","latitude":51.509865,"longitude":-0.118092,"reserved":0,"last_update":"0001-01-01T00:00:00Z","name_a2s":"Uncletopia | London | 5 | All Maps","protocol":17,"map":"cp_snakewater_final1","folder":"tf","game":"Team Fortress","app_id":440,"player_count":0,"max_players":24,"Bots":0,"server_type":"Dedicated","server_os":"Linux","password":true,"vac":true,"version":"7723704","steam_id":85568392924742829,"keywords":["cp","nocrits","nodmgspread","uncletopia"],"game_id":440,"stv_port":27056,"stv_name":"Uncletopia | London | 5 | All Maps | STV","players":null},{"server_id":22,"name":"Uncletopia | London | 6 | All Maps","name_short":"lon-6","host":"lon-1.uk.uncletopia.com","port":27065,"enabled":true,"region":"eu","cc":"gb","latitude":51.509865,"longitude":-0.118092,"reserved":0,"last_update":"0001-01-01T00:00:00Z","name_a2s":"Uncletopia | London | 6 | All Maps","protocol":17,"map":"cp_process_final","folder":"tf","game":"Team Fortress","app_id":440,"player_count":0,"max_players":24,"Bots":0,"server_type":"Dedicated","server_os":"Linux","password":true,"vac":true,"version":"7723704","steam_id":85568392924742830,"keywords":["cp","nocrits","nodmgspread","uncletopia"],"game_id":440,"stv_port":27066,"stv_name":"Uncletopia | London | 6 | All Maps | STV","players":null},{"server_id":40,"name":"Uncletopia | London | 7 | No Payload","name_short":"lon-7","host":"lon-1.uk.uncletopia.com","port":27075,"enabled":true,"region":"eu","cc":"gb","latitude":51.509865,"longitude":-0.118092,"reserved":0,"last_update":"0001-01-01T00:00:00Z","name_a2s":"Uncletopia | London | 7 | No Payload","protocol":17,"map":"koth_viaduct","folder":"tf","game":"Team Fortress","app_id":440,"player_count":0,"max_players":24,"Bots":0,"server_type":"Dedicated","server_os":"Linux","password":true,"vac":true,"version":"7723704","steam_id":85568392924964314,"keywords":["cp","nocrits","nodmgspread","uncletopia"],"game_id":440,"stv_port":27076,"stv_name":"Uncletopia | London | 7 | No Payload | STV","players":null},{"server_id":41,"name":"Uncletopia | London | 8 | Community","name_short":"lon-8","host":"lon-1.uk.uncletopia.com","port":27085,"enabled":true,"region":"eu","cc":"gb","latitude":51.509865,"longitude":-0.118092,"reserved":0,"last_update":"0001-01-01T00:00:00Z","name_a2s":"Uncletopia | London | 8 | Community","protocol":17,"map":"koth_highpass","folder":"tf","game":"Team Fortress","app_id":440,"player_count":0,"max_players":24,"Bots":0,"server_type":"Dedicated","server_os":"Linux","password":true,"vac":true,"version":"7723704","steam_id":85568392924964315,"keywords":["cp","nocrits","nodmgspread","uncletopia"],"game_id":440,"stv_port":27086,"stv_name":"Uncletopia | London | 8 | Community | STV","players":null},{"server_id":300,"name":"Uncletopia | Montréal | 1 | All Maps","name_short":"mtl-1","host":"mtl-1.ca.uncletopia.com","port":27015,"enabled":true,"region":"us-east","cc":"ca","latitude":45.50889,"longitude":-73.56167,"reserved":0,"last_update":"0001-01-01T00:00:00Z","name_a2s":"Uncletopia | Montréal | 1 | All Maps","protocol":17,"map":"koth_lakeside_final","folder":"tf","game":"Team Fortress","app_id":440,"player_count":2,"max_players":24,"Bots":0,"server_type":"Dedicated","server_os":"Linux","password":true,"vac":true,"version":"7723704","steam_id":85568392924500087,"keywords":["cp","nocrits","nodmgspread","uncletopia"],"game_id":440,"stv_port":27016,"stv_name":"Uncletopia | Montréal | 1 | All Maps | STV","players":[{"user_id":11,"name":"Sonic Meerkat","steam_id":76561198839631940,"connected_time":478000000000,"state":"active","ping":201},{"user_id":12,"name":"Kray-Z","steam_id":76561198797699901,"connected_time":453000000000,"state":"active","ping":65}]},{"server_id":301,"name":"Uncletopia | Montréal | 2 | All Maps","name_short":"mtl-2","host":"mtl-1.ca.uncletopia.com","port":27025,"enabled":true,"region":"us-east","cc":"ca","latitude":45.50889,"longitude":-73.56167,"reserved":0,"last_update":"0001-01-01T00:00:00Z","name_a2s":"Uncletopia | Montréal | 2 | All Maps","protocol":17,"map":"koth_cascade","folder":"tf","game":"Team Fortress","app_id":440,"player_count":0,"max_players":24,"Bots":0,"server_type":"Dedicated","server_os":"Linux","password":true,"vac":true,"version":"7723704","steam_id":85568392924500088,"keywords":["cp","nocrits","nodmgspread","uncletopia"],"game_id":440,"stv_port":27026,"stv_name":"Uncletopia | Montréal | 2 | All Maps | STV","players":null},{"server_id":302,"name":"Uncletopia | Montréal | 3 | All Maps","name_short":"mtl-3","host":"mtl-1.ca.uncletopia.com","port":27035,"enabled":true,"region":"us-east","cc":"ca","latitude":45.50889,"longitude":-73.56167,"reserved":0,"last_update":"0001-01-01T00:00:00Z","name_a2s":"Uncletopia | Montréal | 3 | All Maps","protocol":17,"map":"pl_barnblitz","folder":"tf","game":"Team Fortress","app_id":440,"player_count":0,"max_players":24,"Bots":0,"server_type":"Dedicated","server_os":"Linux","password":true,"vac":true,"version":"7723704","steam_id":85568392924500089,"keywords":["nocrits","nodmgspread","payload","uncletopia"],"game_id":440,"stv_port":27036,"stv_name":"Uncletopia | Montréal | 3 | All Maps | STV","players":null},{"server_id":303,"name":"Uncletopia | Montréal | 4 | No Payload","name_short":"mtl-4","host":"mtl-1.ca.uncletopia.com","port":27045,"enabled":true,"region":"us-east","cc":"ca","latitude":45.50889,"longitude":-73.56167,"reserved":0,"last_update":"0001-01-01T00:00:00Z","name_a2s":"Uncletopia | Montréal | 4 | No Payload","protocol":17,"map":"koth_cascade","folder":"tf","game":"Team Fortress","app_id":440,"player_count":0,"max_players":24,"Bots":0,"server_type":"Dedicated","server_os":"Linux","password":true,"vac":true,"version":"7723704","steam_id":85568392924500090,"keywords":["cp","nocrits","nodmgspread","uncletopia"],"game_id":440,"stv_port":27046,"stv_name":"Uncletopia | Montréal | 4 | No Payload | STV","players":null},{"server_id":13,"name":"Uncletopia | New York City | 1 | All Maps","name_short":"nyc-1","host":"nyc-1.us.uncletopia.com","port":27015,"enabled":true,"region":"us-east","cc":"us","latitude":40.73061,"longitude":-73.93524,"reserved":0,"last_update":"0001-01-01T00:00:00Z","name_a2s":"Uncletopia | New York City | 1 | All Maps","protocol":17,"map":"cp_dustbowl","folder":"tf","game":"Team Fortress","app_id":440,"player_count":24,"max_players":24,"Bots":0,"server_type":"Dedicated","server_os":"Linux","password":true,"vac":true,"version":"7723704","steam_id":85568392924469993,"keywords":["cp","nocrits","nodmgspread","uncletopia"],"game_id":440,"stv_port":27016,"stv_name":"Uncletopia | New York City | 1 | All Maps | STV","players":[{"user_id":402,"name":"Goofball","steam_id":76561198074189084,"connected_time":2521000000000,"state":"active","ping":44},{"user_id":382,"name":"Bip","steam_id":76561199022962204,"connected_time":3824000000000,"state":"active","ping":75},{"user_id":378,"name":"Medisl3t","steam_id":76561198264288724,"connected_time":4460000000000,"state":"active","ping":130},{"user_id":411,"name":"citrus","steam_id":76561198294606679,"connected_time":2068000000000,"state":"active","ping":54},{"user_id":383,"name":"CivilWarMike","steam_id":76561198141188839,"connected_time":3817000000000,"state":"active","ping":70},{"user_id":385,"name":"xXb3nz0_1uv3rXx","steam_id":76561198057536994,"connected_time":3274000000000,"state":"active","ping":61},{"user_id":398,"name":"tr00nS1AY3R","steam_id":76561198059831285,"connected_time":2841000000000,"state":"active","ping":71},{"user_id":414,"name":"Braamklauw","steam_id":76561198283287697,"connected_time":136000000000,"state":"active","ping":149},{"user_id":413,"name":"Minion of Kain","steam_id":76561198044261656,"connected_time":404000000000,"state":"active","ping":39},{"user_id":300,"name":"Nilantive","steam_id":76561198177565082,"connected_time":8354000000000,"state":"active","ping":55},{"user_id":388,"name":"Just a storm dick, sit down","steam_id":76561198404528521,"connected_time":3209000000000,"state":"active","ping":93},{"user_id":403,"name":"hashmap","steam_id":76561198043794014,"connected_time":2515000000000,"state":"active","ping":65},{"user_id":391,"name":"Halcyon","steam_id":76561197999409268,"connected_time":3021000000000,"state":"active","ping":58},{"user_id":392,"name":"Wique","steam_id":76561198071217597,"connected_time":2987000000000,"state":"active","ping":62},{"user_id":404,"name":"skaj","steam_id":76561198082278586,"connected_time":2485000000000,"state":"active","ping":77},{"user_id":335,"name":"THGAwesome","steam_id":76561198162847218,"connected_time":6849000000000,"state":"active","ping":53},{"user_id":362,"name":"Ann Ziegler (No Sound)","steam_id":76561198052249401,"connected_time":5452000000000,"state":"active","ping":71},{"user_id":405,"name":"primordialheath","steam_id":76561199386942638,"connected_time":2476000000000,"state":"active","ping":74},{"user_id":406,"name":"Loogey03","steam_id":76561198155483586,"connected_time":2457000000000,"state":"active","ping":82},{"user_id":363,"name":"Ryan","steam_id":76561198046600383,"connected_time":5439000000000,"state":"active","ping":73},{"user_id":410,"name":"Skadewsh","steam_id":76561198102772209,"connected_time":2153000000000,"state":"active","ping":62},{"user_id":412,"name":"sweet tea","steam_id":76561198205386960,"connected_time":2022000000000,"state":"active","ping":59},{"user_id":409,"name":"harmless","steam_id":76561197990799645,"connected_time":2388000000000,"state":"active","ping":90},{"user_id":343,"name":"Squishie","steam_id":76561198321025400,"connected_time":6680000000000,"state":"active","ping":123}]},{"server_id":14,"name":"Uncletopia | New York City | 2 | All Maps","name_short":"nyc-2","host":"nyc-1.us.uncletopia.com","port":27025,"enabled":true,"region":"us-east","cc":"us","latitude":40.73061,"longitude":-73.93524,"reserved":0,"last_update":"0001-01-01T00:00:00Z","name_a2s":"Uncletopia | New York City | 2 | All Maps","protocol":17,"map":"cp_dustbowl","folder":"tf","game":"Team Fortress","app_id":440,"player_count":24,"max_players":24,"Bots":0,"server_type":"Dedicated","server_os":"Linux","password":true,"vac":true,"version":"7723704","steam_id":85568392924469994,"keywords":["cp","nocrits","nodmgspread","uncletopia"],"game_id":440,"stv_port":27026,"stv_name":"Uncletopia | New York City | 2 | All Maps | STV","players":[{"user_id":277,"name":"TYSON","steam_id":76561198009409744,"connected_time":1809000000000,"state":"active","ping":44},{"user_id":262,"name":"ᗜˬᗜ","steam_id":76561198049076233,"connected_time":2197000000000,"state":"active","ping":45},{"user_id":229,"name":"abus","steam_id":76561198044443985,"connected_time":5775000000000,"state":"active","ping":162},{"user_id":271,"name":"Comedian","steam_id":76561197973506581,"connected_time":1887000000000,"state":"active","ping":173},{"user_id":284,"name":"Bloo (KTGB)","steam_id":76561198126672549,"connected_time":1086000000000,"state":"active","ping":74},{"user_id":285,"name":"swooce","steam_id":76561198156232484,"connected_time":1049000000000,"state":"active","ping":52},{"user_id":280,"name":"Lumpy","steam_id":76561198058840585,"connected_time":1551000000000,"state":"active","ping":52},{"user_id":292,"name":"Mymy","steam_id":76561198040619296,"connected_time":611000000000,"state":"active","ping":129},{"user_id":228,"name":"mae","steam_id":76561198425739511,"connected_time":5864000000000,"state":"active","ping":52},{"user_id":265,"name":"Chucknoraz","steam_id":76561198801789990,"connected_time":2117000000000,"state":"active","ping":58},{"user_id":286,"name":"Dill","steam_id":76561197985091914,"connected_time":945000000000,"state":"active","ping":44},{"user_id":294,"name":"pew pew user","steam_id":76561198307845869,"connected_time":524000000000,"state":"active","ping":51},{"user_id":287,"name":"Ch4rl33","steam_id":76561198037008621,"connected_time":858000000000,"state":"active","ping":71},{"user_id":297,"name":"Apetometrist","steam_id":76561198045391635,"connected_time":174000000000,"state":"active","ping":77},{"user_id":281,"name":"Sapphireblitz","steam_id":76561198272635379,"connected_time":1530000000000,"state":"active","ping":63},{"user_id":298,"name":"plutonium isotope","steam_id":76561198319442494,"connected_time":68000000000,"state":"active","ping":112},{"user_id":288,"name":"jrmadmallard","steam_id":76561198275994616,"connected_time":852000000000,"state":"active","ping":149},{"user_id":226,"name":"Strange Festive Femboy","steam_id":76561198050385093,"connected_time":6177000000000,"state":"active","ping":60},{"user_id":224,"name":"Bird","steam_id":76561198247484514,"connected_time":6189000000000,"state":"active","ping":48},{"user_id":241,"name":"NovaSc6ut","steam_id":76561198277163301,"connected_time":3970000000000,"state":"active","ping":73},{"user_id":289,"name":"lauren/","steam_id":76561198048745798,"connected_time":836000000000,"state":"active","ping":71},{"user_id":272,"name":"trying hard","steam_id":76561198117057283,"connected_time":1884000000000,"state":"active","ping":159},{"user_id":274,"name":"benjamin","steam_id":76561198084679502,"connected_time":1879000000000,"state":"active","ping":94},{"user_id":275,"name":"wepeat","steam_id":76561198085943550,"connected_time":1857000000000,"state":"active","ping":131}]},{"server_id":15,"name":"Uncletopia | New York City | 3 | Stopwatch Beta","name_short":"nyc-3","host":"nyc-1.us.uncletopia.com","port":27035,"enabled":true,"region":"us-east","cc":"us","latitude":40.73061,"longitude":-73.93524,"reserved":0,"last_update":"0001-01-01T00:00:00Z","name_a2s":"Uncletopia | New York City | 3 | Stopwatch Beta","protocol":17,"map":"cp_sunshine","folder":"tf","game":"Team Fortress","app_id":440,"player_count":0,"max_players":24,"Bots":0,"server_type":"Dedicated","server_os":"Linux","password":true,"vac":true,"version":"7723704","steam_id":85568392924742820,"keywords":["cp","nocrits","nodmgspread","uncletopia"],"game_id":440,"stv_port":27036,"stv_name":"Uncletopia | New York City | 3 | Stopwatch Beta | STV","players":null},{"server_id":16,"name":"Uncletopia | New York City | 4 | Community","name_short":"nyc-4","host":"nyc-1.us.uncletopia.com","port":27045,"enabled":true,"region":"us-east","cc":"us","latitude":40.73061,"longitude":-73.93524,"reserved":0,"last_update":"0001-01-01T00:00:00Z","name_a2s":"Uncletopia | New York City | 4 | Community","protocol":17,"map":"workshop/koth_synthetic_rc6a.ugc1549817316","folder":"tf","game":"Team Fortress","app_id":440,"player_count":0,"max_players":24,"Bots":0,"server_type":"Dedicated","server_os":"Linux","password":true,"vac":true,"version":"7723704","steam_id":85568392924742821,"keywords":["cp","nocrits","nodmgspread","uncletopia"],"game_id":440,"stv_port":27046,"stv_name":"Uncletopia | New York City | 4 | Community | STV","players":null},{"server_id":142,"name":"Uncletopia | São Paulo | 1 | All Maps","name_short":"sao-1","host":"sao-1.br.uncletopia.com","port":27015,"enabled":true,"region":"sa","cc":"br","latitude":-23.533773,"longitude":-46.62529,"reserved":0,"last_update":"0001-01-01T00:00:00Z","name_a2s":"Uncletopia | São Paulo | 1 | All Maps","protocol":17,"map":"koth_lakeside_final","folder":"tf","game":"Team Fortress","app_id":440,"player_count":0,"max_players":24,"Bots":0,"server_type":"Dedicated","server_os":"Linux","password":true,"vac":true,"version":"7723704","steam_id":85568392924469996,"keywords":["cp","nocrits","nodmgspread","uncletopia"],"game_id":440,"stv_port":27016,"stv_name":"Uncletopia | São Paulo | 1 | All Maps | STV","players":null},{"server_id":143,"name":"Uncletopia | São Paulo | 2 | All Maps","name_short":"sao-2","host":"sao-2.br.uncletopia.com","port":27015,"enabled":true,"region":"sa","cc":"br","latitude":-23.533773,"longitude":-46.62529,"reserved":0,"last_update":"0001-01-01T00:00:00Z","name_a2s":"Uncletopia | São Paulo | 2 | All Maps","protocol":17,"map":"cp_mountainlab","folder":"tf","game":"Team Fortress","app_id":440,"player_count":0,"max_players":24,"Bots":0,"server_type":"Dedicated","server_os":"Linux","password":true,"vac":true,"version":"7723704","steam_id":85568392924485349,"keywords":["cp","nocrits","nodmgspread","uncletopia"],"game_id":440,"stv_port":27016,"stv_name":"Uncletopia | São Paulo | 2 | All Maps | STV","players":null},{"server_id":7,"name":"Uncletopia | Seattle | 1 | All Maps","name_short":"sea-1","host":"sea-1.us.uncletopia.com","port":27015,"enabled":true,"region":"us-west","cc":"us","latitude":47.608013,"longitude":-122.33517,"reserved":0,"last_update":"0001-01-01T00:00:00Z","name_a2s":"Uncletopia | Seattle | 1 | All Maps","protocol":17,"map":"pl_snowycoast","folder":"tf","game":"Team Fortress","app_id":440,"player_count":24,"max_players":24,"Bots":0,"server_type":"Dedicated","server_os":"Linux","password":true,"vac":true,"version":"7723704","steam_id":85568392924469997,"keywords":["nocrits","nodmgspread","payload","uncletopia"],"game_id":440,"stv_port":27016,"stv_name":"Uncletopia | Seattle | 1 | All Maps | STV","players":[{"user_id":909,"name":"Conseq","steam_id":76561198335652179,"connected_time":2993000000000,"state":"active","ping":51},{"user_id":921,"name":"haj","steam_id":76561198043902911,"connected_time":1532000000000,"state":"active","ping":51},{"user_id":923,"name":"pooping.peter.2009","steam_id":76561198171368867,"connected_time":1516000000000,"state":"active","ping":75},{"user_id":933,"name":"Defeat","steam_id":76561198065203818,"connected_time":273000000000,"state":"active","ping":40},{"user_id":918,"name":"Shah","steam_id":76561198047508851,"connected_time":2173000000000,"state":"active","ping":53},{"user_id":912,"name":"Marzbee115","steam_id":76561198095821025,"connected_time":2933000000000,"state":"active","ping":81},{"user_id":857,"name":"The King of Piss World","steam_id":76561198082806956,"connected_time":7060000000000,"state":"active","ping":117},{"user_id":887,"name":"bad spy player","steam_id":76561198873699671,"connected_time":5260000000000,"state":"active","ping":45},{"user_id":913,"name":"krootonitron","steam_id":76561198114113037,"connected_time":2892000000000,"state":"active","ping":58},{"user_id":922,"name":"gorlab","steam_id":76561198025089694,"connected_time":1526000000000,"state":"active","ping":61},{"user_id":927,"name":"RecklessRoadRage","steam_id":76561199089562026,"connected_time":725000000000,"state":"active","ping":47},{"user_id":934,"name":"CheeseCake488","steam_id":76561199407617942,"connected_time":232000000000,"state":"active","ping":127},{"user_id":898,"name":"Zee❤","steam_id":76561198274550638,"connected_time":3326000000000,"state":"active","ping":111},{"user_id":924,"name":"Sailor","steam_id":76561199081983517,"connected_time":1505000000000,"state":"active","ping":97},{"user_id":911,"name":"MantisTobboggan","steam_id":76561197969447887,"connected_time":2961000000000,"state":"active","ping":62},{"user_id":900,"name":"Aardappel","steam_id":76561198030894676,"connected_time":3051000000000,"state":"active","ping":64},{"user_id":901,"name":"0xFUL","steam_id":76561198081684676,"connected_time":3048000000000,"state":"active","ping":73},{"user_id":929,"name":"Savant","steam_id":76561197969881916,"connected_time":595000000000,"state":"active","ping":59},{"user_id":914,"name":"sticky earth monkey","steam_id":76561198062763756,"connected_time":2862000000000,"state":"active","ping":104},{"user_id":931,"name":"Psycho Tech","steam_id":76561198130480412,"connected_time":355000000000,"state":"active","ping":71},{"user_id":935,"name":"booch","steam_id":76561198017030029,"connected_time":148000000000,"state":"active","ping":70},{"user_id":930,"name":"Branz","steam_id":76561198076632143,"connected_time":374000000000,"state":"active","ping":90},{"user_id":907,"name":"Elias","steam_id":76561198031295139,"connected_time":3040000000000,"state":"active","ping":50},{"user_id":920,"name":"BlookyBlock","steam_id":76561198117009300,"connected_time":2160000000000,"state":"active","ping":64}]},{"server_id":119,"name":"Uncletopia | Seattle | 2 | All Maps","name_short":"sea-2","host":"sea-1.us.uncletopia.com","port":27025,"enabled":true,"region":"us-west","cc":"us","latitude":47.608013,"longitude":-122.33517,"reserved":0,"last_update":"0001-01-01T00:00:00Z","name_a2s":"Uncletopia | Seattle | 2 | All Maps","protocol":17,"map":"cp_altitude","folder":"tf","game":"Team Fortress","app_id":440,"player_count":24,"max_players":24,"Bots":0,"server_type":"Dedicated","server_os":"Linux","password":true,"vac":true,"version":"7723704","steam_id":85568392924469998,"keywords":["cp","nocrits","nodmgspread","uncletopia"],"game_id":440,"stv_port":27026,"stv_name":"Uncletopia | Seattle | 2 | All Maps | STV","players":[{"user_id":398,"name":"mub","steam_id":76561197961943948,"connected_time":519000000000,"state":"active","ping":43},{"user_id":401,"name":"Kay Z1014","steam_id":76561198374228296,"connected_time":320000000000,"state":"active","ping":55},{"user_id":389,"name":"Mr Sir Logan","steam_id":76561198088803891,"connected_time":1827000000000,"state":"active","ping":89},{"user_id":393,"name":"Trashamedly","steam_id":76561199049488718,"connected_time":1297000000000,"state":"active","ping":68},{"user_id":321,"name":"zoo-music girl","steam_id":76561198325306660,"connected_time":6366000000000,"state":"active","ping":55},{"user_id":327,"name":"Keth (No i)","steam_id":76561198155903648,"connected_time":5927000000000,"state":"active","ping":51},{"user_id":360,"name":"Noiverus","steam_id":76561198043625582,"connected_time":2877000000000,"state":"active","ping":80},{"user_id":387,"name":"a cat plushie","steam_id":76561198080046542,"connected_time":1957000000000,"state":"active","ping":45},{"user_id":390,"name":"donelly.hands.1989","steam_id":76561199208855132,"connected_time":1724000000000,"state":"active","ping":52},{"user_id":320,"name":"rat gets the cheese","steam_id":76561198031234032,"connected_time":6463000000000,"state":"active","ping":103},{"user_id":391,"name":"Stroodle","steam_id":76561198175533691,"connected_time":1717000000000,"state":"active","ping":67},{"user_id":340,"name":"lili.winters","steam_id":76561199391478575,"connected_time":4571000000000,"state":"active","ping":66},{"user_id":404,"name":"rlty","steam_id":76561198009395055,"connected_time":137000000000,"state":"active","ping":115},{"user_id":329,"name":"Robotguy9","steam_id":76561198147429617,"connected_time":5917000000000,"state":"active","ping":64},{"user_id":364,"name":"Chamomile","steam_id":76561198063516307,"connected_time":2731000000000,"state":"active","ping":59},{"user_id":385,"name":"cracky","steam_id":76561197971365444,"connected_time":1976000000000,"state":"active","ping":39},{"user_id":366,"name":"gemsticks","steam_id":76561198442218271,"connected_time":2651000000000,"state":"active","ping":109},{"user_id":403,"name":"HanakoToast","steam_id":76561198045233131,"connected_time":230000000000,"state":"active","ping":91},{"user_id":386,"name":"Sinn","steam_id":76561199013434543,"connected_time":1966000000000,"state":"active","ping":71},{"user_id":376,"name":"the","steam_id":76561198079418310,"connected_time":2209000000000,"state":"active","ping":54},{"user_id":383,"name":"Patio","steam_id":76561197986082608,"connected_time":2119000000000,"state":"active","ping":53},{"user_id":392,"name":"Agentnickel","steam_id":76561199186723516,"connected_time":1704000000000,"state":"active","ping":64},{"user_id":367,"name":"da-me da-ne","steam_id":76561198186208857,"connected_time":2646000000000,"state":"active","ping":108},{"user_id":400,"name":"DUMMIE","steam_id":76561199107386147,"connected_time":492000000000,"state":"active","ping":71}]},{"server_id":406,"name":"Uncletopia | Seattle | 3 | Stopwatch Beta","name_short":"sea-3","host":"sea-1.us.uncletopia.com","port":27035,"enabled":true,"region":"us-west","cc":"us","latitude":47.608013,"longitude":-122.33517,"reserved":0,"last_update":"0001-01-01T00:00:00Z","name_a2s":"Uncletopia | Seattle | 3 | Stopwatch Beta","protocol":17,"map":"cp_altitude","folder":"tf","game":"Team Fortress","app_id":440,"player_count":0,"max_players":24,"Bots":0,"server_type":"Dedicated","server_os":"Linux","password":true,"vac":false,"version":"7723704","steam_id":0,"keywords":["cp","nocrits","nodmgspread","uncletopia"],"game_id":440,"stv_port":27036,"stv_name":"Uncletopia | Seattle | 3 | Stopwatch Beta | STV","players":null},{"server_id":17,"name":"Uncletopia | San Francisco | 1 | All Maps","name_short":"sfo-1","host":"sfo-1.us.uncletopia.com","port":27015,"enabled":true,"region":"us-west","cc":"us","latitude":37.77397,"longitude":-122.4313,"reserved":0,"last_update":"0001-01-01T00:00:00Z","name_a2s":"Uncletopia | San Francisco | 1 | All Maps","protocol":17,"map":"pl_barnblitz","folder":"tf","game":"Team Fortress","app_id":440,"player_count":22,"max_players":24,"Bots":0,"server_type":"Dedicated","server_os":"Linux","password":true,"vac":true,"version":"7723704","steam_id":85568392924469999,"keywords":["nocrits","nodmgspread","payload","uncletopia"],"game_id":440,"stv_port":27016,"stv_name":"Uncletopia | San Francisco | 1 | All Maps | STV","players":[{"user_id":422,"name":"asian","steam_id":76561198082561695,"connected_time":682000000000,"state":"active","ping":107},{"user_id":433,"name":"Degenerate Antics","steam_id":76561198163957116,"connected_time":105000000000,"state":"active","ping":60},{"user_id":434,"name":"Kershaw","steam_id":76561198000244778,"connected_time":103000000000,"state":"active","ping":70},{"user_id":404,"name":"xxxnickthesick69420xxx","steam_id":76561198056329143,"connected_time":1819000000000,"state":"active","ping":65},{"user_id":420,"name":"Testicular Torsion","steam_id":76561197968179862,"connected_time":798000000000,"state":"active","ping":57},{"user_id":423,"name":"breadBREH","steam_id":76561199260475539,"connected_time":621000000000,"state":"active","ping":63},{"user_id":435,"name":"FwuffyKittens","steam_id":76561198451834946,"connected_time":74000000000,"state":"active","ping":85},{"user_id":313,"name":"tweet","steam_id":76561198166515735,"connected_time":9147000000000,"state":"active","ping":46},{"user_id":431,"name":"Incel","steam_id":76561198176618461,"connected_time":271000000000,"state":"active","ping":110},{"user_id":424,"name":"FestiveAnarchist","steam_id":76561199116042550,"connected_time":594000000000,"state":"active","ping":100},{"user_id":392,"name":"JimmY","steam_id":76561198386339252,"connected_time":2927000000000,"state":"active","ping":67},{"user_id":421,"name":"hamdrinker985","steam_id":76561199241807676,"connected_time":794000000000,"state":"active","ping":68},{"user_id":386,"name":"femcel larper","steam_id":76561198166827208,"connected_time":3213000000000,"state":"active","ping":73},{"user_id":425,"name":"i swallowed shampoo","steam_id":76561199262262606,"connected_time":582000000000,"state":"active","ping":78},{"user_id":426,"name":"Your local neighborhood priest","steam_id":76561198258303135,"connected_time":490000000000,"state":"active","ping":68},{"user_id":436,"name":"Protoshake","steam_id":76561198840276176,"connected_time":3000000000,"state":"spawning","ping":81},{"user_id":427,"name":"Boingo","steam_id":76561199086931535,"connected_time":451000000000,"state":"active","ping":80},{"user_id":400,"name":"TTV/That_Guy_Ky","steam_id":76561198825504559,"connected_time":2272000000000,"state":"active","ping":78},{"user_id":406,"name":"moe","steam_id":76561198929586245,"connected_time":1731000000000,"state":"active","ping":54},{"user_id":408,"name":"Jack from Jack in The Box","steam_id":76561199083594971,"connected_time":1502000000000,"state":"active","ping":60},{"user_id":407,"name":"spacetoven","steam_id":76561198115821131,"connected_time":1717000000000,"state":"active","ping":53},{"user_id":429,"name":"thebowmanator","steam_id":76561198210094151,"connected_time":422000000000,"state":"active","ping":71}]},{"server_id":18,"name":"Uncletopia | San Francisco | 2 | All Maps","name_short":"sfo-2","host":"sfo-1.us.uncletopia.com","port":27025,"enabled":true,"region":"us-west","cc":"us","latitude":37.77397,"longitude":-122.4313,"reserved":0,"last_update":"0001-01-01T00:00:00Z","name_a2s":"Uncletopia | San Francisco | 2 | All Maps","protocol":17,"map":"pl_snowycoast","folder":"tf","game":"Team Fortress","app_id":440,"player_count":0,"max_players":24,"Bots":0,"server_type":"Dedicated","server_os":"Linux","password":true,"vac":true,"version":"7723704","steam_id":85568392924470000,"keywords":["nocrits","nodmgspread","payload","uncletopia"],"game_id":440,"stv_port":27026,"stv_name":"Uncletopia | San Francisco | 2 | All Maps | STV","players":null},{"server_id":19,"name":"Uncletopia | San Francisco | 3 | Stopwatch Beta","name_short":"sfo-3","host":"sfo-1.us.uncletopia.com","port":27035,"enabled":true,"region":"us-west","cc":"us","latitude":37.77397,"longitude":-122.4313,"reserved":0,"last_update":"0001-01-01T00:00:00Z","name_a2s":"Uncletopia | San Francisco | 3 | Stopwatch Beta","protocol":17,"map":"pl_pier","folder":"tf","game":"Team Fortress","app_id":440,"player_count":0,"max_players":24,"Bots":0,"server_type":"Dedicated","server_os":"Linux","password":true,"vac":true,"version":"7723704","steam_id":85568392924742824,"keywords":["nocrits","nodmgspread","payload","uncletopia"],"game_id":440,"stv_port":27036,"stv_name":"Uncletopia | San Francisco | 3 | Stopwatch Beta | STV","players":null},{"server_id":20,"name":"Uncletopia | San Francisco | 4 | Community","name_short":"sfo-4","host":"sfo-1.us.uncletopia.com","port":27045,"enabled":true,"region":"us-west","cc":"us","latitude":37.77397,"longitude":-122.4313,"reserved":0,"last_update":"0001-01-01T00:00:00Z","name_a2s":"Uncletopia | San Francisco | 4 | Community","protocol":17,"map":"workshop/pl_fifthcurve_rc1.ugc648227046","folder":"tf","game":"Team Fortress","app_id":440,"player_count":0,"max_players":24,"Bots":0,"server_type":"Dedicated","server_os":"Linux","password":true,"vac":true,"version":"7723704","steam_id":85568392924742826,"keywords":["nocrits","nodmgspread","payload","uncletopia"],"game_id":440,"stv_port":27046,"stv_name":"Uncletopia | San Francisco | 4 | Community | STV","players":null},{"server_id":141,"name":"Uncletopia | Sydney | 1 | All Maps","name_short":"syd-1","host":"syd-1.au.uncletopia.com","port":27015,"enabled":true,"region":"au","cc":"au","latitude":-33.865143,"longitude":151.2099,"reserved":0,"last_update":"0001-01-01T00:00:00Z","name_a2s":"Uncletopia | Sydney | 1 | All Maps","protocol":17,"map":"pl_upward","folder":"tf","game":"Team Fortress","app_id":440,"player_count":24,"max_players":24,"Bots":0,"server_type":"Dedicated","server_os":"Linux","password":true,"vac":true,"version":"7723704","steam_id":85568392924470001,"keywords":["nocrits","nodmgspread","payload","uncletopia"],"game_id":440,"stv_port":27016,"stv_name":"Uncletopia | Sydney | 1 | All Maps | STV","players":[{"user_id":298,"name":"gon","steam_id":76561198059906626,"connected_time":3307000000000,"state":"active","ping":75},{"user_id":346,"name":"bla","steam_id":76561198119397414,"connected_time":552000000000,"state":"active","ping":46},{"user_id":348,"name":"Parachuting_Parakeet","steam_id":76561198049986399,"connected_time":398000000000,"state":"active","ping":48},{"user_id":342,"name":"Mr. Venom","steam_id":76561198155354590,"connected_time":647000000000,"state":"active","ping":60},{"user_id":321,"name":"timboe","steam_id":76561198003442007,"connected_time":2259000000000,"state":"active","ping":59},{"user_id":324,"name":"krandlez` (Any/All)","steam_id":76561198044839726,"connected_time":2065000000000,"state":"active","ping":39},{"user_id":353,"name":"electro599","steam_id":76561198058148858,"connected_time":13000000000,"state":"active","ping":64},{"user_id":343,"name":"achoo","steam_id":76561198187701031,"connected_time":626000000000,"state":"active","ping":71},{"user_id":307,"name":"Critz Eastwood","steam_id":76561198050094688,"connected_time":2931000000000,"state":"active","ping":56},{"user_id":339,"name":"robor","steam_id":76561198084686835,"connected_time":1033000000000,"state":"active","ping":45},{"user_id":351,"name":"Charikarp","steam_id":76561198132766743,"connected_time":326000000000,"state":"active","ping":90},{"user_id":333,"name":"clout","steam_id":76561198073310502,"connected_time":1433000000000,"state":"active","ping":74},{"user_id":335,"name":"rambo in da lambo","steam_id":76561198383642609,"connected_time":1354000000000,"state":"active","ping":69},{"user_id":345,"name":"moil","steam_id":76561198836003115,"connected_time":596000000000,"state":"active","ping":62},{"user_id":347,"name":"sheytoon","steam_id":76561198060824434,"connected_time":540000000000,"state":"active","ping":57},{"user_id":296,"name":"EpicGuy4227","steam_id":76561198094132328,"connected_time":3392000000000,"state":"active","ping":55},{"user_id":350,"name":"WiZ","steam_id":76561198001159433,"connected_time":362000000000,"state":"active","ping":69},{"user_id":336,"name":"no teles 4 u","steam_id":76561198018478297,"connected_time":1272000000000,"state":"active","ping":65},{"user_id":332,"name":"Rob-Roy","steam_id":76561198012749888,"connected_time":1624000000000,"state":"active","ping":110},{"user_id":316,"name":"lemur","steam_id":76561198278239170,"connected_time":2562000000000,"state":"active","ping":81},{"user_id":318,"name":"Bagetty","steam_id":76561198325088668,"connected_time":2466000000000,"state":"active","ping":62},{"user_id":301,"name":"wombraider","steam_id":76561199375834537,"connected_time":3232000000000,"state":"active","ping":124},{"user_id":319,"name":"bogan on a fence","steam_id":76561198052032702,"connected_time":2462000000000,"state":"active","ping":48},{"user_id":272,"name":"michael","steam_id":76561198052848358,"connected_time":4211000000000,"state":"active","ping":62}]},{"server_id":123,"name":"Uncletopia | Sydney | 2 | All Maps","name_short":"syd-2","host":"syd-1.au.uncletopia.com","port":27025,"enabled":true,"region":"au","cc":"au","latitude":-33.865143,"longitude":151.2099,"reserved":0,"last_update":"0001-01-01T00:00:00Z","name_a2s":"Uncletopia | Sydney | 2 | All Maps","protocol":17,"map":"pl_badwater","folder":"tf","game":"Team Fortress","app_id":440,"player_count":20,"max_players":24,"Bots":0,"server_type":"Dedicated","server_os":"Linux","password":true,"vac":true,"version":"7723704","steam_id":85568392924470002,"keywords":["nocrits","nodmgspread","payload","uncletopia"],"game_id":440,"stv_port":27026,"stv_name":"Uncletopia | Sydney | 2 | All Maps | STV","players":[{"user_id":46,"name":"Mama Origami","steam_id":76561198330338645,"connected_time":167000000000,"state":"active","ping":62},{"user_id":25,"name":"|Jamin|","steam_id":76561198151843157,"connected_time":1871000000000,"state":"active","ping":94},{"user_id":19,"name":"Pizza","steam_id":76561199154318083,"connected_time":3781000000000,"state":"active","ping":88},{"user_id":26,"name":"BluejayAU","steam_id":76561198079766872,"connected_time":1778000000000,"state":"active","ping":61},{"user_id":36,"name":"ziah","steam_id":76561198159375596,"connected_time":921000000000,"state":"active","ping":83},{"user_id":34,"name":"Senator Armstrong","steam_id":76561199098106608,"connected_time":979000000000,"state":"active","ping":55},{"user_id":29,"name":"lavendermelody","steam_id":76561198238001880,"connected_time":1172000000000,"state":"active","ping":44},{"user_id":30,"name":"CuzzyCuz","steam_id":76561198069054697,"connected_time":1126000000000,"state":"active","ping":69},{"user_id":45,"name":"ZaEpicScout205","steam_id":76561198170693338,"connected_time":232000000000,"state":"active","ping":88},{"user_id":32,"name":"pooparse","steam_id":76561198217959591,"connected_time":1090000000000,"state":"active","ping":60},{"user_id":41,"name":"Nawt","steam_id":76561198179849863,"connected_time":764000000000,"state":"active","ping":58},{"user_id":35,"name":"Autistic Raptor","steam_id":76561198354523762,"connected_time":977000000000,"state":"active","ping":45},{"user_id":38,"name":"Who the fuck","steam_id":76561198053433380,"connected_time":916000000000,"state":"active","ping":51},{"user_id":42,"name":"The Pumpkin Man","steam_id":76561199026384838,"connected_time":563000000000,"state":"active","ping":85},{"user_id":43,"name":"seKor","steam_id":76561198840121830,"connected_time":504000000000,"state":"active","ping":68},{"user_id":44,"name":"Bing Bong","steam_id":76561198066571616,"connected_time":372000000000,"state":"active","ping":107},{"user_id":47,"name":"Darren","steam_id":76561198988128327,"connected_time":156000000000,"state":"active","ping":43},{"user_id":48,"name":"soldiershot","steam_id":76561198106365449,"connected_time":138000000000,"state":"active","ping":65},{"user_id":49,"name":"Russel Crower","steam_id":76561198018183495,"connected_time":63000000000,"state":"active","ping":68},{"user_id":50,"name":"hyak","steam_id":76561198175700625,"connected_time":44000000000,"state":"active","ping":85}]},{"server_id":395,"name":"Uncletopia | Sydney | 3 | All Maps","name_short":"syd-3","host":"syd-1.au.uncletopia.com","port":27035,"enabled":true,"region":"au","cc":"au","latitude":-33.865143,"longitude":151.2099,"reserved":0,"last_update":"0001-01-01T00:00:00Z","name_a2s":"Uncletopia | Sydney | 3 | All Maps","protocol":17,"map":"pl_barnblitz","folder":"tf","game":"Team Fortress","app_id":440,"player_count":0,"max_players":24,"Bots":0,"server_type":"Dedicated","server_os":"Linux","password":true,"vac":true,"version":"7723704","steam_id":85568392925194467,"keywords":["nocrits","nodmgspread","payload","uncletopia"],"game_id":440,"stv_port":27036,"stv_name":"Uncletopia | Sydney | 3 | All Maps | STV","players":null},{"server_id":396,"name":"Uncletopia | Sydney | 4 | All Maps","name_short":"syd-4","host":"syd-1.au.uncletopia.com","port":27045,"enabled":true,"region":"au","cc":"au","latitude":-33.865143,"longitude":151.2099,"reserved":0,"last_update":"0001-01-01T00:00:00Z","name_a2s":"Uncletopia | Sydney | 4 | All Maps","protocol":17,"map":"cp_sunshine","folder":"tf","game":"Team Fortress","app_id":440,"player_count":0,"max_players":24,"Bots":0,"server_type":"Dedicated","server_os":"Linux","password":true,"vac":true,"version":"7723704","steam_id":85568392925397958,"keywords":["cp","nocrits","nodmgspread","uncletopia"],"game_id":440,"stv_port":27046,"stv_name":"Uncletopia | Sydney | 4 | All Maps | STV","players":null},{"server_id":58,"name":"Uncletopia | Sydney | 5 | Stopwatch Beta","name_short":"syd-5","host":"syd-1.au.uncletopia.com","port":27055,"enabled":true,"region":"au","cc":"au","latitude":-33.865143,"longitude":151.2099,"reserved":0,"last_update":"0001-01-01T00:00:00Z","name_a2s":"Uncletopia | Sydney | 5 | Stopwatch Beta","protocol":17,"map":"cp_altitude","folder":"tf","game":"Team Fortress","app_id":440,"player_count":0,"max_players":24,"Bots":0,"server_type":"Dedicated","server_os":"Linux","password":true,"vac":true,"version":"7723704","steam_id":85568392925397959,"keywords":["cp","nocrits","nodmgspread","uncletopia"],"game_id":440,"stv_port":27056,"stv_name":"Uncletopia | Sydney | 5 | Stopwatch Beta | STV","players":null},{"server_id":59,"name":"Uncletopia | Sydney | 6 | Community","name_short":"syd-6","host":"syd-1.au.uncletopia.com","port":27065,"enabled":true,"region":"au","cc":"au","latitude":-33.865143,"longitude":151.2099,"reserved":0,"last_update":"0001-01-01T00:00:00Z","name_a2s":"Uncletopia | Sydney | 6 | Community","protocol":17,"map":"workshop/pl_fifthcurve_rc1.ugc648227046","folder":"tf","game":"Team Fortress","app_id":440,"player_count":0,"max_players":24,"Bots":0,"server_type":"Dedicated","server_os":"Linux","password":true,"vac":true,"version":"7723704","steam_id":85568392925397960,"keywords":["nocrits","nodmgspread","payload","uncletopia"],"game_id":440,"stv_port":27066,"stv_name":"Uncletopia | Sydney | 6 | Community | STV","players":null},{"server_id":49,"name":"Uncletopia | Warsaw | 1 | All Maps","name_short":"waw-1","host":"waw-1.pl.uncletopia.com","port":27015,"enabled":true,"region":"eu","cc":"pl","latitude":52.2297,"longitude":21.017532,"reserved":0,"last_update":"0001-01-01T00:00:00Z","name_a2s":"Uncletopia | Warsaw | 1 | All Maps","protocol":17,"map":"cp_snakewater_final1","folder":"tf","game":"Team Fortress","app_id":440,"player_count":0,"max_players":24,"Bots":0,"server_type":"Dedicated","server_os":"Linux","password":true,"vac":true,"version":"7723704","steam_id":85568392925397850,"keywords":["cp","nocrits","nodmgspread","uncletopia"],"game_id":440,"stv_port":27016,"stv_name":"Uncletopia | Warsaw | 1 | All Maps | STV","players":null},{"server_id":50,"name":"Uncletopia | Warsaw | 2 | All Maps","name_short":"waw-2","host":"waw-1.pl.uncletopia.com","port":27025,"enabled":true,"region":"eu","cc":"pl","latitude":52.2297,"longitude":21.017532,"reserved":0,"last_update":"0001-01-01T00:00:00Z","name_a2s":"Uncletopia | Warsaw | 2 | All Maps","protocol":17,"map":"pl_barnblitz","folder":"tf","game":"Team Fortress","app_id":440,"player_count":0,"max_players":24,"Bots":0,"server_type":"Dedicated","server_os":"Linux","password":true,"vac":true,"version":"7723704","steam_id":85568392925397851,"keywords":["nocrits","nodmgspread","payload","uncletopia"],"game_id":440,"stv_port":27026,"stv_name":"Uncletopia | Warsaw | 2 | All Maps | STV","players":null},{"server_id":51,"name":"Uncletopia | Warsaw | 3 | All Maps","name_short":"waw-3","host":"waw-1.pl.uncletopia.com","port":27035,"enabled":true,"region":"eu","cc":"pl","latitude":52.2297,"longitude":21.017532,"reserved":0,"last_update":"0001-01-01T00:00:00Z","name_a2s":"Uncletopia | Warsaw | 3 | All Maps","protocol":17,"map":"pl_barnblitz","folder":"tf","game":"Team Fortress","app_id":440,"player_count":0,"max_players":24,"Bots":0,"server_type":"Dedicated","server_os":"Linux","password":true,"vac":true,"version":"7723704","steam_id":85568392925397852,"keywords":["nocrits","nodmgspread","payload","uncletopia"],"game_id":440,"stv_port":27036,"stv_name":"Uncletopia | Warsaw | 3 | All Maps | STV","players":null},{"server_id":52,"name":"Uncletopia | Warsaw | 4 | All Maps","name_short":"waw-4","host":"waw-1.pl.uncletopia.com","port":27045,"enabled":true,"region":"eu","cc":"pl","latitude":52.2297,"longitude":21.017532,"reserved":0,"last_update":"0001-01-01T00:00:00Z","name_a2s":"Uncletopia | Warsaw | 4 | All Maps","protocol":17,"map":"pl_upward","folder":"tf","game":"Team Fortress","app_id":440,"player_count":0,"max_players":24,"Bots":0,"server_type":"Dedicated","server_os":"Linux","password":true,"vac":true,"version":"7723704","steam_id":85568392925397853,"keywords":["nocrits","nodmgspread","payload","uncletopia"],"game_id":440,"stv_port":27046,"stv_name":"Uncletopia | Warsaw | 4 | All Maps | STV","players":null},{"server_id":53,"name":"Uncletopia | Warsaw | 5 | Stopwatch Beta","name_short":"waw-5","host":"waw-1.pl.uncletopia.com","port":27055,"enabled":true,"region":"eu","cc":"pl","latitude":52.2297,"longitude":21.017532,"reserved":0,"last_update":"0001-01-01T00:00:00Z","name_a2s":"Uncletopia | Warsaw | 5 | Stopwatch Beta","protocol":17,"map":"cp_sunshine","folder":"tf","game":"Team Fortress","app_id":440,"player_count":0,"max_players":24,"Bots":0,"server_type":"Dedicated","server_os":"Linux","password":true,"vac":true,"version":"7723704","steam_id":85568392925397854,"keywords":["cp","nocrits","nodmgspread","uncletopia"],"game_id":440,"stv_port":27056,"stv_name":"Uncletopia | Warsaw | 5 | Stopwatch Beta | STV","players":null},{"server_id":54,"name":"Uncletopia | Warsaw | 6 | Community","name_short":"waw-6","host":"waw-1.pl.uncletopia.com","port":27065,"enabled":true,"region":"eu","cc":"pl","latitude":52.2297,"longitude":21.017532,"reserved":0,"last_update":"0001-01-01T00:00:00Z","name_a2s":"Uncletopia | Warsaw | 6 | Community","protocol":17,"map":"pl_snowycoast","folder":"tf","game":"Team Fortress","app_id":440,"player_count":0,"max_players":24,"Bots":0,"server_type":"Dedicated","server_os":"Linux","password":true,"vac":true,"version":"7723704","steam_id":85568392925397856,"keywords":["nocrits","nodmgspread","payload","uncletopia"],"game_id":440,"stv_port":27066,"stv_name":"Uncletopia | Warsaw | 6 | Community | STV","players":null}]}