{"status":true,"message":"","result":[{"server_id":9,"name":"Uncletopia | Atlanta | 1 | All Maps","name_short":"atl-1","host":"atl-1.us.uncletopia.com","port":27015,"enabled":true,"region":"us-east","cc":"us","latitude":33.753746,"longitude":-84.38633,"reserved":0,"last_update":"0001-01-01T00:00:00Z","name_a2s":"Uncletopia | Atlanta | 1 | All Maps","protocol":17,"map":"cp_dustbowl","folder":"tf","game":"Team Fortress","app_id":440,"player_count":18,"max_players":24,"Bots":0,"server_type":"Dedicated","server_os":"Linux","password":true,"vac":true,"version":"7961495","steam_id":85568392924469982,"keywords":["cp","nocrits","nodmgspread","uncletopia"],"game_id":440,"stv_port":27016,"stv_name":"Uncletopia | Atlanta | 1 | All Maps | STV","players":[{"user_id":614,"name":"AMU","steam_id":76561198092346231,"connected_time":402000000000,"state":"active","ping":75},{"user_id":498,"name":"Jin","steam_id":76561198119873148,"connected_time":11075000000000,"state":"active","ping":64},{"user_id":517,"name":"Shmoopy","steam_id":76561198030459152,"connected_time":9935000000000,"state":"active","ping":60},{"user_id":615,"name":"Skiddy","steam_id":76561198125942665,"connected_time":238000000000,"state":"active","ping":96},{"user_id":616,"name":"evdoke","steam_id":76561198044555219,"connected_time":232000000000,"state":"active","ping":51},{"user_id":565,"name":"Wendigo","steam_id":76561198031942404,"connected_time":5913000000000,"state":"active","ping":42},{"user_id":604,"name":"juanjoesc","steam_id":76561198186368430,"connected_time":1473000000000,"state":"active","ping":101},{"user_id":548,"name":"gallowsCalibrator","steam_id":76561198404707578,"connected_time":6680000000000,"state":"active","ping":58},{"user_id":610,"name":"Game Broke No Fix","steam_id":76561198028271650,"connected_time":724000000000,"state":"active","ping":110},{"user_id":577,"name":"eish","steam_id":76561198089463603,"connected_time":4219000000000,"state":"active","ping":117},{"user_id":591,"name":"C4K3","steam_id":76561197996963285,"connected_time":3101000000000,"state":"active","ping":59},{"user_id":607,"name":"julian.byrd3","steam_id":76561198241630786,"connected_time":1041000000000,"state":"active","ping":39},{"user_id":617,"name":"VenomX","steam_id":76561198123418900,"connected_time":165000000000,"state":"active","ping":59},{"user_id":618,"name":"Tokani","steam_id":76561198066904353,"connected_time":161000000000,"state":"active","ping":80},{"user_id":606,"name":"BunnyBlitz","steam_id":76561198165881112,"connected_time":1410000000000,"state":"active","ping":76},{"user_id":602,"name":"—Å—É–∫–∞ –±–ª—è—Ç—å","steam_id":76561199258604091,"connected_time":2388000000000,"state":"active","ping":40},{"user_id":619,"name":"ballmuncher29","steam_id":76561199122915452,"connected_time":39000000000,"state":"active","ping":110},{"user_id":613,"name":"‚ú™Floofy‚ú™","steam_id":76561198056298204,"connected_time":426000000000,"state":"active","ping":59}]},{"server_id":104,"name":"Uncletopia | Atlanta | 2 | All Maps","name_short":"atl-2","host":"atl-1.us.uncletopia.com","port":27025,"enabled":true,"region":"us-east","cc":"us","latitude":33.753746,"longitude":-84.38633,"reserved":0,"last_update":"0001-01-01T00:00:00Z","name_a2s":"Uncletopia | Atlanta | 2 | All Maps","protocol":17,"map":"cp_process_final","folder":"tf","game":"Team Fortress","app_id":440,"player_count":0,"max_players":24,"Bots":0,"server_type":"Dedicated","server_os":"Linux","password":true,"vac":true,"version":"7961495","steam_id":85568392924469983,"keywords":["cp","nocrits","nodmgspread","uncletopia"],"game_id":440,"stv_port":27026,"stv_name":"Uncletopia | Atlanta | 2 | All Maps | STV","players":null},{"server_id":400,"name":"Uncletopia | Atlanta | 3 | Stopwatch","name_short":"atl-3","host":"atl-1.us.uncletopia.com","port":27035,"enabled":true,"region":"us-east","cc":"us","latitude":33.753746,"longitude":-84.38633,"reserved":0,"last_update":"0001-01-01T00:00:00Z","name_a2s":"Uncletopia | Atlanta | 3 | Stopwatch","protocol":17,"map":"workshop/koth_bagel_rc6.ugc2514036946","folder":"tf","game":"Team Fortress","app_id":440,"player_count":0,"max_players":24,"Bots":0,"server_type":"Dedicated","server_os":"Linux","password":true,"vac":true,"version":"7961495","steam_id":85568392924515187,"keywords":["cp","nocrits","nodmgspread","uncletopia"],"game_id":440,"stv_port":27036,"stv_name":"Uncletopia | Atlanta | 3 | Stopwatch | STV","players":null},{"server_id":401,"name":"Uncletopia | Atlanta | 4 | Community","name_short":"atl-4","host":"atl-1.us.uncletopia.com","port":27045,"enabled":true,"region":"us-east","cc":"us","latitude":33.753746,"longitude":-84.38633,"reserved":0,"last_update":"0001-01-01T00:00:00Z","name_a2s":"Uncletopia | Atlanta | 4 | Community","protocol":17,"map":"workshop/koth_bagel_rc6.ugc2514036946","folder":"tf","game":"Team Fortress","app_id":440,"player_count":0,"max_players":24,"Bots":0,"server_type":"Dedicated","server_os":"Linux","password":true,"vac":true,"version":"7961495","steam_id":85568392924515188,"keywords":["cp","nocrits","nodmgspread","uncletopia"],"game_id":440,"stv_port":27046,"stv_name":"Uncletopia | Atlanta | 4 | Community | STV","players":null},{"server_id":2,"name":"Uncletopia | Chicago | 1 | All Maps","name_short":"chi-1","host":"chi-1.us.uncletopia.com","port":27015,"enabled":true,"region":"us-central","cc":"us","latitude":41.881832,"longitude":-87.62318,"reserved":0,"last_update":"0001-01-01T00:00:00Z","name_a2s":"Uncletopia | Chicago | 1 | All Maps","protocol":17,"map":"cp_process_final","folder":"tf","game":"Team Fortress","app_id":440,"player_count":22,"max_players":24,"Bots":0,"server_type":"Dedicated","server_os":"Linux","password":true,"vac":true,"version":"7961495","steam_id":85568392924469984,"keywords":["cp","nocrits","nodmgspread","uncletopia"],"game_id":440,"stv_port":27016,"stv_name":"Uncletopia | Chicago | 1 | All Maps | STV","players":[{"user_id":926,"name":"MD","steam_id":76561197976300679,"connected_time":2480000000000,"state":"active","ping":75},{"user_id":954,"name":"Mom","steam_id":76561198207936000,"connected_time":6000000000,"state":"active","ping":182},{"user_id":837,"name":"Eugene Thaddeus Hinkle V","steam_id":76561198821535846,"connected_time":10039000000000,"state":"active","ping":59},{"user_id":890,"name":"DevoutPage14990","steam_id":76561198831347354,"connected_time":5779000000000,"state":"active","ping":61},{"user_id":949,"name":"Catgirl Explise","steam_id":76561198044413891,"connected_time":142000000000,"state":"active","ping":116},{"user_id":927,"name":"gotten","steam_id":76561198033033884,"connected_time":2477000000000,"state":"active","ping":70},{"user_id":935,"name":"Vin Diesel #imfromisrael","steam_id":76561197969386201,"connected_time":2074000000000,"state":"active","ping":45},{"user_id":939,"name":"off the bennies x)!!!","steam_id":76561198144766439,"connected_time":1293000000000,"state":"active","ping":45},{"user_id":953,"name":"Ignalis","steam_id":76561198025662927,"connected_time":74000000000,"state":"active","ping":54},{"user_id":931,"name":"sonic1394","steam_id":76561198054636788,"connected_time":2394000000000,"state":"active","ping":61},{"user_id":908,"name":"xxxsinpadres","steam_id":76561198366873419,"connected_time":4394000000000,"state":"active","ping":59},{"user_id":955,"name":"c6racing","steam_id":76561198114603745,"connected_time":0,"state":"connecting","ping":0},{"user_id":932,"name":"Krel","steam_id":76561198287045069,"connected_time":2389000000000,"state":"active","ping":56},{"user_id":917,"name":"Mr Zero","steam_id":76561198047432133,"connected_time":3414000000000,"state":"active","ping":60},{"user_id":947,"name":"poon","steam_id":76561198049740395,"connected_time":350000000000,"state":"active","ping":58},{"user_id":941,"name":"mild","steam_id":76561198082470182,"connected_time":1218000000000,"state":"active","ping":90},{"user_id":866,"name":"kitchen goblin","steam_id":76561198271710504,"connected_time":8146000000000,"state":"active","ping":44},{"user_id":952,"name":"zzzz","steam_id":76561198310495200,"connected_time":101000000000,"state":"active","ping":59},{"user_id":942,"name":"backshot overlord","steam_id":76561198984612489,"connected_time":1197000000000,"state":"active","ping":106},{"user_id":948,"name":"8 Dabloons","steam_id":76561199004839490,"connected_time":338000000000,"state":"active","ping":66},{"user_id":922,"name":"most sane 2fort player *real*","steam_id":76561199467239596,"connected_time":3143000000000,"state":"active","ping":50},{"user_id":912,"name":"Tibalt Nyahuma","steam_id":76561198034779431,"connected_time":4213000000000,"state":"active","ping":62}]},{"server_id":106,"name":"Uncletopia | Chicago | 2 | All Maps","name_short":"chi-2","host":"chi-1.us.uncletopia.com","port":27025,"enabled":true,"region":"us-central","cc":"us","latitude":41.881832,"longitude":-87.62318,"reserved":0,"last_update":"0001-01-01T00:00:00Z","name_a2s":"Uncletopia | Chicago | 2 | All Maps","protocol":17,"map":"cp_dustbowl","folder":"tf","game":"Team Fortress","app_id":440,"player_count":24,"max_players":24,"Bots":0,"server_type":"Dedicated","server_os":"Linux","password":true,"vac":true,"version":"7961495","steam_id":85568392924469985,"keywords":["cp","nocrits","nodmgspread","uncletopia"],"game_id":440,"stv_port":27026,"stv_name":"Uncletopia | Chicago | 2 | All Maps | STV","players":[{"user_id":955,"name":"Icklus","steam_id":76561198130225025,"connected_time":79000000000,"state":"active","ping":103},{"user_id":832,"name":"dunk","steam_id":76561198132476501,"connected_time":8329000000000,"state":"active","ping":45},{"user_id":833,"name":"cotton candy pill bug","steam_id":76561198058998371,"connected_time":8244000000000,"state":"active","ping":57},{"user_id":956,"name":"\u003c3","steam_id":76561198196829267,"connected_time":79000000000,"state":"active","ping":115},{"user_id":943,"name":"zoey","steam_id":76561198084679526,"connected_time":1526000000000,"state":"active","ping":59},{"user_id":944,"name":"Oily","steam_id":76561199452938420,"connected_time":1511000000000,"state":"active","ping":68},{"user_id":945,"name":"Shadow","steam_id":76561198796731784,"connected_time":1493000000000,"state":"active","ping":46},{"user_id":931,"name":"Lae","steam_id":76561198185527278,"connected_time":2255000000000,"state":"active","ping":66},{"user_id":927,"name":"Robert","steam_id":76561198133200895,"connected_time":2416000000000,"state":"active","ping":60},{"user_id":930,"name":"rhsiegetank","steam_id":76561198359829118,"connected_time":2275000000000,"state":"active","ping":84},{"user_id":946,"name":"Bobato Chaps","steam_id":76561198065103552,"connected_time":1444000000000,"state":"active","ping":50},{"user_id":942,"name":"[SLAG]redgunnit","steam_id":76561198058053644,"connected_time":1630000000000,"state":"active","ping":50},{"user_id":874,"name":"astrobob911","steam_id":76561199099110654,"connected_time":5322000000000,"state":"active","ping":67},{"user_id":954,"name":"¬øQuery?","steam_id":76561198072152200,"connected_time":962000000000,"state":"active","ping":66},{"user_id":948,"name":"Saucy Boy","steam_id":76561198178332031,"connected_time":1315000000000,"state":"active","ping":66},{"user_id":920,"name":"Whimsy!","steam_id":76561197989578836,"connected_time":2737000000000,"state":"active","ping":93},{"user_id":883,"name":"lcy13vv","steam_id":76561197995997446,"connected_time":4638000000000,"state":"active","ping":58},{"user_id":893,"name":"Just a Festive TimeButt","steam_id":76561198074261742,"connected_time":4223000000000,"state":"active","ping":64},{"user_id":936,"name":"Lead Licker","steam_id":76561198162668339,"connected_time":2024000000000,"state":"active","ping":61},{"user_id":951,"name":"Nobody121","steam_id":76561199227292137,"connected_time":1181000000000,"state":"active","ping":114},{"user_id":953,"name":"DUXIN","steam_id":76561198043861268,"connected_time":1130000000000,"state":"active","ping":70},{"user_id":908,"name":"SixtyTwoCents","steam_id":76561198142724783,"connected_time":3673000000000,"state":"active","ping":56},{"user_id":895,"name":"Ket","steam_id":76561198241951244,"connected_time":4167000000000,"state":"active","ping":73},{"user_id":938,"name":"‚∏∏ gaige ‚õß","steam_id":76561198090576796,"connected_time":2014000000000,"state":"active","ping":57}]},{"server_id":402,"name":"Uncletopia | Chicago | 3 | All Maps","name_short":"chi-3","host":"chi-1.us.uncletopia.com","port":27035,"enabled":true,"region":"us-central","cc":"us","latitude":41.881832,"longitude":-87.62318,"reserved":0,"last_update":"0001-01-01T00:00:00Z","name_a2s":"Uncletopia | Chicago | 3 | All Maps","protocol":17,"map":"cp_snakewater_final1","folder":"tf","game":"Team Fortress","app_id":440,"player_count":0,"max_players":24,"Bots":0,"server_type":"Dedicated","server_os":"Linux","password":true,"vac":true,"version":"7961495","steam_id":85568392924515191,"keywords":["cp","nocrits","nodmgspread","uncletopia"],"game_id":440,"stv_port":27036,"stv_name":"Uncletopia | Chicago | 3 | All Maps | STV","players":null},{"server_id":403,"name":"Uncletopia | Chicago | 4 | All Maps","name_short":"chi-4","host":"chi-1.us.uncletopia.com","port":27045,"enabled":true,"region":"us-central","cc":"us","latitude":41.881832,"longitude":-87.62318,"reserved":0,"last_update":"0001-01-01T00:00:00Z","name_a2s":"Uncletopia | Chicago | 4 | All Maps","protocol":17,"map":"plr_hightower","folder":"tf","game":"Team Fortress","app_id":440,"player_count":0,"max_players":24,"Bots":0,"server_type":"Dedicated","server_os":"Linux","password":true,"vac":true,"version":"7961495","steam_id":85568392924515193,"keywords":["nocrits","nodmgspread","payload","uncletopia"],"game_id":440,"stv_port":27046,"stv_name":"Uncletopia | Chicago | 4 | All Maps | STV","players":null},{"server_id":36,"name":"Uncletopia | Chicago | 5 | All Maps","name_short":"chi-5","host":"chi-2.us.uncletopia.com","port":27015,"enabled":true,"region":"us-central","cc":"us","latitude":41.881832,"longitude":-87.62318,"reserved":0,"last_update":"0001-01-01T00:00:00Z","name_a2s":"Uncletopia | Chicago | 5 | All Maps","protocol":17,"map":"pl_borneo","folder":"tf","game":"Team Fortress","app_id":440,"player_count":24,"max_players":24,"Bots":0,"server_type":"Dedicated","server_os":"Linux","password":true,"vac":true,"version":"7961495","steam_id":85568392924866362,"keywords":["nocrits","nodmgspread","payload","uncletopia"],"game_id":440,"stv_port":27016,"stv_name":"Uncletopia | Chicago | 5 | All Maps | STV","players":[{"user_id":380,"name":"9gon Danmar33","steam_id":76561198056453091,"connected_time":173000000000,"state":"active","ping":48},{"user_id":338,"name":"Pongallow","steam_id":76561198146876078,"connected_time":3251000000000,"state":"active","ping":45},{"user_id":334,"name":"QuakAtack","steam_id":76561198870770157,"connected_time":3406000000000,"state":"active","ping":62},{"user_id":372,"name":"mootier","steam_id":76561198030365192,"connected_time":1332000000000,"state":"active","ping":72},{"user_id":369,"name":"Kzjytsugn","steam_id":76561198130241974,"connected_time":1394000000000,"state":"active","ping":83},{"user_id":381,"name":"Papa Smoke","steam_id":76561198181348206,"connected_time":37000000000,"state":"active","ping":47},{"user_id":368,"name":"Orion 1 | Glitch","steam_id":76561198101234226,"connected_time":1416000000000,"state":"active","ping":73},{"user_id":348,"name":"bansheerubber","steam_id":76561198042009362,"connected_time":2857000000000,"state":"active","ping":95},{"user_id":366,"name":"Gluteus","steam_id":76561198039122699,"connected_time":1494000000000,"state":"active","ping":60},{"user_id":336,"name":"opossum","steam_id":76561198148905570,"connected_time":3322000000000,"state":"active","ping":71},{"user_id":339,"name":"Cabbage","steam_id":76561198405573530,"connected_time":3192000000000,"state":"active","ping":54},{"user_id":370,"name":"Microsoft Hollowpoint","steam_id":76561198874445824,"connected_time":1372000000000,"state":"active","ping":70},{"user_id":371,"name":"CHIKN","steam_id":76561198277792665,"connected_time":1353000000000,"state":"active","ping":110},{"user_id":361,"name":"Sweater-Fan","steam_id":76561199389567214,"connected_time":1639000000000,"state":"active","ping":65},{"user_id":373,"name":"steven","steam_id":76561198173047169,"connected_time":1287000000000,"state":"active","ping":70},{"user_id":350,"name":"im the beef","steam_id":76561198069506128,"connected_time":2605000000000,"state":"active","ping":70},{"user_id":362,"name":"rf","steam_id":76561198195359229,"connected_time":1629000000000,"state":"active","ping":90},{"user_id":363,"name":"Queen Frau the Round","steam_id":76561197999942134,"connected_time":1626000000000,"state":"active","ping":51},{"user_id":357,"name":"Video Game 2","steam_id":76561198041231215,"connected_time":2117000000000,"state":"active","ping":53},{"user_id":358,"name":"Rein","steam_id":76561198300340427,"connected_time":1984000000000,"state":"active","ping":63},{"user_id":359,"name":"beefskewer","steam_id":76561198049992949,"connected_time":1931000000000,"state":"active","ping":99},{"user_id":345,"name":"Doctor Teeth","steam_id":76561198209847111,"connected_time":2948000000000,"state":"active","ping":66},{"user_id":375,"name":"beats (16:38)","steam_id":76561199245717718,"connected_time":1055000000000,"state":"active","ping":51},{"user_id":379,"name":"Scoops M'Gooch","steam_id":76561198048423812,"connected_time":456000000000,"state":"active","ping":107}]},{"server_id":37,"name":"Uncletopia | Chicago | 6 | All Maps","name_short":"chi-6","host":"chi-2.us.uncletopia.com","port":27025,"enabled":true,"region":"us-central","cc":"us","latitude":41.881832,"longitude":-87.62318,"reserved":0,"last_update":"0001-01-01T00:00:00Z","name_a2s":"Uncletopia | Chicago | 6 | All Maps","protocol":17,"map":"koth_lakeside_final","folder":"tf","game":"Team Fortress","app_id":440,"player_count":23,"max_players":24,"Bots":0,"server_type":"Dedicated","server_os":"Linux","password":true,"vac":true,"version":"7961495","steam_id":85568392924866363,"keywords":["cp","nocrits","nodmgspread","uncletopia"],"game_id":440,"stv_port":27026,"stv_name":"Uncletopia | Chicago | 6 | All Maps | STV","players":[{"user_id":460,"name":"Noobert McGlitchington the 3st","steam_id":76561198073176682,"connected_time":3114000000000,"state":"active","ping":61},{"user_id":475,"name":"Ferioth","steam_id":76561197997993090,"connected_time":2128000000000,"state":"active","ping":72},{"user_id":474,"name":"Judge Judy and executioner","steam_id":76561198015235881,"connected_time":2196000000000,"state":"active","ping":46},{"user_id":522,"name":"Aegle","steam_id":76561198871463455,"connected_time":858000000000,"state":"active","ping":92},{"user_id":523,"name":"pee boy","steam_id":76561198069909083,"connected_time":851000000000,"state":"active","ping":75},{"user_id":530,"name":"Galactamarx","steam_id":76561198028065755,"connected_time":688000000000,"state":"active","ping":100},{"user_id":402,"name":"Primal Beast","steam_id":76561198219843663,"connected_time":6543000000000,"state":"active","ping":73},{"user_id":536,"name":"Goobert McBitchington the 5st","steam_id":76561199133313586,"connected_time":649000000000,"state":"active","ping":42},{"user_id":479,"name":"Kilian","steam_id":76561197964374101,"connected_time":1967000000000,"state":"active","ping":99},{"user_id":498,"name":"BrownBear77","steam_id":76561198311991104,"connected_time":1618000000000,"state":"active","ping":110},{"user_id":533,"name":"BMoney","steam_id":76561198799389030,"connected_time":676000000000,"state":"active","ping":108},{"user_id":554,"name":"Cervid√©","steam_id":76561198098579497,"connected_time":91000000000,"state":"active","ping":60},{"user_id":555,"name":"dehbeed","steam_id":76561198039807171,"connected_time":9000000000,"state":"active","ping":112},{"user_id":531,"name":"2cats_2curious","steam_id":76561198027143149,"connected_time":679000000000,"state":"active","ping":45},{"user_id":478,"name":"SATURN","steam_id":76561198116023052,"connected_time":2006000000000,"state":"active","ping":75},{"user_id":537,"name":"DinkyDoink","steam_id":76561198240026004,"connected_time":641000000000,"state":"active","ping":51},{"user_id":481,"name":"kicks","steam_id":76561199228854923,"connected_time":1897000000000,"state":"active","ping":52},{"user_id":532,"name":"Morso","steam_id":76561198069488820,"connected_time":679000000000,"state":"active","ping":89},{"user_id":489,"name":"The Collective(Hypnotist)","steam_id":76561198170423483,"connected_time":1757000000000,"state":"active","ping":69},{"user_id":484,"name":"bobbymcbobington","steam_id":76561199089411172,"connected_time":1793000000000,"state":"active","ping":120},{"user_id":491,"name":"Tribbies","steam_id":76561198000708696,"connected_time":1731000000000,"state":"active","ping":93},{"user_id":486,"name":"Atlas","steam_id":76561198127975050,"connected_time":1781000000000,"state":"active","ping":61},{"user_id":538,"name":"Look to your right --\u003e Gullible","steam_id":76561198088687988,"connected_time":616000000000,"state":"active","ping":58}]},{"server_id":38,"name":"Uncletopia | Chicago | 7 | Stopwatch","name_short":"chi-7","host":"chi-2.us.uncletopia.com","port":27035,"enabled":true,"region":"us-central","cc":"us","latitude":41.881832,"longitude":-87.62318,"reserved":0,"last_update":"0001-01-01T00:00:00Z","name_a2s":"Uncletopia | Chicago | 7 | Stopwatch","protocol":17,"map":"workshop/koth_product_final.ugc454272353","folder":"tf","game":"Team Fortress","app_id":440,"player_count":24,"max_players":24,"Bots":0,"server_type":"Dedicated","server_os":"Linux","password":true,"vac":true,"version":"7961495","steam_id":85568392924866364,"keywords":["cp","nocrits","nodmgspread","uncletopia"],"game_id":440,"stv_port":27036,"stv_name":"Uncletopia | Chicago | 7 | Stopwatch | STV","players":[{"user_id":364,"name":"weedexperiment","steam_id":76561198083975056,"connected_time":943000000000,"state":"active","ping":81},{"user_id":359,"name":"skinnyandy","steam_id":76561198300402102,"connected_time":1259000000000,"state":"active","ping":75},{"user_id":329,"name":"larguu","steam_id":76561197994336210,"connected_time":2518000000000,"state":"active","ping":59},{"user_id":371,"name":"frank","steam_id":76561198137777483,"connected_time":222000000000,"state":"active","ping":69},{"user_id":324,"name":"Gomi","steam_id":76561198262622047,"connected_time":2822000000000,"state":"active","ping":60},{"user_id":361,"name":"‚òÖTC2","steam_id":76561198026985346,"connected_time":1065000000000,"state":"active","ping":45},{"user_id":350,"name":"Zeno","steam_id":76561198245984852,"connected_time":1666000000000,"state":"active","ping":64},{"user_id":325,"name":"Dongus","steam_id":76561197979056451,"connected_time":2816000000000,"state":"active","ping":98},{"user_id":327,"name":"Yongle","steam_id":76561198068591156,"connected_time":2554000000000,"state":"active","ping":55},{"user_id":342,"name":"Lancer Clown","steam_id":76561198011442255,"connected_time":2039000000000,"state":"active","ping":105},{"user_id":365,"name":"dax","steam_id":76561198045335319,"connected_time":937000000000,"state":"active","ping":62},{"user_id":328,"name":"Big Chungus Gaming","steam_id":76561198068794194,"connected_time":2551000000000,"state":"active","ping":49},{"user_id":332,"name":"binary search tree gaming","steam_id":76561198099721950,"connected_time":2451000000000,"state":"active","ping":56},{"user_id":333,"name":"BrosPros","steam_id":76561198149176789,"connected_time":2410000000000,"state":"active","ping":50},{"user_id":368,"name":"stall","steam_id":76561199152861652,"connected_time":858000000000,"state":"active","ping":57},{"user_id":352,"name":"monsterkill4567","steam_id":76561198272986367,"connected_time":1583000000000,"state":"active","ping":98},{"user_id":345,"name":"Le Meilleur","steam_id":76561198054581325,"connected_time":1783000000000,"state":"active","ping":51},{"user_id":367,"name":"moonboy","steam_id":76561198172113657,"connected_time":868000000000,"state":"active","ping":83},{"user_id":337,"name":"_mercury_","steam_id":76561198858356060,"connected_time":2283000000000,"state":"active","ping":68},{"user_id":362,"name":"catawampus","steam_id":76561198043684960,"connected_time":1020000000000,"state":"active","ping":70},{"user_id":355,"name":"cc.BaconBlitz","steam_id":76561198079461770,"connected_time":1496000000000,"state":"active","ping":77},{"user_id":357,"name":"Broadway Rose","steam_id":76561198046083342,"connected_time":1450000000000,"state":"active","ping":64},{"user_id":358,"name":"chickenenthusiast427","steam_id":76561198909415646,"connected_time":1432000000000,"state":"active","ping":77},{"user_id":369,"name":"Brastion","steam_id":76561198257707303,"connected_time":858000000000,"state":"active","ping":75}]},{"server_id":39,"name":"Uncletopia | Chicago | 8 | Community","name_short":"chi-8","host":"chi-2.us.uncletopia.com","port":27045,"enabled":true,"region":"us-central","cc":"us","latitude":41.881832,"longitude":-87.62318,"reserved":0,"last_update":"0001-01-01T00:00:00Z","name_a2s":"Uncletopia | Chicago | 8 | Community","protocol":17,"map":"workshop/koth_slaughter_rc1.ugc1712845210","folder":"tf","game":"Team Fortress","app_id":440,"player_count":0,"max_players":24,"Bots":0,"server_type":"Dedicated","server_os":"Linux","password":true,"vac":true,"version":"7961495","steam_id":85568392924866365,"keywords":["cp","nocrits","nodmgspread","uncletopia"],"game_id":440,"stv_port":27046,"stv_name":"Uncletopia | Chicago | 8 | Community | STV","players":null},{"server_id":8,"name":"Uncletopia | Dallas | 1 | All Maps","name_short":"dal-1","host":"dal-1.us.uncletopia.com","port":27015,"enabled":true,"region":"us-central","cc":"us","latitude":32.779167,"longitude":-96.80889,"reserved":0,"last_update":"0001-01-01T00:00:00Z","name_a2s":"Uncletopia | Dallas | 1 | All Maps","protocol":17,"map":"cp_mountainlab","folder":"tf","game":"Team Fortress","app_id":440,"player_count":5,"max_players":24,"Bots":0,"server_type":"Dedicated","server_os":"Linux","password":true,"vac":true,"version":"7961495","steam_id":85568392924469986,"keywords":["cp","nocrits","nodmgspread","uncletopia"],"game_id":440,"stv_port":27016,"stv_name":"Uncletopia | Dallas | 1 | All Maps | STV","players":[{"user_id":885,"name":"Crucial","steam_id":76561198992582454,"connected_time":481000000000,"state":"active","ping":194},{"user_id":891,"name":"The Broken Lightbulb","steam_id":76561198141566312,"connected_time":90000000000,"state":"active","ping":59},{"user_id":882,"name":"·µê·µâ·µí ∑","steam_id":76561199200969139,"connected_time":651000000000,"state":"active","ping":101},{"user_id":892,"name":"ZePazta","steam_id":76561198263901997,"connected_time":67000000000,"state":"active","ping":65},{"user_id":884,"name":"dweamy","steam_id":76561198119181880,"connected_time":583000000000,"state":"active","ping":59}]},{"server_id":108,"name":"Uncletopia | Dallas | 2 | All Maps","name_short":"dal-2","host":"dal-1.us.uncletopia.com","port":27025,"enabled":true,"region":"us-central","cc":"us","latitude":32.779167,"longitude":-96.80889,"reserved":0,"last_update":"0001-01-01T00:00:00Z","name_a2s":"Uncletopia | Dallas | 2 | All Maps","protocol":17,"map":"koth_viaduct","folder":"tf","game":"Team Fortress","app_id":440,"player_count":24,"max_players":24,"Bots":0,"server_type":"Dedicated","server_os":"Linux","password":true,"vac":true,"version":"7961495","steam_id":85568392924469988,"keywords":["cp","nocrits","nodmgspread","uncletopia"],"game_id":440,"stv_port":27026,"stv_name":"Uncletopia | Dallas | 2 | All Maps | STV","players":[{"user_id":527,"name":"nobody stop me","steam_id":76561198016889445,"connected_time":60000000000,"state":"active","ping":58},{"user_id":479,"name":"Krazy","steam_id":76561198835502709,"connected_time":4819000000000,"state":"active","ping":73},{"user_id":513,"name":"ramato#SaveTf2","steam_id":76561198028703754,"connected_time":1047000000000,"state":"active","ping":76},{"user_id":422,"name":"stuffedidiot","steam_id":76561199181513019,"connected_time":9418000000000,"state":"active","ping":118},{"user_id":514,"name":"Vladimir Pootis Spencer here","steam_id":76561198805567646,"connected_time":1042000000000,"state":"active","ping":120},{"user_id":498,"name":"DeckofDragons","steam_id":76561198057398213,"connected_time":2388000000000,"state":"active","ping":54},{"user_id":526,"name":"Sir Galahad","steam_id":76561198113682787,"connected_time":172000000000,"state":"active","ping":116},{"user_id":491,"name":"Harbor Seal","steam_id":76561198162631724,"connected_time":3526000000000,"state":"active","ping":85},{"user_id":496,"name":"‚ú™ TedBear2142 ‚ú™","steam_id":76561198006481210,"connected_time":2415000000000,"state":"active","ping":85},{"user_id":516,"name":"Just Juanito","steam_id":76561198241446874,"connected_time":940000000000,"state":"active","ping":81},{"user_id":517,"name":"Zebulon","steam_id":76561198025719753,"connected_time":904000000000,"state":"active","ping":90},{"user_id":500,"name":"zpalmtree","steam_id":76561198134307620,"connected_time":2375000000000,"state":"active","ping":76},{"user_id":507,"name":"Mufalito","steam_id":76561198951889482,"connected_time":1902000000000,"state":"active","ping":148},{"user_id":397,"name":"Certified Hood Classic","steam_id":76561199086159354,"connected_time":10693000000000,"state":"active","ping":49},{"user_id":518,"name":"4TheBrightFuture","steam_id":76561198158196412,"connected_time":897000000000,"state":"active","ping":66},{"user_id":519,"name":"playguy carter","steam_id":76561198080679337,"connected_time":857000000000,"state":"active","ping":108},{"user_id":510,"name":"ùíÜùíóùíäùíçArnoldGamingÔæ†","steam_id":76561198040140247,"connected_time":1571000000000,"state":"active","ping":97},{"user_id":520,"name":"cofferhead","steam_id":76561199191108449,"connected_time":831000000000,"state":"active","ping":76},{"user_id":521,"name":"Meso","steam_id":76561197988971820,"connected_time":801000000000,"state":"active","ping":51},{"user_id":448,"name":"lobster","steam_id":76561198147417707,"connected_time":7081000000000,"state":"active","ping":75},{"user_id":509,"name":"for the king","steam_id":76561197973488858,"connected_time":1595000000000,"state":"active","ping":74},{"user_id":523,"name":"chief","steam_id":76561198012274834,"connected_time":380000000000,"state":"active","ping":56},{"user_id":495,"name":"Squiggle","steam_id":76561198257197535,"connected_time":3008000000000,"state":"active","ping":70},{"user_id":522,"name":"zquidy","steam_id":76561198247637970,"connected_time":794000000000,"state":"active","ping":71}]},{"server_id":404,"name":"Uncletopia | Dallas | 3 | All Maps","name_short":"dal-3","host":"dal-1.us.uncletopia.com","port":27035,"enabled":true,"region":"us-central","cc":"us","latitude":32.779167,"longitude":-96.80889,"reserved":0,"last_update":"0001-01-01T00:00:00Z","name_a2s":"Uncletopia | Dallas | 3 | All Maps","protocol":17,"map":"cp_snakewater_final1","folder":"tf","game":"Team Fortress","app_id":440,"player_count":23,"max_players":24,"Bots":0,"server_type":"Dedicated","server_os":"Linux","password":true,"vac":true,"version":"7961495","steam_id":85568392924515219,"keywords":["cp","nocrits","nodmgspread","uncletopia"],"game_id":440,"stv_port":27036,"stv_name":"Uncletopia | Dallas | 3 | All Maps | STV","players":[{"user_id":417,"name":"orbisg","steam_id":76561198004133638,"connected_time":80000000000,"state":"active","ping":69},{"user_id":415,"name":"overwatch refugee","steam_id":76561199003985688,"connected_time":529000000000,"state":"active","ping":75},{"user_id":410,"name":"1000 Ping","steam_id":76561198098330939,"connected_time":783000000000,"state":"active","ping":97},{"user_id":411,"name":"yesoko","steam_id":76561198072917024,"connected_time":783000000000,"state":"active","ping":89},{"user_id":382,"name":"GUH","steam_id":76561199013202758,"connected_time":2530000000000,"state":"active","ping":59},{"user_id":392,"name":"Byan","steam_id":76561198319090131,"connected_time":2195000000000,"state":"active","ping":60},{"user_id":335,"name":"^0 Flamingsheep667","steam_id":76561198856399690,"connected_time":5417000000000,"state":"active","ping":142},{"user_id":358,"name":"Burny Sanders","steam_id":76561197961879048,"connected_time":3845000000000,"state":"active","ping":45},{"user_id":418,"name":"elcarlos1010","steam_id":76561198201986832,"connected_time":77000000000,"state":"active","ping":47},{"user_id":403,"name":"MexicanTortilla","steam_id":76561198195872719,"connected_time":1179000000000,"state":"active","ping":98},{"user_id":404,"name":"TheNorseman7","steam_id":76561199383087917,"connected_time":1168000000000,"state":"active","ping":60},{"user_id":383,"name":"werecat","steam_id":76561198005091213,"connected_time":2506000000000,"state":"active","ping":91},{"user_id":365,"name":"giant coconut nut","steam_id":76561199174202147,"connected_time":3336000000000,"state":"active","ping":164},{"user_id":377,"name":"ttv/King_Cheese2","steam_id":76561198261430188,"connected_time":2841000000000,"state":"active","ping":62},{"user_id":405,"name":"The Lovers","steam_id":76561198119759695,"connected_time":1149000000000,"state":"active","ping":74},{"user_id":413,"name":"Camohno","steam_id":76561198283519918,"connected_time":761000000000,"state":"active","ping":93},{"user_id":390,"name":"Applesauce (she/her)","steam_id":76561198049642811,"connected_time":2367000000000,"state":"active","ping":60},{"user_id":406,"name":"Matlock","steam_id":76561198012092071,"connected_time":1093000000000,"state":"active","ping":89},{"user_id":416,"name":"Tea Leaf","steam_id":76561198123549027,"connected_time":310000000000,"state":"active","ping":65},{"user_id":414,"name":"Isbog_official","steam_id":76561198261081658,"connected_time":743000000000,"state":"active","ping":76},{"user_id":409,"name":"Sometimes I Dream About Cheese","steam_id":76561198941700660,"connected_time":999000000000,"state":"active","ping":117},{"user_id":375,"name":"MantisToboggan","steam_id":76561197969447887,"connected_time":2914000000000,"state":"active","ping":121},{"user_id":376,"name":"Smithex","steam_id":76561198882520378,"connected_time":2904000000000,"state":"active","ping":65}]},{"server_id":405,"name":"Uncletopia | Dallas | 4 | Community","name_short":"dal-4","host":"dal-1.us.uncletopia.com","port":27045,"enabled":true,"region":"us-central","cc":"us","latitude":32.779167,"longitude":-96.80889,"reserved":0,"last_update":"0001-01-01T00:00:00Z","name_a2s":"Uncletopia | Dallas | 4 | Community","protocol":17,"map":"workshop/koth_synthetic_rc6a.ugc1549817316","folder":"tf","game":"Team Fortress","app_id":440,"player_count":0,"max_players":24,"Bots":0,"server_type":"Dedicated","server_os":"Linux","password":true,"vac":true,"version":"7961495","steam_id":85568392924515220,"keywords":["cp","nocrits","nodmgspread","uncletopia"],"game_id":440,"stv_port":27046,"stv_name":"Uncletopia | Dallas | 4 | Community | STV","players":null},{"server_id":5,"name":"Uncletopia | Frankfurt | 1 | All Maps","name_short":"frk-1","host":"frk-1.de.uncletopia.com","port":27015,"enabled":true,"region":"eu","cc":"de","latitude":50.110924,"longitude":8.682127,"reserved":0,"last_update":"0001-01-01T00:00:00Z","name_a2s":"Uncletopia | Frankfurt | 1 | All Maps","protocol":17,"map":"koth_highpass","folder":"tf","game":"Team Fortress","app_id":440,"player_count":16,"max_players":24,"Bots":0,"server_type":"Dedicated","server_os":"Linux","password":true,"vac":true,"version":"7961495","steam_id":85568392924469989,"keywords":["cp","nocrits","nodmgspread","uncletopia"],"game_id":440,"stv_port":27016,"stv_name":"Uncletopia | Frankfurt | 1 | All Maps | STV","players":[{"user_id":43,"name":"Desudoe","steam_id":76561198283582707,"connected_time":959000000000,"state":"active","ping":45},{"user_id":15,"name":"Nyhde","steam_id":76561198012771416,"connected_time":3838000000000,"state":"active","ping":88},{"user_id":52,"name":"thog","steam_id":76561198219901556,"connected_time":257000000000,"state":"active","ping":92},{"user_id":41,"name":"dank pank","steam_id":76561198995052713,"connected_time":1316000000000,"state":"active","ping":41},{"user_id":54,"name":"Maks","steam_id":76561198315278876,"connected_time":76000000000,"state":"active","ping":54},{"user_id":44,"name":"iIMOFIi","steam_id":76561199000483925,"connected_time":887000000000,"state":"active","ping":161},{"user_id":18,"name":"Enigmus","steam_id":76561197994063627,"connected_time":3529000000000,"state":"active","ping":76},{"user_id":45,"name":"Wiverny","steam_id":76561198061954999,"connected_time":828000000000,"state":"active","ping":44},{"user_id":53,"name":"TheRealBouli","steam_id":76561198033330890,"connected_time":138000000000,"state":"active","ping":74},{"user_id":49,"name":"Doctor Marijuana","steam_id":76561198288289879,"connected_time":531000000000,"state":"active","ping":61},{"user_id":23,"name":"LittleTimWantWin","steam_id":76561198801490317,"connected_time":3135000000000,"state":"active","ping":112},{"user_id":55,"name":"Potato_SimpleDimpleVision","steam_id":76561198386731866,"connected_time":29000000000,"state":"active","ping":200},{"user_id":28,"name":"Patrick Basement","steam_id":76561198956842547,"connected_time":2624000000000,"state":"active","ping":99},{"user_id":31,"name":"Zerfesh","steam_id":76561198117534358,"connected_time":2441000000000,"state":"active","ping":74},{"user_id":34,"name":"shr","steam_id":76561198449852071,"connected_time":2220000000000,"state":"active","ping":56},{"user_id":38,"name":"Raj Goodbastard","steam_id":76561199030081320,"connected_time":2005000000000,"state":"active","ping":136}]},{"server_id":110,"name":"Uncletopia | Frankfurt | 2 | All Maps","name_short":"frk-2","host":"frk-1.de.uncletopia.com","port":27025,"enabled":true,"region":"eu","cc":"de","latitude":50.110924,"longitude":8.682127,"reserved":0,"last_update":"0001-01-01T00:00:00Z","name_a2s":"Uncletopia | Frankfurt | 2 | All Maps","protocol":17,"map":"plr_hightower","folder":"tf","game":"Team Fortress","app_id":440,"player_count":0,"max_players":24,"Bots":0,"server_type":"Dedicated","server_os":"Linux","password":true,"vac":true,"version":"7961495","steam_id":85568392924469990,"keywords":["nocrits","nodmgspread","payload","uncletopia"],"game_id":440,"stv_port":27026,"stv_name":"Uncletopia | Frankfurt | 2 | All Maps | STV","players":null},{"server_id":308,"name":"Uncletopia | Frankfurt | 3 | All Maps","name_short":"frk-3","host":"frk-1.de.uncletopia.com","port":27035,"enabled":true,"region":"eu","cc":"de","latitude":50.110924,"longitude":8.682127,"reserved":0,"last_update":"0001-01-01T00:00:00Z","name_a2s":"Uncletopia | Frankfurt | 3 | All Maps","protocol":17,"map":"cp_metalworks","folder":"tf","game":"Team Fortress","app_id":440,"player_count":0,"max_players":24,"Bots":0,"server_type":"Dedicated","server_os":"Linux","password":true,"vac":true,"version":"7961495","steam_id":85568392924504274,"keywords":["cp","nocrits","nodmgspread","uncletopia"],"game_id":440,"stv_port":27036,"stv_name":"Uncletopia | Frankfurt | 3 | All Maps | STV","players":null},{"server_id":309,"name":"Uncletopia | Frankfurt | 4 | All Maps","name_short":"frk-4","host":"frk-1.de.uncletopia.com","port":27045,"enabled":true,"region":"eu","cc":"de","latitude":50.110924,"longitude":8.682127,"reserved":0,"last_update":"0001-01-01T00:00:00Z","name_a2s":"Uncletopia | Frankfurt | 4 | All Maps","protocol":17,"map":"cp_gorge","folder":"tf","game":"Team Fortress","app_id":440,"player_count":0,"max_players":24,"Bots":0,"server_type":"Dedicated","server_os":"Linux","password":true,"vac":true,"version":"7961495","steam_id":85568392924504275,"keywords":["cp","nocrits","nodmgspread","uncletopia"],"game_id":440,"stv_port":27046,"stv_name":"Uncletopia | Frankfurt | 4 | All Maps | STV","players":null},{"server_id":310,"name":"Uncletopia | Frankfurt | 5 | All Maps","name_short":"frk-5","host":"frk-1.de.uncletopia.com","port":27055,"enabled":true,"region":"eu","cc":"de","latitude":50.110924,"longitude":8.682127,"reserved":0,"last_update":"0001-01-01T00:00:00Z","name_a2s":"Uncletopia | Frankfurt | 5 | All Maps","protocol":17,"map":"cp_mountainlab","folder":"tf","game":"Team Fortress","app_id":440,"player_count":0,"max_players":24,"Bots":0,"server_type":"Dedicated","server_os":"Linux","password":true,"vac":true,"version":"7961495","steam_id":85568392924504277,"keywords":["cp","nocrits","nodmgspread","uncletopia"],"game_id":440,"stv_port":27056,"stv_name":"Uncletopia | Frankfurt | 5 | All Maps | STV","players":null},{"server_id":311,"name":"Uncletopia | Frankfurt | 6 | All Maps","name_short":"frk-6","host":"frk-1.de.uncletopia.com","port":27065,"enabled":true,"region":"eu","cc":"de","latitude":50.110924,"longitude":8.682127,"reserved":0,"last_update":"0001-01-01T00:00:00Z","name_a2s":"Uncletopia | Frankfurt | 6 | All Maps","protocol":17,"map":"cp_coldfront","folder":"tf","game":"Team Fortress","app_id":440,"player_count":0,"max_players":24,"Bots":0,"server_type":"Dedicated","server_os":"Linux","password":true,"vac":true,"version":"7961495","steam_id":85568392924504278,"keywords":["cp","nocrits","nodmgspread","uncletopia"],"game_id":440,"stv_port":27066,"stv_name":"Uncletopia | Frankfurt | 6 | All Maps | STV","players":null},{"server_id":23,"name":"Uncletopia | Frankfurt | 7 | Stopwatch","name_short":"frk-7","host":"frk-1.de.uncletopia.com","port":27075,"enabled":true,"region":"eu","cc":"de","latitude":50.110924,"longitude":8.682127,"reserved":0,"last_update":"0001-01-01T00:00:00Z","name_a2s":"Uncletopia | Frankfurt | 7 | Stopwatch","protocol":17,"map":"cp_sunshine","folder":"tf","game":"Team Fortress","app_id":440,"player_count":0,"max_players":24,"Bots":0,"server_type":"Dedicated","server_os":"Linux","password":true,"vac":true,"version":"7961495","steam_id":85568392924742827,"keywords":["cp","nocrits","nodmgspread","uncletopia"],"game_id":440,"stv_port":27076,"stv_name":"Uncletopia | Frankfurt | 7 | Stopwatch | STV","players":null},{"server_id":24,"name":"Uncletopia | Frankfurt | 8 | Community","name_short":"frk-8","host":"frk-1.de.uncletopia.com","port":27085,"enabled":true,"region":"eu","cc":"de","latitude":50.110924,"longitude":8.682127,"reserved":0,"last_update":"0001-01-01T00:00:00Z","name_a2s":"Uncletopia | Frankfurt | 8 | Community","protocol":17,"map":"workshop/pl_boundary_final1.ugc456799153","folder":"tf","game":"Team Fortress","app_id":440,"player_count":0,"max_players":24,"Bots":0,"server_type":"Dedicated","server_os":"Linux","password":true,"vac":true,"version":"7961495","steam_id":85568392924742828,"keywords":["nocrits","nodmgspread","payload","uncletopia"],"game_id":440,"stv_port":27086,"stv_name":"Uncletopia | Frankfurt | 8 | Community | STV","players":null},{"server_id":202,"name":"Uncletopia | Hong Kong | 1 | All Maps","name_short":"hgk-1","host":"hgk-1.hk.uncletopia.com","port":27015,"enabled":true,"region":"asia","cc":"hk","latitude":22.302711,"longitude":114.177216,"reserved":0,"last_update":"0001-01-01T00:00:00Z","name_a2s":"Uncletopia | Hong Kong | 1 | All Maps","protocol":17,"map":"koth_highpass","folder":"tf","game":"Team Fortress","app_id":440,"player_count":2,"max_players":24,"Bots":0,"server_type":"Dedicated","server_os":"Linux","password":true,"vac":true,"version":"7961495","steam_id":85568392924494504,"keywords":["cp","nocrits","nodmgspread","uncletopia"],"game_id":440,"stv_port":27016,"stv_name":"Uncletopia | Hong Kong | 1 | All Maps | STV","players":[{"user_id":22,"name":"chim ƒëau gi√∫p v·ªõi","steam_id":76561199420453519,"connected_time":374000000000,"state":"active","ping":80},{"user_id":23,"name":"Lady D.","steam_id":76561199225360457,"connected_time":198000000000,"state":"active","ping":45}]},{"server_id":1,"name":"Uncletopia | Los Angeles | 1 | All Maps","name_short":"lax-1","host":"lax-1.us.uncletopia.com","port":27015,"enabled":true,"region":"us-west","cc":"us","latitude":33.94279,"longitude":-118.41004,"reserved":0,"last_update":"0001-01-01T00:00:00Z","name_a2s":"Uncletopia | Los Angeles | 1 | All Maps","protocol":17,"map":"koth_harvest_final","folder":"tf","game":"Team Fortress","app_id":440,"player_count":24,"max_players":24,"Bots":0,"server_type":"Dedicated","server_os":"Linux","password":true,"vac":true,"version":"7961495","steam_id":85568392924469991,"keywords":["cp","nocrits","nodmgspread","uncletopia"],"game_id":440,"stv_port":27016,"stv_name":"Uncletopia | Los Angeles | 1 | All Maps | STV","players":[{"user_id":215,"name":"runescape legend","steam_id":76561198077791373,"connected_time":6874000000000,"state":"active","ping":97},{"user_id":235,"name":"social anxiety","steam_id":76561198308071306,"connected_time":4145000000000,"state":"active","ping":45},{"user_id":258,"name":"madeline (radio)","steam_id":76561198844648825,"connected_time":2513000000000,"state":"active","ping":76},{"user_id":72,"name":"Mystic man of potatoe","steam_id":76561198027267207,"connected_time":15753000000000,"state":"active","ping":51},{"user_id":265,"name":"shmeushmeu ttv","steam_id":76561198168064595,"connected_time":1626000000000,"state":"active","ping":49},{"user_id":272,"name":"usedhalfcart","steam_id":76561198072621852,"connected_time":749000000000,"state":"active","ping":67},{"user_id":230,"name":"Jade","steam_id":76561198092408457,"connected_time":4617000000000,"state":"active","ping":71},{"user_id":245,"name":"Yoyos","steam_id":76561198061035695,"connected_time":3203000000000,"state":"active","ping":45},{"user_id":271,"name":"Clagger","steam_id":76561198066701092,"connected_time":806000000000,"state":"active","ping":60},{"user_id":266,"name":"0","steam_id":76561198046065237,"connected_time":1463000000000,"state":"active","ping":114},{"user_id":259,"name":"fathead","steam_id":76561198150155615,"connected_time":2016000000000,"state":"active","ping":73},{"user_id":267,"name":"MasterGeek.MX","steam_id":76561198063355220,"connected_time":1459000000000,"state":"active","ping":109},{"user_id":212,"name":"ThePalmTopSushi","steam_id":76561198847076153,"connected_time":7300000000000,"state":"active","ping":33},{"user_id":269,"name":"Bolbi","steam_id":76561198051811597,"connected_time":989000000000,"state":"active","ping":56},{"user_id":250,"name":"hapa demon punk","steam_id":76561198308883028,"connected_time":3032000000000,"state":"active","ping":46},{"user_id":198,"name":"Buswolley","steam_id":76561197995205571,"connected_time":8176000000000,"state":"active","ping":44},{"user_id":251,"name":"Maid 'n' China","steam_id":76561198423392976,"connected_time":3024000000000,"state":"active","ping":47},{"user_id":254,"name":"Primelotus","steam_id":76561198086618284,"connected_time":2810000000000,"state":"active","ping":56},{"user_id":237,"name":"Syrup","steam_id":76561198055850531,"connected_time":4074000000000,"state":"active","ping":39},{"user_id":268,"name":"coco","steam_id":76561198252066462,"connected_time":1459000000000,"state":"active","ping":38},{"user_id":228,"name":"lordstinkdemon666","steam_id":76561198073914311,"connected_time":4649000000000,"state":"active","ping":45},{"user_id":224,"name":"kiwi","steam_id":76561198052177917,"connected_time":5478000000000,"state":"active","ping":59},{"user_id":211,"name":"Mr. Noodle","steam_id":76561198025280658,"connected_time":7400000000000,"state":"active","ping":53},{"user_id":238,"name":"wugmup","steam_id":76561199096287734,"connected_time":4060000000000,"state":"active","ping":54}]},{"server_id":112,"name":"Uncletopia | Los Angeles | 2 | All Maps","name_short":"lax-2","host":"lax-1.us.uncletopia.com","port":27025,"enabled":true,"region":"us-west","cc":"us","latitude":33.94279,"longitude":-118.41004,"reserved":0,"last_update":"0001-01-01T00:00:00Z","name_a2s":"Uncletopia | Los Angeles | 2 | All Maps","protocol":17,"map":"pl_barnblitz","folder":"tf","game":"Team Fortress","app_id":440,"player_count":18,"max_players":24,"Bots":0,"server_type":"Dedicated","server_os":"Linux","password":true,"vac":true,"version":"7961495","steam_id":85568392924469992,"keywords":["nocrits","nodmgspread","payload","uncletopia"],"game_id":440,"stv_port":27026,"stv_name":"Uncletopia | Los Angeles | 2 | All Maps | STV","players":[{"user_id":178,"name":"Zana","steam_id":76561198075908156,"connected_time":3561000000000,"state":"connecting","ping":74},{"user_id":205,"name":"Bartholomew Avery Bernald Ediso","steam_id":76561198156617970,"connected_time":1268000000000,"state":"connecting","ping":43},{"user_id":213,"name":"Satori Komeiji","steam_id":76561198158211423,"connected_time":950000000000,"state":"connecting","ping":47},{"user_id":163,"name":"Ethanol Buttchugger","steam_id":76561199127590316,"connected_time":3983000000000,"state":"connecting","ping":51},{"user_id":191,"name":"Skip Hop Doo Bop","steam_id":76561199161571849,"connected_time":2597000000000,"state":"connecting","ping":69},{"user_id":206,"name":"rattyrat","steam_id":76561198233994900,"connected_time":1235000000000,"state":"connecting","ping":66},{"user_id":220,"name":"GlossyBat","steam_id":76561198929313869,"connected_time":32000000000,"state":"connecting","ping":63},{"user_id":192,"name":"DarthVader","steam_id":76561199061259359,"connected_time":2596000000000,"state":"connecting","ping":113},{"user_id":207,"name":"milk then cereal","steam_id":76561198047168548,"connected_time":1211000000000,"state":"connecting","ping":59},{"user_id":208,"name":"Koblfricker","steam_id":76561198069606362,"connected_time":1207000000000,"state":"connecting","ping":77},{"user_id":184,"name":"rock gaming","steam_id":76561199402868311,"connected_time":3300000000000,"state":"connecting","ping":40},{"user_id":194,"name":"Secret Tunnel","steam_id":76561198272403112,"connected_time":2573000000000,"state":"connecting","ping":75},{"user_id":216,"name":"katiedidsings","steam_id":76561198090433209,"connected_time":462000000000,"state":"connecting","ping":138},{"user_id":219,"name":"Brasinklepagrinkle","steam_id":76561198191431427,"connected_time":113000000000,"state":"connecting","ping":56},{"user_id":221,"name":"Igrium","steam_id":76561198119549811,"connected_time":27000000000,"state":"connecting","ping":72},{"user_id":215,"name":"Grimm_Reaper164","steam_id":76561198848333297,"connected_time":841000000000,"state":"connecting","ping":62},{"user_id":185,"name":"what a fukkin","steam_id":76561198298442983,"connected_time":3258000000000,"state":"connecting","ping":86},{"user_id":211,"name":"dumbeeon","steam_id":76561198059351874,"connected_time":1144000000000,"state":"connecting","ping":59}]},{"server_id":324,"name":"Uncletopia | Los Angeles | 3 | All Maps","name_short":"lax-3","host":"lax-1.us.uncletopia.com","port":27035,"enabled":true,"region":"us-west","cc":"us","latitude":33.94279,"longitude":-118.41004,"reserved":0,"last_update":"0001-01-01T00:00:00Z","name_a2s":"Uncletopia | Los Angeles | 3 | All Maps","protocol":17,"map":"pl_snowycoast","folder":"tf","game":"Team Fortress","app_id":440,"player_count":0,"max_players":24,"Bots":0,"server_type":"Dedicated","server_os":"Linux","password":true,"vac":true,"version":"7961495","steam_id":85568392924510198,"keywords":["nocrits","nodmgspread","payload","uncletopia"],"game_id":440,"stv_port":27036,"stv_name":"Uncletopia | Los Angeles | 3 | All Maps | STV","players":null},{"server_id":25,"name":"Uncletopia | Los Angeles | 4 | Stopwatch","name_short":"lax-4","host":"lax-1.us.uncletopia.com","port":27045,"enabled":true,"region":"us-west","cc":"us","latitude":33.94279,"longitude":-118.41004,"reserved":0,"last_update":"0001-01-01T00:00:00Z","name_a2s":"Uncletopia | Los Angeles | 4 | Stopwatch","protocol":17,"map":"workshop/koth_clearcut_b15.ugc2107050255","folder":"tf","game":"Team Fortress","app_id":440,"player_count":0,"max_players":24,"Bots":0,"server_type":"Dedicated","server_os":"Linux","password":true,"vac":true,"version":"7961495","steam_id":85568392924510199,"keywords":["cp","nocrits","nodmgspread","uncletopia"],"game_id":440,"stv_port":27046,"stv_name":"Uncletopia | Los Angeles | 4 | Stopwatch | STV","players":null},{"server_id":11,"name":"Uncletopia | London | 1 | All Maps","name_short":"lon-1","host":"lon-1.uk.uncletopia.com","port":27015,"enabled":true,"region":"eu","cc":"gb","latitude":51.509865,"longitude":-0.118092,"reserved":0,"last_update":"0001-01-01T00:00:00Z","name_a2s":"Uncletopia | London | 1 | All Maps","protocol":17,"map":"cp_powerhouse","folder":"tf","game":"Team Fortress","app_id":440,"player_count":0,"max_players":24,"Bots":0,"server_type":"Dedicated","server_os":"Linux","password":true,"vac":true,"version":"7961495","steam_id":85568392924367362,"keywords":["cp","nocrits","nodmgspread","uncletopia"],"game_id":440,"stv_port":27016,"stv_name":"Uncletopia | London | 1 | All Maps | STV","players":null},{"server_id":114,"name":"Uncletopia | London | 2 | All Maps","name_short":"lon-2","host":"lon-1.uk.uncletopia.com","port":27025,"enabled":true,"region":"eu","cc":"gb","latitude":51.509865,"longitude":-0.118092,"reserved":0,"last_update":"0001-01-01T00:00:00Z","name_a2s":"Uncletopia | London | 2 | All Maps","protocol":17,"map":"pl_snowycoast","folder":"tf","game":"Team Fortress","app_id":440,"player_count":0,"max_players":24,"Bots":0,"server_type":"Dedicated","server_os":"Linux","password":true,"vac":true,"version":"7961495","steam_id":85568392924470941,"keywords":["nocrits","nodmgspread","payload","uncletopia"],"game_id":440,"stv_port":27026,"stv_name":"Uncletopia | London | 2 | All Maps | STV","players":null},{"server_id":320,"name":"Uncletopia | London | 3 | All Maps","name_short":"lon-3","host":"lon-1.uk.uncletopia.com","port":27035,"enabled":true,"region":"eu","cc":"gb","latitude":51.509865,"longitude":-0.118092,"reserved":0,"last_update":"0001-01-01T00:00:00Z","name_a2s":"Uncletopia | London | 3 | All Maps","protocol":17,"map":"koth_lakeside_final","folder":"tf","game":"Team Fortress","app_id":440,"player_count":0,"max_players":24,"Bots":0,"server_type":"Dedicated","server_os":"Linux","password":true,"vac":true,"version":"7961495","steam_id":85568392924510192,"keywords":["cp","nocrits","nodmgspread","uncletopia"],"game_id":440,"stv_port":27036,"stv_name":"Uncletopia | London | 3 | All Maps | STV","players":null},{"server_id":321,"name":"Uncletopia | London | 4 | All Maps","name_short":"lon-4","host":"lon-1.uk.uncletopia.com","port":27045,"enabled":true,"region":"eu","cc":"gb","latitude":51.509865,"longitude":-0.118092,"reserved":0,"last_update":"0001-01-01T00:00:00Z","name_a2s":"Uncletopia | London | 4 | All Maps","protocol":17,"map":"pl_badwater","folder":"tf","game":"Team Fortress","app_id":440,"player_count":0,"max_players":24,"Bots":0,"server_type":"Dedicated","server_os":"Linux","password":true,"vac":true,"version":"7961495","steam_id":85568392924510193,"keywords":["nocrits","nodmgspread","payload","uncletopia"],"game_id":440,"stv_port":27046,"stv_name":"Uncletopia | London | 4 | All Maps | STV","players":null},{"server_id":21,"name":"Uncletopia | London | 5 | All Maps","name_short":"lon-5","host":"lon-1.uk.uncletopia.com","port":27055,"enabled":true,"region":"eu","cc":"gb","latitude":51.509865,"longitude":-0.118092,"reserved":0,"last_update":"0001-01-01T00:00:00Z","name_a2s":"Uncletopia | London | 5 | All Maps","protocol":17,"map":"koth_lazarus","folder":"tf","game":"Team Fortress","app_id":440,"player_count":0,"max_players":24,"Bots":0,"server_type":"Dedicated","server_os":"Linux","password":true,"vac":true,"version":"7961495","steam_id":85568392924742829,"keywords":["cp","nocrits","nodmgspread","uncletopia"],"game_id":440,"stv_port":27056,"stv_name":"Uncletopia | London | 5 | All Maps | STV","players":null},{"server_id":22,"name":"Uncletopia | London | 6 | All Maps","name_short":"lon-6","host":"lon-1.uk.uncletopia.com","port":27065,"enabled":true,"region":"eu","cc":"gb","latitude":51.509865,"longitude":-0.118092,"reserved":0,"last_update":"0001-01-01T00:00:00Z","name_a2s":"Uncletopia | London | 6 | All Maps","protocol":17,"map":"cp_snakewater_final1","folder":"tf","game":"Team Fortress","app_id":440,"player_count":0,"max_players":24,"Bots":0,"server_type":"Dedicated","server_os":"Linux","password":true,"vac":true,"version":"7961495","steam_id":85568392924742830,"keywords":["cp","nocrits","nodmgspread","uncletopia"],"game_id":440,"stv_port":27066,"stv_name":"Uncletopia | London | 6 | All Maps | STV","players":null},{"server_id":40,"name":"Uncletopia | London | 7 | Stopwatch","name_short":"lon-7","host":"lon-1.uk.uncletopia.com","port":27075,"enabled":true,"region":"eu","cc":"gb","latitude":51.509865,"longitude":-0.118092,"reserved":0,"last_update":"0001-01-01T00:00:00Z","name_a2s":"Uncletopia | London | 7 | Stopwatch","protocol":17,"map":"workshop/pl_badwater_pro_v12.ugc2142942074","folder":"tf","game":"Team Fortress","app_id":440,"player_count":0,"max_players":24,"Bots":0,"server_type":"Dedicated","server_os":"Linux","password":true,"vac":true,"version":"7961495","steam_id":85568392924964314,"keywords":["nocrits","nodmgspread","payload","uncletopia"],"game_id":440,"stv_port":27076,"stv_name":"Uncletopia | London | 7 | Stopwatch | STV","players":null},{"server_id":41,"name":"Uncletopia | London | 8 | Community","name_short":"lon-8","host":"lon-1.uk.uncletopia.com","port":27085,"enabled":true,"region":"eu","cc":"gb","latitude":51.509865,"longitude":-0.118092,"reserved":0,"last_update":"0001-01-01T00:00:00Z","name_a2s":"Uncletopia | London | 8 | Community","protocol":17,"map":"workshop/cp_villa_b19.ugc2113052569","folder":"tf","game":"Team Fortress","app_id":440,"player_count":0,"max_players":24,"Bots":0,"server_type":"Dedicated","server_os":"Linux","password":true,"vac":true,"version":"7961495","steam_id":85568392924964315,"keywords":["cp","nocrits","nodmgspread","uncletopia"],"game_id":440,"stv_port":27086,"stv_name":"Uncletopia | London | 8 | Community | STV","players":null},{"server_id":300,"name":"Uncletopia | Montr√©al | 1 | One Thousand Uncles","name_short":"mtl-1","host":"mtl-1.ca.uncletopia.com","port":27015,"enabled":true,"region":"us-east","cc":"ca","latitude":45.50889,"longitude":-73.56167,"reserved":0,"last_update":"0001-01-01T00:00:00Z","name_a2s":"Uncletopia | Montr√©al | 1 | One Thousand Uncles","protocol":17,"map":"pl_goldrush","folder":"tf","game":"Team Fortress","app_id":440,"player_count":0,"max_players":32,"Bots":0,"server_type":"Dedicated","server_os":"Linux","password":true,"vac":true,"version":"7961495","steam_id":85568392924500087,"keywords":["alltalk","danepve","increased_maxplayers","norespawntime","payload","uncletopia"],"game_id":440,"stv_port":0,"stv_name":"","players":null},{"server_id":301,"name":"Uncletopia | Montr√©al | 2 | One Thousand Uncles","name_short":"mtl-2","host":"mtl-1.ca.uncletopia.com","port":27025,"enabled":true,"region":"us-east","cc":"ca","latitude":45.50889,"longitude":-73.56167,"reserved":0,"last_update":"0001-01-01T00:00:00Z","name_a2s":"Uncletopia | Montr√©al | 2 | One Thousand Uncles","protocol":17,"map":"pl_badwater","folder":"tf","game":"Team Fortress","app_id":440,"player_count":0,"max_players":32,"Bots":0,"server_type":"Dedicated","server_os":"Linux","password":true,"vac":true,"version":"7961495","steam_id":85568392924500088,"keywords":["alltalk","danepve","increased_maxplayers","norespawntime","payload","uncletopia"],"game_id":440,"stv_port":0,"stv_name":"","players":null},{"server_id":302,"name":"Uncletopia | Montr√©al | 3 | One Thousand Uncles","name_short":"mtl-3","host":"mtl-1.ca.uncletopia.com","port":27035,"enabled":true,"region":"us-east","cc":"ca","latitude":45.50889,"longitude":-73.56167,"reserved":0,"last_update":"0001-01-01T00:00:00Z","name_a2s":"Uncletopia | Montr√©al | 3 | One Thousand Uncles","protocol":17,"map":"pl_upward","folder":"tf","game":"Team Fortress","app_id":440,"player_count":0,"max_players":32,"Bots":0,"server_type":"Dedicated","server_os":"Linux","password":true,"vac":true,"version":"7961495","steam_id":85568392924500089,"keywords":["alltalk","danepve","increased_maxplayers","norespawntime","payload","uncletopia"],"game_id":440,"stv_port":0,"stv_name":"","players":null},{"server_id":13,"name":"Uncletopia | New York City | 1 | All Maps","name_short":"nyc-1","host":"nyc-1.us.uncletopia.com","port":27015,"enabled":true,"region":"us-east","cc":"us","latitude":40.73061,"longitude":-73.93524,"reserved":0,"last_update":"0001-01-01T00:00:00Z","name_a2s":"Uncletopia | New York City | 1 | All Maps","protocol":17,"map":"koth_viaduct","folder":"tf","game":"Team Fortress","app_id":440,"player_count":0,"max_players":24,"Bots":0,"server_type":"Dedicated","server_os":"Linux","password":true,"vac":true,"version":"7961495","steam_id":85568392924469993,"keywords":["cp","nocrits","nodmgspread","uncletopia"],"game_id":440,"stv_port":27016,"stv_name":"Uncletopia | New York City | 1 | All Maps | STV","players":null},{"server_id":14,"name":"Uncletopia | New York City | 2 | All Maps","name_short":"nyc-2","host":"nyc-1.us.uncletopia.com","port":27025,"enabled":true,"region":"us-east","cc":"us","latitude":40.73061,"longitude":-73.93524,"reserved":0,"last_update":"0001-01-01T00:00:00Z","name_a2s":"Uncletopia | New York City | 2 | All Maps","protocol":17,"map":"pl_pier","folder":"tf","game":"Team Fortress","app_id":440,"player_count":0,"max_players":24,"Bots":0,"server_type":"Dedicated","server_os":"Linux","password":true,"vac":true,"version":"7961495","steam_id":85568392924469994,"keywords":["nocrits","nodmgspread","payload","uncletopia"],"game_id":440,"stv_port":27026,"stv_name":"Uncletopia | New York City | 2 | All Maps | STV","players":null},{"server_id":15,"name":"Uncletopia | New York City | 3 | Stopwatch","name_short":"nyc-3","host":"nyc-1.us.uncletopia.com","port":27035,"enabled":true,"region":"us-east","cc":"us","latitude":40.73061,"longitude":-73.93524,"reserved":0,"last_update":"0001-01-01T00:00:00Z","name_a2s":"Uncletopia | New York City | 3 | Stopwatch","protocol":17,"map":"workshop/koth_clearcut_b15.ugc2107050255","folder":"tf","game":"Team Fortress","app_id":440,"player_count":0,"max_players":24,"Bots":0,"server_type":"Dedicated","server_os":"Linux","password":true,"vac":true,"version":"7961495","steam_id":85568392924742820,"keywords":["cp","nocrits","nodmgspread","uncletopia"],"game_id":440,"stv_port":27036,"stv_name":"Uncletopia | New York City | 3 | Stopwatch | STV","players":null},{"server_id":16,"name":"Uncletopia | New York City | 4 | Community","name_short":"nyc-4","host":"nyc-1.us.uncletopia.com","port":27045,"enabled":true,"region":"us-east","cc":"us","latitude":40.73061,"longitude":-73.93524,"reserved":0,"last_update":"0001-01-01T00:00:00Z","name_a2s":"Uncletopia | New York City | 4 | Community","protocol":17,"map":"workshop/cp_hazyfort_rc6.ugc1365963729","folder":"tf","game":"Team Fortress","app_id":440,"player_count":0,"max_players":24,"Bots":0,"server_type":"Dedicated","server_os":"Linux","password":true,"vac":true,"version":"7961495","steam_id":85568392924742821,"keywords":["cp","nocrits","nodmgspread","uncletopia"],"game_id":440,"stv_port":27046,"stv_name":"Uncletopia | New York City | 4 | Community | STV","players":null},{"server_id":142,"name":"Uncletopia | S√£o Paulo | 1 | All Maps","name_short":"sao-1","host":"sao-1.br.uncletopia.com","port":27015,"enabled":true,"region":"sa","cc":"br","latitude":-23.533773,"longitude":-46.62529,"reserved":0,"last_update":"0001-01-01T00:00:00Z","name_a2s":"Uncletopia | S√£o Paulo | 1 | All Maps","protocol":17,"map":"koth_highpass","folder":"tf","game":"Team Fortress","app_id":440,"player_count":0,"max_players":24,"Bots":0,"server_type":"Dedicated","server_os":"Linux","password":true,"vac":true,"version":"7961495","steam_id":85568392924469996,"keywords":["cp","nocrits","nodmgspread","uncletopia"],"game_id":440,"stv_port":27016,"stv_name":"Uncletopia | S√£o Paulo | 1 | All Maps | STV","players":null},{"server_id":143,"name":"Uncletopia | S√£o Paulo | 2 | Community","name_short":"sao-2","host":"sao-2.br.uncletopia.com","port":27015,"enabled":true,"region":"sa","cc":"br","latitude":-23.533773,"longitude":-46.62529,"reserved":0,"last_update":"0001-01-01T00:00:00Z","name_a2s":"Uncletopia | S√£o Paulo | 2 | Community","protocol":17,"map":"workshop/cp_croissant_final.ugc458840209","folder":"tf","game":"Team Fortress","app_id":440,"player_count":0,"max_players":24,"Bots":0,"server_type":"Dedicated","server_os":"Linux","password":true,"vac":true,"version":"7961495","steam_id":85568392924485349,"keywords":["cp","nocrits","nodmgspread","uncletopia"],"game_id":440,"stv_port":27016,"stv_name":"Uncletopia | S√£o Paulo | 2 | Community | STV","players":null},{"server_id":7,"name":"Uncletopia | Seattle | 1 | All Maps","name_short":"sea-1","host":"sea-1.us.uncletopia.com","port":27015,"enabled":true,"region":"us-west","cc":"us","latitude":47.608013,"longitude":-122.33517,"reserved":0,"last_update":"0001-01-01T00:00:00Z","name_a2s":"Uncletopia | Seattle | 1 | All Maps","protocol":17,"map":"pl_badwater","folder":"tf","game":"Team Fortress","app_id":440,"player_count":24,"max_players":24,"Bots":0,"server_type":"Dedicated","server_os":"Linux","password":true,"vac":true,"version":"7961495","steam_id":85568392924469997,"keywords":["nocrits","nodmgspread","payload","uncletopia"],"game_id":440,"stv_port":27016,"stv_name":"Uncletopia | Seattle | 1 | All Maps | STV","players":[{"user_id":648,"name":"goth witch","steam_id":76561198069605283,"connected_time":519000000000,"state":"active","ping":77},{"user_id":646,"name":"SkobeBeef","steam_id":76561198078638948,"connected_time":577000000000,"state":"active","ping":60},{"user_id":591,"name":"PvZ Enthusiast","steam_id":76561199089562026,"connected_time":6338000000000,"state":"active","ping":41},{"user_id":635,"name":"ImmuneToPeas","steam_id":76561198342411594,"connected_time":1288000000000,"state":"active","ping":55},{"user_id":642,"name":"Thexx [she/they]","steam_id":76561198113823050,"connected_time":684000000000,"state":"active","ping":45},{"user_id":641,"name":"Greenwood RN","steam_id":76561198088641060,"connected_time":687000000000,"state":"active","ping":39},{"user_id":649,"name":"Spy Main","steam_id":76561198154715380,"connected_time":512000000000,"state":"active","ping":75},{"user_id":647,"name":"Soggy Zogg","steam_id":76561198836316052,"connected_time":571000000000,"state":"active","ping":75},{"user_id":575,"name":"ghor","steam_id":76561197994547132,"connected_time":7530000000000,"state":"active","ping":31},{"user_id":650,"name":"ryann","steam_id":76561198042996639,"connected_time":510000000000,"state":"active","ping":124},{"user_id":619,"name":"soup","steam_id":76561198043209046,"connected_time":3267000000000,"state":"active","ping":67},{"user_id":651,"name":"Ahzain","steam_id":76561198035894333,"connected_time":510000000000,"state":"active","ping":73},{"user_id":653,"name":"Cinnamon Crumb Donut.gaming","steam_id":76561198131011594,"connected_time":471000000000,"state":"active","ping":85},{"user_id":667,"name":"Artic_Ryuu","steam_id":76561198182194918,"connected_time":67000000000,"state":"active","ping":75},{"user_id":654,"name":"devamar","steam_id":76561198069115467,"connected_time":471000000000,"state":"active","ping":74},{"user_id":656,"name":"Skeptical","steam_id":76561198038261789,"connected_time":415000000000,"state":"active","ping":45},{"user_id":657,"name":"t3ddy","steam_id":76561198103515747,"connected_time":407000000000,"state":"active","ping":61},{"user_id":631,"name":"Luna","steam_id":76561198082944789,"connected_time":2001000000000,"state":"active","ping":69},{"user_id":658,"name":"Muck","steam_id":76561198194515858,"connected_time":382000000000,"state":"active","ping":47},{"user_id":659,"name":"Rather Sad","steam_id":76561198180968723,"connected_time":377000000000,"state":"active","ping":35},{"user_id":660,"name":"The dreaded jar","steam_id":76561199087010656,"connected_time":376000000000,"state":"active","ping":46},{"user_id":661,"name":"Yoshimelon","steam_id":76561198253054325,"connected_time":312000000000,"state":"active","ping":93},{"user_id":664,"name":"UV","steam_id":76561198083936918,"connected_time":225000000000,"state":"active","ping":49},{"user_id":663,"name":"Punished Jeff #NeverSimpAgain","steam_id":76561198304252584,"connected_time":299000000000,"state":"active","ping":74}]},{"server_id":119,"name":"Uncletopia | Seattle | 2 | All Maps","name_short":"sea-2","host":"sea-1.us.uncletopia.com","port":27025,"enabled":true,"region":"us-west","cc":"us","latitude":47.608013,"longitude":-122.33517,"reserved":0,"last_update":"0001-01-01T00:00:00Z","name_a2s":"Uncletopia | Seattle | 2 | All Maps","protocol":17,"map":"cp_mountainlab","folder":"tf","game":"Team Fortress","app_id":440,"player_count":23,"max_players":24,"Bots":0,"server_type":"Dedicated","server_os":"Linux","password":true,"vac":true,"version":"7961495","steam_id":85568392924469998,"keywords":["cp","nocrits","nodmgspread","uncletopia"],"game_id":440,"stv_port":27026,"stv_name":"Uncletopia | Seattle | 2 | All Maps | STV","players":[{"user_id":499,"name":"Shazzy","steam_id":76561198145460523,"connected_time":2640000000000,"state":"active","ping":43},{"user_id":532,"name":"Creature","steam_id":76561198194585781,"connected_time":8000000000,"state":"spawning","ping":76},{"user_id":529,"name":"Hawksgamer","steam_id":76561198152405941,"connected_time":180000000000,"state":"active","ping":46},{"user_id":515,"name":"crouching tiger heavy","steam_id":76561198121767390,"connected_time":1494000000000,"state":"active","ping":41},{"user_id":454,"name":"ed","steam_id":76561198080475712,"connected_time":7562000000000,"state":"active","ping":64},{"user_id":509,"name":"gorlab","steam_id":76561198025089694,"connected_time":1886000000000,"state":"active","ping":62},{"user_id":511,"name":"allahsdroptop (Bag/Chaser)","steam_id":76561198133195238,"connected_time":1821000000000,"state":"active","ping":75},{"user_id":517,"name":"tunaa","steam_id":76561198362763159,"connected_time":1160000000000,"state":"active","ping":75},{"user_id":525,"name":"S Q U I S H E  T H A T  C A T","steam_id":76561198293865429,"connected_time":765000000000,"state":"active","ping":31},{"user_id":518,"name":"epsilon","steam_id":76561198025337276,"connected_time":1105000000000,"state":"active","ping":89},{"user_id":530,"name":"resh","steam_id":76561198239598834,"connected_time":68000000000,"state":"active","ping":132},{"user_id":450,"name":"thunderous prophet","steam_id":76561198131166135,"connected_time":7599000000000,"state":"active","ping":35},{"user_id":522,"name":"soltuno","steam_id":76561198074430565,"connected_time":967000000000,"state":"active","ping":82},{"user_id":484,"name":"Brathic","steam_id":76561198966232163,"connected_time":4193000000000,"state":"active","ping":75},{"user_id":531,"name":"I_Want_A_Soft_Taco","steam_id":76561198225561352,"connected_time":67000000000,"state":"active","ping":89},{"user_id":485,"name":"Cheezbeargur","steam_id":76561198164702899,"connected_time":4185000000000,"state":"active","ping":61},{"user_id":465,"name":"Sweets","steam_id":76561198998446307,"connected_time":5998000000000,"state":"active","ping":60},{"user_id":459,"name":"Gm_Sweet","steam_id":76561199445091548,"connected_time":6672000000000,"state":"active","ping":46},{"user_id":482,"name":"Tea Enthusiast","steam_id":76561198185583925,"connected_time":4834000000000,"state":"active","ping":86},{"user_id":463,"name":"rat gets the cheese","steam_id":76561198031234032,"connected_time":6051000000000,"state":"active","ping":96},{"user_id":497,"name":"smeasly","steam_id":76561198028718812,"connected_time":3113000000000,"state":"active","ping":30},{"user_id":528,"name":"PTR","steam_id":76561198237253772,"connected_time":570000000000,"state":"active","ping":102}]},{"server_id":406,"name":"Uncletopia | Seattle | 3 | Stopwatch","name_short":"sea-3","host":"sea-1.us.uncletopia.com","port":27035,"enabled":true,"region":"us-west","cc":"us","latitude":47.608013,"longitude":-122.33517,"reserved":0,"last_update":"0001-01-01T00:00:00Z","name_a2s":"Uncletopia | Seattle | 3 | Stopwatch","protocol":17,"map":"workshop/koth_product_final.ugc454272353","folder":"tf","game":"Team Fortress","app_id":440,"player_count":0,"max_players":24,"Bots":0,"server_type":"Dedicated","server_os":"Linux","password":true,"vac":true,"version":"7961495","steam_id":85568392924515217,"keywords":["cp","nocrits","nodmgspread","uncletopia"],"game_id":440,"stv_port":27036,"stv_name":"Uncletopia | Seattle | 3 | Stopwatch | STV","players":null},{"server_id":17,"name":"Uncletopia | San Francisco | 1 | All Maps","name_short":"sfo-1","host":"sfo-1.us.uncletopia.com","port":27015,"enabled":true,"region":"us-west","cc":"us","latitude":37.77397,"longitude":-122.4313,"reserved":0,"last_update":"0001-01-01T00:00:00Z","name_a2s":"Uncletopia | San Francisco | 1 | All Maps","protocol":17,"map":"koth_lakeside_final","folder":"tf","game":"Team Fortress","app_id":440,"player_count":0,"max_players":24,"Bots":0,"server_type":"Dedicated","server_os":"Linux","password":true,"vac":true,"version":"7961495","steam_id":85568392924469999,"keywords":["cp","nocrits","nodmgspread","uncletopia"],"game_id":440,"stv_port":27016,"stv_name":"Uncletopia | San Francisco | 1 | All Maps | STV","players":null},{"server_id":18,"name":"Uncletopia | San Francisco | 2 | All Maps","name_short":"sfo-2","host":"sfo-1.us.uncletopia.com","port":27025,"enabled":true,"region":"us-west","cc":"us","latitude":37.77397,"longitude":-122.4313,"reserved":0,"last_update":"0001-01-01T00:00:00Z","name_a2s":"Uncletopia | San Francisco | 2 | All Maps","protocol":17,"map":"pl_frontier_final","folder":"tf","game":"Team Fortress","app_id":440,"player_count":0,"max_players":24,"Bots":0,"server_type":"Dedicated","server_os":"Linux","password":true,"vac":true,"version":"7961495","steam_id":85568392924470000,"keywords":["nocrits","nodmgspread","payload","uncletopia"],"game_id":440,"stv_port":27026,"stv_name":"Uncletopia | San Francisco | 2 | All Maps | STV","players":null},{"server_id":19,"name":"Uncletopia | San Francisco | 3 | Stopwatch","name_short":"sfo-3","host":"sfo-1.us.uncletopia.com","port":27035,"enabled":true,"region":"us-west","cc":"us","latitude":37.77397,"longitude":-122.4313,"reserved":0,"last_update":"0001-01-01T00:00:00Z","name_a2s":"Uncletopia | San Francisco | 3 | Stopwatch","protocol":17,"map":"koth_highpass","folder":"tf","game":"Team Fortress","app_id":440,"player_count":0,"max_players":24,"Bots":0,"server_type":"Dedicated","server_os":"Linux","password":true,"vac":true,"version":"7961495","steam_id":85568392924742824,"keywords":["cp","nocrits","nodmgspread","uncletopia"],"game_id":440,"stv_port":27036,"stv_name":"Uncletopia | San Francisco | 3 | Stopwatch | STV","players":null},{"server_id":20,"name":"Uncletopia | San Francisco | 4 | Community","name_short":"sfo-4","host":"sfo-1.us.uncletopia.com","port":27045,"enabled":true,"region":"us-west","cc":"us","latitude":37.77397,"longitude":-122.4313,"reserved":0,"last_update":"0001-01-01T00:00:00Z","name_a2s":"Uncletopia | San Francisco | 4 | Community","protocol":17,"map":"workshop/koth_slaughter_rc1.ugc1712845210","folder":"tf","game":"Team Fortress","app_id":440,"player_count":0,"max_players":24,"Bots":0,"server_type":"Dedicated","server_os":"Linux","password":true,"vac":true,"version":"7961495","steam_id":85568392924742826,"keywords":["cp","nocrits","nodmgspread","uncletopia"],"game_id":440,"stv_port":27046,"stv_name":"Uncletopia | San Francisco | 4 | Community | STV","players":null},{"server_id":141,"name":"Uncletopia | Sydney | 1 | All Maps","name_short":"syd-1","host":"syd-1.au.uncletopia.com","port":27015,"enabled":true,"region":"au","cc":"au","latitude":-33.865143,"longitude":151.2099,"reserved":0,"last_update":"0001-01-01T00:00:00Z","name_a2s":"Uncletopia | Sydney | 1 | All Maps","protocol":17,"map":"pl_frontier_final","folder":"tf","game":"Team Fortress","app_id":440,"player_count":0,"max_players":24,"Bots":0,"server_type":"Dedicated","server_os":"Linux","password":true,"vac":true,"version":"7961495","steam_id":85568392924470001,"keywords":["nocrits","nodmgspread","payload","uncletopia"],"game_id":440,"stv_port":27016,"stv_name":"Uncletopia | Sydney | 1 | All Maps | STV","players":null},{"server_id":123,"name":"Uncletopia | Sydney | 2 | All Maps","name_short":"syd-2","host":"syd-1.au.uncletopia.com","port":27025,"enabled":true,"region":"au","cc":"au","latitude":-33.865143,"longitude":151.2099,"reserved":0,"last_update":"0001-01-01T00:00:00Z","name_a2s":"Uncletopia | Sydney | 2 | All Maps","protocol":17,"map":"koth_cascade","folder":"tf","game":"Team Fortress","app_id":440,"player_count":0,"max_players":24,"Bots":0,"server_type":"Dedicated","server_os":"Linux","password":true,"vac":true,"version":"7961495","steam_id":85568392924470002,"keywords":["cp","nocrits","nodmgspread","uncletopia"],"game_id":440,"stv_port":27026,"stv_name":"Uncletopia | Sydney | 2 | All Maps | STV","players":null},{"server_id":395,"name":"Uncletopia | Sydney | 3 | All Maps","name_short":"syd-3","host":"syd-1.au.uncletopia.com","port":27035,"enabled":true,"region":"au","cc":"au","latitude":-33.865143,"longitude":151.2099,"reserved":0,"last_update":"0001-01-01T00:00:00Z","name_a2s":"Uncletopia | Sydney | 3 | All Maps","protocol":17,"map":"cp_metalworks","folder":"tf","game":"Team Fortress","app_id":440,"player_count":0,"max_players":24,"Bots":0,"server_type":"Dedicated","server_os":"Linux","password":true,"vac":true,"version":"7961495","steam_id":85568392925194467,"keywords":["cp","nocrits","nodmgspread","uncletopia"],"game_id":440,"stv_port":27036,"stv_name":"Uncletopia | Sydney | 3 | All Maps | STV","players":null},{"server_id":396,"name":"Uncletopia | Sydney | 4 | All Maps","name_short":"syd-4","host":"syd-1.au.uncletopia.com","port":27045,"enabled":true,"region":"au","cc":"au","latitude":-33.865143,"longitude":151.2099,"reserved":0,"last_update":"0001-01-01T00:00:00Z","name_a2s":"Uncletopia | Sydney | 4 | All Maps","protocol":17,"map":"koth_cascade","folder":"tf","game":"Team Fortress","app_id":440,"player_count":0,"max_players":24,"Bots":0,"server_type":"Dedicated","server_os":"Linux","password":true,"vac":true,"version":"7961495","steam_id":85568392925397958,"keywords":["cp","nocrits","nodmgspread","uncletopia"],"game_id":440,"stv_port":27046,"stv_name":"Uncletopia | Sydney | 4 | All Maps | STV","players":null},{"server_id":58,"name":"Uncletopia | Sydney | 5 | Stopwatch","name_short":"syd-5","host":"syd-1.au.uncletopia.com","port":27055,"enabled":true,"region":"au","cc":"au","latitude":-33.865143,"longitude":151.2099,"reserved":0,"last_update":"0001-01-01T00:00:00Z","name_a2s":"Uncletopia | Sydney | 5 | Stopwatch","protocol":17,"map":"workshop/koth_product_final.ugc454272353","folder":"tf","game":"Team Fortress","app_id":440,"player_count":0,"max_players":24,"Bots":0,"server_type":"Dedicated","server_os":"Linux","password":true,"vac":true,"version":"7961495","steam_id":85568392925397959,"keywords":["cp","nocrits","nodmgspread","uncletopia"],"game_id":440,"stv_port":27056,"stv_name":"Uncletopia | Sydney | 5 | Stopwatch | STV","players":null},{"server_id":59,"name":"Uncletopia | Sydney | 6 | Community","name_short":"syd-6","host":"syd-1.au.uncletopia.com","port":27065,"enabled":true,"region":"au","cc":"au","latitude":-33.865143,"longitude":151.2099,"reserved":0,"last_update":"0001-01-01T00:00:00Z","name_a2s":"Uncletopia | Sydney | 6 | Community","protocol":17,"map":"workshop/koth_trenchfoot_ab1.ugc731436616","folder":"tf","game":"Team Fortress","app_id":440,"player_count":0,"max_players":24,"Bots":0,"server_type":"Dedicated","server_os":"Linux","password":true,"vac":true,"version":"7961495","steam_id":85568392925397960,"keywords":["cp","nocrits","nodmgspread","uncletopia"],"game_id":440,"stv_port":27066,"stv_name":"Uncletopia | Sydney | 6 | Community | STV","players":null},{"server_id":49,"name":"Uncletopia | Warsaw | 1 | One Thousand Uncles","name_short":"waw-1","host":"waw-1.pl.uncletopia.com","port":27015,"enabled":true,"region":"eu","cc":"pl","latitude":52.2297,"longitude":21.017532,"reserved":0,"last_update":"0001-01-01T00:00:00Z","name_a2s":"Uncletopia | Warsaw | 1 | One Thousand Uncles","protocol":17,"map":"cp_mercenarypark","folder":"tf","game":"Team Fortress","app_id":440,"player_count":0,"max_players":32,"Bots":0,"server_type":"Dedicated","server_os":"Linux","password":true,"vac":true,"version":"7961495","steam_id":85568392925397850,"keywords":["alltalk","cp","danepve","increased_maxplayers","norespawntime","uncletopia"],"game_id":440,"stv_port":0,"stv_name":"","players":null},{"server_id":50,"name":"Uncletopia | Warsaw | 2 | One Thousand Uncles","name_short":"waw-2","host":"waw-1.pl.uncletopia.com","port":27025,"enabled":true,"region":"eu","cc":"pl","latitude":52.2297,"longitude":21.017532,"reserved":0,"last_update":"0001-01-01T00:00:00Z","name_a2s":"Uncletopia | Warsaw | 2 | One Thousand Uncles","protocol":17,"map":"cp_egypt_final","folder":"tf","game":"Team Fortress","app_id":440,"player_count":0,"max_players":32,"Bots":0,"server_type":"Dedicated","server_os":"Linux","password":true,"vac":true,"version":"7961495","steam_id":85568392925397851,"keywords":["alltalk","cp","danepve","increased_maxplayers","norespawntime","uncletopia"],"game_id":440,"stv_port":0,"stv_name":"","players":null},{"server_id":51,"name":"Uncletopia | Warsaw | 3 | All Maps","name_short":"waw-3","host":"waw-1.pl.uncletopia.com","port":27035,"enabled":true,"region":"eu","cc":"pl","latitude":52.2297,"longitude":21.017532,"reserved":0,"last_update":"0001-01-01T00:00:00Z","name_a2s":"Uncletopia | Warsaw | 3 | All Maps","protocol":17,"map":"pl_snowycoast","folder":"tf","game":"Team Fortress","app_id":440,"player_count":0,"max_players":24,"Bots":0,"server_type":"Dedicated","server_os":"Linux","password":true,"vac":true,"version":"7961495","steam_id":85568392925397852,"keywords":["nocrits","nodmgspread","payload","uncletopia"],"game_id":440,"stv_port":27036,"stv_name":"Uncletopia | Warsaw | 3 | All Maps | STV","players":null},{"server_id":52,"name":"Uncletopia | Warsaw | 4 | All Maps","name_short":"waw-4","host":"waw-1.pl.uncletopia.com","port":27045,"enabled":true,"region":"eu","cc":"pl","latitude":52.2297,"longitude":21.017532,"reserved":0,"last_update":"0001-01-01T00:00:00Z","name_a2s":"Uncletopia | Warsaw | 4 | All Maps","protocol":17,"map":"cp_fastlane","folder":"tf","game":"Team Fortress","app_id":440,"player_count":0,"max_players":24,"Bots":0,"server_type":"Dedicated","server_os":"Linux","password":true,"vac":true,"version":"7961495","steam_id":85568392925397853,"keywords":["cp","nocrits","nodmgspread","uncletopia"],"game_id":440,"stv_port":27046,"stv_name":"Uncletopia | Warsaw | 4 | All Maps | STV","players":null},{"server_id":53,"name":"Uncletopia | Warsaw | 5 | Stopwatch","name_short":"waw-5","host":"waw-1.pl.uncletopia.com","port":27055,"enabled":true,"region":"eu","cc":"pl","latitude":52.2297,"longitude":21.017532,"reserved":0,"last_update":"0001-01-01T00:00:00Z","name_a2s":"Uncletopia | Warsaw | 5 | Stopwatch","protocol":17,"map":"cp_gullywash_final1","folder":"tf","game":"Team Fortress","app_id":440,"player_count":0,"max_players":24,"Bots":0,"server_type":"Dedicated","server_os":"Linux","password":true,"vac":true,"version":"7961495","steam_id":85568392925397854,"keywords":["cp","nocrits","nodmgspread","uncletopia"],"game_id":440,"stv_port":27056,"stv_name":"Uncletopia | Warsaw | 5 | Stopwatch | STV","players":null},{"server_id":54,"name":"Uncletopia | Warsaw | 6 | Community","name_short":"waw-6","host":"waw-1.pl.uncletopia.com","port":27065,"enabled":true,"region":"eu","cc":"pl","latitude":52.2297,"longitude":21.017532,"reserved":0,"last_update":"0001-01-01T00:00:00Z","name_a2s":"Uncletopia | Warsaw | 6 | Community","protocol":17,"map":"workshop/cp_fulgur_rc2a.ugc2068252300","folder":"tf","game":"Team Fortress","app_id":440,"player_count":0,"max_players":24,"Bots":0,"server_type":"Dedicated","server_os":"Linux","password":true,"vac":true,"version":"7961495","steam_id":85568392925397856,"keywords":["cp","nocrits","nodmgspread","uncletopia"],"game_id":440,"stv_port":27066,"stv_name":"Uncletopia | Warsaw | 6 | Community | STV","players":null}]}