{"status":true,"message":"","result":[{"server_id":9,"name":"Uncletopia | Atlanta | 1 | All Maps","name_short":"atl-1","host":"atl-1.us.uncletopia.com","port":27015,"enabled":true,"region":"us-east","cc":"us","latitude":33.753746,"longitude":-84.38633,"reserved":0,"last_update":"0001-01-01T00:00:00Z","name_a2s":"Uncletopia | Atlanta | 1 | All Maps","protocol":17,"map":"pl_swiftwater_final1","folder":"tf","game":"Team Fortress","app_id":440,"player_count":24,"max_players":24,"Bots":0,"server_type":"Dedicated","server_os":"Linux","password":true,"vac":true,"version":"7757534","steam_id":85568392924469982,"keywords":["nocrits","nodmgspread","payload","uncletopia"],"game_id":440,"stv_port":27016,"stv_name":"Uncletopia | Atlanta | 1 | All Maps | STV","players":[{"user_id":369,"name":"mayhem","steam_id":76561199246637881,"connected_time":1159000000000,"state":"active","ping":55},{"user_id":366,"name":"BluzzyBee","steam_id":76561198062539161,"connected_time":1353000000000,"state":"active","ping":102},{"user_id":377,"name":"atl1 Quality","steam_id":76561198361132101,"connected_time":297000000000,"state":"active","ping":88},{"user_id":370,"name":"mio","steam_id":76561198239286750,"connected_time":1137000000000,"state":"active","ping":80},{"user_id":374,"name":"Rockhead","steam_id":76561197995196535,"connected_time":470000000000,"state":"active","ping":70},{"user_id":265,"name":"Thotimus Begonimus","steam_id":76561197970275938,"connected_time":11084000000000,"state":"active","ping":41},{"user_id":358,"name":"Decolour","steam_id":76561199045608372,"connected_time":2006000000000,"state":"active","ping":78},{"user_id":341,"name":"faceplant","steam_id":76561198249206656,"connected_time":3624000000000,"state":"active","ping":87},{"user_id":371,"name":"conscripted monk","steam_id":76561199029246232,"connected_time":1129000000000,"state":"active","ping":73},{"user_id":373,"name":"4,000,000 merged Chihuahuas","steam_id":76561198130772096,"connected_time":894000000000,"state":"active","ping":45},{"user_id":362,"name":"ATL1 | Bandi","steam_id":76561198432036026,"connected_time":1774000000000,"state":"active","ping":55},{"user_id":378,"name":"Smyles","steam_id":76561198856210005,"connected_time":290000000000,"state":"active","ping":76},{"user_id":383,"name":"floofy","steam_id":76561198389769098,"connected_time":38000000000,"state":"spawning","ping":112},{"user_id":372,"name":"bessie","steam_id":76561198079603532,"connected_time":1089000000000,"state":"active","ping":83},{"user_id":380,"name":"David De Bergerac","steam_id":76561198010306294,"connected_time":103000000000,"state":"active","ping":83},{"user_id":367,"name":"Comrade Generico","steam_id":76561198377574031,"connected_time":1255000000000,"state":"active","ping":87},{"user_id":353,"name":"ATL1 | ma0re","steam_id":76561199231971506,"connected_time":2840000000000,"state":"active","ping":61},{"user_id":357,"name":"Icaras","steam_id":76561198416724843,"connected_time":2018000000000,"state":"active","ping":132},{"user_id":355,"name":"ATL1 | Kramer","steam_id":76561198083595936,"connected_time":2749000000000,"state":"active","ping":73},{"user_id":284,"name":"ATL1 | Pango","steam_id":76561198069811545,"connected_time":8816000000000,"state":"active","ping":47},{"user_id":351,"name":"yomo","steam_id":76561198063175935,"connected_time":2916000000000,"state":"active","ping":60},{"user_id":376,"name":"atl1icyy","steam_id":76561198968001329,"connected_time":399000000000,"state":"active","ping":46}]},{"server_id":400,"name":"Uncletopia | Atlanta | 3 | Community","name_short":"atl-3","host":"atl-1.us.uncletopia.com","port":27035,"enabled":true,"region":"us-east","cc":"us","latitude":33.753746,"longitude":-84.38633,"reserved":0,"last_update":"0001-01-01T00:00:00Z","name_a2s":"Uncletopia | Atlanta | 3 | Community","protocol":17,"map":"workshop/koth_bagel_rc6.ugc2514036946","folder":"tf","game":"Team Fortress","app_id":440,"player_count":0,"max_players":24,"Bots":0,"server_type":"Dedicated","server_os":"Linux","password":true,"vac":true,"version":"7757534","steam_id":85568392924515187,"keywords":["cp","nocrits","nodmgspread","uncletopia"],"game_id":440,"stv_port":27036,"stv_name":"Uncletopia | Atlanta | 3 | Community | STV","players":null},{"server_id":401,"name":"Uncletopia | Atlanta | 4 | No Payload","name_short":"atl-4","host":"atl-1.us.uncletopia.com","port":27045,"enabled":true,"region":"us-east","cc":"us","latitude":33.753746,"longitude":-84.38633,"reserved":0,"last_update":"0001-01-01T00:00:00Z","name_a2s":"","protocol":0,"map":"","folder":"","game":"","app_id":0,"player_count":0,"max_players":0,"Bots":0,"server_type":"","server_os":"","password":false,"vac":false,"version":"","steam_id":0,"keywords":null,"game_id":0,"stv_port":0,"stv_name":"","players":null},{"server_id":2,"name":"Uncletopia | Chicago | 1 | All Maps","name_short":"chi-1","host":"chi-1.us.uncletopia.com","port":27015,"enabled":true,"region":"us-central","cc":"us","latitude":41.881832,"longitude":-87.62318,"reserved":0,"last_update":"0001-01-01T00:00:00Z","name_a2s":"Uncletopia | Chicago | 1 | All Maps","protocol":17,"map":"cp_dustbowl","folder":"tf","game":"Team Fortress","app_id":440,"player_count":24,"max_players":24,"Bots":0,"server_type":"Dedicated","server_os":"Linux","password":true,"vac":true,"version":"7757534","steam_id":85568392924469984,"keywords":["cp","nocrits","nodmgspread","uncletopia"],"game_id":440,"stv_port":27016,"stv_name":"Uncletopia | Chicago | 1 | All Maps | STV","players":[{"user_id":204,"name":"jeremimi","steam_id":76561198818225102,"connected_time":1022000000000,"state":"active","ping":132},{"user_id":208,"name":"Rue","steam_id":76561198013135993,"connected_time":789000000000,"state":"active","ping":45},{"user_id":203,"name":"[DEEP] Roz257","steam_id":76561198842844532,"connected_time":1095000000000,"state":"active","ping":88},{"user_id":179,"name":"Garfield","steam_id":76561198037803087,"connected_time":3654000000000,"state":"active","ping":70},{"user_id":206,"name":"[UHS] K24A4 2.4","steam_id":76561199072970627,"connected_time":962000000000,"state":"active","ping":45},{"user_id":212,"name":"IGotTheLettuce","steam_id":76561198062473897,"connected_time":577000000000,"state":"active","ping":78},{"user_id":187,"name":"[يهودي] Bill Clinton [אל","steam_id":76561198163291190,"connected_time":2919000000000,"state":"active","ping":86},{"user_id":207,"name":"estrogen addict","steam_id":76561199185046348,"connected_time":955000000000,"state":"active","ping":83},{"user_id":198,"name":"jrdoran","steam_id":76561197984753094,"connected_time":1331000000000,"state":"active","ping":64},{"user_id":161,"name":"[DEEP] Danmar33","steam_id":76561198056453091,"connected_time":4531000000000,"state":"active","ping":50},{"user_id":210,"name":"izzydex","steam_id":76561199101531034,"connected_time":728000000000,"state":"active","ping":59},{"user_id":222,"name":"hatchetax","steam_id":76561199013337543,"connected_time":422000000000,"state":"active","ping":66},{"user_id":213,"name":"frank","steam_id":76561198045436159,"connected_time":532000000000,"state":"active","ping":79},{"user_id":199,"name":"Kapitan Bomba","steam_id":76561199102087660,"connected_time":1323000000000,"state":"active","ping":56},{"user_id":214,"name":"Scrux","steam_id":76561198129763115,"connected_time":527000000000,"state":"active","ping":103},{"user_id":223,"name":"oasu","steam_id":76561198077797135,"connected_time":418000000000,"state":"active","ping":75},{"user_id":200,"name":"mark","steam_id":76561198223421912,"connected_time":1145000000000,"state":"active","ping":86},{"user_id":218,"name":"Mr.Kevin120","steam_id":76561199186919096,"connected_time":479000000000,"state":"active","ping":75},{"user_id":186,"name":"Liquid Oxycodone","steam_id":76561198154162664,"connected_time":3212000000000,"state":"active","ping":68},{"user_id":224,"name":"TrustyGun","steam_id":76561198022854020,"connected_time":392000000000,"state":"active","ping":64},{"user_id":219,"name":"Sh/7 Stain","steam_id":76561198408817739,"connected_time":475000000000,"state":"active","ping":65},{"user_id":220,"name":"Theodore Roosevelt","steam_id":76561197993295656,"connected_time":472000000000,"state":"active","ping":46},{"user_id":221,"name":"SCATTER","steam_id":76561198405168492,"connected_time":455000000000,"state":"active","ping":83},{"user_id":225,"name":"mashallah","steam_id":76561198075111427,"connected_time":227000000000,"state":"active","ping":84}]},{"server_id":106,"name":"Uncletopia | Chicago | 2 | All Maps","name_short":"chi-2","host":"chi-1.us.uncletopia.com","port":27025,"enabled":true,"region":"us-central","cc":"us","latitude":41.881832,"longitude":-87.62318,"reserved":0,"last_update":"0001-01-01T00:00:00Z","name_a2s":"Uncletopia | Chicago | 2 | All Maps","protocol":17,"map":"cp_sunshine","folder":"tf","game":"Team Fortress","app_id":440,"player_count":0,"max_players":24,"Bots":0,"server_type":"Dedicated","server_os":"Linux","password":true,"vac":true,"version":"7757534","steam_id":85568392924469985,"keywords":["cp","nocrits","nodmgspread","uncletopia"],"game_id":440,"stv_port":27026,"stv_name":"Uncletopia | Chicago | 2 | All Maps | STV","players":null},{"server_id":402,"name":"Uncletopia | Chicago | 3 | All Maps","name_short":"chi-3","host":"chi-1.us.uncletopia.com","port":27035,"enabled":true,"region":"us-central","cc":"us","latitude":41.881832,"longitude":-87.62318,"reserved":0,"last_update":"0001-01-01T00:00:00Z","name_a2s":"Uncletopia | Chicago | 3 | All Maps","protocol":17,"map":"pl_barnblitz","folder":"tf","game":"Team Fortress","app_id":440,"player_count":23,"max_players":24,"Bots":0,"server_type":"Dedicated","server_os":"Linux","password":true,"vac":true,"version":"7757534","steam_id":85568392924515191,"keywords":["nocrits","nodmgspread","payload","uncletopia"],"game_id":440,"stv_port":27036,"stv_name":"Uncletopia | Chicago | 3 | All Maps | STV","players":[{"user_id":212,"name":"Nephs","steam_id":76561198136763403,"connected_time":3000000000,"state":"connecting","ping":91},{"user_id":127,"name":"Dot.","steam_id":76561198149463984,"connected_time":6440000000000,"state":"connecting","ping":59},{"user_id":160,"name":"girlpeen supreme","steam_id":76561198031242903,"connected_time":4128000000000,"state":"connecting","ping":65},{"user_id":209,"name":"Eurocyon","steam_id":76561199465863937,"connected_time":197000000000,"state":"connecting","ping":118},{"user_id":199,"name":"Donkski","steam_id":76561198406895347,"connected_time":1327000000000,"state":"connecting","ping":93},{"user_id":102,"name":"Try Gardening","steam_id":76561198120311340,"connected_time":8108000000000,"state":"connecting","ping":65},{"user_id":206,"name":"Jigglypuff on Meth","steam_id":76561198333128330,"connected_time":687000000000,"state":"connecting","ping":49},{"user_id":193,"name":"GooniOoni","steam_id":76561198102154561,"connected_time":1361000000000,"state":"connecting","ping":43},{"user_id":195,"name":"AkimboAoki","steam_id":76561198158323058,"connected_time":1355000000000,"state":"connecting","ping":116},{"user_id":211,"name":"Room_237","steam_id":76561199135081315,"connected_time":28000000000,"state":"connecting","ping":82},{"user_id":173,"name":"NovaSc6ut","steam_id":76561198277163301,"connected_time":3070000000000,"state":"connecting","ping":88},{"user_id":203,"name":"Anita Hanjaab","steam_id":76561198111669774,"connected_time":748000000000,"state":"connecting","ping":55},{"user_id":198,"name":"Tomar but gaming","steam_id":76561199275071037,"connected_time":1338000000000,"state":"connecting","ping":63},{"user_id":210,"name":"Byte9291","steam_id":76561198044313374,"connected_time":128000000000,"state":"connecting","ping":105},{"user_id":183,"name":"Shwa","steam_id":76561198122613101,"connected_time":2262000000000,"state":"connecting","ping":94},{"user_id":148,"name":"Kit kyat","steam_id":76561198235786296,"connected_time":4641000000000,"state":"connecting","ping":82},{"user_id":162,"name":"Minerkid2004","steam_id":76561198044262827,"connected_time":3879000000000,"state":"connecting","ping":168},{"user_id":207,"name":"Gabinator32","steam_id":76561198872467183,"connected_time":585000000000,"state":"connecting","ping":56},{"user_id":184,"name":"SomeScuffedKid","steam_id":76561198086113234,"connected_time":2258000000000,"state":"connecting","ping":62},{"user_id":192,"name":"HYPERBOREAN SPACE STONERS","steam_id":76561198158206236,"connected_time":1576000000000,"state":"connecting","ping":147},{"user_id":189,"name":"ZofoJackson","steam_id":76561197998366861,"connected_time":1933000000000,"state":"connecting","ping":73},{"user_id":197,"name":"Discourse","steam_id":76561198984286678,"connected_time":1344000000000,"state":"connecting","ping":58},{"user_id":200,"name":"Rich Kitten","steam_id":76561199152388008,"connected_time":1322000000000,"state":"connecting","ping":57}]},{"server_id":403,"name":"Uncletopia | Chicago | 4 | All Maps","name_short":"chi-4","host":"chi-1.us.uncletopia.com","port":27045,"enabled":true,"region":"us-central","cc":"us","latitude":41.881832,"longitude":-87.62318,"reserved":0,"last_update":"0001-01-01T00:00:00Z","name_a2s":"Uncletopia | Chicago | 4 | All Maps","protocol":17,"map":"pl_badwater","folder":"tf","game":"Team Fortress","app_id":440,"player_count":24,"max_players":24,"Bots":0,"server_type":"Dedicated","server_os":"Linux","password":true,"vac":true,"version":"7757534","steam_id":85568392924515193,"keywords":["nocrits","nodmgspread","payload","uncletopia"],"game_id":440,"stv_port":27046,"stv_name":"Uncletopia | Chicago | 4 | All Maps | STV","players":[{"user_id":598,"name":"Literally a Trans Woman","steam_id":76561198054639925,"connected_time":318000000000,"state":"active","ping":64},{"user_id":559,"name":"Mr0_0Knight","steam_id":76561199471338064,"connected_time":1806000000000,"state":"active","ping":63},{"user_id":573,"name":"CoPilot","steam_id":76561198798217843,"connected_time":1297000000000,"state":"active","ping":68},{"user_id":599,"name":"an inebriated newt fancier","steam_id":76561197985428155,"connected_time":316000000000,"state":"active","ping":62},{"user_id":557,"name":"Miner2495","steam_id":76561198445904523,"connected_time":2456000000000,"state":"active","ping":65},{"user_id":562,"name":"'LaxAttack","steam_id":76561198044129346,"connected_time":1705000000000,"state":"active","ping":69},{"user_id":601,"name":"bruv2469","steam_id":76561199182563193,"connected_time":7000000000,"state":"spawning","ping":116},{"user_id":552,"name":"replaycoding","steam_id":76561198289737954,"connected_time":2922000000000,"state":"active","ping":104},{"user_id":566,"name":"Shay the Sheep","steam_id":76561198065964820,"connected_time":1587000000000,"state":"active","ping":51},{"user_id":567,"name":"vmoney160","steam_id":76561198053516110,"connected_time":1518000000000,"state":"active","ping":68},{"user_id":600,"name":"Joocebox","steam_id":76561198259997021,"connected_time":316000000000,"state":"active","ping":65},{"user_id":597,"name":"AIPQ kritz me","steam_id":76561198439899407,"connected_time":472000000000,"state":"active","ping":92},{"user_id":595,"name":"BellGrief","steam_id":76561198453489762,"connected_time":935000000000,"state":"active","ping":85},{"user_id":593,"name":"6t26j","steam_id":76561198278282836,"connected_time":967000000000,"state":"active","ping":54},{"user_id":575,"name":"ᵐ'ˢf'ᵗˢ","steam_id":76561198090271815,"connected_time":1292000000000,"state":"active","ping":132},{"user_id":594,"name":"DO NOT call me BART SIMPSON!!","steam_id":76561198069113375,"connected_time":945000000000,"state":"active","ping":70},{"user_id":577,"name":"Birrd","steam_id":76561198409096300,"connected_time":1286000000000,"state":"active","ping":70},{"user_id":578,"name":"DiamondNinja_160","steam_id":76561199229539990,"connected_time":1283000000000,"state":"active","ping":84},{"user_id":579,"name":"Carl, Good to see you","steam_id":76561198070574075,"connected_time":1269000000000,"state":"active","ping":71},{"user_id":596,"name":"Agitor","steam_id":76561198799151346,"connected_time":859000000000,"state":"active","ping":85},{"user_id":592,"name":"a_person_159","steam_id":76561199024416326,"connected_time":1003000000000,"state":"active","ping":62},{"user_id":591,"name":"Moobs","steam_id":76561198215527235,"connected_time":1008000000000,"state":"active","ping":104},{"user_id":585,"name":"RAHHHHHHHH","steam_id":76561198112388117,"connected_time":1185000000000,"state":"active","ping":77},{"user_id":589,"name":"¡cálmate!","steam_id":76561198071421094,"connected_time":1098000000000,"state":"active","ping":91}]},{"server_id":36,"name":"Uncletopia | Chicago | 5 | All Maps","name_short":"chi-5","host":"chi-2.us.uncletopia.com","port":27015,"enabled":true,"region":"us-central","cc":"us","latitude":41.881832,"longitude":-87.62318,"reserved":0,"last_update":"0001-01-01T00:00:00Z","name_a2s":"Uncletopia | Chicago | 5 | All Maps","protocol":17,"map":"koth_lakeside_final","folder":"tf","game":"Team Fortress","app_id":440,"player_count":1,"max_players":24,"Bots":0,"server_type":"Dedicated","server_os":"Linux","password":true,"vac":true,"version":"7757534","steam_id":85568392924866362,"keywords":["cp","nocrits","nodmgspread","uncletopia"],"game_id":440,"stv_port":27016,"stv_name":"Uncletopia | Chicago | 5 | All Maps | STV","players":[{"user_id":9,"name":"nth derivative","steam_id":76561198081971317,"connected_time":20000000000,"state":"active","ping":52}]},{"server_id":37,"name":"Uncletopia | Chicago | 6 | All Maps","name_short":"chi-6","host":"chi-2.us.uncletopia.com","port":27025,"enabled":true,"region":"us-central","cc":"us","latitude":41.881832,"longitude":-87.62318,"reserved":0,"last_update":"0001-01-01T00:00:00Z","name_a2s":"Uncletopia | Chicago | 6 | All Maps","protocol":17,"map":"pl_snowycoast","folder":"tf","game":"Team Fortress","app_id":440,"player_count":24,"max_players":24,"Bots":0,"server_type":"Dedicated","server_os":"Linux","password":true,"vac":true,"version":"7757534","steam_id":85568392924866363,"keywords":["nocrits","nodmgspread","payload","uncletopia"],"game_id":440,"stv_port":27026,"stv_name":"Uncletopia | Chicago | 6 | All Maps | STV","players":[{"user_id":12,"name":"The Dead Weight","steam_id":76561198056694098,"connected_time":4324000000000,"state":"active","ping":63},{"user_id":10,"name":"James","steam_id":76561198081313916,"connected_time":4481000000000,"state":"active","ping":69},{"user_id":56,"name":"-W3E- grim10465","steam_id":76561198045698581,"connected_time":757000000000,"state":"active","ping":57},{"user_id":46,"name":"Rockgraham101","steam_id":76561198171740458,"connected_time":2028000000000,"state":"active","ping":67},{"user_id":47,"name":"LukeLeal","steam_id":76561198049822995,"connected_time":2017000000000,"state":"active","ping":169},{"user_id":66,"name":"Malikar (fake)","steam_id":76561199037497493,"connected_time":252000000000,"state":"active","ping":57},{"user_id":58,"name":"uberslak","steam_id":76561198064715241,"connected_time":692000000000,"state":"active","ping":114},{"user_id":67,"name":"monqueer","steam_id":76561199125615716,"connected_time":105000000000,"state":"active","ping":96},{"user_id":22,"name":"A Puppy","steam_id":76561198828184456,"connected_time":3064000000000,"state":"active","ping":60},{"user_id":23,"name":"Hard Soap","steam_id":76561198267905614,"connected_time":2980000000000,"state":"active","ping":95},{"user_id":49,"name":"Queen Frau the Round","steam_id":76561197999942134,"connected_time":1894000000000,"state":"active","ping":45},{"user_id":59,"name":"jinx, you owe me a soda","steam_id":76561198108685037,"connected_time":641000000000,"state":"active","ping":71},{"user_id":44,"name":"Cerabond","steam_id":76561199230915333,"connected_time":2194000000000,"state":"active","ping":80},{"user_id":27,"name":"NUt","steam_id":76561198031007966,"connected_time":2801000000000,"state":"active","ping":74},{"user_id":28,"name":"Just a little bit blue?","steam_id":76561199113013688,"connected_time":2778000000000,"state":"active","ping":84},{"user_id":57,"name":"homestuck","steam_id":76561198085042338,"connected_time":747000000000,"state":"active","ping":115},{"user_id":63,"name":"Goober","steam_id":76561198105930089,"connected_time":449000000000,"state":"active","ping":67},{"user_id":55,"name":"JacripspyVulcano","steam_id":76561198966980576,"connected_time":962000000000,"state":"active","ping":72},{"user_id":60,"name":"Larry from Pokemon SV","steam_id":76561198095245223,"connected_time":633000000000,"state":"active","ping":70},{"user_id":40,"name":"doctor large","steam_id":76561199195836752,"connected_time":2356000000000,"state":"active","ping":64},{"user_id":41,"name":"xiphoidar","steam_id":76561198146044049,"connected_time":2349000000000,"state":"active","ping":75},{"user_id":64,"name":"Johnny Lawrence #JohnnyMaxxing","steam_id":76561199367141671,"connected_time":377000000000,"state":"active","ping":74},{"user_id":61,"name":"TransWomanGaming","steam_id":76561198809645656,"connected_time":623000000000,"state":"active","ping":75},{"user_id":62,"name":"Candy Sparkles","steam_id":76561198126871264,"connected_time":591000000000,"state":"active","ping":85}]},{"server_id":38,"name":"Uncletopia | Chicago | 7 | Stopwatch Beta","name_short":"chi-7","host":"chi-2.us.uncletopia.com","port":27035,"enabled":true,"region":"us-central","cc":"us","latitude":41.881832,"longitude":-87.62318,"reserved":0,"last_update":"0001-01-01T00:00:00Z","name_a2s":"Uncletopia | Chicago | 7 | Stopwatch Beta","protocol":17,"map":"koth_viaduct","folder":"tf","game":"Team Fortress","app_id":440,"player_count":0,"max_players":24,"Bots":0,"server_type":"Dedicated","server_os":"Linux","password":true,"vac":true,"version":"7757534","steam_id":85568392924866364,"keywords":["cp","nocrits","nodmgspread","uncletopia"],"game_id":440,"stv_port":27036,"stv_name":"Uncletopia | Chicago | 7 | Stopwatch Beta | STV","players":null},{"server_id":39,"name":"Uncletopia | Chicago | 8 | Community","name_short":"chi-8","host":"chi-2.us.uncletopia.com","port":27045,"enabled":true,"region":"us-central","cc":"us","latitude":41.881832,"longitude":-87.62318,"reserved":0,"last_update":"0001-01-01T00:00:00Z","name_a2s":"Uncletopia | Chicago | 8 | Community","protocol":17,"map":"koth_lakeside_final","folder":"tf","game":"Team Fortress","app_id":440,"player_count":0,"max_players":24,"Bots":0,"server_type":"Dedicated","server_os":"Linux","password":true,"vac":true,"version":"7757534","steam_id":85568392924866365,"keywords":["cp","nocrits","nodmgspread","uncletopia"],"game_id":440,"stv_port":27046,"stv_name":"Uncletopia | Chicago | 8 | Community | STV","players":null},{"server_id":8,"name":"Uncletopia | Dallas | 1 | All Maps","name_short":"dal-1","host":"dal-1.us.uncletopia.com","port":27015,"enabled":true,"region":"us-central","cc":"us","latitude":32.779167,"longitude":-96.80889,"reserved":0,"last_update":"0001-01-01T00:00:00Z","name_a2s":"Uncletopia | Dallas | 1 | All Maps","protocol":17,"map":"pl_snowycoast","folder":"tf","game":"Team Fortress","app_id":440,"player_count":24,"max_players":24,"Bots":0,"server_type":"Dedicated","server_os":"Linux","password":true,"vac":true,"version":"7757534","steam_id":85568392924469986,"keywords":["nocrits","nodmgspread","payload","uncletopia"],"game_id":440,"stv_port":27016,"stv_name":"Uncletopia | Dallas | 1 | All Maps | STV","players":[{"user_id":312,"name":"Evil Ryu","steam_id":76561198079532122,"connected_time":88000000000,"state":"active","ping":84},{"user_id":308,"name":"QUEASYWHALE","steam_id":76561199107482851,"connected_time":503000000000,"state":"active","ping":116},{"user_id":289,"name":"just had 3 mcgriddles","steam_id":76561199438698036,"connected_time":1372000000000,"state":"active","ping":90},{"user_id":297,"name":"Shitstain","steam_id":76561199388529538,"connected_time":735000000000,"state":"active","ping":116},{"user_id":302,"name":"ZeroTSC","steam_id":76561198868450231,"connected_time":654000000000,"state":"active","ping":75},{"user_id":269,"name":"Zero","steam_id":76561199383267408,"connected_time":2658000000000,"state":"active","ping":53},{"user_id":310,"name":"Fishstall","steam_id":76561198038126034,"connected_time":430000000000,"state":"active","ping":69},{"user_id":292,"name":"greg","steam_id":76561198051075489,"connected_time":999000000000,"state":"active","ping":58},{"user_id":307,"name":"money getter","steam_id":76561199065645094,"connected_time":530000000000,"state":"active","ping":77},{"user_id":291,"name":"ObsessedNerd505","steam_id":76561199045531456,"connected_time":1361000000000,"state":"active","ping":96},{"user_id":299,"name":"scrapheap","steam_id":76561198202407087,"connected_time":704000000000,"state":"active","ping":100},{"user_id":301,"name":"Harry","steam_id":76561199130035197,"connected_time":690000000000,"state":"active","ping":68},{"user_id":284,"name":"ya boi","steam_id":76561198420218460,"connected_time":1620000000000,"state":"active","ping":54},{"user_id":304,"name":"Watsyurdeal","steam_id":76561198003424481,"connected_time":644000000000,"state":"active","ping":44},{"user_id":285,"name":"Shamrock Shake Oct.10.2020 @8pm","steam_id":76561198833313201,"connected_time":1568000000000,"state":"active","ping":88},{"user_id":274,"name":"oddlyobtuselemon1654","steam_id":76561198877069773,"connected_time":2596000000000,"state":"active","ping":85},{"user_id":219,"name":"Huge eevee fan","steam_id":76561198128057732,"connected_time":5620000000000,"state":"active","ping":85},{"user_id":218,"name":"lost in spaaaaace","steam_id":76561199085974120,"connected_time":5635000000000,"state":"active","ping":92},{"user_id":281,"name":"Tibbs","steam_id":76561198381085658,"connected_time":2136000000000,"state":"active","ping":59},{"user_id":276,"name":"herb","steam_id":76561198185980055,"connected_time":2535000000000,"state":"active","ping":71},{"user_id":278,"name":"Testosteroblerone","steam_id":76561199031278496,"connected_time":2451000000000,"state":"active","ping":82},{"user_id":305,"name":"HanakoToast","steam_id":76561198045233131,"connected_time":639000000000,"state":"active","ping":83},{"user_id":306,"name":"shalankawanak","steam_id":76561198987719376,"connected_time":631000000000,"state":"active","ping":77},{"user_id":229,"name":"Bad Rollout","steam_id":76561197971948876,"connected_time":5176000000000,"state":"active","ping":86}]},{"server_id":108,"name":"Uncletopia | Dallas | 2 | All Maps","name_short":"dal-2","host":"dal-1.us.uncletopia.com","port":27025,"enabled":true,"region":"us-central","cc":"us","latitude":32.779167,"longitude":-96.80889,"reserved":0,"last_update":"0001-01-01T00:00:00Z","name_a2s":"Uncletopia | Dallas | 2 | All Maps","protocol":17,"map":"cp_process_final","folder":"tf","game":"Team Fortress","app_id":440,"player_count":24,"max_players":24,"Bots":0,"server_type":"Dedicated","server_os":"Linux","password":true,"vac":true,"version":"7757534","steam_id":85568392924469988,"keywords":["cp","nocrits","nodmgspread","uncletopia"],"game_id":440,"stv_port":27026,"stv_name":"Uncletopia | Dallas | 2 | All Maps | STV","players":[{"user_id":18,"name":"Aerobro","steam_id":76561198033530996,"connected_time":3828000000000,"state":"active","ping":65},{"user_id":55,"name":"Bad Namesman","steam_id":76561198027205470,"connected_time":1647000000000,"state":"active","ping":90},{"user_id":68,"name":"Dojoloachfr","steam_id":76561198826298849,"connected_time":782000000000,"state":"active","ping":96},{"user_id":69,"name":"McBungadoo","steam_id":76561198045847782,"connected_time":722000000000,"state":"active","ping":45},{"user_id":70,"name":"hard dancing","steam_id":76561198868600487,"connected_time":605000000000,"state":"active","ping":97},{"user_id":71,"name":"MrhobbitRequiem","steam_id":76561198976215013,"connected_time":604000000000,"state":"active","ping":74},{"user_id":57,"name":"Zdrada","steam_id":76561198018693240,"connected_time":1528000000000,"state":"active","ping":71},{"user_id":28,"name":"Estetrius","steam_id":76561198016993850,"connected_time":2909000000000,"state":"active","ping":56},{"user_id":76,"name":"Spirit","steam_id":76561199069322627,"connected_time":461000000000,"state":"active","ping":95},{"user_id":41,"name":"The Ultimate Coomer","steam_id":76561199128833757,"connected_time":2116000000000,"state":"active","ping":45},{"user_id":49,"name":"bass player","steam_id":76561198203357580,"connected_time":1924000000000,"state":"active","ping":46},{"user_id":72,"name":"Mr.YoYo","steam_id":76561198988717854,"connected_time":590000000000,"state":"active","ping":72},{"user_id":33,"name":"shut #saveTF2","steam_id":76561199052847189,"connected_time":2716000000000,"state":"active","ping":84},{"user_id":77,"name":"NBA Youngboy","steam_id":76561199118797200,"connected_time":342000000000,"state":"active","ping":51},{"user_id":65,"name":"Snorty","steam_id":76561198114304454,"connected_time":995000000000,"state":"active","ping":89},{"user_id":66,"name":"Huggle","steam_id":76561198141491662,"connected_time":951000000000,"state":"active","ping":46},{"user_id":64,"name":"Minlit","steam_id":76561198205832799,"connected_time":1241000000000,"state":"active","ping":55},{"user_id":54,"name":"Gazelle","steam_id":76561198336397088,"connected_time":1656000000000,"state":"active","ping":75},{"user_id":47,"name":"big balls but only 2","steam_id":76561199001464827,"connected_time":1999000000000,"state":"active","ping":63},{"user_id":48,"name":"Kohbold","steam_id":76561198996480140,"connected_time":1971000000000,"state":"active","ping":108},{"user_id":61,"name":"sentry turret","steam_id":76561198327057433,"connected_time":1335000000000,"state":"active","ping":97},{"user_id":51,"name":"StuartBell511","steam_id":76561198060931721,"connected_time":1902000000000,"state":"active","ping":73},{"user_id":74,"name":"SOLDIER BELMONT","steam_id":76561198313947393,"connected_time":574000000000,"state":"active","ping":92},{"user_id":75,"name":"Rallen","steam_id":76561198088024663,"connected_time":558000000000,"state":"active","ping":67}]},{"server_id":5,"name":"Uncletopia | Frankfurt | 1 | All Maps","name_short":"frk-1","host":"frk-1.de.uncletopia.com","port":27015,"enabled":true,"region":"eu","cc":"de","latitude":50.110924,"longitude":8.682127,"reserved":0,"last_update":"0001-01-01T00:00:00Z","name_a2s":"Uncletopia | Frankfurt | 1 | All Maps","protocol":17,"map":"koth_viaduct","folder":"tf","game":"Team Fortress","app_id":440,"player_count":0,"max_players":24,"Bots":0,"server_type":"Dedicated","server_os":"Linux","password":true,"vac":true,"version":"7757534","steam_id":85568392924469989,"keywords":["cp","nocrits","nodmgspread","uncletopia"],"game_id":440,"stv_port":27016,"stv_name":"Uncletopia | Frankfurt | 1 | All Maps | STV","players":null},{"server_id":110,"name":"Uncletopia | Frankfurt | 2 | All Maps","name_short":"frk-2","host":"frk-1.de.uncletopia.com","port":27025,"enabled":true,"region":"eu","cc":"de","latitude":50.110924,"longitude":8.682127,"reserved":0,"last_update":"0001-01-01T00:00:00Z","name_a2s":"Uncletopia | Frankfurt | 2 | All Maps","protocol":17,"map":"cp_process_final","folder":"tf","game":"Team Fortress","app_id":440,"player_count":0,"max_players":24,"Bots":0,"server_type":"Dedicated","server_os":"Linux","password":true,"vac":true,"version":"7757534","steam_id":85568392924469990,"keywords":["cp","nocrits","nodmgspread","uncletopia"],"game_id":440,"stv_port":27026,"stv_name":"Uncletopia | Frankfurt | 2 | All Maps | STV","players":null},{"server_id":308,"name":"Uncletopia | Frankfurt | 3 | All Maps","name_short":"frk-3","host":"frk-1.de.uncletopia.com","port":27035,"enabled":true,"region":"eu","cc":"de","latitude":50.110924,"longitude":8.682127,"reserved":0,"last_update":"0001-01-01T00:00:00Z","name_a2s":"Uncletopia | Frankfurt | 3 | All Maps","protocol":17,"map":"pl_swiftwater_final1","folder":"tf","game":"Team Fortress","app_id":440,"player_count":24,"max_players":24,"Bots":0,"server_type":"Dedicated","server_os":"Linux","password":true,"vac":true,"version":"7757534","steam_id":85568392924504274,"keywords":["nocrits","nodmgspread","payload","uncletopia"],"game_id":440,"stv_port":27036,"stv_name":"Uncletopia | Frankfurt | 3 | All Maps | STV","players":[{"user_id":536,"name":"mały #tf2pickup.pl","steam_id":76561198074409147,"connected_time":846000000000,"state":"active","ping":62},{"user_id":561,"name":"Vanny","steam_id":76561198297961039,"connected_time":13000000000,"state":"spawning","ping":221},{"user_id":562,"name":"phoinks","steam_id":76561198087543005,"connected_time":12000000000,"state":"spawning","ping":44},{"user_id":530,"name":"Shawty","steam_id":76561198158631465,"connected_time":1547000000000,"state":"active","ping":64},{"user_id":557,"name":"BeaVerN","steam_id":76561197977444051,"connected_time":325000000000,"state":"active","ping":74},{"user_id":538,"name":"C0d3s","steam_id":76561198093907544,"connected_time":813000000000,"state":"active","ping":95},{"user_id":558,"name":"Flostro","steam_id":76561198259793697,"connected_time":168000000000,"state":"active","ping":63},{"user_id":506,"name":"Reiyo the Interloper","steam_id":76561198155092485,"connected_time":2612000000000,"state":"active","ping":51},{"user_id":539,"name":"walt","steam_id":76561198871381636,"connected_time":785000000000,"state":"active","ping":98},{"user_id":563,"name":"muttonchops","steam_id":76561198068054530,"connected_time":3000000000,"state":"spawning","ping":151},{"user_id":540,"name":"R","steam_id":76561199379233899,"connected_time":783000000000,"state":"active","ping":90},{"user_id":534,"name":"I have aids","steam_id":76561198860347851,"connected_time":1028000000000,"state":"active","ping":129},{"user_id":508,"name":"EGirl | Klarra","steam_id":76561198077745407,"connected_time":2559000000000,"state":"active","ping":60},{"user_id":533,"name":"B4R10N","steam_id":76561198047167954,"connected_time":1428000000000,"state":"active","ping":49},{"user_id":509,"name":"Genuine Bear","steam_id":76561198290782996,"connected_time":2550000000000,"state":"active","ping":63},{"user_id":521,"name":"Hildreth","steam_id":76561197995254867,"connected_time":2306000000000,"state":"active","ping":55},{"user_id":556,"name":"Bodhi","steam_id":76561198000606642,"connected_time":415000000000,"state":"active","ping":64},{"user_id":564,"name":"ali.","steam_id":76561198148359093,"connected_time":1000000000,"state":"spawning","ping":34},{"user_id":544,"name":"SlwoFø","steam_id":76561198049663931,"connected_time":742000000000,"state":"active","ping":52},{"user_id":525,"name":"Zembis","steam_id":76561198008017918,"connected_time":1938000000000,"state":"active","ping":91},{"user_id":545,"name":"DrippinFat","steam_id":76561198018170682,"connected_time":738000000000,"state":"active","ping":92},{"user_id":560,"name":"You're a hero and you have to..","steam_id":76561198071882999,"connected_time":78000000000,"state":"active","ping":85},{"user_id":550,"name":"Edmost","steam_id":76561198090748165,"connected_time":649000000000,"state":"active","ping":57},{"user_id":554,"name":"minespweper","steam_id":76561199096919345,"connected_time":563000000000,"state":"active","ping":67}]},{"server_id":309,"name":"Uncletopia | Frankfurt | 4 | All Maps","name_short":"frk-4","host":"frk-1.de.uncletopia.com","port":27045,"enabled":true,"region":"eu","cc":"de","latitude":50.110924,"longitude":8.682127,"reserved":0,"last_update":"0001-01-01T00:00:00Z","name_a2s":"Uncletopia | Frankfurt | 4 | All Maps","protocol":17,"map":"cp_foundry","folder":"tf","game":"Team Fortress","app_id":440,"player_count":23,"max_players":24,"Bots":0,"server_type":"Dedicated","server_os":"Linux","password":true,"vac":true,"version":"7757534","steam_id":85568392924504275,"keywords":["cp","nocrits","nodmgspread","uncletopia"],"game_id":440,"stv_port":27046,"stv_name":"Uncletopia | Frankfurt | 4 | All Maps | STV","players":[{"user_id":392,"name":"RevoNine","steam_id":76561198163866206,"connected_time":1930000000000,"state":"active","ping":62},{"user_id":375,"name":"the joy of recycling","steam_id":76561198415564349,"connected_time":3009000000000,"state":"active","ping":61},{"user_id":385,"name":"hud_saytext_time 0","steam_id":76561198010327228,"connected_time":2046000000000,"state":"active","ping":61},{"user_id":402,"name":"Rocadinis","steam_id":76561198095910616,"connected_time":1076000000000,"state":"active","ping":97},{"user_id":411,"name":"Miolen","steam_id":76561198083366424,"connected_time":601000000000,"state":"active","ping":85},{"user_id":383,"name":"Bobirulez","steam_id":76561198009125458,"connected_time":2391000000000,"state":"active","ping":70},{"user_id":398,"name":"Paulbraker","steam_id":76561198150162470,"connected_time":1235000000000,"state":"active","ping":76},{"user_id":353,"name":"hananamanna","steam_id":76561198006570285,"connected_time":4564000000000,"state":"active","ping":102},{"user_id":419,"name":"The Stupid Fucking Gamer","steam_id":76561198068213670,"connected_time":57000000000,"state":"spawning","ping":109},{"user_id":406,"name":"sork","steam_id":76561198082446459,"connected_time":927000000000,"state":"active","ping":67},{"user_id":405,"name":"MARKO","steam_id":76561198065127504,"connected_time":967000000000,"state":"active","ping":59},{"user_id":365,"name":"player","steam_id":76561198054474684,"connected_time":3818000000000,"state":"active","ping":75},{"user_id":397,"name":"Pancakes","steam_id":76561198196259989,"connected_time":1310000000000,"state":"active","ping":61},{"user_id":369,"name":"Charrky","steam_id":76561198054398642,"connected_time":3463000000000,"state":"active","ping":60},{"user_id":417,"name":"asdfghjklöä","steam_id":76561198070819203,"connected_time":389000000000,"state":"active","ping":44},{"user_id":410,"name":"Na'vi Misato (by popular demand","steam_id":76561198130860698,"connected_time":607000000000,"state":"active","ping":68},{"user_id":415,"name":"Aspartus","steam_id":76561198101385763,"connected_time":454000000000,"state":"active","ping":46},{"user_id":337,"name":"Catsanddogs123","steam_id":76561198030868386,"connected_time":5849000000000,"state":"active","ping":102},{"user_id":378,"name":"hey kid, wanna see my Octagon?","steam_id":76561198066287297,"connected_time":2948000000000,"state":"active","ping":55},{"user_id":418,"name":"Janasz","steam_id":76561198369709441,"connected_time":117000000000,"state":"active","ping":74},{"user_id":413,"name":"Firevell","steam_id":76561198154813359,"connected_time":486000000000,"state":"active","ping":55},{"user_id":414,"name":"KragKin","steam_id":76561197971319352,"connected_time":482000000000,"state":"active","ping":87},{"user_id":368,"name":"Udinese Dion","steam_id":76561198067931573,"connected_time":3728000000000,"state":"active","ping":59}]},{"server_id":310,"name":"Uncletopia | Frankfurt | 5 | All Maps","name_short":"frk-5","host":"frk-1.de.uncletopia.com","port":27055,"enabled":true,"region":"eu","cc":"de","latitude":50.110924,"longitude":8.682127,"reserved":0,"last_update":"0001-01-01T00:00:00Z","name_a2s":"Uncletopia | Frankfurt | 5 | All Maps","protocol":17,"map":"pl_badwater","folder":"tf","game":"Team Fortress","app_id":440,"player_count":24,"max_players":24,"Bots":0,"server_type":"Dedicated","server_os":"Linux","password":true,"vac":true,"version":"7757534","steam_id":85568392924504277,"keywords":["nocrits","nodmgspread","payload","uncletopia"],"game_id":440,"stv_port":27056,"stv_name":"Uncletopia | Frankfurt | 5 | All Maps | STV","players":[{"user_id":327,"name":"IceDreamer","steam_id":76561197997569989,"connected_time":3506000000000,"state":"active","ping":59},{"user_id":375,"name":"xristosblin","steam_id":76561199043074852,"connected_time":650000000000,"state":"active","ping":87},{"user_id":366,"name":"richie_panzer","steam_id":76561198124159344,"connected_time":1172000000000,"state":"active","ping":53},{"user_id":367,"name":"_Cpt.Decoder_","steam_id":76561198236937010,"connected_time":1154000000000,"state":"active","ping":84},{"user_id":363,"name":"help","steam_id":76561199056338917,"connected_time":1512000000000,"state":"active","ping":177},{"user_id":376,"name":"Grand Piano Tuna","steam_id":76561198135137213,"connected_time":529000000000,"state":"active","ping":192},{"user_id":368,"name":"MaypulSoyrup","steam_id":76561199213966821,"connected_time":1056000000000,"state":"active","ping":85},{"user_id":377,"name":"mud","steam_id":76561198141497461,"connected_time":496000000000,"state":"active","ping":67},{"user_id":341,"name":"Swiss_Nostalgia","steam_id":76561199159896259,"connected_time":3124000000000,"state":"active","ping":71},{"user_id":378,"name":"bullbdoog","steam_id":76561198332951792,"connected_time":478000000000,"state":"active","ping":70},{"user_id":315,"name":"Kotlet schabowy","steam_id":76561198048983509,"connected_time":3921000000000,"state":"active","ping":72},{"user_id":329,"name":"Drade","steam_id":76561198394605337,"connected_time":3479000000000,"state":"active","ping":171},{"user_id":379,"name":"Archos","steam_id":76561198181820631,"connected_time":434000000000,"state":"active","ping":63},{"user_id":388,"name":"Rashid Besythe","steam_id":76561198081477129,"connected_time":43000000000,"state":"active","ping":61},{"user_id":380,"name":"BIGGERDANGO","steam_id":76561198247876394,"connected_time":428000000000,"state":"active","ping":61},{"user_id":381,"name":"Pingutaro","steam_id":76561198112803718,"connected_time":419000000000,"state":"active","ping":71},{"user_id":354,"name":"Furno","steam_id":76561197999723047,"connected_time":1822000000000,"state":"active","ping":50},{"user_id":386,"name":"Spootnak","steam_id":76561198049052518,"connected_time":362000000000,"state":"active","ping":73},{"user_id":373,"name":"AWJ ˆ-ˆ","steam_id":76561198053628243,"connected_time":752000000000,"state":"active","ping":56},{"user_id":382,"name":"mp1mp2mp3","steam_id":76561198088967665,"connected_time":413000000000,"state":"active","ping":92},{"user_id":383,"name":"Explosive_kink","steam_id":76561198998702838,"connected_time":411000000000,"state":"active","ping":66},{"user_id":303,"name":"PyroTitan","steam_id":76561198096550598,"connected_time":4725000000000,"state":"active","ping":58},{"user_id":384,"name":"KittyKate ❤","steam_id":76561198116340817,"connected_time":409000000000,"state":"active","ping":66},{"user_id":385,"name":"BuzzBees ❤","steam_id":76561198101502273,"connected_time":384000000000,"state":"active","ping":62}]},{"server_id":311,"name":"Uncletopia | Frankfurt | 6 | All Maps","name_short":"frk-6","host":"frk-1.de.uncletopia.com","port":27065,"enabled":true,"region":"eu","cc":"de","latitude":50.110924,"longitude":8.682127,"reserved":0,"last_update":"0001-01-01T00:00:00Z","name_a2s":"Uncletopia | Frankfurt | 6 | All Maps","protocol":17,"map":"pl_frontier_final","folder":"tf","game":"Team Fortress","app_id":440,"player_count":24,"max_players":24,"Bots":0,"server_type":"Dedicated","server_os":"Linux","password":true,"vac":true,"version":"7757534","steam_id":85568392924504278,"keywords":["nocrits","nodmgspread","payload","uncletopia"],"game_id":440,"stv_port":27066,"stv_name":"Uncletopia | Frankfurt | 6 | All Maps | STV","players":[{"user_id":128,"name":"kaelan!","steam_id":76561198001425310,"connected_time":1982000000000,"state":"active","ping":74},{"user_id":141,"name":"Carrotcracker","steam_id":76561198034862396,"connected_time":1196000000000,"state":"active","ping":71},{"user_id":149,"name":"balls","steam_id":76561198058461401,"connected_time":433000000000,"state":"active","ping":45},{"user_id":142,"name":"FlameWarLock","steam_id":76561198858777798,"connected_time":1149000000000,"state":"active","ping":91},{"user_id":91,"name":"dotdotdot","steam_id":76561198057628751,"connected_time":4622000000000,"state":"active","ping":63},{"user_id":17,"name":"Carrot Arc","steam_id":76561198164957006,"connected_time":9692000000000,"state":"active","ping":92},{"user_id":133,"name":"Regan","steam_id":76561198100631086,"connected_time":1740000000000,"state":"active","ping":68},{"user_id":131,"name":"Seail_M","steam_id":76561198002405605,"connected_time":1889000000000,"state":"active","ping":49},{"user_id":147,"name":"Dim","steam_id":76561198141549249,"connected_time":510000000000,"state":"active","ping":148},{"user_id":95,"name":"smell_my_cheese","steam_id":76561198008517427,"connected_time":4492000000000,"state":"active","ping":68},{"user_id":144,"name":"Eing","steam_id":76561198253125820,"connected_time":612000000000,"state":"active","ping":90},{"user_id":88,"name":"I'm past the point of insanity","steam_id":76561198800954471,"connected_time":4661000000000,"state":"active","ping":80},{"user_id":125,"name":"blurst of times","steam_id":76561197972325640,"connected_time":2369000000000,"state":"active","ping":52},{"user_id":139,"name":"a dollop of bird","steam_id":76561198089003514,"connected_time":1493000000000,"state":"active","ping":45},{"user_id":150,"name":"Yachox","steam_id":76561198158259745,"connected_time":383000000000,"state":"active","ping":93},{"user_id":151,"name":"skai","steam_id":76561198184881255,"connected_time":343000000000,"state":"active","ping":74},{"user_id":72,"name":"eduardo","steam_id":76561198014491925,"connected_time":6191000000000,"state":"active","ping":75},{"user_id":146,"name":"Juiceydough","steam_id":76561197997323419,"connected_time":595000000000,"state":"active","ping":91},{"user_id":81,"name":"Pico","steam_id":76561198063552545,"connected_time":5809000000000,"state":"active","ping":99},{"user_id":152,"name":"paguro","steam_id":76561198119560871,"connected_time":321000000000,"state":"active","ping":75},{"user_id":136,"name":"BunkerBoy","steam_id":76561198859439313,"connected_time":1672000000000,"state":"active","ping":82},{"user_id":127,"name":"Gryoss","steam_id":76561197999837111,"connected_time":2072000000000,"state":"active","ping":106},{"user_id":137,"name":"Raingnome @SaveTF2","steam_id":76561198007394958,"connected_time":1664000000000,"state":"active","ping":73},{"user_id":153,"name":"Shaiva","steam_id":76561198034677706,"connected_time":275000000000,"state":"active","ping":78}]},{"server_id":23,"name":"Uncletopia | Frankfurt | 7 | Stopwatch Beta","name_short":"frk-7","host":"frk-1.de.uncletopia.com","port":27075,"enabled":true,"region":"eu","cc":"de","latitude":50.110924,"longitude":8.682127,"reserved":0,"last_update":"0001-01-01T00:00:00Z","name_a2s":"Uncletopia | Frankfurt | 7 | Stopwatch Beta","protocol":17,"map":"pl_borneo","folder":"tf","game":"Team Fortress","app_id":440,"player_count":0,"max_players":24,"Bots":0,"server_type":"Dedicated","server_os":"Linux","password":true,"vac":true,"version":"7757534","steam_id":85568392924742827,"keywords":["nocrits","nodmgspread","payload","uncletopia"],"game_id":440,"stv_port":27076,"stv_name":"Uncletopia | Frankfurt | 7 | Stopwatch Beta | STV","players":null},{"server_id":24,"name":"Uncletopia | Frankfurt | 8 | Community","name_short":"frk-8","host":"frk-1.de.uncletopia.com","port":27085,"enabled":true,"region":"eu","cc":"de","latitude":50.110924,"longitude":8.682127,"reserved":0,"last_update":"0001-01-01T00:00:00Z","name_a2s":"Uncletopia | Frankfurt | 8 | Community","protocol":17,"map":"workshop/koth_ashville_final.ugc2130459942","folder":"tf","game":"Team Fortress","app_id":440,"player_count":0,"max_players":24,"Bots":0,"server_type":"Dedicated","server_os":"Linux","password":true,"vac":true,"version":"7757534","steam_id":85568392924742828,"keywords":["cp","nocrits","nodmgspread","uncletopia"],"game_id":440,"stv_port":27086,"stv_name":"Uncletopia | Frankfurt | 8 | Community | STV","players":null},{"server_id":202,"name":"Uncletopia | Hong Kong | 1 | All Maps","name_short":"hgk-1","host":"hgk-1.hk.uncletopia.com","port":27015,"enabled":true,"region":"asia","cc":"hk","latitude":22.302711,"longitude":114.177216,"reserved":0,"last_update":"0001-01-01T00:00:00Z","name_a2s":"Uncletopia | Hong Kong | 1 | All Maps","protocol":17,"map":"koth_lakeside_final","folder":"tf","game":"Team Fortress","app_id":440,"player_count":0,"max_players":24,"Bots":0,"server_type":"Dedicated","server_os":"Linux","password":true,"vac":true,"version":"7757534","steam_id":85568392924494504,"keywords":["cp","nocrits","nodmgspread","uncletopia"],"game_id":440,"stv_port":27016,"stv_name":"Uncletopia | Hong Kong | 1 | All Maps | STV","players":null},{"server_id":1,"name":"Uncletopia | Los Angeles | 1 | All Maps","name_short":"lax-1","host":"lax-1.us.uncletopia.com","port":27015,"enabled":true,"region":"us-west","cc":"us","latitude":33.94279,"longitude":-118.41004,"reserved":0,"last_update":"0001-01-01T00:00:00Z","name_a2s":"Uncletopia | Los Angeles | 1 | All Maps","protocol":17,"map":"cp_mountainlab","folder":"tf","game":"Team Fortress","app_id":440,"player_count":0,"max_players":24,"Bots":0,"server_type":"Dedicated","server_os":"Linux","password":true,"vac":true,"version":"7757534","steam_id":85568392924469991,"keywords":["cp","nocrits","nodmgspread","uncletopia"],"game_id":440,"stv_port":27016,"stv_name":"Uncletopia | Los Angeles | 1 | All Maps | STV","players":null},{"server_id":112,"name":"Uncletopia | Los Angeles | 2 | All Maps","name_short":"lax-2","host":"lax-1.us.uncletopia.com","port":27025,"enabled":true,"region":"us-west","cc":"us","latitude":33.94279,"longitude":-118.41004,"reserved":0,"last_update":"0001-01-01T00:00:00Z","name_a2s":"Uncletopia | Los Angeles | 2 | All Maps","protocol":17,"map":"koth_viaduct","folder":"tf","game":"Team Fortress","app_id":440,"player_count":0,"max_players":24,"Bots":0,"server_type":"Dedicated","server_os":"Linux","password":true,"vac":true,"version":"7757534","steam_id":85568392924469992,"keywords":["cp","nocrits","nodmgspread","uncletopia"],"game_id":440,"stv_port":27026,"stv_name":"Uncletopia | Los Angeles | 2 | All Maps | STV","players":null},{"server_id":324,"name":"Uncletopia | Los Angeles | 3 | All Maps","name_short":"lax-3","host":"lax-1.us.uncletopia.com","port":27035,"enabled":true,"region":"us-west","cc":"us","latitude":33.94279,"longitude":-118.41004,"reserved":0,"last_update":"0001-01-01T00:00:00Z","name_a2s":"Uncletopia | Los Angeles | 3 | All Maps","protocol":17,"map":"pl_swiftwater_final1","folder":"tf","game":"Team Fortress","app_id":440,"player_count":0,"max_players":24,"Bots":0,"server_type":"Dedicated","server_os":"Linux","password":true,"vac":true,"version":"7757534","steam_id":85568392924510198,"keywords":["nocrits","nodmgspread","payload","uncletopia"],"game_id":440,"stv_port":27036,"stv_name":"Uncletopia | Los Angeles | 3 | All Maps | STV","players":null},{"server_id":25,"name":"Uncletopia | Los Angeles | 4 | Stopwatch Beta","name_short":"lax-4","host":"lax-1.us.uncletopia.com","port":27045,"enabled":true,"region":"us-west","cc":"us","latitude":33.94279,"longitude":-118.41004,"reserved":0,"last_update":"0001-01-01T00:00:00Z","name_a2s":"Uncletopia | Los Angeles | 4 | Stopwatch Beta","protocol":17,"map":"workshop/koth_product_final.ugc454272353","folder":"tf","game":"Team Fortress","app_id":440,"player_count":0,"max_players":24,"Bots":0,"server_type":"Dedicated","server_os":"Linux","password":true,"vac":true,"version":"7757534","steam_id":85568392924510199,"keywords":["cp","nocrits","nodmgspread","uncletopia"],"game_id":440,"stv_port":27046,"stv_name":"Uncletopia | Los Angeles | 4 | Stopwatch Beta | STV","players":null},{"server_id":11,"name":"Uncletopia | London | 1 | All Maps","name_short":"lon-1","host":"lon-1.uk.uncletopia.com","port":27015,"enabled":true,"region":"eu","cc":"gb","latitude":51.509865,"longitude":-0.118092,"reserved":0,"last_update":"0001-01-01T00:00:00Z","name_a2s":"Uncletopia | London | 1 | All Maps","protocol":17,"map":"pl_badwater","folder":"tf","game":"Team Fortress","app_id":440,"player_count":24,"max_players":24,"Bots":0,"server_type":"Dedicated","server_os":"Linux","password":true,"vac":true,"version":"7757534","steam_id":85568392924367362,"keywords":["nocrits","nodmgspread","payload","uncletopia"],"game_id":440,"stv_port":27016,"stv_name":"Uncletopia | London | 1 | All Maps | STV","players":[{"user_id":462,"name":"Quack","steam_id":76561198048712219,"connected_time":6704000000000,"state":"active","ping":59},{"user_id":531,"name":"✪ Danny","steam_id":76561198104483241,"connected_time":1760000000000,"state":"active","ping":50},{"user_id":515,"name":"regimiro","steam_id":76561198120457008,"connected_time":2986000000000,"state":"active","ping":54},{"user_id":525,"name":"CumbustiblePunda","steam_id":76561197974274677,"connected_time":2116000000000,"state":"active","ping":56},{"user_id":526,"name":"NiceBird","steam_id":76561198072118644,"connected_time":2080000000000,"state":"active","ping":41},{"user_id":518,"name":"Segra blw.tf","steam_id":76561198441974031,"connected_time":2713000000000,"state":"active","ping":82},{"user_id":500,"name":"Dewotter","steam_id":76561198007653168,"connected_time":3645000000000,"state":"active","ping":53},{"user_id":413,"name":"Proto-arc","steam_id":76561198012776747,"connected_time":9795000000000,"state":"active","ping":50},{"user_id":520,"name":"AWildTamim","steam_id":76561198048060652,"connected_time":2671000000000,"state":"active","ping":44},{"user_id":502,"name":"Chill Spirit","steam_id":76561198845001725,"connected_time":3608000000000,"state":"active","ping":59},{"user_id":532,"name":"aura","steam_id":76561197991687793,"connected_time":1246000000000,"state":"active","ping":72},{"user_id":486,"name":"Mustekala1","steam_id":76561198044468928,"connected_time":4609000000000,"state":"active","ping":61},{"user_id":513,"name":"R","steam_id":76561198148030229,"connected_time":3058000000000,"state":"active","ping":60},{"user_id":529,"name":"Purps","steam_id":76561198053886680,"connected_time":1788000000000,"state":"active","ping":38},{"user_id":509,"name":"nedilya","steam_id":76561198039692077,"connected_time":3337000000000,"state":"active","ping":65},{"user_id":507,"name":"slickbandxz","steam_id":76561198119553577,"connected_time":3535000000000,"state":"active","ping":115},{"user_id":534,"name":"SuperBob103","steam_id":76561199175360012,"connected_time":849000000000,"state":"active","ping":47},{"user_id":533,"name":"fénix","steam_id":76561198083199151,"connected_time":914000000000,"state":"active","ping":58},{"user_id":530,"name":"anastasia","steam_id":76561197994492154,"connected_time":1787000000000,"state":"active","ping":78},{"user_id":535,"name":"KATTILALASAGNE || 4,8KG","steam_id":76561198357894803,"connected_time":530000000000,"state":"active","ping":91},{"user_id":514,"name":"dn4k","steam_id":76561199221755690,"connected_time":3020000000000,"state":"active","ping":84},{"user_id":536,"name":"Takitataki","steam_id":76561198090146457,"connected_time":451000000000,"state":"active","ping":42},{"user_id":485,"name":"SOPHIIEE","steam_id":76561198443798981,"connected_time":4671000000000,"state":"active","ping":59},{"user_id":523,"name":"Bgm_","steam_id":76561198056452044,"connected_time":2266000000000,"state":"active","ping":74}]},{"server_id":114,"name":"Uncletopia | London | 2 | All Maps","name_short":"lon-2","host":"lon-1.uk.uncletopia.com","port":27025,"enabled":true,"region":"eu","cc":"gb","latitude":51.509865,"longitude":-0.118092,"reserved":0,"last_update":"0001-01-01T00:00:00Z","name_a2s":"Uncletopia | London | 2 | All Maps","protocol":17,"map":"pl_borneo","folder":"tf","game":"Team Fortress","app_id":440,"player_count":17,"max_players":24,"Bots":0,"server_type":"Dedicated","server_os":"Linux","password":true,"vac":true,"version":"7757534","steam_id":85568392924470941,"keywords":["nocrits","nodmgspread","payload","uncletopia"],"game_id":440,"stv_port":27026,"stv_name":"Uncletopia | London | 2 | All Maps | STV","players":[{"user_id":430,"name":"Sparky","steam_id":76561198036754195,"connected_time":1097000000000,"state":"active","ping":49},{"user_id":435,"name":"Benzo Fury","steam_id":76561198025259336,"connected_time":919000000000,"state":"active","ping":42},{"user_id":418,"name":"alshep00","steam_id":76561198079585198,"connected_time":1306000000000,"state":"active","ping":52},{"user_id":443,"name":"Marquis de Hoto","steam_id":76561198080687708,"connected_time":203000000000,"state":"active","ping":69},{"user_id":444,"name":"NotExactlyAName","steam_id":76561199131759230,"connected_time":187000000000,"state":"active","ping":77},{"user_id":408,"name":"Christmas Ham","steam_id":76561198119601623,"connected_time":2557000000000,"state":"active","ping":59},{"user_id":415,"name":"Codex","steam_id":76561198068748584,"connected_time":1487000000000,"state":"active","ping":104},{"user_id":419,"name":"Haha?","steam_id":76561198056882245,"connected_time":1290000000000,"state":"active","ping":43},{"user_id":439,"name":"SentineL","steam_id":76561198220318183,"connected_time":665000000000,"state":"active","ping":52},{"user_id":431,"name":"The_Jaystone","steam_id":76561198126280691,"connected_time":1089000000000,"state":"active","ping":30},{"user_id":423,"name":"gabagool","steam_id":76561198307111838,"connected_time":1235000000000,"state":"active","ping":46},{"user_id":437,"name":"tone","steam_id":76561197975301462,"connected_time":858000000000,"state":"active","ping":74},{"user_id":448,"name":"frosty","steam_id":76561198094560834,"connected_time":118000000000,"state":"active","ping":45},{"user_id":438,"name":"Stretch","steam_id":76561198200856614,"connected_time":855000000000,"state":"active","ping":161},{"user_id":410,"name":"Rolloden","steam_id":76561198069414404,"connected_time":2438000000000,"state":"active","ping":70},{"user_id":440,"name":"Cinnamon","steam_id":76561198195816311,"connected_time":655000000000,"state":"active","ping":29},{"user_id":442,"name":"ducks","steam_id":76561198166148685,"connected_time":636000000000,"state":"active","ping":30}]},{"server_id":320,"name":"Uncletopia | London | 3 | All Maps","name_short":"lon-3","host":"lon-1.uk.uncletopia.com","port":27035,"enabled":true,"region":"eu","cc":"gb","latitude":51.509865,"longitude":-0.118092,"reserved":0,"last_update":"0001-01-01T00:00:00Z","name_a2s":"Uncletopia | London | 3 | All Maps","protocol":17,"map":"koth_lakeside_final","folder":"tf","game":"Team Fortress","app_id":440,"player_count":19,"max_players":24,"Bots":0,"server_type":"Dedicated","server_os":"Linux","password":true,"vac":true,"version":"7757534","steam_id":85568392924510192,"keywords":["cp","nocrits","nodmgspread","uncletopia"],"game_id":440,"stv_port":27036,"stv_name":"Uncletopia | London | 3 | All Maps | STV","players":[{"user_id":855,"name":"Carrot","steam_id":76561198119340863,"connected_time":986000000000,"state":"active","ping":38},{"user_id":856,"name":"mh","steam_id":76561198442932674,"connected_time":945000000000,"state":"active","ping":48},{"user_id":857,"name":"abipinch","steam_id":76561199104348040,"connected_time":897000000000,"state":"active","ping":59},{"user_id":858,"name":"lollyformolly","steam_id":76561199017868205,"connected_time":880000000000,"state":"active","ping":47},{"user_id":859,"name":"olsolsols12","steam_id":76561198089444052,"connected_time":829000000000,"state":"active","ping":52},{"user_id":860,"name":"niallmrl","steam_id":76561198324221284,"connected_time":703000000000,"state":"active","ping":48},{"user_id":861,"name":"Soloman","steam_id":76561199212054667,"connected_time":477000000000,"state":"active","ping":44},{"user_id":862,"name":"SilentSol","steam_id":76561198000798212,"connected_time":239000000000,"state":"active","ping":71},{"user_id":863,"name":"Le lapin de l'Impuissance","steam_id":76561198137980672,"connected_time":234000000000,"state":"active","ping":46},{"user_id":864,"name":"Archimus","steam_id":76561198097378176,"connected_time":158000000000,"state":"active","ping":54},{"user_id":867,"name":"Superiumentarius","steam_id":76561198081642249,"connected_time":137000000000,"state":"active","ping":60},{"user_id":866,"name":"Mircoxi","steam_id":76561199407632710,"connected_time":143000000000,"state":"active","ping":57},{"user_id":868,"name":"a perfectly fine dog","steam_id":76561198000890796,"connected_time":126000000000,"state":"active","ping":106},{"user_id":869,"name":"engie?","steam_id":76561198331852832,"connected_time":126000000000,"state":"active","ping":45},{"user_id":870,"name":"Thomy","steam_id":76561198106799721,"connected_time":107000000000,"state":"active","ping":56},{"user_id":871,"name":"Frank","steam_id":76561198086672774,"connected_time":100000000000,"state":"active","ping":49},{"user_id":872,"name":"kotamine","steam_id":76561198068907991,"connected_time":71000000000,"state":"active","ping":75},{"user_id":873,"name":"Roon","steam_id":76561198191983045,"connected_time":66000000000,"state":"spawning","ping":65},{"user_id":874,"name":"☁ Lou1smeister ☁","steam_id":76561198004032968,"connected_time":39000000000,"state":"active","ping":61}]},{"server_id":321,"name":"Uncletopia | London | 4 | All Maps","name_short":"lon-4","host":"lon-1.uk.uncletopia.com","port":27045,"enabled":true,"region":"eu","cc":"gb","latitude":51.509865,"longitude":-0.118092,"reserved":0,"last_update":"0001-01-01T00:00:00Z","name_a2s":"Uncletopia | London | 4 | All Maps","protocol":17,"map":"pl_frontier_final","folder":"tf","game":"Team Fortress","app_id":440,"player_count":0,"max_players":24,"Bots":0,"server_type":"Dedicated","server_os":"Linux","password":true,"vac":true,"version":"7757534","steam_id":85568392924510193,"keywords":["nocrits","nodmgspread","payload","uncletopia"],"game_id":440,"stv_port":27046,"stv_name":"Uncletopia | London | 4 | All Maps | STV","players":null},{"server_id":21,"name":"Uncletopia | London | 5 | All Maps","name_short":"lon-5","host":"lon-1.uk.uncletopia.com","port":27055,"enabled":true,"region":"eu","cc":"gb","latitude":51.509865,"longitude":-0.118092,"reserved":0,"last_update":"0001-01-01T00:00:00Z","name_a2s":"Uncletopia | London | 5 | All Maps","protocol":17,"map":"cp_process_final","folder":"tf","game":"Team Fortress","app_id":440,"player_count":24,"max_players":24,"Bots":0,"server_type":"Dedicated","server_os":"Linux","password":true,"vac":true,"version":"7757534","steam_id":85568392924742829,"keywords":["cp","nocrits","nodmgspread","uncletopia"],"game_id":440,"stv_port":27056,"stv_name":"Uncletopia | London | 5 | All Maps | STV","players":[{"user_id":129,"name":"Mad_Scientist","steam_id":76561198121431854,"connected_time":1392000000000,"state":"active","ping":56},{"user_id":142,"name":"dansal","steam_id":76561197997042510,"connected_time":539000000000,"state":"active","ping":154},{"user_id":140,"name":"Ecton","steam_id":76561198025103720,"connected_time":595000000000,"state":"active","ping":55},{"user_id":60,"name":"Fat Pigeon","steam_id":76561198817940142,"connected_time":6015000000000,"state":"active","ping":47},{"user_id":127,"name":"not so yahoo","steam_id":76561198037550223,"connected_time":1479000000000,"state":"active","ping":95},{"user_id":143,"name":"Tort","steam_id":76561198329646769,"connected_time":507000000000,"state":"active","ping":55},{"user_id":58,"name":"X-tis","steam_id":76561198043837480,"connected_time":6130000000000,"state":"active","ping":63},{"user_id":141,"name":"Roger Slippers","steam_id":76561198188642265,"connected_time":587000000000,"state":"active","ping":158},{"user_id":130,"name":"Mussolini","steam_id":76561198218384865,"connected_time":1383000000000,"state":"active","ping":104},{"user_id":118,"name":"Kraftlos","steam_id":76561198074350350,"connected_time":2108000000000,"state":"active","ping":130},{"user_id":107,"name":"GuSkand","steam_id":76561198043775605,"connected_time":2543000000000,"state":"active","ping":92},{"user_id":144,"name":"Glushy","steam_id":76561198436817109,"connected_time":457000000000,"state":"active","ping":50},{"user_id":90,"name":"wouris","steam_id":76561198876188003,"connected_time":3723000000000,"state":"active","ping":63},{"user_id":145,"name":"timmy002","steam_id":76561198027033926,"connected_time":400000000000,"state":"active","ping":71},{"user_id":137,"name":"Endi","steam_id":76561198914938199,"connected_time":723000000000,"state":"active","ping":107},{"user_id":112,"name":"SUIDosa","steam_id":76561198071668962,"connected_time":2450000000000,"state":"active","ping":85},{"user_id":94,"name":"Samus","steam_id":76561198045943019,"connected_time":3050000000000,"state":"active","ping":57},{"user_id":146,"name":"DeCypher [She/Her]","steam_id":76561198171992619,"connected_time":344000000000,"state":"active","ping":70},{"user_id":95,"name":"TurboTabs","steam_id":76561198009785131,"connected_time":3042000000000,"state":"active","ping":52},{"user_id":93,"name":"PizzaPete123","steam_id":76561198089478290,"connected_time":3090000000000,"state":"active","ping":36},{"user_id":147,"name":"PixelHyde","steam_id":76561198040878617,"connected_time":326000000000,"state":"active","ping":69},{"user_id":86,"name":"ChPerette","steam_id":76561198060004887,"connected_time":3972000000000,"state":"active","ping":46},{"user_id":131,"name":"Ork","steam_id":76561197968575924,"connected_time":1321000000000,"state":"active","ping":51},{"user_id":135,"name":"zaleek69","steam_id":76561198058877595,"connected_time":798000000000,"state":"active","ping":78}]},{"server_id":22,"name":"Uncletopia | London | 6 | All Maps","name_short":"lon-6","host":"lon-1.uk.uncletopia.com","port":27065,"enabled":true,"region":"eu","cc":"gb","latitude":51.509865,"longitude":-0.118092,"reserved":0,"last_update":"0001-01-01T00:00:00Z","name_a2s":"Uncletopia | London | 6 | All Maps","protocol":17,"map":"koth_highpass","folder":"tf","game":"Team Fortress","app_id":440,"player_count":0,"max_players":24,"Bots":0,"server_type":"Dedicated","server_os":"Linux","password":true,"vac":true,"version":"7757534","steam_id":85568392924742830,"keywords":["cp","nocrits","nodmgspread","uncletopia"],"game_id":440,"stv_port":27066,"stv_name":"Uncletopia | London | 6 | All Maps | STV","players":null},{"server_id":40,"name":"Uncletopia | London | 7 | No Payload","name_short":"lon-7","host":"lon-1.uk.uncletopia.com","port":27075,"enabled":true,"region":"eu","cc":"gb","latitude":51.509865,"longitude":-0.118092,"reserved":0,"last_update":"0001-01-01T00:00:00Z","name_a2s":"Uncletopia | London | 7 | No Payload","protocol":17,"map":"cp_vanguard","folder":"tf","game":"Team Fortress","app_id":440,"player_count":0,"max_players":24,"Bots":0,"server_type":"Dedicated","server_os":"Linux","password":true,"vac":true,"version":"7757534","steam_id":85568392924964314,"keywords":["cp","nocrits","nodmgspread","uncletopia"],"game_id":440,"stv_port":27076,"stv_name":"Uncletopia | London | 7 | No Payload | STV","players":null},{"server_id":41,"name":"Uncletopia | London | 8 | Community","name_short":"lon-8","host":"lon-1.uk.uncletopia.com","port":27085,"enabled":true,"region":"eu","cc":"gb","latitude":51.509865,"longitude":-0.118092,"reserved":0,"last_update":"0001-01-01T00:00:00Z","name_a2s":"Uncletopia | London | 8 | Community","protocol":17,"map":"workshop/cp_kalinka_rc6a.ugc1272700588","folder":"tf","game":"Team Fortress","app_id":440,"player_count":0,"max_players":24,"Bots":0,"server_type":"Dedicated","server_os":"Linux","password":true,"vac":true,"version":"7757534","steam_id":85568392924964315,"keywords":["cp","nocrits","nodmgspread","uncletopia"],"game_id":440,"stv_port":27086,"stv_name":"Uncletopia | London | 8 | Community | STV","players":null},{"server_id":300,"name":"Uncletopia | Montréal | 1 | All Maps","name_short":"mtl-1","host":"mtl-1.ca.uncletopia.com","port":27015,"enabled":true,"region":"us-east","cc":"ca","latitude":45.50889,"longitude":-73.56167,"reserved":0,"last_update":"0001-01-01T00:00:00Z","name_a2s":"Uncletopia | Montréal | 1 | All Maps","protocol":17,"map":"koth_harvest_final","folder":"tf","game":"Team Fortress","app_id":440,"player_count":22,"max_players":24,"Bots":0,"server_type":"Dedicated","server_os":"Linux","password":true,"vac":true,"version":"7757534","steam_id":85568392924500087,"keywords":["cp","nocrits","nodmgspread","uncletopia"],"game_id":440,"stv_port":27016,"stv_name":"Uncletopia | Montréal | 1 | All Maps | STV","players":[{"user_id":333,"name":"[chef] iron","steam_id":76561197970888616,"connected_time":516000000000,"state":"active","ping":60},{"user_id":334,"name":"Jack the Snacc","steam_id":76561198045758861,"connected_time":450000000000,"state":"active","ping":121},{"user_id":331,"name":"Cousin Balki","steam_id":76561198070496395,"connected_time":923000000000,"state":"active","ping":61},{"user_id":335,"name":"g00bur","steam_id":76561197993622520,"connected_time":407000000000,"state":"active","ping":60},{"user_id":316,"name":"HeisenBurger","steam_id":76561198040632080,"connected_time":1916000000000,"state":"active","ping":35},{"user_id":311,"name":"pieistasty14","steam_id":76561199049353948,"connected_time":2255000000000,"state":"active","ping":80},{"user_id":310,"name":"Daddys Home","steam_id":76561198034702011,"connected_time":2265000000000,"state":"active","ping":66},{"user_id":305,"name":"The Drunk Clown","steam_id":76561197986850426,"connected_time":2965000000000,"state":"active","ping":52},{"user_id":328,"name":"\u003c3Elise\u003c3","steam_id":76561198146435005,"connected_time":1394000000000,"state":"active","ping":98},{"user_id":283,"name":"self-cannibalizing customer. \ufffd\ufffd","steam_id":76561198294013916,"connected_time":3934000000000,"state":"active","ping":56},{"user_id":318,"name":"Ape","steam_id":76561198132535311,"connected_time":1898000000000,"state":"active","ping":69},{"user_id":326,"name":"Major Woody","steam_id":76561198835541533,"connected_time":1483000000000,"state":"active","ping":57},{"user_id":327,"name":"クレオラ","steam_id":76561198000830794,"connected_time":1468000000000,"state":"active","ping":107},{"user_id":340,"name":"Sergeant Joker #savetf2","steam_id":76561198854616604,"connected_time":23000000000,"state":"active","ping":48},{"user_id":307,"name":"Bird of Paradise","steam_id":76561198891152046,"connected_time":2912000000000,"state":"active","ping":104},{"user_id":292,"name":"catrinaisahuman","steam_id":76561198281355729,"connected_time":3336000000000,"state":"active","ping":93},{"user_id":278,"name":"800 Ping","steam_id":76561198079841458,"connected_time":4568000000000,"state":"active","ping":91},{"user_id":337,"name":"magotago","steam_id":76561198013650292,"connected_time":353000000000,"state":"active","ping":114},{"user_id":338,"name":"sheep","steam_id":76561198172943006,"connected_time":348000000000,"state":"active","ping":62},{"user_id":332,"name":"Smidvargh","steam_id":76561198121298631,"connected_time":665000000000,"state":"active","ping":68},{"user_id":281,"name":"Temujin","steam_id":76561198030936583,"connected_time":4488000000000,"state":"active","ping":45},{"user_id":304,"name":"Salmon run gaming #SaveTf2","steam_id":76561199239325179,"connected_time":3067000000000,"state":"active","ping":130}]},{"server_id":301,"name":"Uncletopia | Montréal | 2 | All Maps","name_short":"mtl-2","host":"mtl-1.ca.uncletopia.com","port":27025,"enabled":true,"region":"us-east","cc":"ca","latitude":45.50889,"longitude":-73.56167,"reserved":0,"last_update":"0001-01-01T00:00:00Z","name_a2s":"Uncletopia | Montréal | 2 | All Maps","protocol":17,"map":"pl_barnblitz","folder":"tf","game":"Team Fortress","app_id":440,"player_count":0,"max_players":24,"Bots":0,"server_type":"Dedicated","server_os":"Linux","password":true,"vac":true,"version":"7757534","steam_id":85568392924500088,"keywords":["nocrits","nodmgspread","payload","uncletopia"],"game_id":440,"stv_port":27026,"stv_name":"Uncletopia | Montréal | 2 | All Maps | STV","players":null},{"server_id":302,"name":"Uncletopia | Montréal | 3 | All Maps","name_short":"mtl-3","host":"mtl-1.ca.uncletopia.com","port":27035,"enabled":true,"region":"us-east","cc":"ca","latitude":45.50889,"longitude":-73.56167,"reserved":0,"last_update":"0001-01-01T00:00:00Z","name_a2s":"Uncletopia | Montréal | 3 | All Maps","protocol":17,"map":"plr_hightower","folder":"tf","game":"Team Fortress","app_id":440,"player_count":13,"max_players":24,"Bots":0,"server_type":"Dedicated","server_os":"Linux","password":true,"vac":true,"version":"7757534","steam_id":85568392924500089,"keywords":["nocrits","nodmgspread","payload","uncletopia"],"game_id":440,"stv_port":27036,"stv_name":"Uncletopia | Montréal | 3 | All Maps | STV","players":[{"user_id":21,"name":"Dorsalgull","steam_id":76561199098217729,"connected_time":3000000000000,"state":"active","ping":104},{"user_id":23,"name":"Knightking309","steam_id":76561199076546834,"connected_time":2953000000000,"state":"active","ping":110},{"user_id":24,"name":"Kanksteli","steam_id":76561198035919109,"connected_time":2715000000000,"state":"active","ping":150},{"user_id":42,"name":"Heat seeking missile","steam_id":76561198850475407,"connected_time":15000000000,"state":"spawning","ping":45},{"user_id":26,"name":"BIGGEST MAC","steam_id":76561198847517098,"connected_time":2658000000000,"state":"active","ping":86},{"user_id":27,"name":"Infinitive","steam_id":76561199454352648,"connected_time":2438000000000,"state":"active","ping":87},{"user_id":28,"name":"Felix Argyle","steam_id":76561198999454961,"connected_time":2377000000000,"state":"active","ping":80},{"user_id":29,"name":"Grenade Chucker","steam_id":76561198040532757,"connected_time":2215000000000,"state":"active","ping":86},{"user_id":39,"name":"Peri","steam_id":76561198255311543,"connected_time":297000000000,"state":"active","ping":75},{"user_id":33,"name":"badbobdooley","steam_id":76561199092672434,"connected_time":1050000000000,"state":"active","ping":88},{"user_id":34,"name":"WALLOP","steam_id":76561198280098491,"connected_time":976000000000,"state":"active","ping":101},{"user_id":38,"name":"Professional Brohamad","steam_id":76561198824025210,"connected_time":330000000000,"state":"active","ping":63},{"user_id":41,"name":"The Real Slim Shady","steam_id":76561198162104625,"connected_time":97000000000,"state":"active","ping":43}]},{"server_id":303,"name":"Uncletopia | Montréal | 4 | No Payload","name_short":"mtl-4","host":"mtl-1.ca.uncletopia.com","port":27045,"enabled":true,"region":"us-east","cc":"ca","latitude":45.50889,"longitude":-73.56167,"reserved":0,"last_update":"0001-01-01T00:00:00Z","name_a2s":"Uncletopia | Montréal | 4 | No Payload","protocol":17,"map":"pl_pier","folder":"tf","game":"Team Fortress","app_id":440,"player_count":0,"max_players":24,"Bots":0,"server_type":"Dedicated","server_os":"Linux","password":true,"vac":true,"version":"7757534","steam_id":85568392924500090,"keywords":["nocrits","nodmgspread","payload","uncletopia"],"game_id":440,"stv_port":27046,"stv_name":"Uncletopia | Montréal | 4 | No Payload | STV","players":null},{"server_id":13,"name":"Uncletopia | New York City | 1 | All Maps","name_short":"nyc-1","host":"nyc-1.us.uncletopia.com","port":27015,"enabled":true,"region":"us-east","cc":"us","latitude":40.73061,"longitude":-73.93524,"reserved":0,"last_update":"0001-01-01T00:00:00Z","name_a2s":"Uncletopia | New York City | 1 | All Maps","protocol":17,"map":"koth_lakeside_final","folder":"tf","game":"Team Fortress","app_id":440,"player_count":9,"max_players":24,"Bots":0,"server_type":"Dedicated","server_os":"Linux","password":true,"vac":true,"version":"7757534","steam_id":85568392924469993,"keywords":["cp","nocrits","nodmgspread","uncletopia"],"game_id":440,"stv_port":27016,"stv_name":"Uncletopia | New York City | 1 | All Maps | STV","players":[{"user_id":14,"name":"Super D Duper","steam_id":76561198078203677,"connected_time":829000000000,"state":"active","ping":53},{"user_id":15,"name":"Hook, Line, and Sphincter","steam_id":76561198078207743,"connected_time":819000000000,"state":"active","ping":43},{"user_id":16,"name":"xxXStealthSuppositoriesXxx","steam_id":76561198075235541,"connected_time":743000000000,"state":"active","ping":140},{"user_id":18,"name":"Lost CS player","steam_id":76561198892387723,"connected_time":410000000000,"state":"active","ping":54},{"user_id":19,"name":"LT-Kitosans","steam_id":76561198063209082,"connected_time":220000000000,"state":"active","ping":74},{"user_id":20,"name":"SAX LEGEND","steam_id":76561198312153623,"connected_time":167000000000,"state":"active","ping":43},{"user_id":21,"name":"WACK","steam_id":76561198075605180,"connected_time":138000000000,"state":"active","ping":45},{"user_id":22,"name":"YoshaBoss","steam_id":76561198449656454,"connected_time":85000000000,"state":"active","ping":45},{"user_id":23,"name":"Bunnyboy","steam_id":76561198298416058,"connected_time":66000000000,"state":"active","ping":64}]},{"server_id":14,"name":"Uncletopia | New York City | 2 | All Maps","name_short":"nyc-2","host":"nyc-1.us.uncletopia.com","port":27025,"enabled":true,"region":"us-east","cc":"us","latitude":40.73061,"longitude":-73.93524,"reserved":0,"last_update":"0001-01-01T00:00:00Z","name_a2s":"Uncletopia | New York City | 2 | All Maps","protocol":17,"map":"koth_cascade","folder":"tf","game":"Team Fortress","app_id":440,"player_count":0,"max_players":24,"Bots":0,"server_type":"Dedicated","server_os":"Linux","password":true,"vac":true,"version":"7757534","steam_id":85568392924469994,"keywords":["cp","nocrits","nodmgspread","uncletopia"],"game_id":440,"stv_port":27026,"stv_name":"Uncletopia | New York City | 2 | All Maps | STV","players":null},{"server_id":15,"name":"Uncletopia | New York City | 3 | Stopwatch Beta","name_short":"nyc-3","host":"nyc-1.us.uncletopia.com","port":27035,"enabled":true,"region":"us-east","cc":"us","latitude":40.73061,"longitude":-73.93524,"reserved":0,"last_update":"0001-01-01T00:00:00Z","name_a2s":"Uncletopia | New York City | 3 | Stopwatch Beta","protocol":17,"map":"workshop/pl_barnblitz_pro7.ugc582280235","folder":"tf","game":"Team Fortress","app_id":440,"player_count":0,"max_players":24,"Bots":0,"server_type":"Dedicated","server_os":"Linux","password":true,"vac":true,"version":"7757534","steam_id":85568392924742820,"keywords":["nocrits","nodmgspread","payload","uncletopia"],"game_id":440,"stv_port":27036,"stv_name":"Uncletopia | New York City | 3 | Stopwatch Beta | STV","players":null},{"server_id":16,"name":"Uncletopia | New York City | 4 | Community","name_short":"nyc-4","host":"nyc-1.us.uncletopia.com","port":27045,"enabled":true,"region":"us-east","cc":"us","latitude":40.73061,"longitude":-73.93524,"reserved":0,"last_update":"0001-01-01T00:00:00Z","name_a2s":"Uncletopia | New York City | 4 | Community","protocol":17,"map":"workshop/koth_ashville_final.ugc2130459942","folder":"tf","game":"Team Fortress","app_id":440,"player_count":0,"max_players":24,"Bots":0,"server_type":"Dedicated","server_os":"Linux","password":true,"vac":true,"version":"7757534","steam_id":85568392924742821,"keywords":["cp","nocrits","nodmgspread","uncletopia"],"game_id":440,"stv_port":27046,"stv_name":"Uncletopia | New York City | 4 | Community | STV","players":null},{"server_id":142,"name":"Uncletopia | São Paulo | 1 | All Maps","name_short":"sao-1","host":"sao-1.br.uncletopia.com","port":27015,"enabled":true,"region":"sa","cc":"br","latitude":-23.533773,"longitude":-46.62529,"reserved":0,"last_update":"0001-01-01T00:00:00Z","name_a2s":"Uncletopia | São Paulo | 1 | All Maps","protocol":17,"map":"pl_upward","folder":"tf","game":"Team Fortress","app_id":440,"player_count":2,"max_players":24,"Bots":0,"server_type":"Dedicated","server_os":"Linux","password":true,"vac":true,"version":"7757534","steam_id":85568392924469996,"keywords":["nocrits","nodmgspread","payload","uncletopia"],"game_id":440,"stv_port":27016,"stv_name":"Uncletopia | São Paulo | 1 | All Maps | STV","players":[{"user_id":6,"name":"Edge","steam_id":76561198850405241,"connected_time":1279000000000,"state":"active","ping":51},{"user_id":9,"name":"Matriz","steam_id":76561198965538287,"connected_time":282000000000,"state":"active","ping":48}]},{"server_id":143,"name":"Uncletopia | São Paulo | 2 | All Maps","name_short":"sao-2","host":"sao-2.br.uncletopia.com","port":27015,"enabled":true,"region":"sa","cc":"br","latitude":-23.533773,"longitude":-46.62529,"reserved":0,"last_update":"0001-01-01T00:00:00Z","name_a2s":"Uncletopia | São Paulo | 2 | All Maps","protocol":17,"map":"cp_altitude","folder":"tf","game":"Team Fortress","app_id":440,"player_count":1,"max_players":24,"Bots":0,"server_type":"Dedicated","server_os":"Linux","password":true,"vac":true,"version":"7757534","steam_id":85568392924485349,"keywords":["cp","nocrits","nodmgspread","uncletopia"],"game_id":440,"stv_port":27016,"stv_name":"Uncletopia | São Paulo | 2 | All Maps | STV","players":[{"user_id":23,"name":"ySaw","steam_id":76561198057107463,"connected_time":22000000000,"state":"active","ping":48}]},{"server_id":7,"name":"Uncletopia | Seattle | 1 | All Maps","name_short":"sea-1","host":"sea-1.us.uncletopia.com","port":27015,"enabled":true,"region":"us-west","cc":"us","latitude":47.608013,"longitude":-122.33517,"reserved":0,"last_update":"0001-01-01T00:00:00Z","name_a2s":"Uncletopia | Seattle | 1 | All Maps","protocol":17,"map":"pl_borneo","folder":"tf","game":"Team Fortress","app_id":440,"player_count":24,"max_players":24,"Bots":0,"server_type":"Dedicated","server_os":"Linux","password":true,"vac":true,"version":"7757534","steam_id":85568392924469997,"keywords":["nocrits","nodmgspread","payload","uncletopia"],"game_id":440,"stv_port":27016,"stv_name":"Uncletopia | Seattle | 1 | All Maps | STV","players":[{"user_id":402,"name":"Training Arc","steam_id":76561198038832034,"connected_time":1532000000000,"state":"active","ping":59},{"user_id":415,"name":"charm quark","steam_id":76561198098770777,"connected_time":474000000000,"state":"active","ping":53},{"user_id":341,"name":"merkure","steam_id":76561198213385439,"connected_time":6688000000000,"state":"active","ping":71},{"user_id":420,"name":"lotus","steam_id":76561198057510009,"connected_time":92000000000,"state":"active","ping":75},{"user_id":407,"name":"Meowmers","steam_id":76561197994170810,"connected_time":907000000000,"state":"active","ping":109},{"user_id":391,"name":"Rick","steam_id":76561198082608196,"connected_time":2011000000000,"state":"active","ping":61},{"user_id":361,"name":"shy guy","steam_id":76561198151246059,"connected_time":5024000000000,"state":"active","ping":68},{"user_id":417,"name":"gravy","steam_id":76561198089644778,"connected_time":305000000000,"state":"active","ping":86},{"user_id":421,"name":"Nukeboy","steam_id":76561198147058560,"connected_time":75000000000,"state":"active","ping":98},{"user_id":406,"name":"AmyPercent","steam_id":76561198071896932,"connected_time":977000000000,"state":"active","ping":78},{"user_id":418,"name":"Keamy","steam_id":76561199471434875,"connected_time":283000000000,"state":"active","ping":31},{"user_id":411,"name":"TurkishLad36","steam_id":76561198066371399,"connected_time":535000000000,"state":"active","ping":107},{"user_id":426,"name":"Mucho Grassy Ass","steam_id":76561198171708237,"connected_time":12000000000,"state":"active","ping":145},{"user_id":377,"name":"mhmyeah_yeahmhm","steam_id":76561198341190679,"connected_time":3546000000000,"state":"active","ping":58},{"user_id":349,"name":"The Pepsi® Superbowl®!","steam_id":76561198080828981,"connected_time":6394000000000,"state":"active","ping":78},{"user_id":422,"name":"Opalescence","steam_id":76561199278033671,"connected_time":75000000000,"state":"active","ping":102},{"user_id":387,"name":"[ATP]Cocktail","steam_id":76561197965256717,"connected_time":2538000000000,"state":"active","ping":114},{"user_id":374,"name":"rock gaming","steam_id":76561199402868311,"connected_time":3920000000000,"state":"active","ping":83},{"user_id":424,"name":"Fermenting Kiwi","steam_id":76561198253303497,"connected_time":70000000000,"state":"active","ping":81},{"user_id":400,"name":"1 Great Wooden Dad","steam_id":76561198377126974,"connected_time":1621000000000,"state":"active","ping":121},{"user_id":401,"name":"Zenix","steam_id":76561198261817732,"connected_time":1603000000000,"state":"active","ping":88},{"user_id":425,"name":"A Duck With Socks","steam_id":76561198018844227,"connected_time":43000000000,"state":"active","ping":59},{"user_id":404,"name":"Clean your room","steam_id":76561198011617388,"connected_time":1484000000000,"state":"active","ping":62},{"user_id":414,"name":"Tweeterhead","steam_id":76561198399117913,"connected_time":521000000000,"state":"active","ping":58}]},{"server_id":119,"name":"Uncletopia | Seattle | 2 | All Maps","name_short":"sea-2","host":"sea-1.us.uncletopia.com","port":27025,"enabled":true,"region":"us-west","cc":"us","latitude":47.608013,"longitude":-122.33517,"reserved":0,"last_update":"0001-01-01T00:00:00Z","name_a2s":"Uncletopia | Seattle | 2 | All Maps","protocol":17,"map":"plr_hightower","folder":"tf","game":"Team Fortress","app_id":440,"player_count":21,"max_players":24,"Bots":0,"server_type":"Dedicated","server_os":"Linux","password":true,"vac":true,"version":"7757534","steam_id":85568392924469998,"keywords":["nocrits","nodmgspread","payload","uncletopia"],"game_id":440,"stv_port":27026,"stv_name":"Uncletopia | Seattle | 2 | All Maps | STV","players":[{"user_id":243,"name":"oil","steam_id":76561198099980149,"connected_time":1400000000000,"state":"active","ping":69},{"user_id":9,"name":"Spoilt Pudding","steam_id":76561198001195423,"connected_time":12753000000000,"state":"active","ping":99},{"user_id":270,"name":"justpixels","steam_id":76561198143717568,"connected_time":16000000000,"state":"spawning","ping":255},{"user_id":204,"name":"WhackyOrc","steam_id":76561199470020355,"connected_time":4336000000000,"state":"active","ping":115},{"user_id":194,"name":"Tort boi","steam_id":76561198125327110,"connected_time":4742000000000,"state":"active","ping":85},{"user_id":260,"name":"COOL master_9","steam_id":76561198073041151,"connected_time":269000000000,"state":"active","ping":100},{"user_id":196,"name":"coolfalcon168","steam_id":76561198948665710,"connected_time":4698000000000,"state":"active","ping":117},{"user_id":256,"name":"Fachedin","steam_id":76561198041850415,"connected_time":477000000000,"state":"active","ping":74},{"user_id":266,"name":"EatSomeBEES","steam_id":76561198047334307,"connected_time":168000000000,"state":"active","ping":77},{"user_id":229,"name":"lili.winters","steam_id":76561199391478575,"connected_time":2516000000000,"state":"active","ping":70},{"user_id":268,"name":"obese farts","steam_id":76561198206922028,"connected_time":68000000000,"state":"active","ping":82},{"user_id":235,"name":"Jolly","steam_id":76561198381749192,"connected_time":1911000000000,"state":"active","ping":87},{"user_id":262,"name":"Teutiaplus","steam_id":76561198880943359,"connected_time":225000000000,"state":"active","ping":87},{"user_id":264,"name":"super_deathgrips_fan76","steam_id":76561199070989131,"connected_time":195000000000,"state":"active","ping":68},{"user_id":265,"name":"Læffy","steam_id":76561198046136731,"connected_time":193000000000,"state":"active","ping":87},{"user_id":257,"name":"all men are pigs","steam_id":76561198080301085,"connected_time":475000000000,"state":"active","ping":48},{"user_id":223,"name":"LProduct","steam_id":76561199442139670,"connected_time":3217000000000,"state":"active","ping":85},{"user_id":207,"name":"Strikerbolt","steam_id":76561199095622897,"connected_time":4287000000000,"state":"active","ping":90},{"user_id":251,"name":"hoovy","steam_id":76561199228653314,"connected_time":770000000000,"state":"active","ping":88},{"user_id":254,"name":"i am weed","steam_id":76561198419896433,"connected_time":732000000000,"state":"active","ping":41},{"user_id":269,"name":"Swagger","steam_id":76561199211038093,"connected_time":58000000000,"state":"active","ping":233}]},{"server_id":406,"name":"Uncletopia | Seattle | 3 | Stopwatch Beta","name_short":"sea-3","host":"sea-1.us.uncletopia.com","port":27035,"enabled":true,"region":"us-west","cc":"us","latitude":47.608013,"longitude":-122.33517,"reserved":0,"last_update":"0001-01-01T00:00:00Z","name_a2s":"Uncletopia | Seattle | 3 | Stopwatch Beta","protocol":17,"map":"workshop/koth_ashville_final.ugc2130459942","folder":"tf","game":"Team Fortress","app_id":440,"player_count":0,"max_players":24,"Bots":0,"server_type":"Dedicated","server_os":"Linux","password":true,"vac":true,"version":"7757534","steam_id":85568392924515217,"keywords":["cp","nocrits","nodmgspread","uncletopia"],"game_id":440,"stv_port":27036,"stv_name":"Uncletopia | Seattle | 3 | Stopwatch Beta | STV","players":null},{"server_id":17,"name":"Uncletopia | San Francisco | 1 | All Maps","name_short":"sfo-1","host":"sfo-1.us.uncletopia.com","port":27015,"enabled":true,"region":"us-west","cc":"us","latitude":37.77397,"longitude":-122.4313,"reserved":0,"last_update":"0001-01-01T00:00:00Z","name_a2s":"Uncletopia | San Francisco | 1 | All Maps","protocol":17,"map":"pl_pier","folder":"tf","game":"Team Fortress","app_id":440,"player_count":22,"max_players":24,"Bots":0,"server_type":"Dedicated","server_os":"Linux","password":true,"vac":true,"version":"7757534","steam_id":85568392924469999,"keywords":["nocrits","nodmgspread","payload","uncletopia"],"game_id":440,"stv_port":27016,"stv_name":"Uncletopia | San Francisco | 1 | All Maps | STV","players":[{"user_id":116,"name":"Kaya #SaveTF2","steam_id":76561198053907503,"connected_time":534000000000,"state":"active","ping":56},{"user_id":97,"name":"VerseG","steam_id":76561198059246919,"connected_time":2098000000000,"state":"active","ping":64},{"user_id":28,"name":"Good Mudkip","steam_id":76561198439784449,"connected_time":5914000000000,"state":"active","ping":72},{"user_id":115,"name":"Shark Sandwich","steam_id":76561198025007938,"connected_time":912000000000,"state":"active","ping":84},{"user_id":108,"name":"Tealim","steam_id":76561198330085713,"connected_time":1192000000000,"state":"active","ping":187},{"user_id":14,"name":"Grammaring","steam_id":76561198867366139,"connected_time":6487000000000,"state":"active","ping":71},{"user_id":112,"name":"Jeffy Epstein","steam_id":76561198053832401,"connected_time":1133000000000,"state":"active","ping":68},{"user_id":84,"name":"mu","steam_id":76561197997530228,"connected_time":2994000000000,"state":"active","ping":74},{"user_id":106,"name":"jawnymac","steam_id":76561198179529599,"connected_time":1209000000000,"state":"active","ping":55},{"user_id":73,"name":"Thiccums","steam_id":76561198291586739,"connected_time":3424000000000,"state":"active","ping":58},{"user_id":110,"name":"Duncle Frazzle","steam_id":76561198145596626,"connected_time":1164000000000,"state":"active","ping":62},{"user_id":87,"name":"Bluesleek","steam_id":76561199207607835,"connected_time":2397000000000,"state":"active","ping":59},{"user_id":79,"name":"oxbudy","steam_id":76561198022120207,"connected_time":3307000000000,"state":"active","ping":72},{"user_id":55,"name":"Wacks","steam_id":76561198079476100,"connected_time":4997000000000,"state":"active","ping":55},{"user_id":102,"name":"Gray","steam_id":76561197997214168,"connected_time":1494000000000,"state":"active","ping":59},{"user_id":105,"name":"Assassin","steam_id":76561198321410235,"connected_time":1363000000000,"state":"active","ping":49},{"user_id":117,"name":"ʀ.ꕤ｡.","steam_id":76561198029580420,"connected_time":0,"state":"spawning","ping":37},{"user_id":103,"name":"Kaluka","steam_id":76561198036861445,"connected_time":1458000000000,"state":"active","ping":108},{"user_id":72,"name":"ray (the based god)","steam_id":76561198311984941,"connected_time":3695000000000,"state":"active","ping":120},{"user_id":114,"name":"touka","steam_id":76561198171521806,"connected_time":1006000000000,"state":"active","ping":77},{"user_id":62,"name":"Mr. Snatched Yo Nutsack","steam_id":76561199075873174,"connected_time":4640000000000,"state":"active","ping":115},{"user_id":95,"name":"Arenovas","steam_id":76561198042341811,"connected_time":2221000000000,"state":"active","ping":48}]},{"server_id":18,"name":"Uncletopia | San Francisco | 2 | All Maps","name_short":"sfo-2","host":"sfo-1.us.uncletopia.com","port":27025,"enabled":true,"region":"us-west","cc":"us","latitude":37.77397,"longitude":-122.4313,"reserved":0,"last_update":"0001-01-01T00:00:00Z","name_a2s":"Uncletopia | San Francisco | 2 | All Maps","protocol":17,"map":"koth_viaduct","folder":"tf","game":"Team Fortress","app_id":440,"player_count":0,"max_players":24,"Bots":0,"server_type":"Dedicated","server_os":"Linux","password":true,"vac":true,"version":"7757534","steam_id":85568392924470000,"keywords":["cp","nocrits","nodmgspread","uncletopia"],"game_id":440,"stv_port":27026,"stv_name":"Uncletopia | San Francisco | 2 | All Maps | STV","players":null},{"server_id":19,"name":"Uncletopia | San Francisco | 3 | Stopwatch Beta","name_short":"sfo-3","host":"sfo-1.us.uncletopia.com","port":27035,"enabled":true,"region":"us-west","cc":"us","latitude":37.77397,"longitude":-122.4313,"reserved":0,"last_update":"0001-01-01T00:00:00Z","name_a2s":"Uncletopia | San Francisco | 3 | Stopwatch Beta","protocol":17,"map":"pl_swiftwater_final1","folder":"tf","game":"Team Fortress","app_id":440,"player_count":0,"max_players":24,"Bots":0,"server_type":"Dedicated","server_os":"Linux","password":true,"vac":true,"version":"7757534","steam_id":85568392924742824,"keywords":["nocrits","nodmgspread","payload","uncletopia"],"game_id":440,"stv_port":27036,"stv_name":"Uncletopia | San Francisco | 3 | Stopwatch Beta | STV","players":null},{"server_id":20,"name":"Uncletopia | San Francisco | 4 | Community","name_short":"sfo-4","host":"sfo-1.us.uncletopia.com","port":27045,"enabled":true,"region":"us-west","cc":"us","latitude":37.77397,"longitude":-122.4313,"reserved":0,"last_update":"0001-01-01T00:00:00Z","name_a2s":"Uncletopia | San Francisco | 4 | Community","protocol":17,"map":"workshop/koth_kemptown_rc1.ugc767410655","folder":"tf","game":"Team Fortress","app_id":440,"player_count":0,"max_players":24,"Bots":0,"server_type":"Dedicated","server_os":"Linux","password":true,"vac":true,"version":"7757534","steam_id":85568392924742826,"keywords":["cp","nocrits","nodmgspread","uncletopia"],"game_id":440,"stv_port":27046,"stv_name":"Uncletopia | San Francisco | 4 | Community | STV","players":null},{"server_id":141,"name":"Uncletopia | Sydney | 1 | All Maps","name_short":"syd-1","host":"syd-1.au.uncletopia.com","port":27015,"enabled":true,"region":"au","cc":"au","latitude":-33.865143,"longitude":151.2099,"reserved":0,"last_update":"0001-01-01T00:00:00Z","name_a2s":"Uncletopia | Sydney | 1 | All Maps","protocol":17,"map":"pl_pier","folder":"tf","game":"Team Fortress","app_id":440,"player_count":0,"max_players":24,"Bots":0,"server_type":"Dedicated","server_os":"Linux","password":true,"vac":true,"version":"7757534","steam_id":85568392924470001,"keywords":["nocrits","nodmgspread","payload","uncletopia"],"game_id":440,"stv_port":27016,"stv_name":"Uncletopia | Sydney | 1 | All Maps | STV","players":null},{"server_id":123,"name":"Uncletopia | Sydney | 2 | All Maps","name_short":"syd-2","host":"syd-1.au.uncletopia.com","port":27025,"enabled":true,"region":"au","cc":"au","latitude":-33.865143,"longitude":151.2099,"reserved":0,"last_update":"0001-01-01T00:00:00Z","name_a2s":"Uncletopia | Sydney | 2 | All Maps","protocol":17,"map":"cp_snakewater_final1","folder":"tf","game":"Team Fortress","app_id":440,"player_count":0,"max_players":24,"Bots":0,"server_type":"Dedicated","server_os":"Linux","password":true,"vac":true,"version":"7757534","steam_id":85568392924470002,"keywords":["cp","nocrits","nodmgspread","uncletopia"],"game_id":440,"stv_port":27026,"stv_name":"Uncletopia | Sydney | 2 | All Maps | STV","players":null},{"server_id":395,"name":"Uncletopia | Sydney | 3 | All Maps","name_short":"syd-3","host":"syd-1.au.uncletopia.com","port":27035,"enabled":true,"region":"au","cc":"au","latitude":-33.865143,"longitude":151.2099,"reserved":0,"last_update":"0001-01-01T00:00:00Z","name_a2s":"Uncletopia | Sydney | 3 | All Maps","protocol":17,"map":"pl_borneo","folder":"tf","game":"Team Fortress","app_id":440,"player_count":0,"max_players":24,"Bots":0,"server_type":"Dedicated","server_os":"Linux","password":true,"vac":true,"version":"7757534","steam_id":85568392925194467,"keywords":["nocrits","nodmgspread","payload","uncletopia"],"game_id":440,"stv_port":27036,"stv_name":"Uncletopia | Sydney | 3 | All Maps | STV","players":null},{"server_id":396,"name":"Uncletopia | Sydney | 4 | All Maps","name_short":"syd-4","host":"syd-1.au.uncletopia.com","port":27045,"enabled":true,"region":"au","cc":"au","latitude":-33.865143,"longitude":151.2099,"reserved":0,"last_update":"0001-01-01T00:00:00Z","name_a2s":"Uncletopia | Sydney | 4 | All Maps","protocol":17,"map":"cp_process_final","folder":"tf","game":"Team Fortress","app_id":440,"player_count":0,"max_players":24,"Bots":0,"server_type":"Dedicated","server_os":"Linux","password":true,"vac":true,"version":"7757534","steam_id":85568392925397958,"keywords":["cp","nocrits","nodmgspread","uncletopia"],"game_id":440,"stv_port":27046,"stv_name":"Uncletopia | Sydney | 4 | All Maps | STV","players":null},{"server_id":58,"name":"Uncletopia | Sydney | 5 | Stopwatch Beta","name_short":"syd-5","host":"syd-1.au.uncletopia.com","port":27055,"enabled":true,"region":"au","cc":"au","latitude":-33.865143,"longitude":151.2099,"reserved":0,"last_update":"0001-01-01T00:00:00Z","name_a2s":"Uncletopia | Sydney | 5 | Stopwatch Beta","protocol":17,"map":"koth_cascade","folder":"tf","game":"Team Fortress","app_id":440,"player_count":0,"max_players":24,"Bots":0,"server_type":"Dedicated","server_os":"Linux","password":true,"vac":true,"version":"7757534","steam_id":85568392925397959,"keywords":["cp","nocrits","nodmgspread","uncletopia"],"game_id":440,"stv_port":27056,"stv_name":"Uncletopia | Sydney | 5 | Stopwatch Beta | STV","players":null},{"server_id":59,"name":"Uncletopia | Sydney | 6 | Community","name_short":"syd-6","host":"syd-1.au.uncletopia.com","port":27065,"enabled":true,"region":"au","cc":"au","latitude":-33.865143,"longitude":151.2099,"reserved":0,"last_update":"0001-01-01T00:00:00Z","name_a2s":"Uncletopia | Sydney | 6 | Community","protocol":17,"map":"pl_badwater","folder":"tf","game":"Team Fortress","app_id":440,"player_count":0,"max_players":24,"Bots":0,"server_type":"Dedicated","server_os":"Linux","password":true,"vac":true,"version":"7757534","steam_id":85568392925397960,"keywords":["nocrits","nodmgspread","payload","uncletopia"],"game_id":440,"stv_port":27066,"stv_name":"Uncletopia | Sydney | 6 | Community | STV","players":null},{"server_id":49,"name":"Uncletopia | Warsaw | 1 | All Maps","name_short":"waw-1","host":"waw-1.pl.uncletopia.com","port":27015,"enabled":true,"region":"eu","cc":"pl","latitude":52.2297,"longitude":21.017532,"reserved":0,"last_update":"0001-01-01T00:00:00Z","name_a2s":"","protocol":0,"map":"","folder":"","game":"","app_id":0,"player_count":0,"max_players":0,"Bots":0,"server_type":"","server_os":"","password":false,"vac":false,"version":"","steam_id":0,"keywords":null,"game_id":0,"stv_port":0,"stv_name":"","players":null},{"server_id":50,"name":"Uncletopia | Warsaw | 2 | All Maps","name_short":"waw-2","host":"waw-1.pl.uncletopia.com","port":27025,"enabled":true,"region":"eu","cc":"pl","latitude":52.2297,"longitude":21.017532,"reserved":0,"last_update":"0001-01-01T00:00:00Z","name_a2s":"Uncletopia | Warsaw | 2 | All Maps","protocol":17,"map":"pl_borneo","folder":"tf","game":"Team Fortress","app_id":440,"player_count":0,"max_players":24,"Bots":0,"server_type":"Dedicated","server_os":"Linux","password":true,"vac":true,"version":"7757534","steam_id":85568392925397851,"keywords":["nocrits","nodmgspread","payload","uncletopia"],"game_id":440,"stv_port":27026,"stv_name":"Uncletopia | Warsaw | 2 | All Maps | STV","players":null},{"server_id":51,"name":"Uncletopia | Warsaw | 3 | All Maps","name_short":"waw-3","host":"waw-1.pl.uncletopia.com","port":27035,"enabled":true,"region":"eu","cc":"pl","latitude":52.2297,"longitude":21.017532,"reserved":0,"last_update":"0001-01-01T00:00:00Z","name_a2s":"Uncletopia | Warsaw | 3 | All Maps","protocol":17,"map":"pl_barnblitz","folder":"tf","game":"Team Fortress","app_id":440,"player_count":0,"max_players":24,"Bots":0,"server_type":"Dedicated","server_os":"Linux","password":true,"vac":true,"version":"7757534","steam_id":85568392925397852,"keywords":["nocrits","nodmgspread","payload","uncletopia"],"game_id":440,"stv_port":27036,"stv_name":"Uncletopia | Warsaw | 3 | All Maps | STV","players":null},{"server_id":52,"name":"Uncletopia | Warsaw | 4 | All Maps","name_short":"waw-4","host":"waw-1.pl.uncletopia.com","port":27045,"enabled":true,"region":"eu","cc":"pl","latitude":52.2297,"longitude":21.017532,"reserved":0,"last_update":"0001-01-01T00:00:00Z","name_a2s":"Uncletopia | Warsaw | 4 | All Maps","protocol":17,"map":"pl_swiftwater_final1","folder":"tf","game":"Team Fortress","app_id":440,"player_count":0,"max_players":24,"Bots":0,"server_type":"Dedicated","server_os":"Linux","password":true,"vac":true,"version":"7757534","steam_id":85568392925397853,"keywords":["nocrits","nodmgspread","payload","uncletopia"],"game_id":440,"stv_port":27046,"stv_name":"Uncletopia | Warsaw | 4 | All Maps | STV","players":null},{"server_id":53,"name":"Uncletopia | Warsaw | 5 | Stopwatch Beta","name_short":"waw-5","host":"waw-1.pl.uncletopia.com","port":27055,"enabled":true,"region":"eu","cc":"pl","latitude":52.2297,"longitude":21.017532,"reserved":0,"last_update":"0001-01-01T00:00:00Z","name_a2s":"Uncletopia | Warsaw | 5 | Stopwatch Beta","protocol":17,"map":"pl_pier","folder":"tf","game":"Team Fortress","app_id":440,"player_count":0,"max_players":24,"Bots":0,"server_type":"Dedicated","server_os":"Linux","password":true,"vac":true,"version":"7757534","steam_id":85568392925397854,"keywords":["nocrits","nodmgspread","payload","uncletopia"],"game_id":440,"stv_port":27056,"stv_name":"Uncletopia | Warsaw | 5 | Stopwatch Beta | STV","players":null},{"server_id":54,"name":"Uncletopia | Warsaw | 6 | Community","name_short":"waw-6","host":"waw-1.pl.uncletopia.com","port":27065,"enabled":true,"region":"eu","cc":"pl","latitude":52.2297,"longitude":21.017532,"reserved":0,"last_update":"0001-01-01T00:00:00Z","name_a2s":"Uncletopia | Warsaw | 6 | Community","protocol":17,"map":"koth_highpass","folder":"tf","game":"Team Fortress","app_id":440,"player_count":0,"max_players":24,"Bots":0,"server_type":"Dedicated","server_os":"Linux","password":true,"vac":true,"version":"7757534","steam_id":85568392925397856,"keywords":["cp","nocrits","nodmgspread","uncletopia"],"game_id":440,"stv_port":27066,"stv_name":"Uncletopia | Warsaw | 6 | Community | STV","players":null}]}