{"status":true,"message":"","result":[{"server_id":9,"name":"Uncletopia | Atlanta | 1 | All Maps","name_short":"atl-1","host":"atl-1.us.uncletopia.com","port":27015,"enabled":true,"region":"us-east","cc":"us","latitude":33.753746,"longitude":-84.38633,"reserved":0,"last_update":"0001-01-01T00:00:00Z","name_a2s":"Uncletopia | Atlanta | 1 | All Maps","protocol":17,"map":"pl_upward","folder":"tf","game":"Team Fortress","app_id":440,"player_count":22,"max_players":24,"Bots":0,"server_type":"Dedicated","server_os":"Linux","password":true,"vac":true,"version":"7961495","steam_id":85568392924469982,"keywords":["nocrits","nodmgspread","payload","uncletopia"],"game_id":440,"stv_port":27016,"stv_name":"Uncletopia | Atlanta | 1 | All Maps | STV","players":[{"user_id":350,"name":"loksins","steam_id":76561198043684960,"connected_time":1083000000000,"state":"active","ping":69},{"user_id":336,"name":"paetho YT","steam_id":76561198152690003,"connected_time":2338000000000,"state":"active","ping":43},{"user_id":357,"name":"Wique","steam_id":76561198071217597,"connected_time":625000000000,"state":"active","ping":86},{"user_id":320,"name":"garten of peakpeak","steam_id":76561198181153199,"connected_time":3891000000000,"state":"active","ping":79},{"user_id":269,"name":"gallowsCalibrator","steam_id":76561198404707578,"connected_time":8763000000000,"state":"active","ping":55},{"user_id":316,"name":"awak","steam_id":76561198092135570,"connected_time":4052000000000,"state":"active","ping":58},{"user_id":372,"name":"TheArachnidGamer","steam_id":76561198304986752,"connected_time":56000000000,"state":"active","ping":89},{"user_id":370,"name":"THIS","steam_id":76561198103269397,"connected_time":206000000000,"state":"active","ping":148},{"user_id":371,"name":"ChimpusGaming","steam_id":76561198060954715,"connected_time":146000000000,"state":"active","ping":57},{"user_id":325,"name":"dilfbot","steam_id":76561198099988165,"connected_time":3269000000000,"state":"active","ping":75},{"user_id":338,"name":"s-dog","steam_id":76561198065339248,"connected_time":1860000000000,"state":"active","ping":99},{"user_id":360,"name":"None of that $9.99 bullshit","steam_id":76561198116169903,"connected_time":574000000000,"state":"active","ping":61},{"user_id":373,"name":"simple","steam_id":76561199216738132,"connected_time":50000000000,"state":"active","ping":109},{"user_id":374,"name":"lesio","steam_id":76561198064249174,"connected_time":42000000000,"state":"active","ping":63},{"user_id":369,"name":"CoffeeZombi","steam_id":76561198172708053,"connected_time":220000000000,"state":"active","ping":57},{"user_id":339,"name":"Poppet","steam_id":76561198012301951,"connected_time":1691000000000,"state":"active","ping":77},{"user_id":340,"name":"LeTonzy","steam_id":76561198005806699,"connected_time":1669000000000,"state":"active","ping":124},{"user_id":364,"name":"(TPT) Ghost","steam_id":76561198123262873,"connected_time":522000000000,"state":"active","ping":125},{"user_id":335,"name":"King","steam_id":76561198039763676,"connected_time":2353000000000,"state":"active","ping":48},{"user_id":366,"name":"TheSolitaryGamer","steam_id":76561198045055602,"connected_time":390000000000,"state":"active","ping":62},{"user_id":294,"name":"Legally Braindead","steam_id":76561198377574031,"connected_time":6100000000000,"state":"active","ping":106},{"user_id":368,"name":"Brawns","steam_id":76561198045190199,"connected_time":308000000000,"state":"active","ping":74}]},{"server_id":104,"name":"Uncletopia | Atlanta | 2 | All Maps","name_short":"atl-2","host":"atl-1.us.uncletopia.com","port":27025,"enabled":true,"region":"us-east","cc":"us","latitude":33.753746,"longitude":-84.38633,"reserved":0,"last_update":"0001-01-01T00:00:00Z","name_a2s":"Uncletopia | Atlanta | 2 | All Maps","protocol":17,"map":"koth_highpass","folder":"tf","game":"Team Fortress","app_id":440,"player_count":0,"max_players":24,"Bots":0,"server_type":"Dedicated","server_os":"Linux","password":true,"vac":true,"version":"7961495","steam_id":85568392924469983,"keywords":["cp","nocrits","nodmgspread","uncletopia"],"game_id":440,"stv_port":27026,"stv_name":"Uncletopia | Atlanta | 2 | All Maps | STV","players":null},{"server_id":400,"name":"Uncletopia | Atlanta | 3 | Stopwatch","name_short":"atl-3","host":"atl-1.us.uncletopia.com","port":27035,"enabled":true,"region":"us-east","cc":"us","latitude":33.753746,"longitude":-84.38633,"reserved":0,"last_update":"0001-01-01T00:00:00Z","name_a2s":"Uncletopia | Atlanta | 3 | Stopwatch","protocol":17,"map":"workshop/pl_summercoast_rc8e.ugc1761528829","folder":"tf","game":"Team Fortress","app_id":440,"player_count":0,"max_players":24,"Bots":0,"server_type":"Dedicated","server_os":"Linux","password":true,"vac":true,"version":"7961495","steam_id":85568392924515187,"keywords":["nocrits","nodmgspread","payload","uncletopia"],"game_id":440,"stv_port":27036,"stv_name":"Uncletopia | Atlanta | 3 | Stopwatch | STV","players":null},{"server_id":401,"name":"Uncletopia | Atlanta | 4 | Community","name_short":"atl-4","host":"atl-1.us.uncletopia.com","port":27045,"enabled":true,"region":"us-east","cc":"us","latitude":33.753746,"longitude":-84.38633,"reserved":0,"last_update":"0001-01-01T00:00:00Z","name_a2s":"Uncletopia | Atlanta | 4 | Community","protocol":17,"map":"workshop/koth_ramjam_rc1.ugc459778887","folder":"tf","game":"Team Fortress","app_id":440,"player_count":0,"max_players":24,"Bots":0,"server_type":"Dedicated","server_os":"Linux","password":true,"vac":true,"version":"7961495","steam_id":85568392924515188,"keywords":["cp","nocrits","nodmgspread","uncletopia"],"game_id":440,"stv_port":27046,"stv_name":"Uncletopia | Atlanta | 4 | Community | STV","players":null},{"server_id":2,"name":"Uncletopia | Chicago | 1 | All Maps","name_short":"chi-1","host":"chi-1.us.uncletopia.com","port":27015,"enabled":true,"region":"us-central","cc":"us","latitude":41.881832,"longitude":-87.62318,"reserved":0,"last_update":"0001-01-01T00:00:00Z","name_a2s":"Uncletopia | Chicago | 1 | All Maps","protocol":17,"map":"cp_snakewater_final1","folder":"tf","game":"Team Fortress","app_id":440,"player_count":0,"max_players":24,"Bots":0,"server_type":"Dedicated","server_os":"Linux","password":true,"vac":true,"version":"7961495","steam_id":85568392924469984,"keywords":["cp","nocrits","nodmgspread","uncletopia"],"game_id":440,"stv_port":27016,"stv_name":"Uncletopia | Chicago | 1 | All Maps | STV","players":null},{"server_id":106,"name":"Uncletopia | Chicago | 2 | All Maps","name_short":"chi-2","host":"chi-1.us.uncletopia.com","port":27025,"enabled":true,"region":"us-central","cc":"us","latitude":41.881832,"longitude":-87.62318,"reserved":0,"last_update":"0001-01-01T00:00:00Z","name_a2s":"Uncletopia | Chicago | 2 | All Maps","protocol":17,"map":"pl_borneo","folder":"tf","game":"Team Fortress","app_id":440,"player_count":0,"max_players":24,"Bots":0,"server_type":"Dedicated","server_os":"Linux","password":true,"vac":true,"version":"7961495","steam_id":85568392924469985,"keywords":["nocrits","nodmgspread","payload","uncletopia"],"game_id":440,"stv_port":27026,"stv_name":"Uncletopia | Chicago | 2 | All Maps | STV","players":null},{"server_id":402,"name":"Uncletopia | Chicago | 3 | All Maps","name_short":"chi-3","host":"chi-1.us.uncletopia.com","port":27035,"enabled":true,"region":"us-central","cc":"us","latitude":41.881832,"longitude":-87.62318,"reserved":0,"last_update":"0001-01-01T00:00:00Z","name_a2s":"Uncletopia | Chicago | 3 | All Maps","protocol":17,"map":"cp_steel","folder":"tf","game":"Team Fortress","app_id":440,"player_count":21,"max_players":24,"Bots":0,"server_type":"Dedicated","server_os":"Linux","password":true,"vac":true,"version":"7961495","steam_id":85568392924515191,"keywords":["cp","nocrits","nodmgspread","uncletopia"],"game_id":440,"stv_port":27036,"stv_name":"Uncletopia | Chicago | 3 | All Maps | STV","players":[{"user_id":461,"name":"I wear Tie Dye Shirt","steam_id":76561199111367852,"connected_time":1397000000000,"state":"active","ping":80},{"user_id":387,"name":"Arty","steam_id":76561197960445953,"connected_time":6809000000000,"state":"active","ping":112},{"user_id":467,"name":"Big Boy Beni","steam_id":76561197995469460,"connected_time":657000000000,"state":"active","ping":93},{"user_id":453,"name":"Motobono9","steam_id":76561198032403516,"connected_time":1942000000000,"state":"active","ping":93},{"user_id":478,"name":"Strange Festive Femboy","steam_id":76561198050385093,"connected_time":248000000000,"state":"active","ping":88},{"user_id":468,"name":"Arcane Flame","steam_id":76561198360024422,"connected_time":652000000000,"state":"active","ping":115},{"user_id":469,"name":"xeltre","steam_id":76561198271960976,"connected_time":586000000000,"state":"active","ping":62},{"user_id":470,"name":"Yongle","steam_id":76561198068591156,"connected_time":570000000000,"state":"active","ping":51},{"user_id":479,"name":"Guess I'm just popo","steam_id":76561197966419253,"connected_time":237000000000,"state":"active","ping":71},{"user_id":438,"name":"ùíØùíΩùíæùìáùìâùìé ùí©\ufffd\ufffd","steam_id":76561198111878431,"connected_time":2566000000000,"state":"active","ping":115},{"user_id":439,"name":"floofy","steam_id":76561198389769098,"connected_time":2557000000000,"state":"active","ping":74},{"user_id":473,"name":"Thequirka","steam_id":76561198968058652,"connected_time":448000000000,"state":"active","ping":93},{"user_id":419,"name":"Therapy Goth","steam_id":76561198048448497,"connected_time":3336000000000,"state":"active","ping":58},{"user_id":465,"name":"üéÉBunnyüéÉ","steam_id":76561198074872531,"connected_time":866000000000,"state":"active","ping":73},{"user_id":382,"name":"Cairna ‚ô•","steam_id":76561198035418464,"connected_time":7178000000000,"state":"active","ping":70},{"user_id":403,"name":"sleepy","steam_id":76561198255015060,"connected_time":4400000000000,"state":"active","ping":101},{"user_id":456,"name":"shadowtaco69","steam_id":76561198112453714,"connected_time":1877000000000,"state":"active","ping":86},{"user_id":404,"name":"Fruity","steam_id":76561198999674564,"connected_time":4383000000000,"state":"active","ping":94},{"user_id":475,"name":"Stoop","steam_id":76561198012111621,"connected_time":442000000000,"state":"active","ping":61},{"user_id":480,"name":"lys de mer","steam_id":76561198054906945,"connected_time":206000000000,"state":"active","ping":93},{"user_id":477,"name":"Tobias Rieper","steam_id":76561198026504998,"connected_time":395000000000,"state":"active","ping":87}]},{"server_id":403,"name":"Uncletopia | Chicago | 4 | All Maps","name_short":"chi-4","host":"chi-1.us.uncletopia.com","port":27045,"enabled":true,"region":"us-central","cc":"us","latitude":41.881832,"longitude":-87.62318,"reserved":0,"last_update":"0001-01-01T00:00:00Z","name_a2s":"Uncletopia | Chicago | 4 | All Maps","protocol":17,"map":"pl_snowycoast","folder":"tf","game":"Team Fortress","app_id":440,"player_count":24,"max_players":24,"Bots":0,"server_type":"Dedicated","server_os":"Linux","password":true,"vac":true,"version":"7961495","steam_id":85568392924515193,"keywords":["nocrits","nodmgspread","payload","uncletopia"],"game_id":440,"stv_port":27046,"stv_name":"Uncletopia | Chicago | 4 | All Maps | STV","players":[{"user_id":944,"name":"The Khronicles of Keith","steam_id":76561198056622157,"connected_time":2124000000000,"state":"active","ping":61},{"user_id":970,"name":"Stack Man","steam_id":76561198114863794,"connected_time":560000000000,"state":"active","ping":98},{"user_id":967,"name":"Sunflower","steam_id":76561198081223793,"connected_time":837000000000,"state":"active","ping":57},{"user_id":933,"name":"JoJo","steam_id":76561198377244109,"connected_time":2948000000000,"state":"active","ping":105},{"user_id":945,"name":"the cranston dart huffer","steam_id":76561198041938330,"connected_time":2117000000000,"state":"active","ping":75},{"user_id":964,"name":"Larry","steam_id":76561198334604124,"connected_time":1621000000000,"state":"active","ping":78},{"user_id":939,"name":"katiedidsings","steam_id":76561198090433209,"connected_time":2713000000000,"state":"active","ping":96},{"user_id":971,"name":"Muselk, but mexican","steam_id":76561199289676387,"connected_time":540000000000,"state":"active","ping":86},{"user_id":972,"name":"Skudge Sister","steam_id":76561198041766766,"connected_time":499000000000,"state":"active","ping":106},{"user_id":973,"name":"Solus","steam_id":76561199486493777,"connected_time":459000000000,"state":"active","ping":141},{"user_id":957,"name":"Viewie","steam_id":76561198280108853,"connected_time":1861000000000,"state":"active","ping":81},{"user_id":946,"name":"Gh0w0st","steam_id":76561199471261226,"connected_time":2114000000000,"state":"active","ping":84},{"user_id":902,"name":"Romeo","steam_id":76561198057889522,"connected_time":5158000000000,"state":"active","ping":70},{"user_id":958,"name":"the scranton dirt smoker","steam_id":76561198305796131,"connected_time":1846000000000,"state":"active","ping":45},{"user_id":894,"name":"stuffedidiot","steam_id":76561199181513019,"connected_time":6229000000000,"state":"active","ping":101},{"user_id":896,"name":"AdosOS","steam_id":76561198051624021,"connected_time":6181000000000,"state":"active","ping":75},{"user_id":949,"name":"seats","steam_id":76561197998756039,"connected_time":1970000000000,"state":"active","ping":95},{"user_id":974,"name":"Heart taste like hot dog","steam_id":76561199230507257,"connected_time":292000000000,"state":"active","ping":59},{"user_id":901,"name":"Rat Smacker","steam_id":76561198043629646,"connected_time":5386000000000,"state":"active","ping":78},{"user_id":959,"name":"Tohru","steam_id":76561198139393876,"connected_time":1844000000000,"state":"active","ping":76},{"user_id":960,"name":"KILL YOUR PARENTS","steam_id":76561198064214000,"connected_time":1830000000000,"state":"active","ping":100},{"user_id":961,"name":"Saucy Boy","steam_id":76561198178332031,"connected_time":1809000000000,"state":"active","ping":91},{"user_id":951,"name":"Metbol","steam_id":76561198001362410,"connected_time":1959000000000,"state":"active","ping":83},{"user_id":900,"name":"Supur","steam_id":76561198051814355,"connected_time":5897000000000,"state":"active","ping":88}]},{"server_id":36,"name":"Uncletopia | Chicago | 5 | All Maps","name_short":"chi-5","host":"chi-2.us.uncletopia.com","port":27015,"enabled":true,"region":"us-central","cc":"us","latitude":41.881832,"longitude":-87.62318,"reserved":0,"last_update":"0001-01-01T00:00:00Z","name_a2s":"Uncletopia | Chicago | 5 | All Maps","protocol":17,"map":"pl_barnblitz","folder":"tf","game":"Team Fortress","app_id":440,"player_count":0,"max_players":24,"Bots":0,"server_type":"Dedicated","server_os":"Linux","password":true,"vac":true,"version":"7961495","steam_id":85568392924866362,"keywords":["nocrits","nodmgspread","payload","uncletopia"],"game_id":440,"stv_port":27016,"stv_name":"Uncletopia | Chicago | 5 | All Maps | STV","players":null},{"server_id":37,"name":"Uncletopia | Chicago | 6 | All Maps","name_short":"chi-6","host":"chi-2.us.uncletopia.com","port":27025,"enabled":true,"region":"us-central","cc":"us","latitude":41.881832,"longitude":-87.62318,"reserved":0,"last_update":"0001-01-01T00:00:00Z","name_a2s":"Uncletopia | Chicago | 6 | All Maps","protocol":17,"map":"koth_suijin","folder":"tf","game":"Team Fortress","app_id":440,"player_count":15,"max_players":24,"Bots":0,"server_type":"Dedicated","server_os":"Linux","password":true,"vac":true,"version":"7961495","steam_id":85568392924866363,"keywords":["cp","nocrits","nodmgspread","uncletopia"],"game_id":440,"stv_port":27026,"stv_name":"Uncletopia | Chicago | 6 | All Maps | STV","players":[{"user_id":454,"name":"Scremz (Jeffery Dommer)","steam_id":76561198090314229,"connected_time":959000000000,"state":"active","ping":72},{"user_id":457,"name":"bath","steam_id":76561197969993352,"connected_time":362000000000,"state":"active","ping":50},{"user_id":460,"name":"Jovyel","steam_id":76561198118777065,"connected_time":96000000000,"state":"active","ping":78},{"user_id":341,"name":"chrischrischris3018@yahoo.com","steam_id":76561198137316053,"connected_time":10886000000000,"state":"active","ping":61},{"user_id":422,"name":"¬°c√°lmate!","steam_id":76561198071421094,"connected_time":5283000000000,"state":"active","ping":90},{"user_id":458,"name":"TheKyleB","steam_id":76561198202515104,"connected_time":335000000000,"state":"active","ping":44},{"user_id":403,"name":"·óúÀ¨·óú","steam_id":76561198049076233,"connected_time":6147000000000,"state":"active","ping":71},{"user_id":459,"name":"Soldier","steam_id":76561199506793300,"connected_time":302000000000,"state":"active","ping":62},{"user_id":461,"name":"Andrew's Taint","steam_id":76561198131400543,"connected_time":85000000000,"state":"active","ping":76},{"user_id":406,"name":"Storethis","steam_id":76561198082792619,"connected_time":6113000000000,"state":"active","ping":58},{"user_id":405,"name":"Nazmir Boglord","steam_id":76561198162890584,"connected_time":6134000000000,"state":"active","ping":70},{"user_id":440,"name":"Alyx","steam_id":76561198064654326,"connected_time":3053000000000,"state":"active","ping":144},{"user_id":441,"name":"ma≈Çiƒô","steam_id":76561198337705174,"connected_time":2957000000000,"state":"active","ping":70},{"user_id":449,"name":"Ray","steam_id":76561198021656524,"connected_time":2117000000000,"state":"active","ping":91},{"user_id":418,"name":"Cringelander","steam_id":76561198841559088,"connected_time":5661000000000,"state":"active","ping":61}]},{"server_id":38,"name":"Uncletopia | Chicago | 7 | Stopwatch","name_short":"chi-7","host":"chi-2.us.uncletopia.com","port":27035,"enabled":true,"region":"us-central","cc":"us","latitude":41.881832,"longitude":-87.62318,"reserved":0,"last_update":"0001-01-01T00:00:00Z","name_a2s":"Uncletopia | Chicago | 7 | Stopwatch","protocol":17,"map":"pl_borneo","folder":"tf","game":"Team Fortress","app_id":440,"player_count":0,"max_players":24,"Bots":0,"server_type":"Dedicated","server_os":"Linux","password":true,"vac":true,"version":"7961495","steam_id":85568392924866364,"keywords":["nocrits","nodmgspread","payload","uncletopia"],"game_id":440,"stv_port":27036,"stv_name":"Uncletopia | Chicago | 7 | Stopwatch | STV","players":null},{"server_id":39,"name":"Uncletopia | Chicago | 8 | Community","name_short":"chi-8","host":"chi-2.us.uncletopia.com","port":27045,"enabled":true,"region":"us-central","cc":"us","latitude":41.881832,"longitude":-87.62318,"reserved":0,"last_update":"0001-01-01T00:00:00Z","name_a2s":"Uncletopia | Chicago | 8 | Community","protocol":17,"map":"workshop/koth_slaughter_rc1.ugc1712845210","folder":"tf","game":"Team Fortress","app_id":440,"player_count":0,"max_players":24,"Bots":0,"server_type":"Dedicated","server_os":"Linux","password":true,"vac":true,"version":"7961495","steam_id":85568392924866365,"keywords":["cp","nocrits","nodmgspread","uncletopia"],"game_id":440,"stv_port":27046,"stv_name":"Uncletopia | Chicago | 8 | Community | STV","players":null},{"server_id":8,"name":"Uncletopia | Dallas | 1 | All Maps","name_short":"dal-1","host":"dal-1.us.uncletopia.com","port":27015,"enabled":true,"region":"us-central","cc":"us","latitude":32.779167,"longitude":-96.80889,"reserved":0,"last_update":"0001-01-01T00:00:00Z","name_a2s":"Uncletopia | Dallas | 1 | All Maps","protocol":17,"map":"cp_snakewater_final1","folder":"tf","game":"Team Fortress","app_id":440,"player_count":0,"max_players":24,"Bots":0,"server_type":"Dedicated","server_os":"Linux","password":true,"vac":true,"version":"7961495","steam_id":85568392924469986,"keywords":["cp","nocrits","nodmgspread","uncletopia"],"game_id":440,"stv_port":27016,"stv_name":"Uncletopia | Dallas | 1 | All Maps | STV","players":null},{"server_id":108,"name":"Uncletopia | Dallas | 2 | All Maps","name_short":"dal-2","host":"dal-1.us.uncletopia.com","port":27025,"enabled":true,"region":"us-central","cc":"us","latitude":32.779167,"longitude":-96.80889,"reserved":0,"last_update":"0001-01-01T00:00:00Z","name_a2s":"Uncletopia | Dallas | 2 | All Maps","protocol":17,"map":"cp_gorge","folder":"tf","game":"Team Fortress","app_id":440,"player_count":0,"max_players":24,"Bots":0,"server_type":"Dedicated","server_os":"Linux","password":true,"vac":true,"version":"7961495","steam_id":85568392924469988,"keywords":["cp","nocrits","nodmgspread","uncletopia"],"game_id":440,"stv_port":27026,"stv_name":"Uncletopia | Dallas | 2 | All Maps | STV","players":null},{"server_id":404,"name":"Uncletopia | Dallas | 3 | All Maps","name_short":"dal-3","host":"dal-1.us.uncletopia.com","port":27035,"enabled":true,"region":"us-central","cc":"us","latitude":32.779167,"longitude":-96.80889,"reserved":0,"last_update":"0001-01-01T00:00:00Z","name_a2s":"Uncletopia | Dallas | 3 | All Maps","protocol":17,"map":"cp_altitude","folder":"tf","game":"Team Fortress","app_id":440,"player_count":7,"max_players":24,"Bots":0,"server_type":"Dedicated","server_os":"Linux","password":true,"vac":true,"version":"7961495","steam_id":85568392924515219,"keywords":["cp","nocrits","nodmgspread","uncletopia"],"game_id":440,"stv_port":27036,"stv_name":"Uncletopia | Dallas | 3 | All Maps | STV","players":[{"user_id":201,"name":"Caleb The Hedgehog","steam_id":76561198188496597,"connected_time":1838000000000,"state":"active","ping":60},{"user_id":200,"name":"PIPPIN","steam_id":76561199013202758,"connected_time":1879000000000,"state":"active","ping":67},{"user_id":221,"name":"ProfessorSpyCrab","steam_id":76561198815433724,"connected_time":17000000000,"state":"active","ping":255},{"user_id":214,"name":"Shifty Louie","steam_id":76561197990872608,"connected_time":823000000000,"state":"active","ping":108},{"user_id":217,"name":"Cael","steam_id":76561198136789464,"connected_time":441000000000,"state":"active","ping":66},{"user_id":218,"name":"Lola the Spider","steam_id":76561198131567365,"connected_time":416000000000,"state":"active","ping":73},{"user_id":184,"name":"KiWii","steam_id":76561199013608864,"connected_time":3496000000000,"state":"active","ping":61}]},{"server_id":405,"name":"Uncletopia | Dallas | 4 | Community","name_short":"dal-4","host":"dal-1.us.uncletopia.com","port":27045,"enabled":true,"region":"us-central","cc":"us","latitude":32.779167,"longitude":-96.80889,"reserved":0,"last_update":"0001-01-01T00:00:00Z","name_a2s":"Uncletopia | Dallas | 4 | Community","protocol":17,"map":"workshop/koth_slaughter_rc1.ugc1712845210","folder":"tf","game":"Team Fortress","app_id":440,"player_count":0,"max_players":24,"Bots":0,"server_type":"Dedicated","server_os":"Linux","password":true,"vac":true,"version":"7961495","steam_id":85568392924515220,"keywords":["cp","nocrits","nodmgspread","uncletopia"],"game_id":440,"stv_port":27046,"stv_name":"Uncletopia | Dallas | 4 | Community | STV","players":null},{"server_id":5,"name":"Uncletopia | Frankfurt | 1 | All Maps","name_short":"frk-1","host":"frk-1.de.uncletopia.com","port":27015,"enabled":true,"region":"eu","cc":"de","latitude":50.110924,"longitude":8.682127,"reserved":0,"last_update":"0001-01-01T00:00:00Z","name_a2s":"Uncletopia | Frankfurt | 1 | All Maps","protocol":17,"map":"koth_highpass","folder":"tf","game":"Team Fortress","app_id":440,"player_count":0,"max_players":24,"Bots":0,"server_type":"Dedicated","server_os":"Linux","password":true,"vac":true,"version":"7961495","steam_id":85568392924469989,"keywords":["cp","nocrits","nodmgspread","uncletopia"],"game_id":440,"stv_port":27016,"stv_name":"Uncletopia | Frankfurt | 1 | All Maps | STV","players":null},{"server_id":110,"name":"Uncletopia | Frankfurt | 2 | All Maps","name_short":"frk-2","host":"frk-1.de.uncletopia.com","port":27025,"enabled":true,"region":"eu","cc":"de","latitude":50.110924,"longitude":8.682127,"reserved":0,"last_update":"0001-01-01T00:00:00Z","name_a2s":"Uncletopia | Frankfurt | 2 | All Maps","protocol":17,"map":"cp_snakewater_final1","folder":"tf","game":"Team Fortress","app_id":440,"player_count":0,"max_players":24,"Bots":0,"server_type":"Dedicated","server_os":"Linux","password":true,"vac":true,"version":"7961495","steam_id":85568392924469990,"keywords":["cp","nocrits","nodmgspread","uncletopia"],"game_id":440,"stv_port":27026,"stv_name":"Uncletopia | Frankfurt | 2 | All Maps | STV","players":null},{"server_id":308,"name":"Uncletopia | Frankfurt | 3 | All Maps","name_short":"frk-3","host":"frk-1.de.uncletopia.com","port":27035,"enabled":true,"region":"eu","cc":"de","latitude":50.110924,"longitude":8.682127,"reserved":0,"last_update":"0001-01-01T00:00:00Z","name_a2s":"Uncletopia | Frankfurt | 3 | All Maps","protocol":17,"map":"pl_barnblitz","folder":"tf","game":"Team Fortress","app_id":440,"player_count":0,"max_players":24,"Bots":0,"server_type":"Dedicated","server_os":"Linux","password":true,"vac":true,"version":"7961495","steam_id":85568392924504274,"keywords":["nocrits","nodmgspread","payload","uncletopia"],"game_id":440,"stv_port":27036,"stv_name":"Uncletopia | Frankfurt | 3 | All Maps | STV","players":null},{"server_id":309,"name":"Uncletopia | Frankfurt | 4 | All Maps","name_short":"frk-4","host":"frk-1.de.uncletopia.com","port":27045,"enabled":true,"region":"eu","cc":"de","latitude":50.110924,"longitude":8.682127,"reserved":0,"last_update":"0001-01-01T00:00:00Z","name_a2s":"Uncletopia | Frankfurt | 4 | All Maps","protocol":17,"map":"koth_highpass","folder":"tf","game":"Team Fortress","app_id":440,"player_count":0,"max_players":24,"Bots":0,"server_type":"Dedicated","server_os":"Linux","password":true,"vac":true,"version":"7961495","steam_id":85568392924504275,"keywords":["cp","nocrits","nodmgspread","uncletopia"],"game_id":440,"stv_port":27046,"stv_name":"Uncletopia | Frankfurt | 4 | All Maps | STV","players":null},{"server_id":310,"name":"Uncletopia | Frankfurt | 5 | All Maps","name_short":"frk-5","host":"frk-1.de.uncletopia.com","port":27055,"enabled":true,"region":"eu","cc":"de","latitude":50.110924,"longitude":8.682127,"reserved":0,"last_update":"0001-01-01T00:00:00Z","name_a2s":"Uncletopia | Frankfurt | 5 | All Maps","protocol":17,"map":"pl_upward","folder":"tf","game":"Team Fortress","app_id":440,"player_count":24,"max_players":24,"Bots":0,"server_type":"Dedicated","server_os":"Linux","password":true,"vac":true,"version":"7961495","steam_id":85568392924504277,"keywords":["nocrits","nodmgspread","payload","uncletopia"],"game_id":440,"stv_port":27056,"stv_name":"Uncletopia | Frankfurt | 5 | All Maps | STV","players":[{"user_id":3,"name":"Falcon","steam_id":76561198211463916,"connected_time":2968000000000,"state":"active","ping":99},{"user_id":5,"name":"the fungus","steam_id":76561198173399643,"connected_time":2910000000000,"state":"active","ping":86},{"user_id":6,"name":"[IVe/LO]Jadore_les_Currywurst","steam_id":76561198005084382,"connected_time":2721000000000,"state":"active","ping":94},{"user_id":43,"name":"GamerPanda","steam_id":76561198061454277,"connected_time":372000000000,"state":"active","ping":54},{"user_id":8,"name":"Fatmagic Mukbang ASMR","steam_id":76561198063492110,"connected_time":2015000000000,"state":"active","ping":77},{"user_id":9,"name":"Zulik92","steam_id":76561198152442373,"connected_time":1927000000000,"state":"active","ping":56},{"user_id":10,"name":"skelebin","steam_id":76561199480942903,"connected_time":1926000000000,"state":"active","ping":69},{"user_id":13,"name":"knife guy","steam_id":76561198170994682,"connected_time":1681000000000,"state":"active","ping":86},{"user_id":44,"name":"I like apple","steam_id":76561198108115790,"connected_time":345000000000,"state":"active","ping":50},{"user_id":14,"name":"marvs","steam_id":76561198851777617,"connected_time":1666000000000,"state":"active","ping":106},{"user_id":15,"name":"Rummin","steam_id":76561198064739834,"connected_time":1655000000000,"state":"active","ping":69},{"user_id":16,"name":"Dani","steam_id":76561198211627920,"connected_time":1592000000000,"state":"active","ping":60},{"user_id":17,"name":"Skelgo","steam_id":76561198439667867,"connected_time":1589000000000,"state":"active","ping":59},{"user_id":22,"name":"main weapon machine broke","steam_id":76561198041329823,"connected_time":1352000000000,"state":"active","ping":82},{"user_id":29,"name":"cute f2p femboy cant speak :3","steam_id":76561199472682385,"connected_time":947000000000,"state":"active","ping":90},{"user_id":42,"name":"Cencut","steam_id":76561198989449047,"connected_time":490000000000,"state":"active","ping":119},{"user_id":40,"name":"Largo","steam_id":76561198844368927,"connected_time":612000000000,"state":"active","ping":74},{"user_id":24,"name":"Yalls","steam_id":76561199382978934,"connected_time":1336000000000,"state":"active","ping":90},{"user_id":31,"name":"‚ô• œü Frosty œü ‚ô•","steam_id":76561198048035879,"connected_time":906000000000,"state":"active","ping":60},{"user_id":36,"name":"night.s","steam_id":76561198326287823,"connected_time":670000000000,"state":"active","ping":79},{"user_id":33,"name":"Klorophyte","steam_id":76561198885112655,"connected_time":877000000000,"state":"active","ping":84},{"user_id":37,"name":"Ve1zei1","steam_id":76561199418028100,"connected_time":670000000000,"state":"active","ping":81},{"user_id":38,"name":"Double Helix","steam_id":76561198085155381,"connected_time":658000000000,"state":"active","ping":60},{"user_id":41,"name":"PPlantum","steam_id":76561199128528323,"connected_time":612000000000,"state":"active","ping":41}]},{"server_id":311,"name":"Uncletopia | Frankfurt | 6 | All Maps","name_short":"frk-6","host":"frk-1.de.uncletopia.com","port":27065,"enabled":true,"region":"eu","cc":"de","latitude":50.110924,"longitude":8.682127,"reserved":0,"last_update":"0001-01-01T00:00:00Z","name_a2s":"Uncletopia | Frankfurt | 6 | All Maps","protocol":17,"map":"cp_altitude","folder":"tf","game":"Team Fortress","app_id":440,"player_count":0,"max_players":24,"Bots":0,"server_type":"Dedicated","server_os":"Linux","password":true,"vac":true,"version":"7961495","steam_id":85568392924504278,"keywords":["cp","nocrits","nodmgspread","uncletopia"],"game_id":440,"stv_port":27066,"stv_name":"Uncletopia | Frankfurt | 6 | All Maps | STV","players":null},{"server_id":23,"name":"Uncletopia | Frankfurt | 7 | Stopwatch","name_short":"frk-7","host":"frk-1.de.uncletopia.com","port":27075,"enabled":true,"region":"eu","cc":"de","latitude":50.110924,"longitude":8.682127,"reserved":0,"last_update":"0001-01-01T00:00:00Z","name_a2s":"Uncletopia | Frankfurt | 7 | Stopwatch","protocol":17,"map":"pl_frontier_final","folder":"tf","game":"Team Fortress","app_id":440,"player_count":0,"max_players":24,"Bots":0,"server_type":"Dedicated","server_os":"Linux","password":true,"vac":true,"version":"7961495","steam_id":85568392924742827,"keywords":["nocrits","nodmgspread","payload","uncletopia"],"game_id":440,"stv_port":27076,"stv_name":"Uncletopia | Frankfurt | 7 | Stopwatch | STV","players":null},{"server_id":24,"name":"Uncletopia | Frankfurt | 8 | Community","name_short":"frk-8","host":"frk-1.de.uncletopia.com","port":27085,"enabled":true,"region":"eu","cc":"de","latitude":50.110924,"longitude":8.682127,"reserved":0,"last_update":"0001-01-01T00:00:00Z","name_a2s":"Uncletopia | Frankfurt | 8 | Community","protocol":17,"map":"cp_mountainlab","folder":"tf","game":"Team Fortress","app_id":440,"player_count":0,"max_players":24,"Bots":0,"server_type":"Dedicated","server_os":"Linux","password":true,"vac":true,"version":"7961495","steam_id":85568392924742828,"keywords":["cp","nocrits","nodmgspread","uncletopia"],"game_id":440,"stv_port":27086,"stv_name":"Uncletopia | Frankfurt | 8 | Community | STV","players":null},{"server_id":202,"name":"Uncletopia | Hong Kong | 1 | All Maps","name_short":"hgk-1","host":"hgk-1.hk.uncletopia.com","port":27015,"enabled":true,"region":"asia","cc":"hk","latitude":22.302711,"longitude":114.177216,"reserved":0,"last_update":"0001-01-01T00:00:00Z","name_a2s":"Uncletopia | Hong Kong | 1 | All Maps","protocol":17,"map":"pl_upward","folder":"tf","game":"Team Fortress","app_id":440,"player_count":24,"max_players":24,"Bots":0,"server_type":"Dedicated","server_os":"Linux","password":true,"vac":true,"version":"7961495","steam_id":85568392924494504,"keywords":["nocrits","nodmgspread","payload","uncletopia"],"game_id":440,"stv_port":27016,"stv_name":"Uncletopia | Hong Kong | 1 | All Maps | STV","players":[{"user_id":155,"name":"Lady D.","steam_id":76561199225360457,"connected_time":1748000000000,"state":"active","ping":74},{"user_id":126,"name":"Telekhine","steam_id":76561198387120618,"connected_time":4393000000000,"state":"active","ping":61},{"user_id":144,"name":"soh.cayden","steam_id":76561198985588227,"connected_time":2439000000000,"state":"active","ping":92},{"user_id":151,"name":"poopypantsjoe","steam_id":76561198204747977,"connected_time":1821000000000,"state":"active","ping":68},{"user_id":141,"name":"ArcticDolphin","steam_id":76561198203626319,"connected_time":2953000000000,"state":"active","ping":128},{"user_id":124,"name":"kiyomi","steam_id":76561198240627872,"connected_time":4608000000000,"state":"active","ping":52},{"user_id":118,"name":"ÍπÄÍ¥ëÎßå","steam_id":76561198295279503,"connected_time":5714000000000,"state":"active","ping":101},{"user_id":80,"name":"noob pyro of all time","steam_id":76561198074339034,"connected_time":9854000000000,"state":"active","ping":77},{"user_id":100,"name":"cau be thieu nang","steam_id":76561199273435519,"connected_time":7290000000000,"state":"active","ping":73},{"user_id":156,"name":"g-host","steam_id":76561198298740090,"connected_time":1707000000000,"state":"active","ping":96},{"user_id":132,"name":"water tastes good","steam_id":76561199375947670,"connected_time":3105000000000,"state":"active","ping":71},{"user_id":163,"name":"The Crackmas Creature","steam_id":76561198979062957,"connected_time":432000000000,"state":"active","ping":82},{"user_id":147,"name":"Lady \u0026 The Tramp (1955)","steam_id":76561198422543918,"connected_time":2064000000000,"state":"active","ping":107},{"user_id":139,"name":"TomProPlayer","steam_id":76561199223292521,"connected_time":3014000000000,"state":"active","ping":71},{"user_id":160,"name":"IRA car dealership","steam_id":76561199224577498,"connected_time":1011000000000,"state":"active","ping":78},{"user_id":152,"name":"Drutzhfer","steam_id":76561198299948446,"connected_time":1818000000000,"state":"active","ping":108},{"user_id":165,"name":"ÏÇêÎî±ÌïòÍ≤å","steam_id":76561198360026912,"connected_time":167000000000,"state":"active","ping":91},{"user_id":72,"name":"3wfFbdrjEze5d2G","steam_id":76561198435900451,"connected_time":11324000000000,"state":"active","ping":104},{"user_id":159,"name":"Mac09","steam_id":76561198934873063,"connected_time":1077000000000,"state":"active","ping":76},{"user_id":161,"name":"Sijikcick","steam_id":76561199097679930,"connected_time":995000000000,"state":"active","ping":103},{"user_id":157,"name":"UZ","steam_id":76561198179320563,"connected_time":1162000000000,"state":"active","ping":152},{"user_id":164,"name":"Everlution (F2p sadge)","steam_id":76561198975726625,"connected_time":417000000000,"state":"active","ping":87},{"user_id":136,"name":"hana014","steam_id":76561198113401862,"connected_time":3043000000000,"state":"active","ping":92},{"user_id":125,"name":"RedBee (Femboy Nurse Èõô)","steam_id":76561198976736971,"connected_time":4603000000000,"state":"active","ping":48}]},{"server_id":1,"name":"Uncletopia | Los Angeles | 1 | All Maps","name_short":"lax-1","host":"lax-1.us.uncletopia.com","port":27015,"enabled":true,"region":"us-west","cc":"us","latitude":33.94279,"longitude":-118.41004,"reserved":0,"last_update":"0001-01-01T00:00:00Z","name_a2s":"Uncletopia | Los Angeles | 1 | All Maps","protocol":17,"map":"pl_upward","folder":"tf","game":"Team Fortress","app_id":440,"player_count":0,"max_players":24,"Bots":0,"server_type":"Dedicated","server_os":"Linux","password":true,"vac":true,"version":"7961495","steam_id":85568392924469991,"keywords":["nocrits","nodmgspread","payload","uncletopia"],"game_id":440,"stv_port":27016,"stv_name":"Uncletopia | Los Angeles | 1 | All Maps | STV","players":null},{"server_id":112,"name":"Uncletopia | Los Angeles | 2 | All Maps","name_short":"lax-2","host":"lax-1.us.uncletopia.com","port":27025,"enabled":true,"region":"us-west","cc":"us","latitude":33.94279,"longitude":-118.41004,"reserved":0,"last_update":"0001-01-01T00:00:00Z","name_a2s":"Uncletopia | Los Angeles | 2 | All Maps","protocol":17,"map":"cp_altitude","folder":"tf","game":"Team Fortress","app_id":440,"player_count":0,"max_players":24,"Bots":0,"server_type":"Dedicated","server_os":"Linux","password":true,"vac":true,"version":"7961495","steam_id":85568392924469992,"keywords":["cp","nocrits","nodmgspread","uncletopia"],"game_id":440,"stv_port":27026,"stv_name":"Uncletopia | Los Angeles | 2 | All Maps | STV","players":null},{"server_id":324,"name":"Uncletopia | Los Angeles | 3 | All Maps","name_short":"lax-3","host":"lax-1.us.uncletopia.com","port":27035,"enabled":true,"region":"us-west","cc":"us","latitude":33.94279,"longitude":-118.41004,"reserved":0,"last_update":"0001-01-01T00:00:00Z","name_a2s":"Uncletopia | Los Angeles | 3 | All Maps","protocol":17,"map":"pl_badwater","folder":"tf","game":"Team Fortress","app_id":440,"player_count":23,"max_players":24,"Bots":0,"server_type":"Dedicated","server_os":"Linux","password":true,"vac":true,"version":"7961495","steam_id":85568392924510198,"keywords":["nocrits","nodmgspread","payload","uncletopia"],"game_id":440,"stv_port":27036,"stv_name":"Uncletopia | Los Angeles | 3 | All Maps | STV","players":[{"user_id":396,"name":"dewey","steam_id":76561198132791511,"connected_time":4005000000000,"state":"active","ping":56},{"user_id":374,"name":"EclipseHellhound","steam_id":76561199192649470,"connected_time":5341000000000,"state":"active","ping":59},{"user_id":411,"name":"Jimmy","steam_id":76561198857959855,"connected_time":2596000000000,"state":"active","ping":42},{"user_id":398,"name":"waggyaggy (it/she)","steam_id":76561197998241407,"connected_time":3994000000000,"state":"active","ping":46},{"user_id":421,"name":"June","steam_id":76561198141803658,"connected_time":1678000000000,"state":"active","ping":45},{"user_id":424,"name":"Inkora","steam_id":76561198351622498,"connected_time":402000000000,"state":"active","ping":45},{"user_id":428,"name":"FerenzalGamezTTV","steam_id":76561197961078965,"connected_time":261000000000,"state":"active","ping":93},{"user_id":429,"name":"1000 Ping","steam_id":76561198098330939,"connected_time":225000000000,"state":"active","ping":77},{"user_id":430,"name":"goopgrabber","steam_id":76561199029951083,"connected_time":222000000000,"state":"active","ping":51},{"user_id":386,"name":"HopeTheNeko","steam_id":76561199159285465,"connected_time":5009000000000,"state":"active","ping":59},{"user_id":415,"name":"Artic_Ryuu","steam_id":76561198182194918,"connected_time":2329000000000,"state":"active","ping":40},{"user_id":347,"name":"Noire","steam_id":76561198149370109,"connected_time":7050000000000,"state":"active","ping":79},{"user_id":376,"name":"Under an Unquiet Skull","steam_id":76561198164782653,"connected_time":5322000000000,"state":"active","ping":108},{"user_id":388,"name":"eBay","steam_id":76561198061214569,"connected_time":4906000000000,"state":"active","ping":98},{"user_id":431,"name":"no vc no c","steam_id":76561197989503095,"connected_time":213000000000,"state":"active","ping":145},{"user_id":407,"name":"T√ºCold","steam_id":76561198111278197,"connected_time":3099000000000,"state":"active","ping":71},{"user_id":432,"name":"Taco+Taco=Burrito","steam_id":76561198063128663,"connected_time":154000000000,"state":"active","ping":46},{"user_id":433,"name":"dAiLyGrInD","steam_id":76561198163531915,"connected_time":114000000000,"state":"active","ping":97},{"user_id":420,"name":"M4 Sherman","steam_id":76561198011096132,"connected_time":1821000000000,"state":"active","ping":57},{"user_id":377,"name":"gerg","steam_id":76561197997127387,"connected_time":5320000000000,"state":"active","ping":58},{"user_id":434,"name":"Five","steam_id":76561198026640473,"connected_time":98000000000,"state":"active","ping":60},{"user_id":435,"name":"00","steam_id":76561198041700636,"connected_time":62000000000,"state":"active","ping":55},{"user_id":361,"name":"Ian","steam_id":76561198159334435,"connected_time":6618000000000,"state":"active","ping":170}]},{"server_id":25,"name":"Uncletopia | Los Angeles | 4 | Stopwatch","name_short":"lax-4","host":"lax-1.us.uncletopia.com","port":27045,"enabled":true,"region":"us-west","cc":"us","latitude":33.94279,"longitude":-118.41004,"reserved":0,"last_update":"0001-01-01T00:00:00Z","name_a2s":"Uncletopia | Los Angeles | 4 | Stopwatch","protocol":17,"map":"pl_barnblitz","folder":"tf","game":"Team Fortress","app_id":440,"player_count":0,"max_players":24,"Bots":0,"server_type":"Dedicated","server_os":"Linux","password":true,"vac":true,"version":"7961495","steam_id":85568392924510199,"keywords":["nocrits","nodmgspread","payload","uncletopia"],"game_id":440,"stv_port":27046,"stv_name":"Uncletopia | Los Angeles | 4 | Stopwatch | STV","players":null},{"server_id":11,"name":"Uncletopia | London | 1 | All Maps","name_short":"lon-1","host":"lon-1.uk.uncletopia.com","port":27015,"enabled":true,"region":"eu","cc":"gb","latitude":51.509865,"longitude":-0.118092,"reserved":0,"last_update":"0001-01-01T00:00:00Z","name_a2s":"Uncletopia | London | 1 | All Maps","protocol":17,"map":"koth_highpass","folder":"tf","game":"Team Fortress","app_id":440,"player_count":0,"max_players":24,"Bots":0,"server_type":"Dedicated","server_os":"Linux","password":true,"vac":true,"version":"7961495","steam_id":85568392924367362,"keywords":["cp","nocrits","nodmgspread","uncletopia"],"game_id":440,"stv_port":27016,"stv_name":"Uncletopia | London | 1 | All Maps | STV","players":null},{"server_id":114,"name":"Uncletopia | London | 2 | All Maps","name_short":"lon-2","host":"lon-1.uk.uncletopia.com","port":27025,"enabled":true,"region":"eu","cc":"gb","latitude":51.509865,"longitude":-0.118092,"reserved":0,"last_update":"0001-01-01T00:00:00Z","name_a2s":"Uncletopia | London | 2 | All Maps","protocol":17,"map":"koth_lakeside_final","folder":"tf","game":"Team Fortress","app_id":440,"player_count":0,"max_players":24,"Bots":0,"server_type":"Dedicated","server_os":"Linux","password":true,"vac":true,"version":"7961495","steam_id":85568392924470941,"keywords":["cp","nocrits","nodmgspread","uncletopia"],"game_id":440,"stv_port":27026,"stv_name":"Uncletopia | London | 2 | All Maps | STV","players":null},{"server_id":320,"name":"Uncletopia | London | 3 | All Maps","name_short":"lon-3","host":"lon-1.uk.uncletopia.com","port":27035,"enabled":true,"region":"eu","cc":"gb","latitude":51.509865,"longitude":-0.118092,"reserved":0,"last_update":"0001-01-01T00:00:00Z","name_a2s":"Uncletopia | London | 3 | All Maps","protocol":17,"map":"koth_lakeside_final","folder":"tf","game":"Team Fortress","app_id":440,"player_count":0,"max_players":24,"Bots":0,"server_type":"Dedicated","server_os":"Linux","password":true,"vac":true,"version":"7961495","steam_id":85568392924510192,"keywords":["cp","nocrits","nodmgspread","uncletopia"],"game_id":440,"stv_port":27036,"stv_name":"Uncletopia | London | 3 | All Maps | STV","players":null},{"server_id":321,"name":"Uncletopia | London | 4 | All Maps","name_short":"lon-4","host":"lon-1.uk.uncletopia.com","port":27045,"enabled":true,"region":"eu","cc":"gb","latitude":51.509865,"longitude":-0.118092,"reserved":0,"last_update":"0001-01-01T00:00:00Z","name_a2s":"Uncletopia | London | 4 | All Maps","protocol":17,"map":"koth_cascade","folder":"tf","game":"Team Fortress","app_id":440,"player_count":0,"max_players":24,"Bots":0,"server_type":"Dedicated","server_os":"Linux","password":true,"vac":true,"version":"7961495","steam_id":85568392924510193,"keywords":["cp","nocrits","nodmgspread","uncletopia"],"game_id":440,"stv_port":27046,"stv_name":"Uncletopia | London | 4 | All Maps | STV","players":null},{"server_id":21,"name":"Uncletopia | London | 5 | All Maps","name_short":"lon-5","host":"lon-1.uk.uncletopia.com","port":27055,"enabled":true,"region":"eu","cc":"gb","latitude":51.509865,"longitude":-0.118092,"reserved":0,"last_update":"0001-01-01T00:00:00Z","name_a2s":"Uncletopia | London | 5 | All Maps","protocol":17,"map":"koth_lakeside_final","folder":"tf","game":"Team Fortress","app_id":440,"player_count":0,"max_players":24,"Bots":0,"server_type":"Dedicated","server_os":"Linux","password":true,"vac":true,"version":"7961495","steam_id":85568392924742829,"keywords":["cp","nocrits","nodmgspread","uncletopia"],"game_id":440,"stv_port":27056,"stv_name":"Uncletopia | London | 5 | All Maps | STV","players":null},{"server_id":22,"name":"Uncletopia | London | 6 | All Maps","name_short":"lon-6","host":"lon-1.uk.uncletopia.com","port":27065,"enabled":true,"region":"eu","cc":"gb","latitude":51.509865,"longitude":-0.118092,"reserved":0,"last_update":"0001-01-01T00:00:00Z","name_a2s":"Uncletopia | London | 6 | All Maps","protocol":17,"map":"cp_dustbowl","folder":"tf","game":"Team Fortress","app_id":440,"player_count":0,"max_players":24,"Bots":0,"server_type":"Dedicated","server_os":"Linux","password":true,"vac":true,"version":"7961495","steam_id":85568392924742830,"keywords":["cp","nocrits","nodmgspread","uncletopia"],"game_id":440,"stv_port":27066,"stv_name":"Uncletopia | London | 6 | All Maps | STV","players":null},{"server_id":40,"name":"Uncletopia | London | 7 | Stopwatch","name_short":"lon-7","host":"lon-1.uk.uncletopia.com","port":27075,"enabled":true,"region":"eu","cc":"gb","latitude":51.509865,"longitude":-0.118092,"reserved":0,"last_update":"0001-01-01T00:00:00Z","name_a2s":"Uncletopia | London | 7 | Stopwatch","protocol":17,"map":"koth_lakeside_final","folder":"tf","game":"Team Fortress","app_id":440,"player_count":0,"max_players":24,"Bots":0,"server_type":"Dedicated","server_os":"Linux","password":true,"vac":true,"version":"7961495","steam_id":85568392924964314,"keywords":["cp","nocrits","nodmgspread","uncletopia"],"game_id":440,"stv_port":27076,"stv_name":"Uncletopia | London | 7 | Stopwatch | STV","players":null},{"server_id":41,"name":"Uncletopia | London | 8 | Community","name_short":"lon-8","host":"lon-1.uk.uncletopia.com","port":27085,"enabled":true,"region":"eu","cc":"gb","latitude":51.509865,"longitude":-0.118092,"reserved":0,"last_update":"0001-01-01T00:00:00Z","name_a2s":"Uncletopia | London | 8 | Community","protocol":17,"map":"cp_snakewater_final1","folder":"tf","game":"Team Fortress","app_id":440,"player_count":0,"max_players":24,"Bots":0,"server_type":"Dedicated","server_os":"Linux","password":true,"vac":true,"version":"7961495","steam_id":85568392924964315,"keywords":["cp","nocrits","nodmgspread","uncletopia"],"game_id":440,"stv_port":27086,"stv_name":"Uncletopia | London | 8 | Community | STV","players":null},{"server_id":300,"name":"Uncletopia | Montr√©al | 1 | One Thousand Uncles","name_short":"mtl-1","host":"mtl-1.ca.uncletopia.com","port":27015,"enabled":true,"region":"us-east","cc":"ca","latitude":45.50889,"longitude":-73.56167,"reserved":0,"last_update":"0001-01-01T00:00:00Z","name_a2s":"","protocol":0,"map":"","folder":"","game":"","app_id":0,"player_count":0,"max_players":0,"Bots":0,"server_type":"","server_os":"","password":false,"vac":false,"version":"","steam_id":0,"keywords":null,"game_id":0,"stv_port":0,"stv_name":"","players":null},{"server_id":301,"name":"Uncletopia | Montr√©al | 2 | One Thousand Uncles","name_short":"mtl-2","host":"mtl-1.ca.uncletopia.com","port":27025,"enabled":true,"region":"us-east","cc":"ca","latitude":45.50889,"longitude":-73.56167,"reserved":0,"last_update":"0001-01-01T00:00:00Z","name_a2s":"","protocol":0,"map":"","folder":"","game":"","app_id":0,"player_count":0,"max_players":0,"Bots":0,"server_type":"","server_os":"","password":false,"vac":false,"version":"","steam_id":0,"keywords":null,"game_id":0,"stv_port":0,"stv_name":"","players":null},{"server_id":302,"name":"Uncletopia | Montr√©al | 3 | One Thousand Uncles","name_short":"mtl-3","host":"mtl-1.ca.uncletopia.com","port":27035,"enabled":true,"region":"us-east","cc":"ca","latitude":45.50889,"longitude":-73.56167,"reserved":0,"last_update":"0001-01-01T00:00:00Z","name_a2s":"","protocol":0,"map":"","folder":"","game":"","app_id":0,"player_count":0,"max_players":0,"Bots":0,"server_type":"","server_os":"","password":false,"vac":false,"version":"","steam_id":0,"keywords":null,"game_id":0,"stv_port":0,"stv_name":"","players":null},{"server_id":13,"name":"Uncletopia | New York City | 1 | All Maps","name_short":"nyc-1","host":"nyc-1.us.uncletopia.com","port":27015,"enabled":true,"region":"us-east","cc":"us","latitude":40.73061,"longitude":-73.93524,"reserved":0,"last_update":"0001-01-01T00:00:00Z","name_a2s":"Uncletopia | New York City | 1 | All Maps","protocol":17,"map":"cp_process_final","folder":"tf","game":"Team Fortress","app_id":440,"player_count":0,"max_players":24,"Bots":0,"server_type":"Dedicated","server_os":"Linux","password":true,"vac":true,"version":"7961495","steam_id":85568392924469993,"keywords":["cp","nocrits","nodmgspread","uncletopia"],"game_id":440,"stv_port":27016,"stv_name":"Uncletopia | New York City | 1 | All Maps | STV","players":null},{"server_id":14,"name":"Uncletopia | New York City | 2 | All Maps","name_short":"nyc-2","host":"nyc-1.us.uncletopia.com","port":27025,"enabled":true,"region":"us-east","cc":"us","latitude":40.73061,"longitude":-73.93524,"reserved":0,"last_update":"0001-01-01T00:00:00Z","name_a2s":"Uncletopia | New York City | 2 | All Maps","protocol":17,"map":"pl_barnblitz","folder":"tf","game":"Team Fortress","app_id":440,"player_count":0,"max_players":24,"Bots":0,"server_type":"Dedicated","server_os":"Linux","password":true,"vac":true,"version":"7961495","steam_id":85568392924469994,"keywords":["nocrits","nodmgspread","payload","uncletopia"],"game_id":440,"stv_port":27026,"stv_name":"Uncletopia | New York City | 2 | All Maps | STV","players":null},{"server_id":15,"name":"Uncletopia | New York City | 3 | Stopwatch","name_short":"nyc-3","host":"nyc-1.us.uncletopia.com","port":27035,"enabled":true,"region":"us-east","cc":"us","latitude":40.73061,"longitude":-73.93524,"reserved":0,"last_update":"0001-01-01T00:00:00Z","name_a2s":"Uncletopia | New York City | 3 | Stopwatch","protocol":17,"map":"workshop/koth_ashville_final.ugc2130459942","folder":"tf","game":"Team Fortress","app_id":440,"player_count":0,"max_players":24,"Bots":0,"server_type":"Dedicated","server_os":"Linux","password":true,"vac":true,"version":"7961495","steam_id":85568392924742820,"keywords":["cp","nocrits","nodmgspread","uncletopia"],"game_id":440,"stv_port":27036,"stv_name":"Uncletopia | New York City | 3 | Stopwatch | STV","players":null},{"server_id":16,"name":"Uncletopia | New York City | 4 | Community","name_short":"nyc-4","host":"nyc-1.us.uncletopia.com","port":27045,"enabled":true,"region":"us-east","cc":"us","latitude":40.73061,"longitude":-73.93524,"reserved":0,"last_update":"0001-01-01T00:00:00Z","name_a2s":"Uncletopia | New York City | 4 | Community","protocol":17,"map":"workshop/pl_shoreleave_rc2.ugc1238849347","folder":"tf","game":"Team Fortress","app_id":440,"player_count":0,"max_players":24,"Bots":0,"server_type":"Dedicated","server_os":"Linux","password":true,"vac":true,"version":"7961495","steam_id":85568392924742821,"keywords":["nocrits","nodmgspread","payload","uncletopia"],"game_id":440,"stv_port":27046,"stv_name":"Uncletopia | New York City | 4 | Community | STV","players":null},{"server_id":142,"name":"Uncletopia | S√£o Paulo | 1 | All Maps","name_short":"sao-1","host":"sao-1.br.uncletopia.com","port":27015,"enabled":true,"region":"sa","cc":"br","latitude":-23.533773,"longitude":-46.62529,"reserved":0,"last_update":"0001-01-01T00:00:00Z","name_a2s":"Uncletopia | S√£o Paulo | 1 | All Maps","protocol":17,"map":"koth_cascade","folder":"tf","game":"Team Fortress","app_id":440,"player_count":0,"max_players":24,"Bots":0,"server_type":"Dedicated","server_os":"Linux","password":true,"vac":true,"version":"7961495","steam_id":85568392924469996,"keywords":["cp","nocrits","nodmgspread","uncletopia"],"game_id":440,"stv_port":27016,"stv_name":"Uncletopia | S√£o Paulo | 1 | All Maps | STV","players":null},{"server_id":143,"name":"Uncletopia | S√£o Paulo | 2 | Community","name_short":"sao-2","host":"sao-2.br.uncletopia.com","port":27015,"enabled":true,"region":"sa","cc":"br","latitude":-23.533773,"longitude":-46.62529,"reserved":0,"last_update":"0001-01-01T00:00:00Z","name_a2s":"Uncletopia | S√£o Paulo | 2 | Community","protocol":17,"map":"workshop/koth_synthetic_rc6a.ugc1549817316","folder":"tf","game":"Team Fortress","app_id":440,"player_count":0,"max_players":24,"Bots":0,"server_type":"Dedicated","server_os":"Linux","password":true,"vac":true,"version":"7961495","steam_id":85568392924485349,"keywords":["cp","nocrits","nodmgspread","uncletopia"],"game_id":440,"stv_port":27016,"stv_name":"Uncletopia | S√£o Paulo | 2 | Community | STV","players":null},{"server_id":7,"name":"Uncletopia | Seattle | 1 | All Maps","name_short":"sea-1","host":"sea-1.us.uncletopia.com","port":27015,"enabled":true,"region":"us-west","cc":"us","latitude":47.608013,"longitude":-122.33517,"reserved":0,"last_update":"0001-01-01T00:00:00Z","name_a2s":"Uncletopia | Seattle | 1 | All Maps","protocol":17,"map":"pl_swiftwater_final1","folder":"tf","game":"Team Fortress","app_id":440,"player_count":24,"max_players":24,"Bots":0,"server_type":"Dedicated","server_os":"Linux","password":true,"vac":true,"version":"7961495","steam_id":85568392924469997,"keywords":["nocrits","nodmgspread","payload","uncletopia"],"game_id":440,"stv_port":27016,"stv_name":"Uncletopia | Seattle | 1 | All Maps | STV","players":[{"user_id":692,"name":"Blackbeard","steam_id":76561198046952265,"connected_time":566000000000,"state":"active","ping":51},{"user_id":691,"name":"gorlab","steam_id":76561198025089694,"connected_time":582000000000,"state":"active","ping":63},{"user_id":684,"name":"Underscorn","steam_id":76561198374209415,"connected_time":2675000000000,"state":"active","ping":108},{"user_id":690,"name":"Meepster","steam_id":76561198146305159,"connected_time":850000000000,"state":"active","ping":50},{"user_id":673,"name":"[TrC] Nosy","steam_id":76561197978859310,"connected_time":4053000000000,"state":"active","ping":55},{"user_id":682,"name":"Mana \u003c3","steam_id":76561198804360021,"connected_time":2994000000000,"state":"active","ping":46},{"user_id":653,"name":"RainboomCrash","steam_id":76561198065612273,"connected_time":5149000000000,"state":"active","ping":52},{"user_id":677,"name":"toes","steam_id":76561198221151676,"connected_time":3092000000000,"state":"active","ping":50},{"user_id":674,"name":"hazel","steam_id":76561198037292232,"connected_time":4003000000000,"state":"active","ping":122},{"user_id":693,"name":"Sweater-Fan","steam_id":76561199389567214,"connected_time":555000000000,"state":"active","ping":110},{"user_id":658,"name":"rat gets the cheese","steam_id":76561198031234032,"connected_time":4941000000000,"state":"active","ping":101},{"user_id":663,"name":"zee","steam_id":76561198148876424,"connected_time":4780000000000,"state":"active","ping":54},{"user_id":694,"name":"Grand","steam_id":76561198290143399,"connected_time":543000000000,"state":"active","ping":75},{"user_id":640,"name":"A F2P With Hats","steam_id":76561198171497882,"connected_time":6421000000000,"state":"active","ping":73},{"user_id":695,"name":"Hazel Nutts","steam_id":76561199247095754,"connected_time":540000000000,"state":"active","ping":58},{"user_id":685,"name":"rat who can kickflip","steam_id":76561198073620027,"connected_time":2529000000000,"state":"active","ping":45},{"user_id":661,"name":"Bolbi","steam_id":76561198051811597,"connected_time":4837000000000,"state":"active","ping":79},{"user_id":647,"name":"Peppy","steam_id":76561198866629645,"connected_time":5773000000000,"state":"active","ping":64},{"user_id":689,"name":"Omegashart","steam_id":76561198209393060,"connected_time":1345000000000,"state":"active","ping":40},{"user_id":675,"name":"[TrC] Dackstrus","steam_id":76561197973518509,"connected_time":3797000000000,"state":"active","ping":59},{"user_id":696,"name":"FREAKS","steam_id":76561198285819311,"connected_time":531000000000,"state":"active","ping":69},{"user_id":697,"name":"moe","steam_id":76561198929586245,"connected_time":485000000000,"state":"active","ping":74},{"user_id":632,"name":"PopcornBucketGames","steam_id":76561199089562026,"connected_time":7370000000000,"state":"active","ping":42},{"user_id":672,"name":"2 Point Tom","steam_id":76561198087617008,"connected_time":4181000000000,"state":"active","ping":52}]},{"server_id":119,"name":"Uncletopia | Seattle | 2 | All Maps","name_short":"sea-2","host":"sea-1.us.uncletopia.com","port":27025,"enabled":true,"region":"us-west","cc":"us","latitude":47.608013,"longitude":-122.33517,"reserved":0,"last_update":"0001-01-01T00:00:00Z","name_a2s":"Uncletopia | Seattle | 2 | All Maps","protocol":17,"map":"koth_harvest_final","folder":"tf","game":"Team Fortress","app_id":440,"player_count":23,"max_players":24,"Bots":0,"server_type":"Dedicated","server_os":"Linux","password":true,"vac":true,"version":"7961495","steam_id":85568392924469998,"keywords":["cp","nocrits","nodmgspread","uncletopia"],"game_id":440,"stv_port":27026,"stv_name":"Uncletopia | Seattle | 2 | All Maps | STV","players":[{"user_id":299,"name":"Bingleton","steam_id":76561197998930473,"connected_time":1093000000000,"state":"active","ping":33},{"user_id":301,"name":"ad-block brother","steam_id":76561199159928133,"connected_time":1064000000000,"state":"active","ping":115},{"user_id":264,"name":"YOUNG ROUGH","steam_id":76561198077268502,"connected_time":4697000000000,"state":"active","ping":86},{"user_id":303,"name":"Erectangles","steam_id":76561198030325786,"connected_time":1030000000000,"state":"active","ping":36},{"user_id":226,"name":"top 10 sidewalks","steam_id":76561198844273999,"connected_time":6542000000000,"state":"active","ping":43},{"user_id":309,"name":"Batso","steam_id":76561198106589452,"connected_time":731000000000,"state":"active","ping":83},{"user_id":288,"name":"Jest","steam_id":76561198170173062,"connected_time":2308000000000,"state":"active","ping":61},{"user_id":304,"name":"BronzedBrennen","steam_id":76561198422024309,"connected_time":999000000000,"state":"active","ping":46},{"user_id":265,"name":"Nina","steam_id":76561198875007138,"connected_time":4692000000000,"state":"active","ping":45},{"user_id":283,"name":"Sir Stanger","steam_id":76561198109281673,"connected_time":2962000000000,"state":"active","ping":73},{"user_id":305,"name":"Tideflat","steam_id":76561198179850851,"connected_time":996000000000,"state":"active","ping":55},{"user_id":272,"name":"Copy","steam_id":76561198025031590,"connected_time":4082000000000,"state":"active","ping":35},{"user_id":306,"name":"jorts","steam_id":76561199041179985,"connected_time":979000000000,"state":"active","ping":57},{"user_id":307,"name":"Biggest Dude In Town 4U","steam_id":76561198070281464,"connected_time":962000000000,"state":"active","ping":100},{"user_id":269,"name":"delight","steam_id":76561197980280272,"connected_time":4291000000000,"state":"active","ping":46},{"user_id":310,"name":"smeasly","steam_id":76561198028718812,"connected_time":481000000000,"state":"active","ping":43},{"user_id":311,"name":"MyMonkeyBaby","steam_id":76561198046896670,"connected_time":42000000000,"state":"active","ping":45},{"user_id":278,"name":"slab denim","steam_id":76561198066071527,"connected_time":3441000000000,"state":"active","ping":106},{"user_id":277,"name":"Cigarette Fish","steam_id":76561199086973797,"connected_time":3446000000000,"state":"active","ping":117},{"user_id":256,"name":"chow yun-slim","steam_id":76561198065752486,"connected_time":5044000000000,"state":"active","ping":89},{"user_id":292,"name":"dP | I'm in a Wookie Suit","steam_id":76561198083307644,"connected_time":2230000000000,"state":"active","ping":50},{"user_id":293,"name":"Puskinti","steam_id":76561198032120688,"connected_time":2215000000000,"state":"active","ping":53},{"user_id":270,"name":"Facepalm","steam_id":76561198001935226,"connected_time":4286000000000,"state":"active","ping":65}]},{"server_id":406,"name":"Uncletopia | Seattle | 3 | Stopwatch","name_short":"sea-3","host":"sea-1.us.uncletopia.com","port":27035,"enabled":true,"region":"us-west","cc":"us","latitude":47.608013,"longitude":-122.33517,"reserved":0,"last_update":"0001-01-01T00:00:00Z","name_a2s":"Uncletopia | Seattle | 3 | Stopwatch","protocol":17,"map":"workshop/koth_bagel_rc6.ugc2514036946","folder":"tf","game":"Team Fortress","app_id":440,"player_count":0,"max_players":24,"Bots":0,"server_type":"Dedicated","server_os":"Linux","password":true,"vac":true,"version":"7961495","steam_id":85568392924515217,"keywords":["cp","nocrits","nodmgspread","uncletopia"],"game_id":440,"stv_port":27036,"stv_name":"Uncletopia | Seattle | 3 | Stopwatch | STV","players":null},{"server_id":17,"name":"Uncletopia | San Francisco | 1 | All Maps","name_short":"sfo-1","host":"sfo-1.us.uncletopia.com","port":27015,"enabled":true,"region":"us-west","cc":"us","latitude":37.77397,"longitude":-122.4313,"reserved":0,"last_update":"0001-01-01T00:00:00Z","name_a2s":"Uncletopia | San Francisco | 1 | All Maps","protocol":17,"map":"cp_dustbowl","folder":"tf","game":"Team Fortress","app_id":440,"player_count":19,"max_players":24,"Bots":0,"server_type":"Dedicated","server_os":"Linux","password":true,"vac":true,"version":"7961495","steam_id":85568392924469999,"keywords":["cp","nocrits","nodmgspread","uncletopia"],"game_id":440,"stv_port":27016,"stv_name":"Uncletopia | San Francisco | 1 | All Maps | STV","players":[{"user_id":146,"name":"johnny","steam_id":76561198050225055,"connected_time":4872000000000,"state":"active","ping":53},{"user_id":192,"name":"monkey squirts","steam_id":76561197983101644,"connected_time":1210000000000,"state":"active","ping":47},{"user_id":196,"name":"Slimey","steam_id":76561199200969139,"connected_time":450000000000,"state":"active","ping":109},{"user_id":203,"name":"snail?","steam_id":76561198093171376,"connected_time":190000000000,"state":"active","ping":45},{"user_id":195,"name":"chocolate face","steam_id":76561198059906615,"connected_time":478000000000,"state":"active","ping":55},{"user_id":197,"name":"Orange Mann Bad","steam_id":76561198021126964,"connected_time":440000000000,"state":"active","ping":69},{"user_id":191,"name":"captain planet","steam_id":76561198050799055,"connected_time":1381000000000,"state":"active","ping":78},{"user_id":198,"name":"you play like a noob","steam_id":76561198878022971,"connected_time":315000000000,"state":"active","ping":138},{"user_id":158,"name":"the pizza","steam_id":76561198221331476,"connected_time":3923000000000,"state":"active","ping":39},{"user_id":199,"name":"you play like a noobs","steam_id":76561198120385184,"connected_time":246000000000,"state":"active","ping":59},{"user_id":132,"name":"Kiril","steam_id":76561198051433762,"connected_time":6156000000000,"state":"active","ping":111},{"user_id":200,"name":"Smeagolhoss","steam_id":76561198361514063,"connected_time":223000000000,"state":"active","ping":114},{"user_id":159,"name":"God Wizard Gonzo","steam_id":76561198102651324,"connected_time":3874000000000,"state":"active","ping":48},{"user_id":184,"name":"Nyx","steam_id":76561198100929724,"connected_time":1828000000000,"state":"active","ping":63},{"user_id":190,"name":"Pound","steam_id":76561198046727292,"connected_time":1436000000000,"state":"active","ping":110},{"user_id":189,"name":"Kaival","steam_id":76561198082993220,"connected_time":1566000000000,"state":"active","ping":111},{"user_id":187,"name":"Bitmap","steam_id":76561198285964424,"connected_time":1774000000000,"state":"active","ping":59},{"user_id":150,"name":"Antzen","steam_id":76561198041343470,"connected_time":4379000000000,"state":"active","ping":55},{"user_id":194,"name":"up tossin my pigskin","steam_id":76561198062294687,"connected_time":529000000000,"state":"active","ping":58}]},{"server_id":18,"name":"Uncletopia | San Francisco | 2 | All Maps","name_short":"sfo-2","host":"sfo-1.us.uncletopia.com","port":27025,"enabled":true,"region":"us-west","cc":"us","latitude":37.77397,"longitude":-122.4313,"reserved":0,"last_update":"0001-01-01T00:00:00Z","name_a2s":"Uncletopia | San Francisco | 2 | All Maps","protocol":17,"map":"pl_upward","folder":"tf","game":"Team Fortress","app_id":440,"player_count":0,"max_players":24,"Bots":0,"server_type":"Dedicated","server_os":"Linux","password":true,"vac":true,"version":"7961495","steam_id":85568392924470000,"keywords":["nocrits","nodmgspread","payload","uncletopia"],"game_id":440,"stv_port":27026,"stv_name":"Uncletopia | San Francisco | 2 | All Maps | STV","players":null},{"server_id":19,"name":"Uncletopia | San Francisco | 3 | Stopwatch","name_short":"sfo-3","host":"sfo-1.us.uncletopia.com","port":27035,"enabled":true,"region":"us-west","cc":"us","latitude":37.77397,"longitude":-122.4313,"reserved":0,"last_update":"0001-01-01T00:00:00Z","name_a2s":"Uncletopia | San Francisco | 3 | Stopwatch","protocol":17,"map":"workshop/koth_product_final.ugc454272353","folder":"tf","game":"Team Fortress","app_id":440,"player_count":0,"max_players":24,"Bots":0,"server_type":"Dedicated","server_os":"Linux","password":true,"vac":true,"version":"7961495","steam_id":85568392924742824,"keywords":["cp","nocrits","nodmgspread","uncletopia"],"game_id":440,"stv_port":27036,"stv_name":"Uncletopia | San Francisco | 3 | Stopwatch | STV","players":null},{"server_id":20,"name":"Uncletopia | San Francisco | 4 | Community","name_short":"sfo-4","host":"sfo-1.us.uncletopia.com","port":27045,"enabled":true,"region":"us-west","cc":"us","latitude":37.77397,"longitude":-122.4313,"reserved":0,"last_update":"0001-01-01T00:00:00Z","name_a2s":"Uncletopia | San Francisco | 4 | Community","protocol":17,"map":"workshop/cp_logjam_rc12.ugc454812035","folder":"tf","game":"Team Fortress","app_id":440,"player_count":0,"max_players":24,"Bots":0,"server_type":"Dedicated","server_os":"Linux","password":true,"vac":true,"version":"7961495","steam_id":85568392924742826,"keywords":["cp","nocrits","nodmgspread","uncletopia"],"game_id":440,"stv_port":27046,"stv_name":"Uncletopia | San Francisco | 4 | Community | STV","players":null},{"server_id":141,"name":"Uncletopia | Sydney | 1 | All Maps","name_short":"syd-1","host":"syd-1.au.uncletopia.com","port":27015,"enabled":true,"region":"au","cc":"au","latitude":-33.865143,"longitude":151.2099,"reserved":0,"last_update":"0001-01-01T00:00:00Z","name_a2s":"Uncletopia | Sydney | 1 | All Maps","protocol":17,"map":"pl_badwater","folder":"tf","game":"Team Fortress","app_id":440,"player_count":24,"max_players":24,"Bots":0,"server_type":"Dedicated","server_os":"Linux","password":true,"vac":true,"version":"7961495","steam_id":85568392924470001,"keywords":["nocrits","nodmgspread","payload","uncletopia"],"game_id":440,"stv_port":27016,"stv_name":"Uncletopia | Sydney | 1 | All Maps | STV","players":[{"user_id":9,"name":"Soap Viper","steam_id":76561198073909715,"connected_time":3602000000000,"state":"active","ping":44},{"user_id":10,"name":"A Burnt Cheeseburger","steam_id":76561198044178223,"connected_time":3162000000000,"state":"active","ping":59},{"user_id":41,"name":"the za","steam_id":76561198146473289,"connected_time":1426000000000,"state":"active","ping":56},{"user_id":56,"name":"Rizeo","steam_id":76561198147901488,"connected_time":523000000000,"state":"active","ping":63},{"user_id":29,"name":"sweet","steam_id":76561198075311236,"connected_time":1782000000000,"state":"active","ping":52},{"user_id":70,"name":"qwop champion","steam_id":76561198143395126,"connected_time":82000000000,"state":"active","ping":60},{"user_id":61,"name":"Aquila","steam_id":76561198042520637,"connected_time":379000000000,"state":"active","ping":36},{"user_id":19,"name":"pathway","steam_id":76561198346674092,"connected_time":2224000000000,"state":"active","ping":60},{"user_id":20,"name":"Crazybean","steam_id":76561198042181980,"connected_time":2195000000000,"state":"active","ping":57},{"user_id":31,"name":"monkey (with spoon)","steam_id":76561198301254663,"connected_time":1719000000000,"state":"active","ping":62},{"user_id":68,"name":"Attling","steam_id":76561198087595494,"connected_time":116000000000,"state":"active","ping":38},{"user_id":55,"name":"the normoaner","steam_id":76561198082423230,"connected_time":1010000000000,"state":"active","ping":80},{"user_id":51,"name":"DudeThatDoot","steam_id":76561198104066236,"connected_time":1167000000000,"state":"active","ping":64},{"user_id":34,"name":"epi","steam_id":76561198057551248,"connected_time":1659000000000,"state":"active","ping":40},{"user_id":64,"name":"Massira","steam_id":76561199445907962,"connected_time":225000000000,"state":"active","ping":57},{"user_id":35,"name":"Nada","steam_id":76561198069118814,"connected_time":1652000000000,"state":"active","ping":51},{"user_id":36,"name":"monnickev","steam_id":76561198252587162,"connected_time":1593000000000,"state":"active","ping":46},{"user_id":33,"name":"snag","steam_id":76561199090043537,"connected_time":1699000000000,"state":"active","ping":85},{"user_id":66,"name":"Teflon","steam_id":76561198001224301,"connected_time":143000000000,"state":"active","ping":71},{"user_id":46,"name":"MAcca","steam_id":76561199144357079,"connected_time":1216000000000,"state":"spawning","ping":91},{"user_id":67,"name":"webbadon, the horrid ·òõ‚ÅêÃ§\ufffd\ufffd","steam_id":76561198061998379,"connected_time":119000000000,"state":"active","ping":49},{"user_id":69,"name":"Shift","steam_id":76561198000102579,"connected_time":116000000000,"state":"active","ping":60},{"user_id":63,"name":"LightningBlock","steam_id":76561198289997742,"connected_time":290000000000,"state":"active","ping":30},{"user_id":53,"name":"Overlold","steam_id":76561197978635495,"connected_time":1104000000000,"state":"active","ping":78}]},{"server_id":123,"name":"Uncletopia | Sydney | 2 | All Maps","name_short":"syd-2","host":"syd-1.au.uncletopia.com","port":27025,"enabled":true,"region":"au","cc":"au","latitude":-33.865143,"longitude":151.2099,"reserved":0,"last_update":"0001-01-01T00:00:00Z","name_a2s":"Uncletopia | Sydney | 2 | All Maps","protocol":17,"map":"cp_altitude","folder":"tf","game":"Team Fortress","app_id":440,"player_count":1,"max_players":24,"Bots":0,"server_type":"Dedicated","server_os":"Linux","password":true,"vac":true,"version":"7961495","steam_id":85568392924470002,"keywords":["cp","nocrits","nodmgspread","uncletopia"],"game_id":440,"stv_port":27026,"stv_name":"Uncletopia | Sydney | 2 | All Maps | STV","players":[{"user_id":9,"name":"the ape","steam_id":76561198354289272,"connected_time":479000000000,"state":"active","ping":59}]},{"server_id":395,"name":"Uncletopia | Sydney | 3 | All Maps","name_short":"syd-3","host":"syd-1.au.uncletopia.com","port":27035,"enabled":true,"region":"au","cc":"au","latitude":-33.865143,"longitude":151.2099,"reserved":0,"last_update":"0001-01-01T00:00:00Z","name_a2s":"Uncletopia | Sydney | 3 | All Maps","protocol":17,"map":"pl_frontier_final","folder":"tf","game":"Team Fortress","app_id":440,"player_count":0,"max_players":24,"Bots":0,"server_type":"Dedicated","server_os":"Linux","password":true,"vac":true,"version":"7961495","steam_id":85568392925194467,"keywords":["nocrits","nodmgspread","payload","uncletopia"],"game_id":440,"stv_port":27036,"stv_name":"Uncletopia | Sydney | 3 | All Maps | STV","players":null},{"server_id":396,"name":"Uncletopia | Sydney | 4 | All Maps","name_short":"syd-4","host":"syd-1.au.uncletopia.com","port":27045,"enabled":true,"region":"au","cc":"au","latitude":-33.865143,"longitude":151.2099,"reserved":0,"last_update":"0001-01-01T00:00:00Z","name_a2s":"Uncletopia | Sydney | 4 | All Maps","protocol":17,"map":"cp_process_final","folder":"tf","game":"Team Fortress","app_id":440,"player_count":0,"max_players":24,"Bots":0,"server_type":"Dedicated","server_os":"Linux","password":true,"vac":true,"version":"7961495","steam_id":85568392925397958,"keywords":["cp","nocrits","nodmgspread","uncletopia"],"game_id":440,"stv_port":27046,"stv_name":"Uncletopia | Sydney | 4 | All Maps | STV","players":null},{"server_id":58,"name":"Uncletopia | Sydney | 5 | Stopwatch","name_short":"syd-5","host":"syd-1.au.uncletopia.com","port":27055,"enabled":true,"region":"au","cc":"au","latitude":-33.865143,"longitude":151.2099,"reserved":0,"last_update":"0001-01-01T00:00:00Z","name_a2s":"Uncletopia | Sydney | 5 | Stopwatch","protocol":17,"map":"pl_frontier_final","folder":"tf","game":"Team Fortress","app_id":440,"player_count":0,"max_players":24,"Bots":0,"server_type":"Dedicated","server_os":"Linux","password":true,"vac":true,"version":"7961495","steam_id":85568392925397959,"keywords":["nocrits","nodmgspread","payload","uncletopia"],"game_id":440,"stv_port":27056,"stv_name":"Uncletopia | Sydney | 5 | Stopwatch | STV","players":null},{"server_id":59,"name":"Uncletopia | Sydney | 6 | Community","name_short":"syd-6","host":"syd-1.au.uncletopia.com","port":27065,"enabled":true,"region":"au","cc":"au","latitude":-33.865143,"longitude":151.2099,"reserved":0,"last_update":"0001-01-01T00:00:00Z","name_a2s":"Uncletopia | Sydney | 6 | Community","protocol":17,"map":"cp_sunshine","folder":"tf","game":"Team Fortress","app_id":440,"player_count":0,"max_players":24,"Bots":0,"server_type":"Dedicated","server_os":"Linux","password":true,"vac":true,"version":"7961495","steam_id":85568392925397960,"keywords":["cp","nocrits","nodmgspread","uncletopia"],"game_id":440,"stv_port":27066,"stv_name":"Uncletopia | Sydney | 6 | Community | STV","players":null},{"server_id":49,"name":"Uncletopia | Warsaw | 1 | One Thousand Uncles","name_short":"waw-1","host":"waw-1.pl.uncletopia.com","port":27015,"enabled":true,"region":"eu","cc":"pl","latitude":52.2297,"longitude":21.017532,"reserved":0,"last_update":"0001-01-01T00:00:00Z","name_a2s":"Uncletopia | Warsaw | 1 | One Thousand Uncles","protocol":17,"map":"cp_egypt_final","folder":"tf","game":"Team Fortress","app_id":440,"player_count":0,"max_players":32,"Bots":0,"server_type":"Dedicated","server_os":"Linux","password":true,"vac":true,"version":"7961495","steam_id":85568392925397850,"keywords":["alltalk","cp","danepve","increased_maxplayers","nocrits","norespawntime","uncletopia"],"game_id":440,"stv_port":0,"stv_name":"","players":null},{"server_id":50,"name":"Uncletopia | Warsaw | 2 | One Thousand Uncles","name_short":"waw-2","host":"waw-1.pl.uncletopia.com","port":27025,"enabled":true,"region":"eu","cc":"pl","latitude":52.2297,"longitude":21.017532,"reserved":0,"last_update":"0001-01-01T00:00:00Z","name_a2s":"Uncletopia | Warsaw | 2 | One Thousand Uncles","protocol":17,"map":"pl_goldrush","folder":"tf","game":"Team Fortress","app_id":440,"player_count":23,"max_players":32,"Bots":16,"server_type":"Dedicated","server_os":"Linux","password":true,"vac":true,"version":"7961495","steam_id":85568392925397851,"keywords":["alltalk","bots","danepve","increased_maxplayers","nocrits","norespawntime","payload","uncletopia"],"game_id":440,"stv_port":0,"stv_name":"","players":[{"user_id":19,"name":"TheBoringEdward","steam_id":76561199061482992,"connected_time":3360000000000,"state":"active","ping":49},{"user_id":45,"name":"kovajatkaolevinaan","steam_id":76561199471146687,"connected_time":947000000000,"state":"active","ping":86},{"user_id":46,"name":"Ankatt","steam_id":76561199082715307,"connected_time":424000000000,"state":"active","ping":30},{"user_id":38,"name":"Caserbero","steam_id":76561199234963535,"connected_time":2951000000000,"state":"active","ping":77},{"user_id":48,"name":"Da bodi do","steam_id":76561198131055184,"connected_time":194000000000,"state":"active","ping":76},{"user_id":43,"name":"Nari","steam_id":76561199220038535,"connected_time":1399000000000,"state":"active","ping":167},{"user_id":44,"name":"ruffeeh","steam_id":76561197995517185,"connected_time":980000000000,"state":"active","ping":63}]},{"server_id":51,"name":"Uncletopia | Warsaw | 3 | All Maps","name_short":"waw-3","host":"waw-1.pl.uncletopia.com","port":27035,"enabled":true,"region":"eu","cc":"pl","latitude":52.2297,"longitude":21.017532,"reserved":0,"last_update":"0001-01-01T00:00:00Z","name_a2s":"Uncletopia | Warsaw | 3 | All Maps","protocol":17,"map":"plr_pipeline","folder":"tf","game":"Team Fortress","app_id":440,"player_count":0,"max_players":24,"Bots":0,"server_type":"Dedicated","server_os":"Linux","password":true,"vac":true,"version":"7961495","steam_id":85568392925397852,"keywords":["nocrits","nodmgspread","payload","uncletopia"],"game_id":440,"stv_port":27036,"stv_name":"Uncletopia | Warsaw | 3 | All Maps | STV","players":null},{"server_id":52,"name":"Uncletopia | Warsaw | 4 | All Maps","name_short":"waw-4","host":"waw-1.pl.uncletopia.com","port":27045,"enabled":true,"region":"eu","cc":"pl","latitude":52.2297,"longitude":21.017532,"reserved":0,"last_update":"0001-01-01T00:00:00Z","name_a2s":"Uncletopia | Warsaw | 4 | All Maps","protocol":17,"map":"cp_coldfront","folder":"tf","game":"Team Fortress","app_id":440,"player_count":0,"max_players":24,"Bots":0,"server_type":"Dedicated","server_os":"Linux","password":true,"vac":true,"version":"7961495","steam_id":85568392925397853,"keywords":["cp","nocrits","nodmgspread","uncletopia"],"game_id":440,"stv_port":27046,"stv_name":"Uncletopia | Warsaw | 4 | All Maps | STV","players":null},{"server_id":53,"name":"Uncletopia | Warsaw | 5 | Stopwatch","name_short":"waw-5","host":"waw-1.pl.uncletopia.com","port":27055,"enabled":true,"region":"eu","cc":"pl","latitude":52.2297,"longitude":21.017532,"reserved":0,"last_update":"0001-01-01T00:00:00Z","name_a2s":"Uncletopia | Warsaw | 5 | Stopwatch","protocol":17,"map":"workshop/koth_bagel_rc6.ugc2514036946","folder":"tf","game":"Team Fortress","app_id":440,"player_count":0,"max_players":24,"Bots":0,"server_type":"Dedicated","server_os":"Linux","password":true,"vac":true,"version":"7961495","steam_id":85568392925397854,"keywords":["cp","nocrits","nodmgspread","uncletopia"],"game_id":440,"stv_port":27056,"stv_name":"Uncletopia | Warsaw | 5 | Stopwatch | STV","players":null},{"server_id":54,"name":"Uncletopia | Warsaw | 6 | Community","name_short":"waw-6","host":"waw-1.pl.uncletopia.com","port":27065,"enabled":true,"region":"eu","cc":"pl","latitude":52.2297,"longitude":21.017532,"reserved":0,"last_update":"0001-01-01T00:00:00Z","name_a2s":"Uncletopia | Warsaw | 6 | Community","protocol":17,"map":"workshop/pl_badwater_pro_v12.ugc2142942074","folder":"tf","game":"Team Fortress","app_id":440,"player_count":0,"max_players":24,"Bots":0,"server_type":"Dedicated","server_os":"Linux","password":true,"vac":true,"version":"7961495","steam_id":85568392925397856,"keywords":["nocrits","nodmgspread","payload","uncletopia"],"game_id":440,"stv_port":27066,"stv_name":"Uncletopia | Warsaw | 6 | Community | STV","players":null}]}