{"status":true,"message":"","result":[{"server_id":9,"name":"Uncletopia | Atlanta | 1 | All Maps","name_short":"atl-1","host":"atl-1.us.uncletopia.com","port":27015,"enabled":true,"region":"us-east","cc":"us","latitude":33.753746,"longitude":-84.38633,"reserved":0,"last_update":"0001-01-01T00:00:00Z","name_a2s":"Uncletopia | Atlanta | 1 | All Maps","protocol":17,"map":"pl_snowycoast","folder":"tf","game":"Team Fortress","app_id":440,"player_count":24,"max_players":24,"Bots":0,"server_type":"Dedicated","server_os":"Linux","password":true,"vac":true,"version":"7882260","steam_id":85568392924469982,"keywords":["nocrits","nodmgspread","payload","uncletopia"],"game_id":440,"stv_port":27016,"stv_name":"Uncletopia | Atlanta | 1 | All Maps | STV","players":[{"user_id":42,"name":"That70sDog","steam_id":76561198119396142,"connected_time":5459000000000,"state":"active","ping":75},{"user_id":70,"name":"B.","steam_id":76561198040445907,"connected_time":2891000000000,"state":"active","ping":60},{"user_id":67,"name":"glue sniffer","steam_id":76561198044689778,"connected_time":2904000000000,"state":"active","ping":61},{"user_id":7,"name":"VIEGO J3L2404","steam_id":76561198273568117,"connected_time":7031000000000,"state":"active","ping":54},{"user_id":75,"name":"kbsfnk","steam_id":76561198036884600,"connected_time":2522000000000,"state":"active","ping":73},{"user_id":91,"name":"YourFriendJessie #savetf2","steam_id":76561198176883097,"connected_time":217000000000,"state":"active","ping":73},{"user_id":82,"name":"puffy","steam_id":76561198411347037,"connected_time":1954000000000,"state":"active","ping":71},{"user_id":92,"name":"INFINITE","steam_id":76561197971285557,"connected_time":206000000000,"state":"active","ping":57},{"user_id":95,"name":"Sods","steam_id":76561198010204565,"connected_time":29000000000,"state":"active","ping":64},{"user_id":65,"name":"meat glasses","steam_id":76561198046742645,"connected_time":2917000000000,"state":"active","ping":75},{"user_id":84,"name":"Dev","steam_id":76561198388276870,"connected_time":1204000000000,"state":"active","ping":88},{"user_id":88,"name":"Oddball","steam_id":76561198040440984,"connected_time":740000000000,"state":"active","ping":85},{"user_id":68,"name":"Bangushonkle","steam_id":76561198218887511,"connected_time":2903000000000,"state":"active","ping":74},{"user_id":72,"name":"Argo","steam_id":76561198353725622,"connected_time":2888000000000,"state":"active","ping":78},{"user_id":76,"name":"JD","steam_id":76561198202669250,"connected_time":2457000000000,"state":"active","ping":75},{"user_id":93,"name":"Lotus Cookie","steam_id":76561199482553414,"connected_time":188000000000,"state":"active","ping":139},{"user_id":89,"name":"Setsuko","steam_id":76561198830953881,"connected_time":613000000000,"state":"active","ping":179},{"user_id":90,"name":"Pickle","steam_id":76561198096221632,"connected_time":249000000000,"state":"active","ping":45},{"user_id":94,"name":"tiananmensquare1989","steam_id":76561199076837870,"connected_time":186000000000,"state":"active","ping":72},{"user_id":52,"name":"Boop","steam_id":76561198376703875,"connected_time":4654000000000,"state":"active","ping":73},{"user_id":50,"name":"Switch","steam_id":76561197982035284,"connected_time":4928000000000,"state":"active","ping":72},{"user_id":64,"name":"JoJoJo","steam_id":76561198067153390,"connected_time":3411000000000,"state":"active","ping":78},{"user_id":51,"name":"Cookie Dough","steam_id":76561198882007496,"connected_time":4927000000000,"state":"active","ping":86},{"user_id":57,"name":"rice white","steam_id":76561198320732910,"connected_time":4026000000000,"state":"active","ping":75}]},{"server_id":104,"name":"Uncletopia | Atlanta | 2 | All Maps","name_short":"atl-2","host":"atl-1.us.uncletopia.com","port":27025,"enabled":true,"region":"us-east","cc":"us","latitude":33.753746,"longitude":-84.38633,"reserved":0,"last_update":"0001-01-01T00:00:00Z","name_a2s":"Uncletopia | Atlanta | 2 | All Maps","protocol":17,"map":"koth_cascade","folder":"tf","game":"Team Fortress","app_id":440,"player_count":0,"max_players":24,"Bots":0,"server_type":"Dedicated","server_os":"Linux","password":true,"vac":true,"version":"7882260","steam_id":85568392924469983,"keywords":["cp","nocrits","nodmgspread","uncletopia"],"game_id":440,"stv_port":27026,"stv_name":"Uncletopia | Atlanta | 2 | All Maps | STV","players":null},{"server_id":400,"name":"Uncletopia | Atlanta | 3 | Community","name_short":"atl-3","host":"atl-1.us.uncletopia.com","port":27035,"enabled":true,"region":"us-east","cc":"us","latitude":33.753746,"longitude":-84.38633,"reserved":0,"last_update":"0001-01-01T00:00:00Z","name_a2s":"Uncletopia | Atlanta | 3 | Community","protocol":17,"map":"workshop/cp_alloy_rc3.ugc592805587","folder":"tf","game":"Team Fortress","app_id":440,"player_count":0,"max_players":24,"Bots":0,"server_type":"Dedicated","server_os":"Linux","password":true,"vac":true,"version":"7882260","steam_id":85568392924515187,"keywords":["cp","nocrits","nodmgspread","uncletopia"],"game_id":440,"stv_port":27036,"stv_name":"Uncletopia | Atlanta | 3 | Community | STV","players":null},{"server_id":401,"name":"Uncletopia | Atlanta | 4 | No Payload","name_short":"atl-4","host":"atl-1.us.uncletopia.com","port":27045,"enabled":true,"region":"us-east","cc":"us","latitude":33.753746,"longitude":-84.38633,"reserved":0,"last_update":"0001-01-01T00:00:00Z","name_a2s":"","protocol":0,"map":"","folder":"","game":"","app_id":0,"player_count":0,"max_players":0,"Bots":0,"server_type":"","server_os":"","password":false,"vac":false,"version":"","steam_id":0,"keywords":null,"game_id":0,"stv_port":0,"stv_name":"","players":null},{"server_id":2,"name":"Uncletopia | Chicago | 1 | All Maps","name_short":"chi-1","host":"chi-1.us.uncletopia.com","port":27015,"enabled":true,"region":"us-central","cc":"us","latitude":41.881832,"longitude":-87.62318,"reserved":0,"last_update":"0001-01-01T00:00:00Z","name_a2s":"Uncletopia | Chicago | 1 | All Maps","protocol":17,"map":"cp_mountainlab","folder":"tf","game":"Team Fortress","app_id":440,"player_count":0,"max_players":24,"Bots":0,"server_type":"Dedicated","server_os":"Linux","password":true,"vac":true,"version":"7882260","steam_id":85568392924469984,"keywords":["cp","nocrits","nodmgspread","uncletopia"],"game_id":440,"stv_port":27016,"stv_name":"Uncletopia | Chicago | 1 | All Maps | STV","players":null},{"server_id":106,"name":"Uncletopia | Chicago | 2 | All Maps","name_short":"chi-2","host":"chi-1.us.uncletopia.com","port":27025,"enabled":true,"region":"us-central","cc":"us","latitude":41.881832,"longitude":-87.62318,"reserved":0,"last_update":"0001-01-01T00:00:00Z","name_a2s":"Uncletopia | Chicago | 2 | All Maps","protocol":17,"map":"pl_upward","folder":"tf","game":"Team Fortress","app_id":440,"player_count":24,"max_players":24,"Bots":0,"server_type":"Dedicated","server_os":"Linux","password":true,"vac":true,"version":"7882260","steam_id":85568392924469985,"keywords":["nocrits","nodmgspread","payload","uncletopia"],"game_id":440,"stv_port":27026,"stv_name":"Uncletopia | Chicago | 2 | All Maps | STV","players":[{"user_id":13,"name":"Stiff Woody","steam_id":76561198047845399,"connected_time":2954000000000,"state":"active","ping":75},{"user_id":14,"name":"WatchWill","steam_id":76561198157237945,"connected_time":2904000000000,"state":"active","ping":71},{"user_id":62,"name":"AdmiralCrunch","steam_id":76561198117444710,"connected_time":4000000000,"state":"spawning","ping":63},{"user_id":45,"name":"CHEEKY EUNUCH","steam_id":76561198990825232,"connected_time":828000000000,"state":"active","ping":56},{"user_id":58,"name":"yo homie! *cool vinyl scratch*","steam_id":76561198929646112,"connected_time":196000000000,"state":"active","ping":61},{"user_id":21,"name":"Esteban Delsin","steam_id":76561198433519639,"connected_time":2177000000000,"state":"active","ping":100},{"user_id":22,"name":"blueturtle96","steam_id":76561198180706950,"connected_time":2045000000000,"state":"active","ping":48},{"user_id":46,"name":"The Fiend","steam_id":76561199229771413,"connected_time":817000000000,"state":"active","ping":86},{"user_id":41,"name":"Ja","steam_id":76561198396340174,"connected_time":1384000000000,"state":"active","ping":75},{"user_id":47,"name":"Carrion Crawler","steam_id":76561198069814977,"connected_time":812000000000,"state":"active","ping":66},{"user_id":56,"name":"SkarloeyFell","steam_id":76561199183127174,"connected_time":237000000000,"state":"active","ping":67},{"user_id":54,"name":"Freezing0K","steam_id":76561198142170847,"connected_time":624000000000,"state":"active","ping":97},{"user_id":31,"name":"Only One Jhakobi","steam_id":76561197993641141,"connected_time":1551000000000,"state":"active","ping":62},{"user_id":32,"name":"nude barber","steam_id":76561198254968823,"connected_time":1528000000000,"state":"active","ping":88},{"user_id":55,"name":"Winter the Witchie | B-DAY","steam_id":76561198151971178,"connected_time":598000000000,"state":"active","ping":60},{"user_id":34,"name":"Mr. Call You Back","steam_id":76561198025172811,"connected_time":1516000000000,"state":"active","ping":55},{"user_id":60,"name":"Tyulmi","steam_id":76561198041432710,"connected_time":91000000000,"state":"active","ping":47},{"user_id":36,"name":"Adam (Cursed Confetti Creature)","steam_id":76561198317690197,"connected_time":1463000000000,"state":"active","ping":46},{"user_id":37,"name":"Limey","steam_id":76561198142932841,"connected_time":1442000000000,"state":"active","ping":70},{"user_id":38,"name":"reign","steam_id":76561198047269484,"connected_time":1438000000000,"state":"active","ping":164},{"user_id":61,"name":"Spiny","steam_id":76561199121320640,"connected_time":41000000000,"state":"active","ping":74},{"user_id":40,"name":"vulpine","steam_id":76561198117515931,"connected_time":1411000000000,"state":"active","ping":85},{"user_id":42,"name":"pig","steam_id":76561199100732652,"connected_time":1334000000000,"state":"active","ping":127},{"user_id":44,"name":"AYAYA!!!","steam_id":76561198992102180,"connected_time":933000000000,"state":"active","ping":49}]},{"server_id":402,"name":"Uncletopia | Chicago | 3 | All Maps","name_short":"chi-3","host":"chi-1.us.uncletopia.com","port":27035,"enabled":true,"region":"us-central","cc":"us","latitude":41.881832,"longitude":-87.62318,"reserved":0,"last_update":"0001-01-01T00:00:00Z","name_a2s":"Uncletopia | Chicago | 3 | All Maps","protocol":17,"map":"pl_snowycoast","folder":"tf","game":"Team Fortress","app_id":440,"player_count":0,"max_players":24,"Bots":0,"server_type":"Dedicated","server_os":"Linux","password":true,"vac":true,"version":"7882260","steam_id":85568392924515191,"keywords":["nocrits","nodmgspread","payload","uncletopia"],"game_id":440,"stv_port":27036,"stv_name":"Uncletopia | Chicago | 3 | All Maps | STV","players":null},{"server_id":403,"name":"Uncletopia | Chicago | 4 | All Maps","name_short":"chi-4","host":"chi-1.us.uncletopia.com","port":27045,"enabled":true,"region":"us-central","cc":"us","latitude":41.881832,"longitude":-87.62318,"reserved":0,"last_update":"0001-01-01T00:00:00Z","name_a2s":"Uncletopia | Chicago | 4 | All Maps","protocol":17,"map":"koth_cascade","folder":"tf","game":"Team Fortress","app_id":440,"player_count":0,"max_players":24,"Bots":0,"server_type":"Dedicated","server_os":"Linux","password":true,"vac":true,"version":"7882260","steam_id":85568392924515193,"keywords":["cp","nocrits","nodmgspread","uncletopia"],"game_id":440,"stv_port":27046,"stv_name":"Uncletopia | Chicago | 4 | All Maps | STV","players":null},{"server_id":36,"name":"Uncletopia | Chicago | 5 | All Maps","name_short":"chi-5","host":"chi-2.us.uncletopia.com","port":27015,"enabled":true,"region":"us-central","cc":"us","latitude":41.881832,"longitude":-87.62318,"reserved":0,"last_update":"0001-01-01T00:00:00Z","name_a2s":"Uncletopia | Chicago | 5 | All Maps","protocol":17,"map":"koth_lakeside_final","folder":"tf","game":"Team Fortress","app_id":440,"player_count":0,"max_players":24,"Bots":0,"server_type":"Dedicated","server_os":"Linux","password":true,"vac":true,"version":"7882260","steam_id":85568392924866362,"keywords":["cp","nocrits","nodmgspread","uncletopia"],"game_id":440,"stv_port":27016,"stv_name":"Uncletopia | Chicago | 5 | All Maps | STV","players":null},{"server_id":37,"name":"Uncletopia | Chicago | 6 | All Maps","name_short":"chi-6","host":"chi-2.us.uncletopia.com","port":27025,"enabled":true,"region":"us-central","cc":"us","latitude":41.881832,"longitude":-87.62318,"reserved":0,"last_update":"0001-01-01T00:00:00Z","name_a2s":"Uncletopia | Chicago | 6 | All Maps","protocol":17,"map":"koth_cascade","folder":"tf","game":"Team Fortress","app_id":440,"player_count":0,"max_players":24,"Bots":0,"server_type":"Dedicated","server_os":"Linux","password":true,"vac":true,"version":"7882260","steam_id":85568392924866363,"keywords":["cp","nocrits","nodmgspread","uncletopia"],"game_id":440,"stv_port":27026,"stv_name":"Uncletopia | Chicago | 6 | All Maps | STV","players":null},{"server_id":38,"name":"Uncletopia | Chicago | 7 | Stopwatch Beta","name_short":"chi-7","host":"chi-2.us.uncletopia.com","port":27035,"enabled":true,"region":"us-central","cc":"us","latitude":41.881832,"longitude":-87.62318,"reserved":0,"last_update":"0001-01-01T00:00:00Z","name_a2s":"Uncletopia | Chicago | 7 | Stopwatch Beta","protocol":17,"map":"pl_borneo","folder":"tf","game":"Team Fortress","app_id":440,"player_count":0,"max_players":24,"Bots":0,"server_type":"Dedicated","server_os":"Linux","password":true,"vac":true,"version":"7882260","steam_id":85568392924866364,"keywords":["nocrits","nodmgspread","payload","uncletopia"],"game_id":440,"stv_port":27036,"stv_name":"Uncletopia | Chicago | 7 | Stopwatch Beta | STV","players":null},{"server_id":39,"name":"Uncletopia | Chicago | 8 | Community","name_short":"chi-8","host":"chi-2.us.uncletopia.com","port":27045,"enabled":true,"region":"us-central","cc":"us","latitude":41.881832,"longitude":-87.62318,"reserved":0,"last_update":"0001-01-01T00:00:00Z","name_a2s":"Uncletopia | Chicago | 8 | Community","protocol":17,"map":"workshop/cp_kalinka_rc6a.ugc1272700588","folder":"tf","game":"Team Fortress","app_id":440,"player_count":0,"max_players":24,"Bots":0,"server_type":"Dedicated","server_os":"Linux","password":true,"vac":true,"version":"7882260","steam_id":85568392924866365,"keywords":["cp","nocrits","nodmgspread","uncletopia"],"game_id":440,"stv_port":27046,"stv_name":"Uncletopia | Chicago | 8 | Community | STV","players":null},{"server_id":8,"name":"Uncletopia | Dallas | 1 | All Maps","name_short":"dal-1","host":"dal-1.us.uncletopia.com","port":27015,"enabled":true,"region":"us-central","cc":"us","latitude":32.779167,"longitude":-96.80889,"reserved":0,"last_update":"0001-01-01T00:00:00Z","name_a2s":"Uncletopia | Dallas | 1 | All Maps","protocol":17,"map":"pl_badwater","folder":"tf","game":"Team Fortress","app_id":440,"player_count":24,"max_players":24,"Bots":0,"server_type":"Dedicated","server_os":"Linux","password":true,"vac":true,"version":"7882260","steam_id":85568392924469986,"keywords":["nocrits","nodmgspread","payload","uncletopia"],"game_id":440,"stv_port":27016,"stv_name":"Uncletopia | Dallas | 1 | All Maps | STV","players":[{"user_id":183,"name":"Demoman With One Joke","steam_id":76561197993467034,"connected_time":1106000000000,"state":"active","ping":75},{"user_id":171,"name":"TheHiddenBlade","steam_id":76561199129787866,"connected_time":2200000000000,"state":"active","ping":81},{"user_id":19,"name":"RainboomCrash","steam_id":76561198065612273,"connected_time":13092000000000,"state":"active","ping":91},{"user_id":169,"name":"Centipede on a Game Boy","steam_id":76561199016285746,"connected_time":2229000000000,"state":"active","ping":63},{"user_id":179,"name":"solitaire","steam_id":76561198964025682,"connected_time":1709000000000,"state":"active","ping":73},{"user_id":167,"name":"dree","steam_id":76561198079178866,"connected_time":2278000000000,"state":"active","ping":90},{"user_id":163,"name":"carrot cake","steam_id":76561198055174915,"connected_time":2879000000000,"state":"active","ping":83},{"user_id":185,"name":"Ular","steam_id":76561198069740671,"connected_time":1035000000000,"state":"active","ping":79},{"user_id":189,"name":"Yunky","steam_id":76561197966495749,"connected_time":526000000000,"state":"active","ping":66},{"user_id":173,"name":"Deltaco","steam_id":76561198094572694,"connected_time":2025000000000,"state":"active","ping":124},{"user_id":90,"name":"Motreir","steam_id":76561198151717946,"connected_time":9214000000000,"state":"active","ping":88},{"user_id":164,"name":"Ballista","steam_id":76561197983182562,"connected_time":2755000000000,"state":"active","ping":57},{"user_id":193,"name":"The Duck","steam_id":76561199362841212,"connected_time":51000000000,"state":"active","ping":72},{"user_id":192,"name":"SKINGRAPH","steam_id":76561198082933650,"connected_time":360000000000,"state":"active","ping":87},{"user_id":190,"name":"P.C. Baby","steam_id":76561198067011379,"connected_time":492000000000,"state":"active","ping":86},{"user_id":176,"name":"SgtMaj Soggy Titties","steam_id":76561198067732216,"connected_time":1934000000000,"state":"active","ping":62},{"user_id":191,"name":"SmokeyGalaxy","steam_id":76561198118780516,"connected_time":393000000000,"state":"active","ping":58},{"user_id":186,"name":"the smiling zombie","steam_id":76561199246231090,"connected_time":685000000000,"state":"active","ping":74},{"user_id":156,"name":"DEMOKNIGHT TF2","steam_id":76561198294733921,"connected_time":3453000000000,"state":"active","ping":62},{"user_id":132,"name":"blossom","steam_id":76561198042735130,"connected_time":6376000000000,"state":"active","ping":105},{"user_id":168,"name":"minty","steam_id":76561198062821894,"connected_time":2239000000000,"state":"active","ping":49},{"user_id":188,"name":"WYSI","steam_id":76561198312133205,"connected_time":667000000000,"state":"active","ping":88},{"user_id":38,"name":"Fake Chainz","steam_id":76561198312889455,"connected_time":12106000000000,"state":"active","ping":136},{"user_id":40,"name":"CREAMIN' E-GIRLS!!!","steam_id":76561198078626283,"connected_time":11830000000000,"state":"active","ping":86}]},{"server_id":108,"name":"Uncletopia | Dallas | 2 | All Maps","name_short":"dal-2","host":"dal-1.us.uncletopia.com","port":27025,"enabled":true,"region":"us-central","cc":"us","latitude":32.779167,"longitude":-96.80889,"reserved":0,"last_update":"0001-01-01T00:00:00Z","name_a2s":"Uncletopia | Dallas | 2 | All Maps","protocol":17,"map":"pl_swiftwater_final1","folder":"tf","game":"Team Fortress","app_id":440,"player_count":0,"max_players":24,"Bots":0,"server_type":"Dedicated","server_os":"Linux","password":true,"vac":true,"version":"7882260","steam_id":85568392924469988,"keywords":["nocrits","nodmgspread","payload","uncletopia"],"game_id":440,"stv_port":27026,"stv_name":"Uncletopia | Dallas | 2 | All Maps | STV","players":null},{"server_id":5,"name":"Uncletopia | Frankfurt | 1 | All Maps","name_short":"frk-1","host":"frk-1.de.uncletopia.com","port":27015,"enabled":true,"region":"eu","cc":"de","latitude":50.110924,"longitude":8.682127,"reserved":0,"last_update":"0001-01-01T00:00:00Z","name_a2s":"Uncletopia | Frankfurt | 1 | All Maps","protocol":17,"map":"pl_frontier_final","folder":"tf","game":"Team Fortress","app_id":440,"player_count":21,"max_players":24,"Bots":0,"server_type":"Dedicated","server_os":"Linux","password":true,"vac":true,"version":"7882260","steam_id":85568392924469989,"keywords":["nocrits","nodmgspread","payload","uncletopia"],"game_id":440,"stv_port":27016,"stv_name":"Uncletopia | Frankfurt | 1 | All Maps | STV","players":[{"user_id":224,"name":"domek brexit geezerüá¨üáß","steam_id":76561198048447632,"connected_time":3799000000000,"state":"active","ping":64},{"user_id":270,"name":"fecal matter","steam_id":76561198044293799,"connected_time":1158000000000,"state":"active","ping":55},{"user_id":268,"name":"Not A Fake Uncletopia Server","steam_id":76561198152871288,"connected_time":1186000000000,"state":"active","ping":58},{"user_id":253,"name":"Dapper","steam_id":76561198081694974,"connected_time":1793000000000,"state":"active","ping":56},{"user_id":284,"name":"StingyLettuce","steam_id":76561199010337406,"connected_time":248000000000,"state":"active","ping":108},{"user_id":235,"name":"Matt","steam_id":76561198049718501,"connected_time":3157000000000,"state":"active","ping":71},{"user_id":261,"name":"Amoru","steam_id":76561198798161817,"connected_time":1565000000000,"state":"active","ping":79},{"user_id":188,"name":"[O\u0026O]YaboiDucki","steam_id":76561198195976589,"connected_time":6478000000000,"state":"active","ping":79},{"user_id":285,"name":"Milk","steam_id":76561198125876588,"connected_time":240000000000,"state":"active","ping":53},{"user_id":281,"name":"Kaek","steam_id":76561197960283484,"connected_time":718000000000,"state":"active","ping":74},{"user_id":252,"name":"0","steam_id":76561199084809092,"connected_time":1896000000000,"state":"active","ping":93},{"user_id":286,"name":"christoph","steam_id":76561198862617811,"connected_time":209000000000,"state":"active","ping":69},{"user_id":271,"name":"Good Burger","steam_id":76561198037237664,"connected_time":1154000000000,"state":"active","ping":70},{"user_id":272,"name":"blurst of times","steam_id":76561197972325640,"connected_time":1122000000000,"state":"active","ping":46},{"user_id":257,"name":"Toaster","steam_id":76561199157322043,"connected_time":1733000000000,"state":"active","ping":65},{"user_id":267,"name":"Xiqui","steam_id":76561198818386611,"connected_time":1212000000000,"state":"active","ping":81},{"user_id":84,"name":"^_^","steam_id":76561198032359132,"connected_time":15043000000000,"state":"active","ping":57},{"user_id":273,"name":"i hate this game","steam_id":76561198066977580,"connected_time":1097000000000,"state":"active","ping":95},{"user_id":275,"name":"LVL100_PSYDUCK","steam_id":76561198081392950,"connected_time":966000000000,"state":"active","ping":63},{"user_id":244,"name":"N0tzz","steam_id":76561198391025653,"connected_time":2743000000000,"state":"active","ping":82},{"user_id":274,"name":"pain train tf2","steam_id":76561198111568728,"connected_time":1081000000000,"state":"active","ping":47}]},{"server_id":110,"name":"Uncletopia | Frankfurt | 2 | All Maps","name_short":"frk-2","host":"frk-1.de.uncletopia.com","port":27025,"enabled":true,"region":"eu","cc":"de","latitude":50.110924,"longitude":8.682127,"reserved":0,"last_update":"0001-01-01T00:00:00Z","name_a2s":"Uncletopia | Frankfurt | 2 | All Maps","protocol":17,"map":"pl_swiftwater_final1","folder":"tf","game":"Team Fortress","app_id":440,"player_count":24,"max_players":24,"Bots":0,"server_type":"Dedicated","server_os":"Linux","password":true,"vac":true,"version":"7882260","steam_id":85568392924469990,"keywords":["nocrits","nodmgspread","payload","uncletopia"],"game_id":440,"stv_port":27026,"stv_name":"Uncletopia | Frankfurt | 2 | All Maps | STV","players":[{"user_id":320,"name":"Sham!","steam_id":76561198050434275,"connected_time":91000000000,"state":"active","ping":45},{"user_id":281,"name":"–¢—Ä—É–ø –í–æ–ª–æ–¥—è","steam_id":76561198035718457,"connected_time":1948000000000,"state":"active","ping":90},{"user_id":311,"name":"lyon","steam_id":76561197998096172,"connected_time":394000000000,"state":"active","ping":75},{"user_id":317,"name":"rudi","steam_id":76561199121842872,"connected_time":142000000000,"state":"active","ping":59},{"user_id":321,"name":"guh","steam_id":76561198272542830,"connected_time":91000000000,"state":"active","ping":55},{"user_id":313,"name":"Breadman","steam_id":76561198992521922,"connected_time":278000000000,"state":"active","ping":74},{"user_id":310,"name":"panakid","steam_id":76561198364121077,"connected_time":489000000000,"state":"active","ping":107},{"user_id":316,"name":"ImABush","steam_id":76561198304471896,"connected_time":174000000000,"state":"active","ping":45},{"user_id":294,"name":"AmssoBador Spacelot","steam_id":76561197993444617,"connected_time":1315000000000,"state":"active","ping":69},{"user_id":318,"name":"Xriasp","steam_id":76561198104721321,"connected_time":123000000000,"state":"active","ping":74},{"user_id":295,"name":"IncrediblyTexan","steam_id":76561199159370663,"connected_time":1311000000000,"state":"active","ping":78},{"user_id":319,"name":"Creature from the piss drawer","steam_id":76561198055949151,"connected_time":114000000000,"state":"active","ping":56},{"user_id":273,"name":"Girls who say bruh","steam_id":76561199380849468,"connected_time":2357000000000,"state":"active","ping":61},{"user_id":291,"name":"Sasooki","steam_id":76561198994649647,"connected_time":1438000000000,"state":"active","ping":130},{"user_id":322,"name":"Crunk","steam_id":76561198054918463,"connected_time":89000000000,"state":"active","ping":69},{"user_id":306,"name":"CAPITALIST ANTIRED INSURGENT","steam_id":76561199152599178,"connected_time":793000000000,"state":"active","ping":92},{"user_id":253,"name":"Ixsus\u003c3","steam_id":76561198094756869,"connected_time":3288000000000,"state":"active","ping":58},{"user_id":299,"name":"ez inflation graph","steam_id":76561199020785925,"connected_time":1150000000000,"state":"active","ping":65},{"user_id":323,"name":"El_Kommadante","steam_id":76561198079551685,"connected_time":81000000000,"state":"active","ping":79},{"user_id":280,"name":"Oaky Leaf","steam_id":76561198162821920,"connected_time":2013000000000,"state":"active","ping":124},{"user_id":307,"name":"Mr_Pulse_","steam_id":76561198095001602,"connected_time":781000000000,"state":"active","ping":88},{"user_id":284,"name":"LF Savozi","steam_id":76561198118006754,"connected_time":1903000000000,"state":"active","ping":67},{"user_id":308,"name":"Rai","steam_id":76561199408923294,"connected_time":728000000000,"state":"active","ping":87},{"user_id":309,"name":"hisham","steam_id":76561198414437290,"connected_time":722000000000,"state":"active","ping":111}]},{"server_id":308,"name":"Uncletopia | Frankfurt | 3 | All Maps","name_short":"frk-3","host":"frk-1.de.uncletopia.com","port":27035,"enabled":true,"region":"eu","cc":"de","latitude":50.110924,"longitude":8.682127,"reserved":0,"last_update":"0001-01-01T00:00:00Z","name_a2s":"Uncletopia | Frankfurt | 3 | All Maps","protocol":17,"map":"pl_badwater","folder":"tf","game":"Team Fortress","app_id":440,"player_count":24,"max_players":24,"Bots":0,"server_type":"Dedicated","server_os":"Linux","password":true,"vac":true,"version":"7882260","steam_id":85568392924504274,"keywords":["nocrits","nodmgspread","payload","uncletopia"],"game_id":440,"stv_port":27036,"stv_name":"Uncletopia | Frankfurt | 3 | All Maps | STV","players":[{"user_id":198,"name":"stonebum","steam_id":76561198057004606,"connected_time":203000000000,"state":"active","ping":52},{"user_id":194,"name":"Laylakikio","steam_id":76561198090146457,"connected_time":415000000000,"state":"active","ping":46},{"user_id":185,"name":"Burrito","steam_id":76561197997631364,"connected_time":840000000000,"state":"active","ping":76},{"user_id":181,"name":"0POURCENT DE REUSSITE","steam_id":76561198088624259,"connected_time":891000000000,"state":"active","ping":61},{"user_id":177,"name":"miner","steam_id":76561198963378933,"connected_time":1080000000000,"state":"active","ping":57},{"user_id":195,"name":"WAK","steam_id":76561198150082547,"connected_time":399000000000,"state":"active","ping":95},{"user_id":174,"name":"Jonno","steam_id":76561198023443744,"connected_time":1207000000000,"state":"active","ping":56},{"user_id":137,"name":"Guru","steam_id":76561198093853069,"connected_time":2214000000000,"state":"active","ping":53},{"user_id":146,"name":"Worm","steam_id":76561198067869816,"connected_time":1804000000000,"state":"active","ping":66},{"user_id":171,"name":"R0Z3","steam_id":76561199027065608,"connected_time":1239000000000,"state":"active","ping":65},{"user_id":191,"name":"widzZz","steam_id":76561197972820255,"connected_time":592000000000,"state":"active","ping":51},{"user_id":132,"name":"I HAVE SLAIN THE ICE MONKEY","steam_id":76561198798803845,"connected_time":2903000000000,"state":"active","ping":47},{"user_id":182,"name":"hunte","steam_id":76561198063483484,"connected_time":887000000000,"state":"active","ping":73},{"user_id":183,"name":"Drip-O-bama","steam_id":76561199135631057,"connected_time":882000000000,"state":"active","ping":85},{"user_id":202,"name":"Dolcelatte","steam_id":76561198038501770,"connected_time":97000000000,"state":"active","ping":53},{"user_id":199,"name":"Dezsni","steam_id":76561198082255928,"connected_time":188000000000,"state":"active","ping":85},{"user_id":153,"name":"Syd","steam_id":76561198020515027,"connected_time":1630000000000,"state":"active","ping":76},{"user_id":192,"name":"gang","steam_id":76561197987624522,"connected_time":577000000000,"state":"active","ping":46},{"user_id":139,"name":"Wattseyy","steam_id":76561198248567360,"connected_time":2188000000000,"state":"active","ping":50},{"user_id":201,"name":"REN","steam_id":76561198000596385,"connected_time":157000000000,"state":"active","ping":70},{"user_id":200,"name":"dollerboy","steam_id":76561199246428577,"connected_time":168000000000,"state":"active","ping":104},{"user_id":189,"name":"swashbuckler_helicopter1997","steam_id":76561198343328308,"connected_time":757000000000,"state":"active","ping":58},{"user_id":95,"name":"nebuNEBUnebu","steam_id":76561198307037169,"connected_time":5264000000000,"state":"active","ping":63},{"user_id":163,"name":"Peaky Blinder","steam_id":76561198979874772,"connected_time":1491000000000,"state":"active","ping":61}]},{"server_id":309,"name":"Uncletopia | Frankfurt | 4 | All Maps","name_short":"frk-4","host":"frk-1.de.uncletopia.com","port":27045,"enabled":true,"region":"eu","cc":"de","latitude":50.110924,"longitude":8.682127,"reserved":0,"last_update":"0001-01-01T00:00:00Z","name_a2s":"Uncletopia | Frankfurt | 4 | All Maps","protocol":17,"map":"cp_mountainlab","folder":"tf","game":"Team Fortress","app_id":440,"player_count":22,"max_players":24,"Bots":0,"server_type":"Dedicated","server_os":"Linux","password":true,"vac":true,"version":"7882260","steam_id":85568392924504275,"keywords":["cp","nocrits","nodmgspread","uncletopia"],"game_id":440,"stv_port":27046,"stv_name":"Uncletopia | Frankfurt | 4 | All Maps | STV","players":[{"user_id":354,"name":"dotdotdot","steam_id":76561198057628751,"connected_time":2596000000000,"state":"active","ping":63},{"user_id":380,"name":"Anri Okita's Massive Milkers","steam_id":76561199186352720,"connected_time":1646000000000,"state":"active","ping":70},{"user_id":366,"name":"kornetov.vitalya","steam_id":76561199286034833,"connected_time":2266000000000,"state":"active","ping":88},{"user_id":399,"name":"Suolainen","steam_id":76561198133341026,"connected_time":313000000000,"state":"active","ping":97},{"user_id":402,"name":"Blossom [Fish fucker]","steam_id":76561198870873962,"connected_time":7000000000,"state":"spawning","ping":44},{"user_id":378,"name":"KnugenIV","steam_id":76561198127091993,"connected_time":1786000000000,"state":"active","ping":55},{"user_id":401,"name":"Dark Wizart","steam_id":76561198377689439,"connected_time":158000000000,"state":"active","ping":72},{"user_id":352,"name":"senior pomidor","steam_id":76561198123659806,"connected_time":2630000000000,"state":"active","ping":96},{"user_id":394,"name":"Fallen Dog","steam_id":76561198851387188,"connected_time":430000000000,"state":"active","ping":64},{"user_id":390,"name":"Cirox","steam_id":76561198383142404,"connected_time":692000000000,"state":"active","ping":84},{"user_id":396,"name":"Di(ck)Fro(m)St(eppes)","steam_id":76561198863805733,"connected_time":385000000000,"state":"active","ping":155},{"user_id":362,"name":"Soerlssoelss√∂en","steam_id":76561197993060585,"connected_time":2369000000000,"state":"active","ping":70},{"user_id":363,"name":"dongus","steam_id":76561198042774930,"connected_time":2355000000000,"state":"active","ping":84},{"user_id":365,"name":"trashedribs","steam_id":76561198354735240,"connected_time":2333000000000,"state":"active","ping":66},{"user_id":395,"name":"Sonic","steam_id":76561198081692577,"connected_time":426000000000,"state":"active","ping":60},{"user_id":397,"name":"Borkz","steam_id":76561198287461065,"connected_time":378000000000,"state":"active","ping":72},{"user_id":398,"name":"SCRAMMMBLED","steam_id":76561197998307746,"connected_time":366000000000,"state":"active","ping":62},{"user_id":384,"name":"TheBeardedM1G","steam_id":76561198040208946,"connected_time":1574000000000,"state":"active","ping":60},{"user_id":387,"name":"ErheniT","steam_id":76561198310313667,"connected_time":1509000000000,"state":"active","ping":75},{"user_id":188,"name":"engineer","steam_id":76561198298938176,"connected_time":15238000000000,"state":"active","ping":103},{"user_id":388,"name":"WASDSHER1#savetf2","steam_id":76561199034101739,"connected_time":1445000000000,"state":"active","ping":71},{"user_id":375,"name":"Pyrolander","steam_id":76561198050785450,"connected_time":1908000000000,"state":"active","ping":56}]},{"server_id":310,"name":"Uncletopia | Frankfurt | 5 | All Maps","name_short":"frk-5","host":"frk-1.de.uncletopia.com","port":27055,"enabled":true,"region":"eu","cc":"de","latitude":50.110924,"longitude":8.682127,"reserved":0,"last_update":"0001-01-01T00:00:00Z","name_a2s":"Uncletopia | Frankfurt | 5 | All Maps","protocol":17,"map":"pl_pier","folder":"tf","game":"Team Fortress","app_id":440,"player_count":24,"max_players":24,"Bots":0,"server_type":"Dedicated","server_os":"Linux","password":true,"vac":true,"version":"7882260","steam_id":85568392924504277,"keywords":["nocrits","nodmgspread","payload","uncletopia"],"game_id":440,"stv_port":27056,"stv_name":"Uncletopia | Frankfurt | 5 | All Maps | STV","players":[{"user_id":215,"name":"ice spice \u003c3","steam_id":76561198152138707,"connected_time":1008000000000,"state":"active","ping":45},{"user_id":217,"name":"Kumquat","steam_id":76561198200490386,"connected_time":997000000000,"state":"active","ping":72},{"user_id":199,"name":"honzajspv","steam_id":76561198434476343,"connected_time":2282000000000,"state":"active","ping":45},{"user_id":229,"name":"c4t","steam_id":76561199106399206,"connected_time":526000000000,"state":"active","ping":61},{"user_id":208,"name":"UwU doggy","steam_id":76561198859543481,"connected_time":1913000000000,"state":"active","ping":66},{"user_id":227,"name":"lettuce out of stock","steam_id":76561199401283123,"connected_time":819000000000,"state":"active","ping":65},{"user_id":231,"name":"Enraged hbivnm(he/her/she/him)","steam_id":76561197996468677,"connected_time":174000000000,"state":"active","ping":59},{"user_id":185,"name":"madijo","steam_id":76561198012617400,"connected_time":3580000000000,"state":"active","ping":60},{"user_id":204,"name":"Kahvi","steam_id":76561198723244199,"connected_time":2043000000000,"state":"active","ping":88},{"user_id":210,"name":"Blax","steam_id":76561198377155387,"connected_time":1848000000000,"state":"active","ping":72},{"user_id":209,"name":"Koli","steam_id":76561197992428783,"connected_time":1879000000000,"state":"active","ping":45},{"user_id":216,"name":"James","steam_id":76561198138558005,"connected_time":1004000000000,"state":"active","ping":87},{"user_id":220,"name":"Seron-Lowell","steam_id":76561198070291347,"connected_time":969000000000,"state":"active","ping":55},{"user_id":163,"name":"Maru","steam_id":76561198030931030,"connected_time":4616000000000,"state":"active","ping":69},{"user_id":230,"name":"LavishLad","steam_id":76561199117799002,"connected_time":255000000000,"state":"active","ping":179},{"user_id":164,"name":"Kurage","steam_id":76561198021221288,"connected_time":4605000000000,"state":"active","ping":58},{"user_id":151,"name":"Vershal Smershal","steam_id":76561198116223995,"connected_time":5973000000000,"state":"active","ping":60},{"user_id":183,"name":"Mav","steam_id":76561198004403881,"connected_time":3749000000000,"state":"active","ping":60},{"user_id":170,"name":"Ardbeg","steam_id":76561197973483985,"connected_time":4482000000000,"state":"active","ping":65},{"user_id":212,"name":"After8","steam_id":76561198090750865,"connected_time":1822000000000,"state":"active","ping":63},{"user_id":228,"name":"VampiuS","steam_id":76561197998827007,"connected_time":736000000000,"state":"active","ping":53},{"user_id":223,"name":"Dzieciol","steam_id":76561198160237556,"connected_time":952000000000,"state":"active","ping":69},{"user_id":189,"name":"skith","steam_id":76561198192190569,"connected_time":2921000000000,"state":"active","ping":75},{"user_id":226,"name":"Muppburg","steam_id":76561198031070682,"connected_time":903000000000,"state":"active","ping":69}]},{"server_id":311,"name":"Uncletopia | Frankfurt | 6 | All Maps","name_short":"frk-6","host":"frk-1.de.uncletopia.com","port":27065,"enabled":true,"region":"eu","cc":"de","latitude":50.110924,"longitude":8.682127,"reserved":0,"last_update":"0001-01-01T00:00:00Z","name_a2s":"Uncletopia | Frankfurt | 6 | All Maps","protocol":17,"map":"pl_snowycoast","folder":"tf","game":"Team Fortress","app_id":440,"player_count":23,"max_players":24,"Bots":0,"server_type":"Dedicated","server_os":"Linux","password":true,"vac":true,"version":"7882260","steam_id":85568392924504278,"keywords":["nocrits","nodmgspread","payload","uncletopia"],"game_id":440,"stv_port":27066,"stv_name":"Uncletopia | Frankfurt | 6 | All Maps | STV","players":[{"user_id":68,"name":"IDon'tNeedACoolName","steam_id":76561198013547503,"connected_time":4560000000000,"state":"active","ping":67},{"user_id":106,"name":"AfroCookie","steam_id":76561198138362851,"connected_time":2122000000000,"state":"active","ping":69},{"user_id":95,"name":"Uber","steam_id":76561198036528206,"connected_time":2915000000000,"state":"active","ping":70},{"user_id":121,"name":"Marukuso","steam_id":76561198154229845,"connected_time":633000000000,"state":"active","ping":58},{"user_id":112,"name":"svantezch","steam_id":76561198373831657,"connected_time":1524000000000,"state":"active","ping":90},{"user_id":72,"name":"Dr Sex","steam_id":76561198029044617,"connected_time":4350000000000,"state":"active","ping":64},{"user_id":120,"name":"Pain in a Box","steam_id":76561197990777173,"connected_time":726000000000,"state":"active","ping":96},{"user_id":114,"name":"Master Of Noob","steam_id":76561198217926783,"connected_time":1508000000000,"state":"active","ping":68},{"user_id":122,"name":"DrExplosive 30fps gaming","steam_id":76561198063678579,"connected_time":499000000000,"state":"active","ping":58},{"user_id":123,"name":"Goblin cock","steam_id":76561198980102679,"connected_time":45000000000,"state":"active","ping":94},{"user_id":85,"name":"Sex Man TF2","steam_id":76561198798657045,"connected_time":3419000000000,"state":"active","ping":74},{"user_id":93,"name":"Anax Alter","steam_id":76561198110249546,"connected_time":2981000000000,"state":"active","ping":141},{"user_id":94,"name":"gagalak","steam_id":76561198089979108,"connected_time":2954000000000,"state":"active","ping":91},{"user_id":86,"name":"Dr. Sex 2","steam_id":76561199088284199,"connected_time":3407000000000,"state":"active","ping":54},{"user_id":103,"name":"Wardruna96","steam_id":76561199057083828,"connected_time":2542000000000,"state":"active","ping":88},{"user_id":117,"name":"Creative","steam_id":76561198835034247,"connected_time":1338000000000,"state":"active","ping":85},{"user_id":118,"name":"hondjo","steam_id":76561198119324108,"connected_time":1283000000000,"state":"active","ping":58},{"user_id":115,"name":"Venenakki","steam_id":76561198311526482,"connected_time":1505000000000,"state":"active","ping":67},{"user_id":119,"name":"WolfmanCZ","steam_id":76561199157141414,"connected_time":1263000000000,"state":"active","ping":79},{"user_id":111,"name":"Sandvich","steam_id":76561199079493666,"connected_time":1736000000000,"state":"active","ping":94},{"user_id":116,"name":"Milk Drinker","steam_id":76561198203140640,"connected_time":1505000000000,"state":"active","ping":68},{"user_id":124,"name":"—è —Å–æ—Å–∞–ª –º–µ–Ω—è –µ–±–∞–ª","steam_id":76561197971140507,"connected_time":20000000000,"state":"spawning","ping":67},{"user_id":81,"name":"Meem","steam_id":76561199088570961,"connected_time":3751000000000,"state":"active","ping":105}]},{"server_id":23,"name":"Uncletopia | Frankfurt | 7 | Stopwatch Beta","name_short":"frk-7","host":"frk-1.de.uncletopia.com","port":27075,"enabled":true,"region":"eu","cc":"de","latitude":50.110924,"longitude":8.682127,"reserved":0,"last_update":"0001-01-01T00:00:00Z","name_a2s":"Uncletopia | Frankfurt | 7 | Stopwatch Beta","protocol":17,"map":"cp_gullywash_final1","folder":"tf","game":"Team Fortress","app_id":440,"player_count":0,"max_players":24,"Bots":0,"server_type":"Dedicated","server_os":"Linux","password":true,"vac":true,"version":"7882260","steam_id":85568392924742827,"keywords":["cp","nocrits","nodmgspread","uncletopia"],"game_id":440,"stv_port":27076,"stv_name":"Uncletopia | Frankfurt | 7 | Stopwatch Beta | STV","players":null},{"server_id":24,"name":"Uncletopia | Frankfurt | 8 | Community","name_short":"frk-8","host":"frk-1.de.uncletopia.com","port":27085,"enabled":true,"region":"eu","cc":"de","latitude":50.110924,"longitude":8.682127,"reserved":0,"last_update":"0001-01-01T00:00:00Z","name_a2s":"Uncletopia | Frankfurt | 8 | Community","protocol":17,"map":"workshop/koth_product_final.ugc454272353","folder":"tf","game":"Team Fortress","app_id":440,"player_count":4,"max_players":24,"Bots":0,"server_type":"Dedicated","server_os":"Linux","password":true,"vac":true,"version":"7882260","steam_id":85568392924742828,"keywords":["cp","nocrits","nodmgspread","uncletopia"],"game_id":440,"stv_port":27086,"stv_name":"Uncletopia | Frankfurt | 8 | Community | STV","players":[{"user_id":9,"name":"Truegr","steam_id":76561198811912339,"connected_time":5772000000000,"state":"active","ping":57},{"user_id":23,"name":"[SQ UA] MartianDill","steam_id":76561198405382822,"connected_time":1209000000000,"state":"active","ping":61},{"user_id":24,"name":"Smaug [Ger]","steam_id":76561198853461583,"connected_time":1130000000000,"state":"active","ping":69},{"user_id":25,"name":"fried","steam_id":76561198307522022,"connected_time":1032000000000,"state":"active","ping":49}]},{"server_id":202,"name":"Uncletopia | Hong Kong | 1 | All Maps","name_short":"hgk-1","host":"hgk-1.hk.uncletopia.com","port":27015,"enabled":true,"region":"asia","cc":"hk","latitude":22.302711,"longitude":114.177216,"reserved":0,"last_update":"0001-01-01T00:00:00Z","name_a2s":"Uncletopia | Hong Kong | 1 | All Maps","protocol":17,"map":"pl_swiftwater_final1","folder":"tf","game":"Team Fortress","app_id":440,"player_count":15,"max_players":24,"Bots":0,"server_type":"Dedicated","server_os":"Linux","password":true,"vac":true,"version":"7882260","steam_id":85568392924494504,"keywords":["nocrits","nodmgspread","payload","uncletopia"],"game_id":440,"stv_port":27016,"stv_name":"Uncletopia | Hong Kong | 1 | All Maps | STV","players":[{"user_id":295,"name":"Vortex Swagger","steam_id":76561198833527091,"connected_time":5403000000000,"state":"active","ping":100},{"user_id":297,"name":"B","steam_id":76561199017344476,"connected_time":4621000000000,"state":"active","ping":76},{"user_id":350,"name":"Azule","steam_id":76561198136804802,"connected_time":1124000000000,"state":"active","ping":135},{"user_id":266,"name":"Ïø†ÌÇ§","steam_id":76561197997220367,"connected_time":7685000000000,"state":"active","ping":40},{"user_id":308,"name":"coakDeLera","steam_id":76561199262817512,"connected_time":3442000000000,"state":"active","ping":96},{"user_id":274,"name":"Stupid B","steam_id":76561198131423270,"connected_time":6620000000000,"state":"active","ping":121},{"user_id":351,"name":"13MAN","steam_id":76561198900023603,"connected_time":1091000000000,"state":"active","ping":156},{"user_id":293,"name":"nyakky","steam_id":76561198927779787,"connected_time":5726000000000,"state":"active","ping":135},{"user_id":322,"name":"ksvk","steam_id":76561198152588681,"connected_time":1568000000000,"state":"active","ping":98},{"user_id":313,"name":"cstr","steam_id":76561198125946388,"connected_time":2337000000000,"state":"active","ping":90},{"user_id":283,"name":"23rd","steam_id":76561199014675406,"connected_time":5993000000000,"state":"active","ping":152},{"user_id":303,"name":"Momoxhien","steam_id":76561198414997429,"connected_time":3601000000000,"state":"active","ping":61},{"user_id":352,"name":"TomProPlayer","steam_id":76561199223292521,"connected_time":1063000000000,"state":"active","ping":118},{"user_id":304,"name":"ÊØç„ÅÆËÇâÂõ£Â≠ê@hao123.com","steam_id":76561198069561896,"connected_time":3601000000000,"state":"active","ping":43},{"user_id":311,"name":"P","steam_id":76561198304514505,"connected_time":2924000000000,"state":"active","ping":71}]},{"server_id":1,"name":"Uncletopia | Los Angeles | 1 | All Maps","name_short":"lax-1","host":"lax-1.us.uncletopia.com","port":27015,"enabled":true,"region":"us-west","cc":"us","latitude":33.94279,"longitude":-118.41004,"reserved":0,"last_update":"0001-01-01T00:00:00Z","name_a2s":"Uncletopia | Los Angeles | 1 | All Maps","protocol":17,"map":"pl_pier","folder":"tf","game":"Team Fortress","app_id":440,"player_count":0,"max_players":24,"Bots":0,"server_type":"Dedicated","server_os":"Linux","password":true,"vac":true,"version":"7882260","steam_id":85568392924469991,"keywords":["nocrits","nodmgspread","payload","uncletopia"],"game_id":440,"stv_port":27016,"stv_name":"Uncletopia | Los Angeles | 1 | All Maps | STV","players":null},{"server_id":112,"name":"Uncletopia | Los Angeles | 2 | All Maps","name_short":"lax-2","host":"lax-1.us.uncletopia.com","port":27025,"enabled":true,"region":"us-west","cc":"us","latitude":33.94279,"longitude":-118.41004,"reserved":0,"last_update":"0001-01-01T00:00:00Z","name_a2s":"Uncletopia | Los Angeles | 2 | All Maps","protocol":17,"map":"cp_snakewater_final1","folder":"tf","game":"Team Fortress","app_id":440,"player_count":0,"max_players":24,"Bots":0,"server_type":"Dedicated","server_os":"Linux","password":true,"vac":true,"version":"7882260","steam_id":85568392924469992,"keywords":["cp","nocrits","nodmgspread","uncletopia"],"game_id":440,"stv_port":27026,"stv_name":"Uncletopia | Los Angeles | 2 | All Maps | STV","players":null},{"server_id":324,"name":"Uncletopia | Los Angeles | 3 | All Maps","name_short":"lax-3","host":"lax-1.us.uncletopia.com","port":27035,"enabled":true,"region":"us-west","cc":"us","latitude":33.94279,"longitude":-118.41004,"reserved":0,"last_update":"0001-01-01T00:00:00Z","name_a2s":"Uncletopia | Los Angeles | 3 | All Maps","protocol":17,"map":"cp_sunshine","folder":"tf","game":"Team Fortress","app_id":440,"player_count":0,"max_players":24,"Bots":0,"server_type":"Dedicated","server_os":"Linux","password":true,"vac":true,"version":"7882260","steam_id":85568392924510198,"keywords":["cp","nocrits","nodmgspread","uncletopia"],"game_id":440,"stv_port":27036,"stv_name":"Uncletopia | Los Angeles | 3 | All Maps | STV","players":null},{"server_id":25,"name":"Uncletopia | Los Angeles | 4 | Stopwatch Beta","name_short":"lax-4","host":"lax-1.us.uncletopia.com","port":27045,"enabled":true,"region":"us-west","cc":"us","latitude":33.94279,"longitude":-118.41004,"reserved":0,"last_update":"0001-01-01T00:00:00Z","name_a2s":"Uncletopia | Los Angeles | 4 | Stopwatch Beta","protocol":17,"map":"cp_snakewater_final1","folder":"tf","game":"Team Fortress","app_id":440,"player_count":0,"max_players":24,"Bots":0,"server_type":"Dedicated","server_os":"Linux","password":true,"vac":true,"version":"7882260","steam_id":85568392924510199,"keywords":["cp","nocrits","nodmgspread","uncletopia"],"game_id":440,"stv_port":27046,"stv_name":"Uncletopia | Los Angeles | 4 | Stopwatch Beta | STV","players":null},{"server_id":11,"name":"Uncletopia | London | 1 | All Maps","name_short":"lon-1","host":"lon-1.uk.uncletopia.com","port":27015,"enabled":true,"region":"eu","cc":"gb","latitude":51.509865,"longitude":-0.118092,"reserved":0,"last_update":"0001-01-01T00:00:00Z","name_a2s":"Uncletopia | London | 1 | All Maps","protocol":17,"map":"pl_badwater","folder":"tf","game":"Team Fortress","app_id":440,"player_count":24,"max_players":24,"Bots":0,"server_type":"Dedicated","server_os":"Linux","password":true,"vac":true,"version":"7882260","steam_id":85568392924367362,"keywords":["nocrits","nodmgspread","payload","uncletopia"],"game_id":440,"stv_port":27016,"stv_name":"Uncletopia | London | 1 | All Maps | STV","players":[{"user_id":248,"name":"NuGs","steam_id":76561198305550934,"connected_time":1740000000000,"state":"active","ping":49},{"user_id":262,"name":"Corvidae","steam_id":76561198078384787,"connected_time":245000000000,"state":"active","ping":117},{"user_id":231,"name":"rafael_xky","steam_id":76561198845069959,"connected_time":3121000000000,"state":"active","ping":83},{"user_id":258,"name":"Alx2k1","steam_id":76561198051544601,"connected_time":670000000000,"state":"active","ping":75},{"user_id":239,"name":"Themadnessman","steam_id":76561198079732032,"connected_time":2603000000000,"state":"active","ping":85},{"user_id":257,"name":"Healix","steam_id":76561198130270161,"connected_time":1019000000000,"state":"active","ping":59},{"user_id":251,"name":"[P-roc] Cmm Bert","steam_id":76561198016658674,"connected_time":1693000000000,"state":"active","ping":68},{"user_id":244,"name":"huggle","steam_id":76561199052842279,"connected_time":2213000000000,"state":"active","ping":58},{"user_id":260,"name":"oriano","steam_id":76561198099916327,"connected_time":487000000000,"state":"active","ping":70},{"user_id":261,"name":"Swarthy Villain","steam_id":76561197992232691,"connected_time":432000000000,"state":"active","ping":47},{"user_id":249,"name":"NotFionn","steam_id":76561198890525176,"connected_time":1735000000000,"state":"active","ping":75},{"user_id":254,"name":"Aaron","steam_id":76561197990046953,"connected_time":1311000000000,"state":"active","ping":59},{"user_id":263,"name":"oh my science","steam_id":76561198190583242,"connected_time":189000000000,"state":"active","ping":79},{"user_id":246,"name":"JownCenta","steam_id":76561198121397124,"connected_time":1925000000000,"state":"active","ping":46},{"user_id":252,"name":"Sky‚ô°","steam_id":76561199209906710,"connected_time":1687000000000,"state":"active","ping":45},{"user_id":217,"name":"Eidolon","steam_id":76561198043919565,"connected_time":4086000000000,"state":"active","ping":70},{"user_id":250,"name":"unconditional love","steam_id":76561199026097466,"connected_time":1734000000000,"state":"active","ping":75},{"user_id":264,"name":"Biden Blast (Kaio-ken x100)","steam_id":76561199042470246,"connected_time":173000000000,"state":"active","ping":62},{"user_id":265,"name":"zherny","steam_id":76561198027033926,"connected_time":173000000000,"state":"active","ping":47},{"user_id":242,"name":"PennPal","steam_id":76561198218770197,"connected_time":2409000000000,"state":"active","ping":48},{"user_id":253,"name":"owo","steam_id":76561198158209651,"connected_time":1478000000000,"state":"active","ping":66},{"user_id":259,"name":"Mr. Heavy LFT Premiership","steam_id":76561198080912087,"connected_time":588000000000,"state":"active","ping":74},{"user_id":228,"name":"Pyro is a girl with huge balls","steam_id":76561198975667801,"connected_time":3522000000000,"state":"active","ping":45},{"user_id":236,"name":"gezer4ever","steam_id":76561197999030453,"connected_time":2963000000000,"state":"active","ping":120}]},{"server_id":114,"name":"Uncletopia | London | 2 | All Maps","name_short":"lon-2","host":"lon-1.uk.uncletopia.com","port":27025,"enabled":true,"region":"eu","cc":"gb","latitude":51.509865,"longitude":-0.118092,"reserved":0,"last_update":"0001-01-01T00:00:00Z","name_a2s":"Uncletopia | London | 2 | All Maps","protocol":17,"map":"koth_cascade","folder":"tf","game":"Team Fortress","app_id":440,"player_count":0,"max_players":24,"Bots":0,"server_type":"Dedicated","server_os":"Linux","password":true,"vac":true,"version":"7882260","steam_id":85568392924470941,"keywords":["cp","nocrits","nodmgspread","uncletopia"],"game_id":440,"stv_port":27026,"stv_name":"Uncletopia | London | 2 | All Maps | STV","players":null},{"server_id":320,"name":"Uncletopia | London | 3 | All Maps","name_short":"lon-3","host":"lon-1.uk.uncletopia.com","port":27035,"enabled":true,"region":"eu","cc":"gb","latitude":51.509865,"longitude":-0.118092,"reserved":0,"last_update":"0001-01-01T00:00:00Z","name_a2s":"Uncletopia | London | 3 | All Maps","protocol":17,"map":"pl_barnblitz","folder":"tf","game":"Team Fortress","app_id":440,"player_count":25,"max_players":24,"Bots":0,"server_type":"Dedicated","server_os":"Linux","password":true,"vac":true,"version":"7882260","steam_id":85568392924510192,"keywords":["nocrits","nodmgspread","payload","uncletopia"],"game_id":440,"stv_port":27036,"stv_name":"Uncletopia | London | 3 | All Maps | STV","players":[{"user_id":429,"name":"Gregor Samsa","steam_id":76561198161121112,"connected_time":20000000000,"state":"active","ping":83},{"user_id":414,"name":"tim","steam_id":76561198143626955,"connected_time":524000000000,"state":"active","ping":51},{"user_id":404,"name":"ran is running","steam_id":76561199443185667,"connected_time":983000000000,"state":"active","ping":129},{"user_id":397,"name":"piss man (real)","steam_id":76561198839843428,"connected_time":1271000000000,"state":"active","ping":112},{"user_id":391,"name":"Mika","steam_id":76561199183780280,"connected_time":2519000000000,"state":"active","ping":107},{"user_id":406,"name":"B52 stealth bomber","steam_id":76561198878274997,"connected_time":924000000000,"state":"active","ping":86},{"user_id":400,"name":"gabagool","steam_id":76561198307111838,"connected_time":1122000000000,"state":"active","ping":29},{"user_id":401,"name":"Spliffendor","steam_id":76561198144020209,"connected_time":1122000000000,"state":"active","ping":53},{"user_id":402,"name":"BlobsOfWax","steam_id":76561198041752402,"connected_time":1052000000000,"state":"active","ping":63},{"user_id":403,"name":"FliturbiousRex","steam_id":76561199217583334,"connected_time":994000000000,"state":"active","ping":134},{"user_id":405,"name":"Rocopherus","steam_id":76561198045010551,"connected_time":962000000000,"state":"active","ping":43},{"user_id":407,"name":"truebosnianking","steam_id":76561199440060597,"connected_time":668000000000,"state":"active","ping":71},{"user_id":416,"name":"kyuta","steam_id":76561198382281653,"connected_time":464000000000,"state":"active","ping":85},{"user_id":428,"name":"Ratimedes","steam_id":76561199083035892,"connected_time":101000000000,"state":"active","ping":173},{"user_id":410,"name":"Luke","steam_id":76561198253533632,"connected_time":641000000000,"state":"active","ping":133},{"user_id":417,"name":"Khaiden","steam_id":76561198104454754,"connected_time":456000000000,"state":"active","ping":96},{"user_id":430,"name":"Augiz","steam_id":76561198332529555,"connected_time":9000000000,"state":"spawning","ping":80},{"user_id":424,"name":"stefanbejenari","steam_id":76561199466718294,"connected_time":197000000000,"state":"active","ping":82},{"user_id":415,"name":"Bullet magnet (FIN)","steam_id":76561197975715220,"connected_time":509000000000,"state":"active","ping":89},{"user_id":421,"name":"Monara12th","steam_id":76561199478607360,"connected_time":318000000000,"state":"active","ping":59},{"user_id":422,"name":"Mancomb Seepgood","steam_id":76561197974116369,"connected_time":308000000000,"state":"active","ping":41},{"user_id":425,"name":"Majima Gaming HD","steam_id":76561198365750503,"connected_time":197000000000,"state":"active","ping":38},{"user_id":426,"name":"jovi_","steam_id":76561198449280552,"connected_time":178000000000,"state":"active","ping":51},{"user_id":427,"name":"Wujek Cacek","steam_id":76561198010267943,"connected_time":171000000000,"state":"active","ping":75},{"user_id":431,"name":"Oak","steam_id":76561198067315672,"connected_time":8000000000,"state":"spawning","ping":62}]},{"server_id":321,"name":"Uncletopia | London | 4 | All Maps","name_short":"lon-4","host":"lon-1.uk.uncletopia.com","port":27045,"enabled":true,"region":"eu","cc":"gb","latitude":51.509865,"longitude":-0.118092,"reserved":0,"last_update":"0001-01-01T00:00:00Z","name_a2s":"Uncletopia | London | 4 | All Maps","protocol":17,"map":"pl_snowycoast","folder":"tf","game":"Team Fortress","app_id":440,"player_count":0,"max_players":24,"Bots":0,"server_type":"Dedicated","server_os":"Linux","password":true,"vac":true,"version":"7882260","steam_id":85568392924510193,"keywords":["nocrits","nodmgspread","payload","uncletopia"],"game_id":440,"stv_port":27046,"stv_name":"Uncletopia | London | 4 | All Maps | STV","players":null},{"server_id":21,"name":"Uncletopia | London | 5 | All Maps","name_short":"lon-5","host":"lon-1.uk.uncletopia.com","port":27055,"enabled":true,"region":"eu","cc":"gb","latitude":51.509865,"longitude":-0.118092,"reserved":0,"last_update":"0001-01-01T00:00:00Z","name_a2s":"Uncletopia | London | 5 | All Maps","protocol":17,"map":"cp_process_final","folder":"tf","game":"Team Fortress","app_id":440,"player_count":1,"max_players":24,"Bots":0,"server_type":"Dedicated","server_os":"Linux","password":true,"vac":true,"version":"7882260","steam_id":85568392924742829,"keywords":["cp","nocrits","nodmgspread","uncletopia"],"game_id":440,"stv_port":27056,"stv_name":"Uncletopia | London | 5 | All Maps | STV","players":[{"user_id":8,"name":"Lauri","steam_id":76561198375473660,"connected_time":3000000000,"state":"spawning","ping":79}]},{"server_id":22,"name":"Uncletopia | London | 6 | All Maps","name_short":"lon-6","host":"lon-1.uk.uncletopia.com","port":27065,"enabled":true,"region":"eu","cc":"gb","latitude":51.509865,"longitude":-0.118092,"reserved":0,"last_update":"0001-01-01T00:00:00Z","name_a2s":"Uncletopia | London | 6 | All Maps","protocol":17,"map":"ctf_2fort","folder":"tf","game":"Team Fortress","app_id":440,"player_count":23,"max_players":24,"Bots":0,"server_type":"Dedicated","server_os":"Linux","password":true,"vac":true,"version":"7882260","steam_id":85568392924742830,"keywords":["ctf","nocrits","nodmgspread","uncletopia"],"game_id":440,"stv_port":27066,"stv_name":"Uncletopia | London | 6 | All Maps | STV","players":[{"user_id":161,"name":"00uk","steam_id":76561198281873108,"connected_time":148000000000,"state":"active","ping":69},{"user_id":142,"name":"Pinkchup","steam_id":76561198106802803,"connected_time":1247000000000,"state":"active","ping":71},{"user_id":139,"name":"Minimi","steam_id":76561198873850443,"connected_time":1720000000000,"state":"active","ping":38},{"user_id":141,"name":"sonsablar","steam_id":76561199143075077,"connected_time":1286000000000,"state":"active","ping":88},{"user_id":111,"name":"Hetmanych","steam_id":76561198870926865,"connected_time":4172000000000,"state":"active","ping":45},{"user_id":162,"name":"SirSangoor","steam_id":76561198044462559,"connected_time":50000000000,"state":"active","ping":119},{"user_id":163,"name":"germinator","steam_id":76561199387893648,"connected_time":38000000000,"state":"active","ping":119},{"user_id":143,"name":"IndigoJones","steam_id":76561198050284262,"connected_time":1039000000000,"state":"active","ping":46},{"user_id":164,"name":"Gigachad_floppa","steam_id":76561199063325086,"connected_time":0,"state":"connecting","ping":0},{"user_id":144,"name":"yeldad","steam_id":76561198447264153,"connected_time":934000000000,"state":"active","ping":115},{"user_id":125,"name":"band-aid copyright infringement","steam_id":76561199027095451,"connected_time":2936000000000,"state":"active","ping":92},{"user_id":146,"name":"weleenkerk","steam_id":76561198143969491,"connected_time":886000000000,"state":"active","ping":65},{"user_id":148,"name":"ƒêesmond","steam_id":76561198097676225,"connected_time":707000000000,"state":"active","ping":74},{"user_id":149,"name":"epic party rat","steam_id":76561199100632053,"connected_time":705000000000,"state":"active","ping":56},{"user_id":150,"name":"Dat Medic Main \u003c3","steam_id":76561198272616726,"connected_time":687000000000,"state":"active","ping":60},{"user_id":151,"name":"Niki9521","steam_id":76561199213404955,"connected_time":686000000000,"state":"active","ping":71},{"user_id":157,"name":"Suspicious Viktor","steam_id":76561198136496249,"connected_time":531000000000,"state":"active","ping":65},{"user_id":85,"name":"I love playing medic","steam_id":76561199101935057,"connected_time":5964000000000,"state":"active","ping":101},{"user_id":153,"name":"terrine de poisson","steam_id":76561198182874945,"connected_time":678000000000,"state":"active","ping":55},{"user_id":154,"name":"Yetoo","steam_id":76561199139157717,"connected_time":664000000000,"state":"active","ping":55},{"user_id":127,"name":"Hivel","steam_id":76561198151390773,"connected_time":2849000000000,"state":"active","ping":83},{"user_id":155,"name":"vChubbz","steam_id":76561198991100794,"connected_time":625000000000,"state":"active","ping":51},{"user_id":156,"name":"Vonk","steam_id":76561198978973529,"connected_time":596000000000,"state":"active","ping":62}]},{"server_id":40,"name":"Uncletopia | London | 7 | No Payload","name_short":"lon-7","host":"lon-1.uk.uncletopia.com","port":27075,"enabled":true,"region":"eu","cc":"gb","latitude":51.509865,"longitude":-0.118092,"reserved":0,"last_update":"0001-01-01T00:00:00Z","name_a2s":"Uncletopia | London | 7 | No Payload","protocol":17,"map":"pl_pier","folder":"tf","game":"Team Fortress","app_id":440,"player_count":1,"max_players":24,"Bots":0,"server_type":"Dedicated","server_os":"Linux","password":true,"vac":true,"version":"7882260","steam_id":85568392924964314,"keywords":["nocrits","nodmgspread","payload","uncletopia"],"game_id":440,"stv_port":27076,"stv_name":"Uncletopia | London | 7 | No Payload | STV","players":[{"user_id":8,"name":"Anonymous47007","steam_id":76561199005211417,"connected_time":16000000000,"state":"active","ping":151}]},{"server_id":41,"name":"Uncletopia | London | 8 | Community","name_short":"lon-8","host":"lon-1.uk.uncletopia.com","port":27085,"enabled":true,"region":"eu","cc":"gb","latitude":51.509865,"longitude":-0.118092,"reserved":0,"last_update":"0001-01-01T00:00:00Z","name_a2s":"Uncletopia | London | 8 | Community","protocol":17,"map":"workshop/pl_eruption_b9a.ugc2807898013","folder":"tf","game":"Team Fortress","app_id":440,"player_count":24,"max_players":24,"Bots":0,"server_type":"Dedicated","server_os":"Linux","password":true,"vac":true,"version":"7882260","steam_id":85568392924964315,"keywords":["nocrits","nodmgspread","payload","uncletopia"],"game_id":440,"stv_port":27086,"stv_name":"Uncletopia | London | 8 | Community | STV","players":[{"user_id":127,"name":"THEY/THEM","steam_id":76561199181821779,"connected_time":2575000000000,"state":"active","ping":64},{"user_id":121,"name":"Egor Pomidor","steam_id":76561199175688390,"connected_time":3323000000000,"state":"active","ping":81},{"user_id":148,"name":"Shnezzberry","steam_id":76561198129615850,"connected_time":1071000000000,"state":"active","ping":70},{"user_id":158,"name":"BORGETENNISCLUB","steam_id":76561198049343723,"connected_time":502000000000,"state":"active","ping":48},{"user_id":151,"name":"RedFog","steam_id":76561198284713081,"connected_time":887000000000,"state":"active","ping":51},{"user_id":136,"name":"Maximus","steam_id":76561198032472655,"connected_time":1421000000000,"state":"active","ping":60},{"user_id":144,"name":"SeT","steam_id":76561199063777003,"connected_time":1265000000000,"state":"active","ping":61},{"user_id":154,"name":"Dude Guy Bruh","steam_id":76561198006569710,"connected_time":775000000000,"state":"active","ping":139},{"user_id":159,"name":"silicon based life form","steam_id":76561199127121346,"connected_time":433000000000,"state":"active","ping":51},{"user_id":145,"name":"o2ir1s | #saveTF2","steam_id":76561198343200515,"connected_time":1258000000000,"state":"active","ping":56},{"user_id":105,"name":"wicked","steam_id":76561198164376035,"connected_time":3957000000000,"state":"active","ping":76},{"user_id":160,"name":"fifrok","steam_id":76561198799267621,"connected_time":309000000000,"state":"active","ping":81},{"user_id":107,"name":"Purps","steam_id":76561198053886680,"connected_time":3906000000000,"state":"active","ping":35},{"user_id":83,"name":"Flare","steam_id":76561198039098320,"connected_time":6044000000000,"state":"active","ping":47},{"user_id":109,"name":"Eggcracker","steam_id":76561199274850641,"connected_time":3810000000000,"state":"active","ping":85},{"user_id":150,"name":"wouris","steam_id":76561198876188003,"connected_time":911000000000,"state":"active","ping":61},{"user_id":68,"name":"Tomfool","steam_id":76561197993256481,"connected_time":6639000000000,"state":"active","ping":87},{"user_id":111,"name":"Fat Pigeon","steam_id":76561198817940142,"connected_time":3779000000000,"state":"active","ping":45},{"user_id":156,"name":"Priceybay","steam_id":76561198055389492,"connected_time":692000000000,"state":"active","ping":37},{"user_id":89,"name":"The‚òÜCops","steam_id":76561198146358073,"connected_time":5624000000000,"state":"active","ping":101},{"user_id":149,"name":"wheatley worshipper","steam_id":76561198883869325,"connected_time":1031000000000,"state":"active","ping":59},{"user_id":153,"name":"Bozicek","steam_id":76561199006953786,"connected_time":850000000000,"state":"active","ping":74},{"user_id":152,"name":"bram","steam_id":76561198186054573,"connected_time":870000000000,"state":"active","ping":86},{"user_id":157,"name":"A Slavic Troglodyte","steam_id":76561198278446600,"connected_time":691000000000,"state":"active","ping":75}]},{"server_id":300,"name":"Uncletopia | Montr√©al | 1 | All Maps","name_short":"mtl-1","host":"mtl-1.ca.uncletopia.com","port":27015,"enabled":true,"region":"us-east","cc":"ca","latitude":45.50889,"longitude":-73.56167,"reserved":0,"last_update":"0001-01-01T00:00:00Z","name_a2s":"Uncletopia | Montr√©al | 1 | All Maps","protocol":17,"map":"pl_borneo","folder":"tf","game":"Team Fortress","app_id":440,"player_count":0,"max_players":24,"Bots":0,"server_type":"Dedicated","server_os":"Linux","password":true,"vac":true,"version":"7882260","steam_id":85568392924500087,"keywords":["nocrits","nodmgspread","payload","uncletopia"],"game_id":440,"stv_port":27016,"stv_name":"Uncletopia | Montr√©al | 1 | All Maps | STV","players":null},{"server_id":301,"name":"Uncletopia | Montr√©al | 2 | All Maps","name_short":"mtl-2","host":"mtl-1.ca.uncletopia.com","port":27025,"enabled":true,"region":"us-east","cc":"ca","latitude":45.50889,"longitude":-73.56167,"reserved":0,"last_update":"0001-01-01T00:00:00Z","name_a2s":"Uncletopia | Montr√©al | 2 | All Maps","protocol":17,"map":"pl_snowycoast","folder":"tf","game":"Team Fortress","app_id":440,"player_count":0,"max_players":24,"Bots":0,"server_type":"Dedicated","server_os":"Linux","password":true,"vac":true,"version":"7882260","steam_id":85568392924500088,"keywords":["nocrits","nodmgspread","payload","uncletopia"],"game_id":440,"stv_port":27026,"stv_name":"Uncletopia | Montr√©al | 2 | All Maps | STV","players":null},{"server_id":302,"name":"Uncletopia | Montr√©al | 3 | All Maps","name_short":"mtl-3","host":"mtl-1.ca.uncletopia.com","port":27035,"enabled":true,"region":"us-east","cc":"ca","latitude":45.50889,"longitude":-73.56167,"reserved":0,"last_update":"0001-01-01T00:00:00Z","name_a2s":"Uncletopia | Montr√©al | 3 | All Maps","protocol":17,"map":"pl_borneo","folder":"tf","game":"Team Fortress","app_id":440,"player_count":0,"max_players":24,"Bots":0,"server_type":"Dedicated","server_os":"Linux","password":true,"vac":true,"version":"7882260","steam_id":85568392924500089,"keywords":["nocrits","nodmgspread","payload","uncletopia"],"game_id":440,"stv_port":27036,"stv_name":"Uncletopia | Montr√©al | 3 | All Maps | STV","players":null},{"server_id":303,"name":"Uncletopia | Montr√©al | 4 | No Payload","name_short":"mtl-4","host":"mtl-1.ca.uncletopia.com","port":27045,"enabled":true,"region":"us-east","cc":"ca","latitude":45.50889,"longitude":-73.56167,"reserved":0,"last_update":"0001-01-01T00:00:00Z","name_a2s":"Uncletopia | Montr√©al | 4 | No Payload","protocol":17,"map":"cp_altitude","folder":"tf","game":"Team Fortress","app_id":440,"player_count":0,"max_players":24,"Bots":0,"server_type":"Dedicated","server_os":"Linux","password":true,"vac":true,"version":"7882260","steam_id":85568392924500090,"keywords":["cp","nocrits","nodmgspread","uncletopia"],"game_id":440,"stv_port":27046,"stv_name":"Uncletopia | Montr√©al | 4 | No Payload | STV","players":null},{"server_id":13,"name":"Uncletopia | New York City | 1 | All Maps","name_short":"nyc-1","host":"nyc-1.us.uncletopia.com","port":27015,"enabled":true,"region":"us-east","cc":"us","latitude":40.73061,"longitude":-73.93524,"reserved":0,"last_update":"0001-01-01T00:00:00Z","name_a2s":"Uncletopia | New York City | 1 | All Maps","protocol":17,"map":"pl_frontier_final","folder":"tf","game":"Team Fortress","app_id":440,"player_count":0,"max_players":24,"Bots":0,"server_type":"Dedicated","server_os":"Linux","password":true,"vac":true,"version":"7882260","steam_id":85568392924469993,"keywords":["nocrits","nodmgspread","payload","uncletopia"],"game_id":440,"stv_port":27016,"stv_name":"Uncletopia | New York City | 1 | All Maps | STV","players":null},{"server_id":14,"name":"Uncletopia | New York City | 2 | All Maps","name_short":"nyc-2","host":"nyc-1.us.uncletopia.com","port":27025,"enabled":true,"region":"us-east","cc":"us","latitude":40.73061,"longitude":-73.93524,"reserved":0,"last_update":"0001-01-01T00:00:00Z","name_a2s":"Uncletopia | New York City | 2 | All Maps","protocol":17,"map":"koth_cascade","folder":"tf","game":"Team Fortress","app_id":440,"player_count":0,"max_players":24,"Bots":0,"server_type":"Dedicated","server_os":"Linux","password":true,"vac":true,"version":"7882260","steam_id":85568392924469994,"keywords":["cp","nocrits","nodmgspread","uncletopia"],"game_id":440,"stv_port":27026,"stv_name":"Uncletopia | New York City | 2 | All Maps | STV","players":null},{"server_id":15,"name":"Uncletopia | New York City | 3 | Stopwatch Beta","name_short":"nyc-3","host":"nyc-1.us.uncletopia.com","port":27035,"enabled":true,"region":"us-east","cc":"us","latitude":40.73061,"longitude":-73.93524,"reserved":0,"last_update":"0001-01-01T00:00:00Z","name_a2s":"Uncletopia | New York City | 3 | Stopwatch Beta","protocol":17,"map":"koth_lakeside_final","folder":"tf","game":"Team Fortress","app_id":440,"player_count":0,"max_players":24,"Bots":0,"server_type":"Dedicated","server_os":"Linux","password":true,"vac":true,"version":"7882260","steam_id":85568392924742820,"keywords":["cp","nocrits","nodmgspread","uncletopia"],"game_id":440,"stv_port":27036,"stv_name":"Uncletopia | New York City | 3 | Stopwatch Beta | STV","players":null},{"server_id":16,"name":"Uncletopia | New York City | 4 | Community","name_short":"nyc-4","host":"nyc-1.us.uncletopia.com","port":27045,"enabled":true,"region":"us-east","cc":"us","latitude":40.73061,"longitude":-73.93524,"reserved":0,"last_update":"0001-01-01T00:00:00Z","name_a2s":"Uncletopia | New York City | 4 | Community","protocol":17,"map":"pl_badwater","folder":"tf","game":"Team Fortress","app_id":440,"player_count":0,"max_players":24,"Bots":0,"server_type":"Dedicated","server_os":"Linux","password":true,"vac":true,"version":"7882260","steam_id":85568392924742821,"keywords":["nocrits","nodmgspread","payload","uncletopia"],"game_id":440,"stv_port":27046,"stv_name":"Uncletopia | New York City | 4 | Community | STV","players":null},{"server_id":142,"name":"Uncletopia | S√£o Paulo | 1 | All Maps","name_short":"sao-1","host":"sao-1.br.uncletopia.com","port":27015,"enabled":true,"region":"sa","cc":"br","latitude":-23.533773,"longitude":-46.62529,"reserved":0,"last_update":"0001-01-01T00:00:00Z","name_a2s":"Uncletopia | S√£o Paulo | 1 | All Maps","protocol":17,"map":"pl_pier","folder":"tf","game":"Team Fortress","app_id":440,"player_count":1,"max_players":24,"Bots":0,"server_type":"Dedicated","server_os":"Linux","password":true,"vac":true,"version":"7882260","steam_id":85568392924469996,"keywords":["nocrits","nodmgspread","payload","uncletopia"],"game_id":440,"stv_port":27016,"stv_name":"Uncletopia | S√£o Paulo | 1 | All Maps | STV","players":[{"user_id":3,"name":"Piazinho","steam_id":76561198054820896,"connected_time":148000000000,"state":"active","ping":53}]},{"server_id":143,"name":"Uncletopia | S√£o Paulo | 2 | All Maps","name_short":"sao-2","host":"sao-2.br.uncletopia.com","port":27015,"enabled":true,"region":"sa","cc":"br","latitude":-23.533773,"longitude":-46.62529,"reserved":0,"last_update":"0001-01-01T00:00:00Z","name_a2s":"Uncletopia | S√£o Paulo | 2 | All Maps","protocol":17,"map":"pl_snowycoast","folder":"tf","game":"Team Fortress","app_id":440,"player_count":0,"max_players":24,"Bots":0,"server_type":"Dedicated","server_os":"Linux","password":true,"vac":true,"version":"7882260","steam_id":85568392924485349,"keywords":["nocrits","nodmgspread","payload","uncletopia"],"game_id":440,"stv_port":27016,"stv_name":"Uncletopia | S√£o Paulo | 2 | All Maps | STV","players":null},{"server_id":7,"name":"Uncletopia | Seattle | 1 | All Maps","name_short":"sea-1","host":"sea-1.us.uncletopia.com","port":27015,"enabled":true,"region":"us-west","cc":"us","latitude":47.608013,"longitude":-122.33517,"reserved":0,"last_update":"0001-01-01T00:00:00Z","name_a2s":"Uncletopia | Seattle | 1 | All Maps","protocol":17,"map":"koth_viaduct","folder":"tf","game":"Team Fortress","app_id":440,"player_count":0,"max_players":24,"Bots":0,"server_type":"Dedicated","server_os":"Linux","password":true,"vac":true,"version":"7882260","steam_id":85568392924469997,"keywords":["cp","nocrits","nodmgspread","uncletopia"],"game_id":440,"stv_port":27016,"stv_name":"Uncletopia | Seattle | 1 | All Maps | STV","players":null},{"server_id":119,"name":"Uncletopia | Seattle | 2 | All Maps","name_short":"sea-2","host":"sea-1.us.uncletopia.com","port":27025,"enabled":true,"region":"us-west","cc":"us","latitude":47.608013,"longitude":-122.33517,"reserved":0,"last_update":"0001-01-01T00:00:00Z","name_a2s":"Uncletopia | Seattle | 2 | All Maps","protocol":17,"map":"koth_highpass","folder":"tf","game":"Team Fortress","app_id":440,"player_count":0,"max_players":24,"Bots":0,"server_type":"Dedicated","server_os":"Linux","password":true,"vac":true,"version":"7882260","steam_id":85568392924469998,"keywords":["cp","nocrits","nodmgspread","uncletopia"],"game_id":440,"stv_port":27026,"stv_name":"Uncletopia | Seattle | 2 | All Maps | STV","players":null},{"server_id":406,"name":"Uncletopia | Seattle | 3 | Stopwatch Beta","name_short":"sea-3","host":"sea-1.us.uncletopia.com","port":27035,"enabled":true,"region":"us-west","cc":"us","latitude":47.608013,"longitude":-122.33517,"reserved":0,"last_update":"0001-01-01T00:00:00Z","name_a2s":"Uncletopia | Seattle | 3 | Stopwatch Beta","protocol":17,"map":"cp_mountainlab","folder":"tf","game":"Team Fortress","app_id":440,"player_count":0,"max_players":24,"Bots":0,"server_type":"Dedicated","server_os":"Linux","password":true,"vac":true,"version":"7882260","steam_id":85568392924515217,"keywords":["cp","nocrits","nodmgspread","uncletopia"],"game_id":440,"stv_port":27036,"stv_name":"Uncletopia | Seattle | 3 | Stopwatch Beta | STV","players":null},{"server_id":17,"name":"Uncletopia | San Francisco | 1 | All Maps","name_short":"sfo-1","host":"sfo-1.us.uncletopia.com","port":27015,"enabled":true,"region":"us-west","cc":"us","latitude":37.77397,"longitude":-122.4313,"reserved":0,"last_update":"0001-01-01T00:00:00Z","name_a2s":"Uncletopia | San Francisco | 1 | All Maps","protocol":17,"map":"pl_barnblitz","folder":"tf","game":"Team Fortress","app_id":440,"player_count":0,"max_players":24,"Bots":0,"server_type":"Dedicated","server_os":"Linux","password":true,"vac":true,"version":"7882260","steam_id":85568392924469999,"keywords":["nocrits","nodmgspread","payload","uncletopia"],"game_id":440,"stv_port":27016,"stv_name":"Uncletopia | San Francisco | 1 | All Maps | STV","players":null},{"server_id":18,"name":"Uncletopia | San Francisco | 2 | All Maps","name_short":"sfo-2","host":"sfo-1.us.uncletopia.com","port":27025,"enabled":true,"region":"us-west","cc":"us","latitude":37.77397,"longitude":-122.4313,"reserved":0,"last_update":"0001-01-01T00:00:00Z","name_a2s":"Uncletopia | San Francisco | 2 | All Maps","protocol":17,"map":"pl_frontier_final","folder":"tf","game":"Team Fortress","app_id":440,"player_count":17,"max_players":24,"Bots":0,"server_type":"Dedicated","server_os":"Linux","password":true,"vac":true,"version":"7882260","steam_id":85568392924470000,"keywords":["nocrits","nodmgspread","payload","uncletopia"],"game_id":440,"stv_port":27026,"stv_name":"Uncletopia | San Francisco | 2 | All Maps | STV","players":[{"user_id":62,"name":"Yimberly","steam_id":76561199206923109,"connected_time":557000000000,"state":"active","ping":86},{"user_id":48,"name":"STENDO_CLIP","steam_id":76561198059570167,"connected_time":1482000000000,"state":"active","ping":300},{"user_id":53,"name":"LavaSlayer235","steam_id":76561199196200335,"connected_time":1036000000000,"state":"active","ping":156},{"user_id":49,"name":"Ass Blaster, Disaster Master","steam_id":76561197997774469,"connected_time":1351000000000,"state":"active","ping":45},{"user_id":65,"name":"deafened","steam_id":76561198454526448,"connected_time":137000000000,"state":"active","ping":104},{"user_id":58,"name":"The_Total_Train_Wreck","steam_id":76561199453505591,"connected_time":808000000000,"state":"active","ping":123},{"user_id":25,"name":"MouxeWare","steam_id":76561199339512223,"connected_time":3212000000000,"state":"active","ping":91},{"user_id":51,"name":"Joshua31704","steam_id":76561198125898714,"connected_time":1261000000000,"state":"active","ping":113},{"user_id":64,"name":"that wasnt funny pal","steam_id":76561198837926595,"connected_time":444000000000,"state":"active","ping":105},{"user_id":54,"name":"Bobbies1","steam_id":76561198363084669,"connected_time":965000000000,"state":"active","ping":114},{"user_id":66,"name":"Cosmic Torgue","steam_id":76561198828724945,"connected_time":54000000000,"state":"active","ping":126},{"user_id":46,"name":"Phat Cat","steam_id":76561198123017274,"connected_time":1933000000000,"state":"active","ping":125},{"user_id":67,"name":"Sartupial","steam_id":76561198443169940,"connected_time":43000000000,"state":"active","ping":81},{"user_id":57,"name":"Jeff Probst","steam_id":76561199215811448,"connected_time":892000000000,"state":"active","ping":125},{"user_id":60,"name":"Goat","steam_id":76561198068447650,"connected_time":687000000000,"state":"active","ping":99},{"user_id":61,"name":"Rasputia","steam_id":76561198132051047,"connected_time":677000000000,"state":"active","ping":64},{"user_id":68,"name":"Mediocre","steam_id":76561198056352693,"connected_time":23000000000,"state":"spawning","ping":60}]},{"server_id":19,"name":"Uncletopia | San Francisco | 3 | Stopwatch Beta","name_short":"sfo-3","host":"sfo-1.us.uncletopia.com","port":27035,"enabled":true,"region":"us-west","cc":"us","latitude":37.77397,"longitude":-122.4313,"reserved":0,"last_update":"0001-01-01T00:00:00Z","name_a2s":"Uncletopia | San Francisco | 3 | Stopwatch Beta","protocol":17,"map":"pl_frontier_final","folder":"tf","game":"Team Fortress","app_id":440,"player_count":0,"max_players":24,"Bots":0,"server_type":"Dedicated","server_os":"Linux","password":true,"vac":true,"version":"7882260","steam_id":85568392924742824,"keywords":["nocrits","nodmgspread","payload","uncletopia"],"game_id":440,"stv_port":27036,"stv_name":"Uncletopia | San Francisco | 3 | Stopwatch Beta | STV","players":null},{"server_id":20,"name":"Uncletopia | San Francisco | 4 | Community","name_short":"sfo-4","host":"sfo-1.us.uncletopia.com","port":27045,"enabled":true,"region":"us-west","cc":"us","latitude":37.77397,"longitude":-122.4313,"reserved":0,"last_update":"0001-01-01T00:00:00Z","name_a2s":"Uncletopia | San Francisco | 4 | Community","protocol":17,"map":"cp_process_final","folder":"tf","game":"Team Fortress","app_id":440,"player_count":0,"max_players":24,"Bots":0,"server_type":"Dedicated","server_os":"Linux","password":true,"vac":true,"version":"7882260","steam_id":85568392924742826,"keywords":["cp","nocrits","nodmgspread","uncletopia"],"game_id":440,"stv_port":27046,"stv_name":"Uncletopia | San Francisco | 4 | Community | STV","players":null},{"server_id":141,"name":"Uncletopia | Sydney | 1 | All Maps","name_short":"syd-1","host":"syd-1.au.uncletopia.com","port":27015,"enabled":true,"region":"au","cc":"au","latitude":-33.865143,"longitude":151.2099,"reserved":0,"last_update":"0001-01-01T00:00:00Z","name_a2s":"Uncletopia | Sydney | 1 | All Maps","protocol":17,"map":"pl_borneo","folder":"tf","game":"Team Fortress","app_id":440,"player_count":0,"max_players":24,"Bots":0,"server_type":"Dedicated","server_os":"Linux","password":true,"vac":true,"version":"7882260","steam_id":85568392924470001,"keywords":["nocrits","nodmgspread","payload","uncletopia"],"game_id":440,"stv_port":27016,"stv_name":"Uncletopia | Sydney | 1 | All Maps | STV","players":null},{"server_id":123,"name":"Uncletopia | Sydney | 2 | All Maps","name_short":"syd-2","host":"syd-1.au.uncletopia.com","port":27025,"enabled":true,"region":"au","cc":"au","latitude":-33.865143,"longitude":151.2099,"reserved":0,"last_update":"0001-01-01T00:00:00Z","name_a2s":"Uncletopia | Sydney | 2 | All Maps","protocol":17,"map":"koth_cascade","folder":"tf","game":"Team Fortress","app_id":440,"player_count":0,"max_players":24,"Bots":0,"server_type":"Dedicated","server_os":"Linux","password":true,"vac":true,"version":"7882260","steam_id":85568392924470002,"keywords":["cp","nocrits","nodmgspread","uncletopia"],"game_id":440,"stv_port":27026,"stv_name":"Uncletopia | Sydney | 2 | All Maps | STV","players":null},{"server_id":395,"name":"Uncletopia | Sydney | 3 | All Maps","name_short":"syd-3","host":"syd-1.au.uncletopia.com","port":27035,"enabled":true,"region":"au","cc":"au","latitude":-33.865143,"longitude":151.2099,"reserved":0,"last_update":"0001-01-01T00:00:00Z","name_a2s":"Uncletopia | Sydney | 3 | All Maps","protocol":17,"map":"cp_sunshine","folder":"tf","game":"Team Fortress","app_id":440,"player_count":0,"max_players":24,"Bots":0,"server_type":"Dedicated","server_os":"Linux","password":true,"vac":true,"version":"7882260","steam_id":85568392925194467,"keywords":["cp","nocrits","nodmgspread","uncletopia"],"game_id":440,"stv_port":27036,"stv_name":"Uncletopia | Sydney | 3 | All Maps | STV","players":null},{"server_id":396,"name":"Uncletopia | Sydney | 4 | All Maps","name_short":"syd-4","host":"syd-1.au.uncletopia.com","port":27045,"enabled":true,"region":"au","cc":"au","latitude":-33.865143,"longitude":151.2099,"reserved":0,"last_update":"0001-01-01T00:00:00Z","name_a2s":"Uncletopia | Sydney | 4 | All Maps","protocol":17,"map":"pl_barnblitz","folder":"tf","game":"Team Fortress","app_id":440,"player_count":0,"max_players":24,"Bots":0,"server_type":"Dedicated","server_os":"Linux","password":true,"vac":true,"version":"7882260","steam_id":85568392925397958,"keywords":["nocrits","nodmgspread","payload","uncletopia"],"game_id":440,"stv_port":27046,"stv_name":"Uncletopia | Sydney | 4 | All Maps | STV","players":null},{"server_id":58,"name":"Uncletopia | Sydney | 5 | Stopwatch Beta","name_short":"syd-5","host":"syd-1.au.uncletopia.com","port":27055,"enabled":true,"region":"au","cc":"au","latitude":-33.865143,"longitude":151.2099,"reserved":0,"last_update":"0001-01-01T00:00:00Z","name_a2s":"Uncletopia | Sydney | 5 | Stopwatch Beta","protocol":17,"map":"workshop/pl_vigil_rc9.ugc1266210012","folder":"tf","game":"Team Fortress","app_id":440,"player_count":0,"max_players":24,"Bots":0,"server_type":"Dedicated","server_os":"Linux","password":true,"vac":true,"version":"7882260","steam_id":85568392925397959,"keywords":["nocrits","nodmgspread","payload","uncletopia"],"game_id":440,"stv_port":27056,"stv_name":"Uncletopia | Sydney | 5 | Stopwatch Beta | STV","players":null},{"server_id":59,"name":"Uncletopia | Sydney | 6 | Community","name_short":"syd-6","host":"syd-1.au.uncletopia.com","port":27065,"enabled":true,"region":"au","cc":"au","latitude":-33.865143,"longitude":151.2099,"reserved":0,"last_update":"0001-01-01T00:00:00Z","name_a2s":"Uncletopia | Sydney | 6 | Community","protocol":17,"map":"workshop/rd_asteroid_redux_b1.ugc2154902912","folder":"tf","game":"Team Fortress","app_id":440,"player_count":0,"max_players":24,"Bots":0,"server_type":"Dedicated","server_os":"Linux","password":true,"vac":true,"version":"7882260","steam_id":85568392925397960,"keywords":["beta","nocrits","nodmgspread","rd","uncletopia"],"game_id":440,"stv_port":27066,"stv_name":"Uncletopia | Sydney | 6 | Community | STV","players":null},{"server_id":49,"name":"Uncletopia | Warsaw | 1 | All Maps","name_short":"waw-1","host":"waw-1.pl.uncletopia.com","port":27015,"enabled":true,"region":"eu","cc":"pl","latitude":52.2297,"longitude":21.017532,"reserved":0,"last_update":"0001-01-01T00:00:00Z","name_a2s":"","protocol":0,"map":"","folder":"","game":"","app_id":0,"player_count":0,"max_players":0,"Bots":0,"server_type":"","server_os":"","password":false,"vac":false,"version":"","steam_id":0,"keywords":null,"game_id":0,"stv_port":0,"stv_name":"","players":null},{"server_id":50,"name":"Uncletopia | Warsaw | 2 | All Maps","name_short":"waw-2","host":"waw-1.pl.uncletopia.com","port":27025,"enabled":true,"region":"eu","cc":"pl","latitude":52.2297,"longitude":21.017532,"reserved":0,"last_update":"0001-01-01T00:00:00Z","name_a2s":"Uncletopia | Warsaw | 2 | All Maps","protocol":17,"map":"cp_mountainlab","folder":"tf","game":"Team Fortress","app_id":440,"player_count":0,"max_players":24,"Bots":0,"server_type":"Dedicated","server_os":"Linux","password":true,"vac":true,"version":"7882260","steam_id":85568392925397851,"keywords":["cp","nocrits","nodmgspread","uncletopia"],"game_id":440,"stv_port":27026,"stv_name":"Uncletopia | Warsaw | 2 | All Maps | STV","players":null},{"server_id":51,"name":"Uncletopia | Warsaw | 3 | All Maps","name_short":"waw-3","host":"waw-1.pl.uncletopia.com","port":27035,"enabled":true,"region":"eu","cc":"pl","latitude":52.2297,"longitude":21.017532,"reserved":0,"last_update":"0001-01-01T00:00:00Z","name_a2s":"Uncletopia | Warsaw | 3 | All Maps","protocol":17,"map":"koth_viaduct","folder":"tf","game":"Team Fortress","app_id":440,"player_count":0,"max_players":24,"Bots":0,"server_type":"Dedicated","server_os":"Linux","password":true,"vac":true,"version":"7882260","steam_id":85568392925397852,"keywords":["cp","nocrits","nodmgspread","uncletopia"],"game_id":440,"stv_port":27036,"stv_name":"Uncletopia | Warsaw | 3 | All Maps | STV","players":null},{"server_id":52,"name":"Uncletopia | Warsaw | 4 | All Maps","name_short":"waw-4","host":"waw-1.pl.uncletopia.com","port":27045,"enabled":true,"region":"eu","cc":"pl","latitude":52.2297,"longitude":21.017532,"reserved":0,"last_update":"0001-01-01T00:00:00Z","name_a2s":"Uncletopia | Warsaw | 4 | All Maps","protocol":17,"map":"koth_highpass","folder":"tf","game":"Team Fortress","app_id":440,"player_count":0,"max_players":24,"Bots":0,"server_type":"Dedicated","server_os":"Linux","password":true,"vac":true,"version":"7882260","steam_id":85568392925397853,"keywords":["cp","nocrits","nodmgspread","uncletopia"],"game_id":440,"stv_port":27046,"stv_name":"Uncletopia | Warsaw | 4 | All Maps | STV","players":null},{"server_id":53,"name":"Uncletopia | Warsaw | 5 | Stopwatch Beta","name_short":"waw-5","host":"waw-1.pl.uncletopia.com","port":27055,"enabled":true,"region":"eu","cc":"pl","latitude":52.2297,"longitude":21.017532,"reserved":0,"last_update":"0001-01-01T00:00:00Z","name_a2s":"Uncletopia | Warsaw | 5 | Stopwatch Beta","protocol":17,"map":"cp_mountainlab","folder":"tf","game":"Team Fortress","app_id":440,"player_count":0,"max_players":24,"Bots":0,"server_type":"Dedicated","server_os":"Linux","password":true,"vac":true,"version":"7882260","steam_id":85568392925397854,"keywords":["cp","nocrits","nodmgspread","uncletopia"],"game_id":440,"stv_port":27056,"stv_name":"Uncletopia | Warsaw | 5 | Stopwatch Beta | STV","players":null},{"server_id":54,"name":"Uncletopia | Warsaw | 6 | Community","name_short":"waw-6","host":"waw-1.pl.uncletopia.com","port":27065,"enabled":true,"region":"eu","cc":"pl","latitude":52.2297,"longitude":21.017532,"reserved":0,"last_update":"0001-01-01T00:00:00Z","name_a2s":"Uncletopia | Warsaw | 6 | Community","protocol":17,"map":"koth_viaduct","folder":"tf","game":"Team Fortress","app_id":440,"player_count":0,"max_players":24,"Bots":0,"server_type":"Dedicated","server_os":"Linux","password":true,"vac":true,"version":"7882260","steam_id":85568392925397856,"keywords":["cp","nocrits","nodmgspread","uncletopia"],"game_id":440,"stv_port":27066,"stv_name":"Uncletopia | Warsaw | 6 | Community | STV","players":null}]}