{"status":true,"message":"","result":[{"server_id":9,"name":"Uncletopia | Atlanta | 1 | All Maps","name_short":"atl-1","host":"atl-1.us.uncletopia.com","port":27015,"enabled":true,"region":"us-east","cc":"us","latitude":33.753746,"longitude":-84.38633,"reserved":0,"last_update":"0001-01-01T00:00:00Z","name_a2s":"Uncletopia | Atlanta | 1 | All Maps","protocol":17,"map":"pl_pier","folder":"tf","game":"Team Fortress","app_id":440,"player_count":24,"max_players":24,"Bots":0,"server_type":"Dedicated","server_os":"Linux","password":true,"vac":true,"version":"7708610","steam_id":85568392924469982,"keywords":["nocrits","nodmgspread","payload","uncletopia"],"game_id":440,"stv_port":27016,"stv_name":"Uncletopia | Atlanta | 1 | All Maps | STV","players":[{"user_id":537,"name":"elyk37","steam_id":76561198124135253,"connected_time":5990000000000,"state":"active","ping":84},{"user_id":560,"name":"sansa musa","steam_id":76561198163723555,"connected_time":3298000000000,"state":"active","ping":75},{"user_id":565,"name":"I am a mooshroom","steam_id":76561198104198295,"connected_time":2757000000000,"state":"active","ping":72},{"user_id":579,"name":"Jin Gulilo","steam_id":76561198065151242,"connected_time":431000000000,"state":"active","ping":69},{"user_id":574,"name":"stink","steam_id":76561198099318923,"connected_time":1273000000000,"state":"active","ping":90},{"user_id":550,"name":"joe","steam_id":76561198045781320,"connected_time":4135000000000,"state":"active","ping":64},{"user_id":578,"name":"sB","steam_id":76561198041610406,"connected_time":527000000000,"state":"active","ping":75},{"user_id":549,"name":"Intro Bonito","steam_id":76561198119478838,"connected_time":4242000000000,"state":"active","ping":62},{"user_id":525,"name":"com lag","steam_id":76561198019019392,"connected_time":6969000000000,"state":"active","ping":66},{"user_id":573,"name":"PROtagonist","steam_id":76561198120631837,"connected_time":1350000000000,"state":"active","ping":65},{"user_id":572,"name":"David De Bergerac","steam_id":76561198010306294,"connected_time":1419000000000,"state":"active","ping":81},{"user_id":540,"name":"Smoky","steam_id":76561198418262145,"connected_time":5080000000000,"state":"active","ping":101},{"user_id":426,"name":"ATL1 | a very merry ma0re","steam_id":76561199231971506,"connected_time":16383000000000,"state":"active","ping":69},{"user_id":576,"name":"Oni Enthusiast","steam_id":76561198035410427,"connected_time":1179000000000,"state":"active","ping":103},{"user_id":561,"name":"Liker of Metal Gear Solid","steam_id":76561198125609923,"connected_time":3023000000000,"state":"active","ping":48},{"user_id":568,"name":"ATL1 | Kramer","steam_id":76561198083595936,"connected_time":2445000000000,"state":"active","ping":97},{"user_id":506,"name":"ItsThatBear","steam_id":76561198169617659,"connected_time":9568000000000,"state":"active","ping":64},{"user_id":554,"name":"Im High","steam_id":76561198049954886,"connected_time":3729000000000,"state":"active","ping":65},{"user_id":495,"name":"obamiun","steam_id":76561199121276474,"connected_time":11044000000000,"state":"active","ping":78},{"user_id":542,"name":"groda_spel","steam_id":76561198121349387,"connected_time":4859000000000,"state":"active","ping":75},{"user_id":577,"name":"ehs","steam_id":76561198431048339,"connected_time":1176000000000,"state":"active","ping":109},{"user_id":376,"name":"ATL1 | Phestive Pango","steam_id":76561198069811545,"connected_time":21267000000000,"state":"active","ping":48},{"user_id":581,"name":"mommy claus","steam_id":76561199230929836,"connected_time":321000000000,"state":"active","ping":80},{"user_id":564,"name":"ATL1 | p4ka","steam_id":76561198315291317,"connected_time":2809000000000,"state":"active","ping":74}]},{"server_id":400,"name":"Uncletopia | Atlanta | 3 | All Maps","name_short":"atl-3","host":"atl-1.us.uncletopia.com","port":27035,"enabled":true,"region":"us-east","cc":"us","latitude":33.753746,"longitude":-84.38633,"reserved":0,"last_update":"0001-01-01T00:00:00Z","name_a2s":"Uncletopia | Atlanta | 3 | All Maps","protocol":17,"map":"cp_mountainlab","folder":"tf","game":"Team Fortress","app_id":440,"player_count":23,"max_players":24,"Bots":0,"server_type":"Dedicated","server_os":"Linux","password":true,"vac":true,"version":"7708610","steam_id":85568392924515187,"keywords":["cp","nocrits","nodmgspread","uncletopia"],"game_id":440,"stv_port":27036,"stv_name":"Uncletopia | Atlanta | 3 | All Maps | STV","players":[{"user_id":362,"name":"ObiWonJacobi","steam_id":76561198041921071,"connected_time":3972000000000,"state":"active","ping":56},{"user_id":344,"name":"Styx","steam_id":76561198104657428,"connected_time":5578000000000,"state":"active","ping":61},{"user_id":382,"name":"Aria of The Soul","steam_id":76561198025668771,"connected_time":1508000000000,"state":"active","ping":107},{"user_id":213,"name":"no fun allowed","steam_id":76561198023888890,"connected_time":16718000000000,"state":"active","ping":66},{"user_id":388,"name":"tame","steam_id":76561198925005855,"connected_time":571000000000,"state":"active","ping":209},{"user_id":338,"name":"Trytard","steam_id":76561198094507220,"connected_time":5887000000000,"state":"active","ping":144},{"user_id":387,"name":"stockhack","steam_id":76561198050220225,"connected_time":1159000000000,"state":"active","ping":62},{"user_id":380,"name":"xyt0nix","steam_id":76561199437938235,"connected_time":1542000000000,"state":"active","ping":48},{"user_id":394,"name":"boo_thefeared","steam_id":76561198127967685,"connected_time":19000000000,"state":"active","ping":125},{"user_id":353,"name":"Jake_Spencer","steam_id":76561198025176750,"connected_time":4799000000000,"state":"active","ping":77},{"user_id":373,"name":"Xx_True gamer_xX","steam_id":76561199210541615,"connected_time":2535000000000,"state":"active","ping":58},{"user_id":384,"name":"t.tv/Mikeymare_","steam_id":76561198977264806,"connected_time":1414000000000,"state":"active","ping":55},{"user_id":311,"name":"p0rps","steam_id":76561198000014631,"connected_time":8004000000000,"state":"active","ping":63},{"user_id":375,"name":"ClericsRose","steam_id":76561198011013806,"connected_time":2495000000000,"state":"active","ping":78},{"user_id":211,"name":"Snazzi","steam_id":76561198085208276,"connected_time":16728000000000,"state":"active","ping":67},{"user_id":378,"name":"fransam","steam_id":76561198383924939,"connected_time":2439000000000,"state":"active","ping":66},{"user_id":389,"name":"Xx_TNTRED_xX","steam_id":76561198357704703,"connected_time":334000000000,"state":"active","ping":105},{"user_id":385,"name":"Slabz","steam_id":76561199072777158,"connected_time":1413000000000,"state":"active","ping":51},{"user_id":391,"name":"im mean","steam_id":76561199209403512,"connected_time":56000000000,"state":"active","ping":70},{"user_id":368,"name":"Spectre","steam_id":76561198020088922,"connected_time":2932000000000,"state":"active","ping":65},{"user_id":390,"name":"Dingoid","steam_id":76561198065665995,"connected_time":159000000000,"state":"active","ping":84},{"user_id":392,"name":"Pourpel","steam_id":76561198059125470,"connected_time":47000000000,"state":"active","ping":61},{"user_id":393,"name":"Drakkona","steam_id":76561198095449994,"connected_time":45000000000,"state":"active","ping":68}]},{"server_id":401,"name":"Uncletopia | Atlanta | 4 | No Payload","name_short":"atl-4","host":"atl-1.us.uncletopia.com","port":27045,"enabled":true,"region":"us-east","cc":"us","latitude":33.753746,"longitude":-84.38633,"reserved":0,"last_update":"0001-01-01T00:00:00Z","name_a2s":"Uncletopia | Atlanta | 4 | No Payload","protocol":17,"map":"plr_pipeline","folder":"tf","game":"Team Fortress","app_id":440,"player_count":0,"max_players":24,"Bots":0,"server_type":"Dedicated","server_os":"Linux","password":true,"vac":true,"version":"7708610","steam_id":85568392924515188,"keywords":["nocrits","nodmgspread","payload","uncletopia"],"game_id":440,"stv_port":27046,"stv_name":"Uncletopia | Atlanta | 4 | No Payload | STV","players":null},{"server_id":2,"name":"Uncletopia | Chicago | 1 | All Maps","name_short":"chi-1","host":"chi-1.us.uncletopia.com","port":27015,"enabled":true,"region":"us-central","cc":"us","latitude":41.881832,"longitude":-87.62318,"reserved":0,"last_update":"0001-01-01T00:00:00Z","name_a2s":"Uncletopia | Chicago | 1 | All Maps","protocol":17,"map":"ctf_2fort","folder":"tf","game":"Team Fortress","app_id":440,"player_count":24,"max_players":24,"Bots":0,"server_type":"Dedicated","server_os":"Linux","password":true,"vac":true,"version":"7708610","steam_id":85568392924469984,"keywords":["ctf","nocrits","nodmgspread","uncletopia"],"game_id":440,"stv_port":27016,"stv_name":"Uncletopia | Chicago | 1 | All Maps | STV","players":[{"user_id":760,"name":"venomew2","steam_id":76561198327081077,"connected_time":1270000000000,"state":"active","ping":78},{"user_id":735,"name":"Demonfax04","steam_id":76561198243551652,"connected_time":3894000000000,"state":"active","ping":82},{"user_id":761,"name":"42","steam_id":76561198043965184,"connected_time":1093000000000,"state":"active","ping":97},{"user_id":778,"name":"Chol","steam_id":76561198122054259,"connected_time":403000000000,"state":"active","ping":55},{"user_id":764,"name":"ÒwÓ","steam_id":76561197997304387,"connected_time":1014000000000,"state":"active","ping":76},{"user_id":765,"name":"Halcyon","steam_id":76561197999409268,"connected_time":972000000000,"state":"active","ping":75},{"user_id":786,"name":"Happy Yaoi Friday","steam_id":76561198111290441,"connected_time":282000000000,"state":"active","ping":46},{"user_id":779,"name":"6*10^6 bees","steam_id":76561198400438007,"connected_time":386000000000,"state":"active","ping":57},{"user_id":754,"name":"SuppleSchlong","steam_id":76561197963363115,"connected_time":1888000000000,"state":"active","ping":89},{"user_id":775,"name":"but it was me, DIO!","steam_id":76561199041845839,"connected_time":513000000000,"state":"active","ping":85},{"user_id":790,"name":"⊰Aero⊱","steam_id":76561198084648457,"connected_time":76000000000,"state":"active","ping":50},{"user_id":723,"name":"pw","steam_id":76561198087945065,"connected_time":4453000000000,"state":"active","ping":52},{"user_id":734,"name":"SsaucySam","steam_id":76561198362539268,"connected_time":3987000000000,"state":"active","ping":75},{"user_id":768,"name":"Hornedspawn","steam_id":76561199442792283,"connected_time":720000000000,"state":"active","ping":75},{"user_id":769,"name":"rainbowmaster25!","steam_id":76561199215255414,"connected_time":690000000000,"state":"active","ping":72},{"user_id":780,"name":"『Hazon』","steam_id":76561198119852107,"connected_time":382000000000,"state":"active","ping":66},{"user_id":770,"name":"Dr Smeggman","steam_id":76561197966614845,"connected_time":689000000000,"state":"active","ping":134},{"user_id":729,"name":"River Rat","steam_id":76561198116383976,"connected_time":4342000000000,"state":"active","ping":102},{"user_id":787,"name":"Andrestor","steam_id":76561198005934930,"connected_time":270000000000,"state":"active","ping":121},{"user_id":785,"name":"Eightoneto","steam_id":76561198204106991,"connected_time":332000000000,"state":"active","ping":66},{"user_id":783,"name":"Gemsnake","steam_id":76561198150605164,"connected_time":360000000000,"state":"active","ping":67},{"user_id":784,"name":"yesoko","steam_id":76561198072917024,"connected_time":353000000000,"state":"active","ping":59},{"user_id":789,"name":"psy","steam_id":76561198013195018,"connected_time":153000000000,"state":"active","ping":74},{"user_id":791,"name":"Devious Wink","steam_id":76561198043571022,"connected_time":74000000000,"state":"active","ping":63}]},{"server_id":106,"name":"Uncletopia | Chicago | 2 | All Maps","name_short":"chi-2","host":"chi-1.us.uncletopia.com","port":27025,"enabled":true,"region":"us-central","cc":"us","latitude":41.881832,"longitude":-87.62318,"reserved":0,"last_update":"0001-01-01T00:00:00Z","name_a2s":"Uncletopia | Chicago | 2 | All Maps","protocol":17,"map":"cp_dustbowl","folder":"tf","game":"Team Fortress","app_id":440,"player_count":4,"max_players":24,"Bots":0,"server_type":"Dedicated","server_os":"Linux","password":true,"vac":true,"version":"7708610","steam_id":85568392924469985,"keywords":["cp","nocrits","nodmgspread","uncletopia"],"game_id":440,"stv_port":27026,"stv_name":"Uncletopia | Chicago | 2 | All Maps | STV","players":[{"user_id":558,"name":"All 24 Pokémon movies at once","steam_id":76561198164738311,"connected_time":36000000000,"state":"active","ping":50},{"user_id":552,"name":"ndvr","steam_id":76561199379200102,"connected_time":1094000000000,"state":"active","ping":57},{"user_id":553,"name":"kilroy_39","steam_id":76561198205173325,"connected_time":720000000000,"state":"active","ping":81},{"user_id":547,"name":"Piyono","steam_id":76561197962188504,"connected_time":1799000000000,"state":"active","ping":50}]},{"server_id":402,"name":"Uncletopia | Chicago | 3 | All Maps","name_short":"chi-3","host":"chi-1.us.uncletopia.com","port":27035,"enabled":true,"region":"us-central","cc":"us","latitude":41.881832,"longitude":-87.62318,"reserved":0,"last_update":"0001-01-01T00:00:00Z","name_a2s":"Uncletopia | Chicago | 3 | All Maps","protocol":17,"map":"pl_frontier_final","folder":"tf","game":"Team Fortress","app_id":440,"player_count":23,"max_players":24,"Bots":0,"server_type":"Dedicated","server_os":"Linux","password":true,"vac":true,"version":"7708610","steam_id":85568392924515191,"keywords":["nocrits","nodmgspread","payload","uncletopia"],"game_id":440,"stv_port":27036,"stv_name":"Uncletopia | Chicago | 3 | All Maps | STV","players":[{"user_id":326,"name":"blob","steam_id":76561198122375328,"connected_time":1530000000000,"state":"active","ping":54},{"user_id":333,"name":"BayanTheBear","steam_id":76561198134537476,"connected_time":1109000000000,"state":"active","ping":72},{"user_id":292,"name":"The Potato Romancer","steam_id":76561198204197648,"connected_time":3891000000000,"state":"active","ping":83},{"user_id":322,"name":"A tree","steam_id":76561198309065247,"connected_time":1980000000000,"state":"active","ping":48},{"user_id":312,"name":"Goldblock369837","steam_id":76561198405515937,"connected_time":3016000000000,"state":"active","ping":76},{"user_id":319,"name":"Splinto","steam_id":76561198111260488,"connected_time":2378000000000,"state":"active","ping":49},{"user_id":354,"name":"Maxxycat","steam_id":76561198194062681,"connected_time":9000000000,"state":"active","ping":123},{"user_id":334,"name":"Evil clown","steam_id":76561199229169396,"connected_time":1069000000000,"state":"active","ping":65},{"user_id":346,"name":"Rari","steam_id":76561198128537564,"connected_time":743000000000,"state":"active","ping":46},{"user_id":349,"name":"zzz","steam_id":76561198351895498,"connected_time":679000000000,"state":"active","ping":64},{"user_id":309,"name":"Santa","steam_id":76561198044130442,"connected_time":3432000000000,"state":"active","ping":66},{"user_id":352,"name":"Spike","steam_id":76561198141356571,"connected_time":448000000000,"state":"active","ping":64},{"user_id":179,"name":"Soap Man","steam_id":76561198000490235,"connected_time":12723000000000,"state":"active","ping":108},{"user_id":351,"name":"lvl 10 mage","steam_id":76561198054544579,"connected_time":525000000000,"state":"active","ping":66},{"user_id":337,"name":"poey","steam_id":76561198865346767,"connected_time":998000000000,"state":"active","ping":95},{"user_id":327,"name":"McGangBang","steam_id":76561198862379865,"connected_time":1518000000000,"state":"active","ping":52},{"user_id":350,"name":"Rukks","steam_id":76561197993918954,"connected_time":546000000000,"state":"active","ping":67},{"user_id":338,"name":"amity✿","steam_id":76561198039506482,"connected_time":951000000000,"state":"active","ping":59},{"user_id":353,"name":"Sarbanes-Oxley","steam_id":76561197975898479,"connected_time":345000000000,"state":"active","ping":72},{"user_id":345,"name":"Demopan","steam_id":76561199053447896,"connected_time":860000000000,"state":"active","ping":82},{"user_id":341,"name":"Alex","steam_id":76561198135553277,"connected_time":939000000000,"state":"active","ping":59},{"user_id":343,"name":"Pika","steam_id":76561198068063436,"connected_time":924000000000,"state":"active","ping":47},{"user_id":348,"name":"Z4","steam_id":76561198300062365,"connected_time":742000000000,"state":"active","ping":73}]},{"server_id":403,"name":"Uncletopia | Chicago | 4 | All Maps","name_short":"chi-4","host":"chi-1.us.uncletopia.com","port":27045,"enabled":true,"region":"us-central","cc":"us","latitude":41.881832,"longitude":-87.62318,"reserved":0,"last_update":"0001-01-01T00:00:00Z","name_a2s":"Uncletopia | Chicago | 4 | All Maps","protocol":17,"map":"cp_altitude","folder":"tf","game":"Team Fortress","app_id":440,"player_count":1,"max_players":24,"Bots":0,"server_type":"Dedicated","server_os":"Linux","password":true,"vac":true,"version":"7708610","steam_id":85568392924515193,"keywords":["cp","nocrits","nodmgspread","uncletopia"],"game_id":440,"stv_port":27046,"stv_name":"Uncletopia | Chicago | 4 | All Maps | STV","players":[{"user_id":286,"name":"Allround2472","steam_id":76561199415662603,"connected_time":502000000000,"state":"active","ping":70}]},{"server_id":36,"name":"Uncletopia | Chicago | 5 | All Maps","name_short":"chi-5","host":"chi-2.us.uncletopia.com","port":27015,"enabled":true,"region":"us-central","cc":"us","latitude":41.881832,"longitude":-87.62318,"reserved":0,"last_update":"0001-01-01T00:00:00Z","name_a2s":"Uncletopia | Chicago | 5 | All Maps","protocol":17,"map":"koth_cascade","folder":"tf","game":"Team Fortress","app_id":440,"player_count":0,"max_players":24,"Bots":0,"server_type":"Dedicated","server_os":"Linux","password":true,"vac":true,"version":"7708610","steam_id":85568392924866362,"keywords":["cp","nocrits","nodmgspread","uncletopia"],"game_id":440,"stv_port":27016,"stv_name":"Uncletopia | Chicago | 5 | All Maps | STV","players":null},{"server_id":37,"name":"Uncletopia | Chicago | 6 | All Maps","name_short":"chi-6","host":"chi-2.us.uncletopia.com","port":27025,"enabled":true,"region":"us-central","cc":"us","latitude":41.881832,"longitude":-87.62318,"reserved":0,"last_update":"0001-01-01T00:00:00Z","name_a2s":"Uncletopia | Chicago | 6 | All Maps","protocol":17,"map":"pl_frontier_final","folder":"tf","game":"Team Fortress","app_id":440,"player_count":24,"max_players":24,"Bots":0,"server_type":"Dedicated","server_os":"Linux","password":true,"vac":true,"version":"7708610","steam_id":85568392924866363,"keywords":["nocrits","nodmgspread","payload","uncletopia"],"game_id":440,"stv_port":27026,"stv_name":"Uncletopia | Chicago | 6 | All Maps | STV","players":[{"user_id":138,"name":"KevCraft","steam_id":76561199000622939,"connected_time":1487000000000,"state":"active","ping":66},{"user_id":139,"name":"Squirt Magnet","steam_id":76561198194491426,"connected_time":1471000000000,"state":"active","ping":53},{"user_id":140,"name":"Jiggie","steam_id":76561198018134884,"connected_time":1462000000000,"state":"active","ping":149},{"user_id":112,"name":"Lohskyl","steam_id":76561199193237621,"connected_time":2436000000000,"state":"active","ping":53},{"user_id":141,"name":"Shun Rosen","steam_id":76561198012823909,"connected_time":1444000000000,"state":"active","ping":61},{"user_id":142,"name":"The Bread.","steam_id":76561199400940125,"connected_time":1426000000000,"state":"active","ping":91},{"user_id":143,"name":"math","steam_id":76561198092542997,"connected_time":1388000000000,"state":"active","ping":66},{"user_id":146,"name":"catgirl","steam_id":76561198020736672,"connected_time":1212000000000,"state":"active","ping":72},{"user_id":117,"name":"Pierce","steam_id":76561198043747953,"connected_time":2199000000000,"state":"active","ping":59},{"user_id":148,"name":"supcupman","steam_id":76561198051513866,"connected_time":1186000000000,"state":"active","ping":117},{"user_id":118,"name":"Aristotle Voulton","steam_id":76561198100174923,"connected_time":2175000000000,"state":"active","ping":117},{"user_id":185,"name":"Money Collector","steam_id":76561198046249467,"connected_time":224000000000,"state":"active","ping":56},{"user_id":94,"name":"Goofball","steam_id":76561198061211537,"connected_time":3166000000000,"state":"active","ping":60},{"user_id":151,"name":"crabapples","steam_id":76561198075818655,"connected_time":1103000000000,"state":"active","ping":67},{"user_id":120,"name":"DS8U","steam_id":76561198151554321,"connected_time":2117000000000,"state":"active","ping":57},{"user_id":150,"name":"kasper","steam_id":76561198263271697,"connected_time":1127000000000,"state":"active","ping":40},{"user_id":121,"name":"Luis wid a mic","steam_id":76561198349570006,"connected_time":2113000000000,"state":"active","ping":59},{"user_id":155,"name":"Miner2495","steam_id":76561198445904523,"connected_time":1030000000000,"state":"active","ping":67},{"user_id":122,"name":"❤ Ashley ❤","steam_id":76561198056428303,"connected_time":2107000000000,"state":"active","ping":99},{"user_id":152,"name":"ジビ300","steam_id":76561198015248876,"connected_time":1055000000000,"state":"active","ping":132},{"user_id":153,"name":"NeverClock","steam_id":76561199088852841,"connected_time":1041000000000,"state":"active","ping":73},{"user_id":156,"name":"Nekrotic","steam_id":76561198309465586,"connected_time":953000000000,"state":"active","ping":88},{"user_id":178,"name":"Pimpin' Aint Easy","steam_id":76561198228972504,"connected_time":413000000000,"state":"active","ping":70},{"user_id":191,"name":"NotEngineer","steam_id":76561198040138739,"connected_time":48000000000,"state":"spawning","ping":76}]},{"server_id":38,"name":"Uncletopia | Chicago | 7 | No Payload","name_short":"chi-7","host":"chi-2.us.uncletopia.com","port":27035,"enabled":true,"region":"us-central","cc":"us","latitude":41.881832,"longitude":-87.62318,"reserved":0,"last_update":"0001-01-01T00:00:00Z","name_a2s":"Uncletopia | Chicago | 7 | No Payload","protocol":17,"map":"cp_badlands","folder":"tf","game":"Team Fortress","app_id":440,"player_count":7,"max_players":24,"Bots":0,"server_type":"Dedicated","server_os":"Linux","password":true,"vac":true,"version":"7708610","steam_id":85568392924866364,"keywords":["cp","nocrits","nodmgspread","uncletopia"],"game_id":440,"stv_port":27036,"stv_name":"Uncletopia | Chicago | 7 | No Payload | STV","players":[{"user_id":207,"name":"Jimjohn","steam_id":76561198018654088,"connected_time":1021000000000,"state":"active","ping":55},{"user_id":208,"name":"Kodsix","steam_id":76561198190470643,"connected_time":840000000000,"state":"active","ping":137},{"user_id":214,"name":"Gibus Frog","steam_id":76561198824290429,"connected_time":72000000000,"state":"active","ping":61},{"user_id":209,"name":"daBaby","steam_id":76561198108365570,"connected_time":817000000000,"state":"active","ping":67},{"user_id":211,"name":"Nick","steam_id":76561198144448144,"connected_time":431000000000,"state":"active","ping":51},{"user_id":212,"name":"leonardo doujinshi","steam_id":76561198025810326,"connected_time":348000000000,"state":"active","ping":51},{"user_id":203,"name":"aqua","steam_id":76561199407709552,"connected_time":1622000000000,"state":"active","ping":43}]},{"server_id":39,"name":"Uncletopia | Chicago | 8 | Community","name_short":"chi-8","host":"chi-2.us.uncletopia.com","port":27045,"enabled":true,"region":"us-central","cc":"us","latitude":41.881832,"longitude":-87.62318,"reserved":0,"last_update":"0001-01-01T00:00:00Z","name_a2s":"Uncletopia | Chicago | 8 | Community","protocol":17,"map":"workshop/cp_reckoner_rc6.ugc674719999","folder":"tf","game":"Team Fortress","app_id":440,"player_count":0,"max_players":24,"Bots":0,"server_type":"Dedicated","server_os":"Linux","password":true,"vac":true,"version":"7708610","steam_id":85568392924866365,"keywords":["cp","nocrits","nodmgspread","uncletopia"],"game_id":440,"stv_port":27046,"stv_name":"Uncletopia | Chicago | 8 | Community | STV","players":null},{"server_id":8,"name":"Uncletopia | Dallas | 1 | All Maps","name_short":"dal-1","host":"dal-1.us.uncletopia.com","port":27015,"enabled":true,"region":"us-central","cc":"us","latitude":32.779167,"longitude":-96.80889,"reserved":0,"last_update":"0001-01-01T00:00:00Z","name_a2s":"Uncletopia | Dallas | 1 | All Maps","protocol":17,"map":"pl_thundermountain","folder":"tf","game":"Team Fortress","app_id":440,"player_count":24,"max_players":24,"Bots":0,"server_type":"Dedicated","server_os":"Linux","password":true,"vac":true,"version":"7708610","steam_id":85568392924469986,"keywords":["nocrits","nodmgspread","payload","uncletopia"],"game_id":440,"stv_port":27016,"stv_name":"Uncletopia | Dallas | 1 | All Maps | STV","players":[{"user_id":650,"name":"Taco","steam_id":76561198158621392,"connected_time":28000000000,"state":"active","ping":106},{"user_id":625,"name":"Turtle","steam_id":76561198262110064,"connected_time":2257000000000,"state":"active","ping":71},{"user_id":627,"name":"amagicowl","steam_id":76561199060487814,"connected_time":2123000000000,"state":"active","ping":70},{"user_id":647,"name":"Pessimystic","steam_id":76561199081761364,"connected_time":518000000000,"state":"active","ping":112},{"user_id":636,"name":"The CEO of cement","steam_id":76561199107177460,"connected_time":1620000000000,"state":"active","ping":85},{"user_id":600,"name":"SpinnerSpecial","steam_id":76561198065661869,"connected_time":4188000000000,"state":"active","ping":136},{"user_id":622,"name":"DrD","steam_id":76561198067266383,"connected_time":2517000000000,"state":"active","ping":86},{"user_id":575,"name":"spot","steam_id":76561198151135298,"connected_time":6931000000000,"state":"active","ping":61},{"user_id":641,"name":"l0s","steam_id":76561198994761483,"connected_time":917000000000,"state":"active","ping":117},{"user_id":631,"name":"Rusty","steam_id":76561198056557928,"connected_time":2038000000000,"state":"active","ping":47},{"user_id":642,"name":"sithreis","steam_id":76561198000564263,"connected_time":903000000000,"state":"active","ping":67},{"user_id":643,"name":"java","steam_id":76561198030276792,"connected_time":898000000000,"state":"active","ping":55},{"user_id":648,"name":"Mecha_pug","steam_id":76561198856242434,"connected_time":415000000000,"state":"active","ping":54},{"user_id":588,"name":"船尾","steam_id":76561198128764422,"connected_time":5694000000000,"state":"active","ping":85},{"user_id":644,"name":"AlecTheNefarious","steam_id":76561198035291230,"connected_time":897000000000,"state":"active","ping":46},{"user_id":572,"name":"Marc Antony","steam_id":76561198011366517,"connected_time":7578000000000,"state":"active","ping":75},{"user_id":614,"name":"Bob Ross","steam_id":76561198932623728,"connected_time":3391000000000,"state":"active","ping":75},{"user_id":638,"name":"lauren/","steam_id":76561198048745798,"connected_time":1573000000000,"state":"active","ping":75},{"user_id":645,"name":"seaneneh","steam_id":76561198354473513,"connected_time":897000000000,"state":"active","ping":75},{"user_id":599,"name":"cup","steam_id":76561198121245586,"connected_time":4226000000000,"state":"active","ping":87},{"user_id":611,"name":"Bringer of Gibbs","steam_id":76561198035700041,"connected_time":3555000000000,"state":"active","ping":97},{"user_id":649,"name":"Drilly22","steam_id":76561198068838338,"connected_time":174000000000,"state":"active","ping":78},{"user_id":621,"name":"AlvWhispery","steam_id":76561198850017423,"connected_time":2551000000000,"state":"active","ping":81},{"user_id":646,"name":"mentally strange","steam_id":76561198106690989,"connected_time":874000000000,"state":"active","ping":90}]},{"server_id":108,"name":"Uncletopia | Dallas | 2 | All Maps","name_short":"dal-2","host":"dal-1.us.uncletopia.com","port":27025,"enabled":true,"region":"us-central","cc":"us","latitude":32.779167,"longitude":-96.80889,"reserved":0,"last_update":"0001-01-01T00:00:00Z","name_a2s":"Uncletopia | Dallas | 2 | All Maps","protocol":17,"map":"pl_upward","folder":"tf","game":"Team Fortress","app_id":440,"player_count":24,"max_players":24,"Bots":0,"server_type":"Dedicated","server_os":"Linux","password":true,"vac":true,"version":"7708610","steam_id":85568392924469988,"keywords":["nocrits","nodmgspread","payload","uncletopia"],"game_id":440,"stv_port":27026,"stv_name":"Uncletopia | Dallas | 2 | All Maps | STV","players":[{"user_id":83,"name":"HyperOrange|#SaveTF2","steam_id":76561198068071327,"connected_time":1722000000000,"state":"active","ping":86},{"user_id":95,"name":"Klip","steam_id":76561198316254429,"connected_time":624000000000,"state":"active","ping":58},{"user_id":103,"name":"Krow","steam_id":76561198010392099,"connected_time":325000000000,"state":"active","ping":52},{"user_id":96,"name":"Gelliterate","steam_id":76561198107233070,"connected_time":619000000000,"state":"active","ping":53},{"user_id":72,"name":"Prenican","steam_id":76561199078104409,"connected_time":2213000000000,"state":"active","ping":87},{"user_id":97,"name":"Scum Knight","steam_id":76561198282444763,"connected_time":603000000000,"state":"active","ping":88},{"user_id":102,"name":"Super3D","steam_id":76561199297779078,"connected_time":395000000000,"state":"active","ping":52},{"user_id":92,"name":"menarestrongersowhat","steam_id":76561198164405201,"connected_time":944000000000,"state":"active","ping":84},{"user_id":99,"name":"A Can of Arizona Green Tea","steam_id":76561198062481133,"connected_time":574000000000,"state":"active","ping":69},{"user_id":68,"name":"Polygunner","steam_id":76561199165741650,"connected_time":2280000000000,"state":"active","ping":96},{"user_id":51,"name":"Vero","steam_id":76561198183369559,"connected_time":3314000000000,"state":"active","ping":75},{"user_id":52,"name":"grifwich","steam_id":76561197982380250,"connected_time":3297000000000,"state":"active","ping":83},{"user_id":53,"name":"Windmills","steam_id":76561198035299715,"connected_time":3291000000000,"state":"active","ping":90},{"user_id":69,"name":"pomp","steam_id":76561198387521850,"connected_time":2273000000000,"state":"active","ping":97},{"user_id":55,"name":"Mr. Dr. Proffessor Patrick","steam_id":76561198025706190,"connected_time":3280000000000,"state":"active","ping":77},{"user_id":56,"name":"Dealyo","steam_id":76561198282395338,"connected_time":3215000000000,"state":"active","ping":93},{"user_id":79,"name":"Agent Q","steam_id":76561198830829003,"connected_time":1848000000000,"state":"active","ping":102},{"user_id":84,"name":"177013","steam_id":76561198072303290,"connected_time":1708000000000,"state":"active","ping":93},{"user_id":71,"name":"Delightfully Devilish","steam_id":76561198142108739,"connected_time":2231000000000,"state":"active","ping":56},{"user_id":73,"name":"Jousty","steam_id":76561199162677853,"connected_time":2127000000000,"state":"active","ping":102},{"user_id":100,"name":"jumboxcoco","steam_id":76561199086049988,"connected_time":572000000000,"state":"active","ping":68},{"user_id":75,"name":"Puppeteerxerxes","steam_id":76561197991780208,"connected_time":2091000000000,"state":"active","ping":69},{"user_id":85,"name":"Just_Gas","steam_id":76561198123082220,"connected_time":1706000000000,"state":"active","ping":60},{"user_id":101,"name":"izalix","steam_id":76561199394529617,"connected_time":570000000000,"state":"active","ping":87}]},{"server_id":5,"name":"Uncletopia | Frankfurt | 1 | All Maps","name_short":"frk-1","host":"frk-1.de.uncletopia.com","port":27015,"enabled":true,"region":"eu","cc":"de","latitude":50.110924,"longitude":8.682127,"reserved":0,"last_update":"0001-01-01T00:00:00Z","name_a2s":"Uncletopia | Frankfurt | 1 | All Maps","protocol":17,"map":"koth_lakeside_final","folder":"tf","game":"Team Fortress","app_id":440,"player_count":0,"max_players":24,"Bots":0,"server_type":"Dedicated","server_os":"Linux","password":true,"vac":true,"version":"7708610","steam_id":85568392924469989,"keywords":["cp","nocrits","nodmgspread","uncletopia"],"game_id":440,"stv_port":27016,"stv_name":"Uncletopia | Frankfurt | 1 | All Maps | STV","players":null},{"server_id":110,"name":"Uncletopia | Frankfurt | 2 | All Maps","name_short":"frk-2","host":"frk-1.de.uncletopia.com","port":27025,"enabled":true,"region":"eu","cc":"de","latitude":50.110924,"longitude":8.682127,"reserved":0,"last_update":"0001-01-01T00:00:00Z","name_a2s":"Uncletopia | Frankfurt | 2 | All Maps","protocol":17,"map":"cp_sunshine","folder":"tf","game":"Team Fortress","app_id":440,"player_count":0,"max_players":24,"Bots":0,"server_type":"Dedicated","server_os":"Linux","password":true,"vac":true,"version":"7708610","steam_id":85568392924469990,"keywords":["cp","nocrits","nodmgspread","uncletopia"],"game_id":440,"stv_port":27026,"stv_name":"Uncletopia | Frankfurt | 2 | All Maps | STV","players":null},{"server_id":308,"name":"Uncletopia | Frankfurt | 3 | All Maps","name_short":"frk-3","host":"frk-1.de.uncletopia.com","port":27035,"enabled":true,"region":"eu","cc":"de","latitude":50.110924,"longitude":8.682127,"reserved":0,"last_update":"0001-01-01T00:00:00Z","name_a2s":"Uncletopia | Frankfurt | 3 | All Maps","protocol":17,"map":"koth_cascade","folder":"tf","game":"Team Fortress","app_id":440,"player_count":0,"max_players":24,"Bots":0,"server_type":"Dedicated","server_os":"Linux","password":true,"vac":true,"version":"7708610","steam_id":85568392924504274,"keywords":["cp","nocrits","nodmgspread","uncletopia"],"game_id":440,"stv_port":27036,"stv_name":"Uncletopia | Frankfurt | 3 | All Maps | STV","players":null},{"server_id":309,"name":"Uncletopia | Frankfurt | 4 | All Maps","name_short":"frk-4","host":"frk-1.de.uncletopia.com","port":27045,"enabled":true,"region":"eu","cc":"de","latitude":50.110924,"longitude":8.682127,"reserved":0,"last_update":"0001-01-01T00:00:00Z","name_a2s":"Uncletopia | Frankfurt | 4 | All Maps","protocol":17,"map":"koth_cascade","folder":"tf","game":"Team Fortress","app_id":440,"player_count":0,"max_players":24,"Bots":0,"server_type":"Dedicated","server_os":"Linux","password":true,"vac":true,"version":"7708610","steam_id":85568392924504275,"keywords":["cp","nocrits","nodmgspread","uncletopia"],"game_id":440,"stv_port":27046,"stv_name":"Uncletopia | Frankfurt | 4 | All Maps | STV","players":null},{"server_id":310,"name":"Uncletopia | Frankfurt | 5 | All Maps","name_short":"frk-5","host":"frk-1.de.uncletopia.com","port":27055,"enabled":true,"region":"eu","cc":"de","latitude":50.110924,"longitude":8.682127,"reserved":0,"last_update":"0001-01-01T00:00:00Z","name_a2s":"Uncletopia | Frankfurt | 5 | All Maps","protocol":17,"map":"cp_process_final","folder":"tf","game":"Team Fortress","app_id":440,"player_count":0,"max_players":24,"Bots":0,"server_type":"Dedicated","server_os":"Linux","password":true,"vac":true,"version":"7708610","steam_id":85568392924504277,"keywords":["cp","nocrits","nodmgspread","uncletopia"],"game_id":440,"stv_port":27056,"stv_name":"Uncletopia | Frankfurt | 5 | All Maps | STV","players":null},{"server_id":311,"name":"Uncletopia | Frankfurt | 6 | All Maps","name_short":"frk-6","host":"frk-1.de.uncletopia.com","port":27065,"enabled":true,"region":"eu","cc":"de","latitude":50.110924,"longitude":8.682127,"reserved":0,"last_update":"0001-01-01T00:00:00Z","name_a2s":"Uncletopia | Frankfurt | 6 | All Maps","protocol":17,"map":"koth_cascade","folder":"tf","game":"Team Fortress","app_id":440,"player_count":0,"max_players":24,"Bots":0,"server_type":"Dedicated","server_os":"Linux","password":true,"vac":true,"version":"7708610","steam_id":85568392924504278,"keywords":["cp","nocrits","nodmgspread","uncletopia"],"game_id":440,"stv_port":27066,"stv_name":"Uncletopia | Frankfurt | 6 | All Maps | STV","players":null},{"server_id":23,"name":"Uncletopia | Frankfurt | 7 | No Payload","name_short":"frk-7","host":"frk-1.de.uncletopia.com","port":27075,"enabled":true,"region":"eu","cc":"de","latitude":50.110924,"longitude":8.682127,"reserved":0,"last_update":"0001-01-01T00:00:00Z","name_a2s":"Uncletopia | Frankfurt | 7 | No Payload","protocol":17,"map":"koth_cascade","folder":"tf","game":"Team Fortress","app_id":440,"player_count":0,"max_players":24,"Bots":0,"server_type":"Dedicated","server_os":"Linux","password":true,"vac":true,"version":"7708610","steam_id":85568392924742827,"keywords":["cp","nocrits","nodmgspread","uncletopia"],"game_id":440,"stv_port":27076,"stv_name":"Uncletopia | Frankfurt | 7 | No Payload | STV","players":null},{"server_id":24,"name":"Uncletopia | Frankfurt | 8 | Community","name_short":"frk-8","host":"frk-1.de.uncletopia.com","port":27085,"enabled":true,"region":"eu","cc":"de","latitude":50.110924,"longitude":8.682127,"reserved":0,"last_update":"0001-01-01T00:00:00Z","name_a2s":"Uncletopia | Frankfurt | 8 | Community","protocol":17,"map":"workshop/koth_ramjam_v2_b2.ugc2865676487","folder":"tf","game":"Team Fortress","app_id":440,"player_count":0,"max_players":24,"Bots":0,"server_type":"Dedicated","server_os":"Linux","password":true,"vac":true,"version":"7708610","steam_id":85568392924742828,"keywords":["cp","nocrits","nodmgspread","uncletopia"],"game_id":440,"stv_port":27086,"stv_name":"Uncletopia | Frankfurt | 8 | Community | STV","players":null},{"server_id":202,"name":"Uncletopia | Hong Kong | 1 | All Maps","name_short":"hgk-1","host":"hgk-1.hk.uncletopia.com","port":27015,"enabled":true,"region":"asia","cc":"hk","latitude":22.302711,"longitude":114.177216,"reserved":0,"last_update":"0001-01-01T00:00:00Z","name_a2s":"Uncletopia | Hong Kong | 1 | All Maps","protocol":17,"map":"cp_steel","folder":"tf","game":"Team Fortress","app_id":440,"player_count":22,"max_players":24,"Bots":0,"server_type":"Dedicated","server_os":"Linux","password":true,"vac":true,"version":"7708610","steam_id":85568392924494504,"keywords":["cp","nocrits","nodmgspread","uncletopia"],"game_id":440,"stv_port":27016,"stv_name":"Uncletopia | Hong Kong | 1 | All Maps | STV","players":[{"user_id":170,"name":"This is Elon Musk","steam_id":76561198429235506,"connected_time":1834000000000,"state":"active","ping":76},{"user_id":187,"name":"bonito borzoi","steam_id":76561198230213828,"connected_time":162000000000,"state":"active","ping":68},{"user_id":176,"name":"cjjakeypaul","steam_id":76561199126245431,"connected_time":1279000000000,"state":"active","ping":63},{"user_id":139,"name":"max121357","steam_id":76561199280466437,"connected_time":3392000000000,"state":"active","ping":101},{"user_id":153,"name":"The11thprince","steam_id":76561199186626908,"connected_time":2470000000000,"state":"active","ping":93},{"user_id":177,"name":"ɔuᗡඞ ɟƨuᒐ","steam_id":76561199031283970,"connected_time":1222000000000,"state":"active","ping":72},{"user_id":188,"name":"zdosz1964","steam_id":76561198967055355,"connected_time":158000000000,"state":"active","ping":76},{"user_id":131,"name":"MS PowerPoint","steam_id":76561198369523192,"connected_time":3801000000000,"state":"active","ping":59},{"user_id":180,"name":"Giouri","steam_id":76561199152247162,"connected_time":993000000000,"state":"active","ping":81},{"user_id":178,"name":"Noyour","steam_id":76561198323259830,"connected_time":1033000000000,"state":"active","ping":113},{"user_id":141,"name":"o2","steam_id":76561199262570913,"connected_time":3145000000000,"state":"active","ping":75},{"user_id":189,"name":"bad at everything","steam_id":76561199378524169,"connected_time":156000000000,"state":"active","ping":66},{"user_id":192,"name":"sett.","steam_id":76561199010718657,"connected_time":91000000000,"state":"active","ping":76},{"user_id":174,"name":"RandomGuy1085","steam_id":76561199053910995,"connected_time":1478000000000,"state":"active","ping":94},{"user_id":109,"name":"ASVAL IS BEST GRILL","steam_id":76561198413260375,"connected_time":5000000000000,"state":"active","ping":48},{"user_id":183,"name":"uptriste","steam_id":76561198158666692,"connected_time":580000000000,"state":"active","ping":39},{"user_id":143,"name":"niceguy6785","steam_id":76561199442589750,"connected_time":3059000000000,"state":"active","ping":64},{"user_id":164,"name":"mubkeEp","steam_id":76561197999099632,"connected_time":1996000000000,"state":"active","ping":72},{"user_id":184,"name":"Momoxhien","steam_id":76561198414997429,"connected_time":173000000000,"state":"active","ping":55},{"user_id":191,"name":"Hallucates","steam_id":76561198872636453,"connected_time":140000000000,"state":"active","ping":98},{"user_id":193,"name":"GentleSeal","steam_id":76561198261504777,"connected_time":17000000000,"state":"active","ping":86},{"user_id":182,"name":"LumpyMoose","steam_id":76561199109345936,"connected_time":902000000000,"state":"active","ping":92}]},{"server_id":1,"name":"Uncletopia | Los Angeles | 1 | All Maps","name_short":"lax-1","host":"lax-1.us.uncletopia.com","port":27015,"enabled":true,"region":"us-west","cc":"us","latitude":33.94279,"longitude":-118.41004,"reserved":0,"last_update":"0001-01-01T00:00:00Z","name_a2s":"Uncletopia | Los Angeles | 1 | All Maps","protocol":17,"map":"cp_mountainlab","folder":"tf","game":"Team Fortress","app_id":440,"player_count":0,"max_players":24,"Bots":0,"server_type":"Dedicated","server_os":"Linux","password":true,"vac":true,"version":"7708610","steam_id":85568392924469991,"keywords":["cp","nocrits","nodmgspread","uncletopia"],"game_id":440,"stv_port":27016,"stv_name":"Uncletopia | Los Angeles | 1 | All Maps | STV","players":null},{"server_id":112,"name":"Uncletopia | Los Angeles | 2 | All Maps","name_short":"lax-2","host":"lax-1.us.uncletopia.com","port":27025,"enabled":true,"region":"us-west","cc":"us","latitude":33.94279,"longitude":-118.41004,"reserved":0,"last_update":"0001-01-01T00:00:00Z","name_a2s":"Uncletopia | Los Angeles | 2 | All Maps","protocol":17,"map":"pl_chilly","folder":"tf","game":"Team Fortress","app_id":440,"player_count":0,"max_players":24,"Bots":0,"server_type":"Dedicated","server_os":"Linux","password":true,"vac":true,"version":"7708610","steam_id":85568392924469992,"keywords":["nocrits","nodmgspread","payload","uncletopia"],"game_id":440,"stv_port":27026,"stv_name":"Uncletopia | Los Angeles | 2 | All Maps | STV","players":null},{"server_id":324,"name":"Uncletopia | Los Angeles | 3 | All Maps","name_short":"lax-3","host":"lax-1.us.uncletopia.com","port":27035,"enabled":true,"region":"us-west","cc":"us","latitude":33.94279,"longitude":-118.41004,"reserved":0,"last_update":"0001-01-01T00:00:00Z","name_a2s":"Uncletopia | Los Angeles | 3 | All Maps","protocol":17,"map":"koth_highpass","folder":"tf","game":"Team Fortress","app_id":440,"player_count":6,"max_players":24,"Bots":0,"server_type":"Dedicated","server_os":"Linux","password":true,"vac":true,"version":"7708610","steam_id":85568392924510198,"keywords":["cp","nocrits","nodmgspread","uncletopia"],"game_id":440,"stv_port":27036,"stv_name":"Uncletopia | Los Angeles | 3 | All Maps | STV","players":[{"user_id":6,"name":"SquidJesus","steam_id":76561198042184008,"connected_time":2013000000000,"state":"active","ping":75},{"user_id":7,"name":"heakman","steam_id":76561198159882084,"connected_time":2007000000000,"state":"active","ping":58},{"user_id":8,"name":"TheCollector","steam_id":76561198127103343,"connected_time":1988000000000,"state":"active","ping":74},{"user_id":17,"name":"SP1K3D_0UT","steam_id":76561199068612542,"connected_time":160000000000,"state":"active","ping":37},{"user_id":18,"name":"Mom","steam_id":76561198207936000,"connected_time":83000000000,"state":"active","ping":41}]},{"server_id":25,"name":"Uncletopia | Los Angeles | 4 | No Payload","name_short":"lax-4","host":"lax-1.us.uncletopia.com","port":27045,"enabled":true,"region":"us-west","cc":"us","latitude":33.94279,"longitude":-118.41004,"reserved":0,"last_update":"0001-01-01T00:00:00Z","name_a2s":"Uncletopia | Los Angeles | 4 | No Payload","protocol":17,"map":"koth_suijin","folder":"tf","game":"Team Fortress","app_id":440,"player_count":0,"max_players":24,"Bots":0,"server_type":"Dedicated","server_os":"Linux","password":true,"vac":true,"version":"7708610","steam_id":85568392924510199,"keywords":["cp","nocrits","nodmgspread","uncletopia"],"game_id":440,"stv_port":27046,"stv_name":"Uncletopia | Los Angeles | 4 | No Payload | STV","players":null},{"server_id":11,"name":"Uncletopia | London | 1 | All Maps","name_short":"lon-1","host":"lon-1.uk.uncletopia.com","port":27015,"enabled":true,"region":"eu","cc":"gb","latitude":51.509865,"longitude":-0.118092,"reserved":0,"last_update":"0001-01-01T00:00:00Z","name_a2s":"Uncletopia | London | 1 | All Maps","protocol":17,"map":"koth_harvest_final","folder":"tf","game":"Team Fortress","app_id":440,"player_count":0,"max_players":24,"Bots":0,"server_type":"Dedicated","server_os":"Linux","password":true,"vac":true,"version":"7708610","steam_id":85568392924367362,"keywords":["cp","nocrits","nodmgspread","uncletopia"],"game_id":440,"stv_port":27016,"stv_name":"Uncletopia | London | 1 | All Maps | STV","players":null},{"server_id":114,"name":"Uncletopia | London | 2 | All Maps","name_short":"lon-2","host":"lon-1.uk.uncletopia.com","port":27025,"enabled":true,"region":"eu","cc":"gb","latitude":51.509865,"longitude":-0.118092,"reserved":0,"last_update":"0001-01-01T00:00:00Z","name_a2s":"Uncletopia | London | 2 | All Maps","protocol":17,"map":"koth_lakeside_final","folder":"tf","game":"Team Fortress","app_id":440,"player_count":0,"max_players":24,"Bots":0,"server_type":"Dedicated","server_os":"Linux","password":true,"vac":true,"version":"7708610","steam_id":85568392924470941,"keywords":["cp","nocrits","nodmgspread","uncletopia"],"game_id":440,"stv_port":27026,"stv_name":"Uncletopia | London | 2 | All Maps | STV","players":null},{"server_id":320,"name":"Uncletopia | London | 3 | All Maps","name_short":"lon-3","host":"lon-1.uk.uncletopia.com","port":27035,"enabled":true,"region":"eu","cc":"gb","latitude":51.509865,"longitude":-0.118092,"reserved":0,"last_update":"0001-01-01T00:00:00Z","name_a2s":"Uncletopia | London | 3 | All Maps","protocol":17,"map":"pl_pier","folder":"tf","game":"Team Fortress","app_id":440,"player_count":0,"max_players":24,"Bots":0,"server_type":"Dedicated","server_os":"Linux","password":true,"vac":true,"version":"7708610","steam_id":85568392924510192,"keywords":["nocrits","nodmgspread","payload","uncletopia"],"game_id":440,"stv_port":27036,"stv_name":"Uncletopia | London | 3 | All Maps | STV","players":null},{"server_id":321,"name":"Uncletopia | London | 4 | All Maps","name_short":"lon-4","host":"lon-1.uk.uncletopia.com","port":27045,"enabled":true,"region":"eu","cc":"gb","latitude":51.509865,"longitude":-0.118092,"reserved":0,"last_update":"0001-01-01T00:00:00Z","name_a2s":"Uncletopia | London | 4 | All Maps","protocol":17,"map":"cp_dustbowl","folder":"tf","game":"Team Fortress","app_id":440,"player_count":0,"max_players":24,"Bots":0,"server_type":"Dedicated","server_os":"Linux","password":true,"vac":true,"version":"7708610","steam_id":85568392924510193,"keywords":["cp","nocrits","nodmgspread","uncletopia"],"game_id":440,"stv_port":27046,"stv_name":"Uncletopia | London | 4 | All Maps | STV","players":null},{"server_id":21,"name":"Uncletopia | London | 5 | All Maps","name_short":"lon-5","host":"lon-1.uk.uncletopia.com","port":27055,"enabled":true,"region":"eu","cc":"gb","latitude":51.509865,"longitude":-0.118092,"reserved":0,"last_update":"0001-01-01T00:00:00Z","name_a2s":"Uncletopia | London | 5 | All Maps","protocol":17,"map":"koth_viaduct","folder":"tf","game":"Team Fortress","app_id":440,"player_count":0,"max_players":24,"Bots":0,"server_type":"Dedicated","server_os":"Linux","password":true,"vac":true,"version":"7708610","steam_id":85568392924742829,"keywords":["cp","nocrits","nodmgspread","uncletopia"],"game_id":440,"stv_port":27056,"stv_name":"Uncletopia | London | 5 | All Maps | STV","players":null},{"server_id":22,"name":"Uncletopia | London | 6 | All Maps","name_short":"lon-6","host":"lon-1.uk.uncletopia.com","port":27065,"enabled":true,"region":"eu","cc":"gb","latitude":51.509865,"longitude":-0.118092,"reserved":0,"last_update":"0001-01-01T00:00:00Z","name_a2s":"Uncletopia | London | 6 | All Maps","protocol":17,"map":"koth_highpass","folder":"tf","game":"Team Fortress","app_id":440,"player_count":0,"max_players":24,"Bots":0,"server_type":"Dedicated","server_os":"Linux","password":true,"vac":true,"version":"7708610","steam_id":85568392924742830,"keywords":["cp","nocrits","nodmgspread","uncletopia"],"game_id":440,"stv_port":27066,"stv_name":"Uncletopia | London | 6 | All Maps | STV","players":null},{"server_id":40,"name":"Uncletopia | London | 7 | No Payload","name_short":"lon-7","host":"lon-1.uk.uncletopia.com","port":27075,"enabled":true,"region":"eu","cc":"gb","latitude":51.509865,"longitude":-0.118092,"reserved":0,"last_update":"0001-01-01T00:00:00Z","name_a2s":"Uncletopia | London | 7 | No Payload","protocol":17,"map":"koth_brazil","folder":"tf","game":"Team Fortress","app_id":440,"player_count":0,"max_players":24,"Bots":0,"server_type":"Dedicated","server_os":"Linux","password":true,"vac":true,"version":"7708610","steam_id":85568392924964314,"keywords":["cp","nocrits","nodmgspread","uncletopia"],"game_id":440,"stv_port":27076,"stv_name":"Uncletopia | London | 7 | No Payload | STV","players":null},{"server_id":41,"name":"Uncletopia | London | 8 | Community","name_short":"lon-8","host":"lon-1.uk.uncletopia.com","port":27085,"enabled":true,"region":"eu","cc":"gb","latitude":51.509865,"longitude":-0.118092,"reserved":0,"last_update":"0001-01-01T00:00:00Z","name_a2s":"Uncletopia | London | 8 | Community","protocol":17,"map":"workshop/koth_product_final.ugc454272353","folder":"tf","game":"Team Fortress","app_id":440,"player_count":0,"max_players":24,"Bots":0,"server_type":"Dedicated","server_os":"Linux","password":true,"vac":true,"version":"7708610","steam_id":85568392924964315,"keywords":["cp","nocrits","nodmgspread","uncletopia"],"game_id":440,"stv_port":27086,"stv_name":"Uncletopia | London | 8 | Community | STV","players":null},{"server_id":300,"name":"Uncletopia | Montréal | 1 | All Maps","name_short":"mtl-1","host":"mtl-1.ca.uncletopia.com","port":27015,"enabled":true,"region":"us-east","cc":"ca","latitude":45.50889,"longitude":-73.56167,"reserved":0,"last_update":"0001-01-01T00:00:00Z","name_a2s":"Uncletopia | Montréal | 1 | All Maps","protocol":17,"map":"koth_cascade","folder":"tf","game":"Team Fortress","app_id":440,"player_count":0,"max_players":24,"Bots":0,"server_type":"Dedicated","server_os":"Linux","password":true,"vac":true,"version":"7708610","steam_id":85568392924500087,"keywords":["cp","nocrits","nodmgspread","uncletopia"],"game_id":440,"stv_port":27016,"stv_name":"Uncletopia | Montréal | 1 | All Maps | STV","players":null},{"server_id":301,"name":"Uncletopia | Montréal | 2 | All Maps","name_short":"mtl-2","host":"mtl-1.ca.uncletopia.com","port":27025,"enabled":true,"region":"us-east","cc":"ca","latitude":45.50889,"longitude":-73.56167,"reserved":0,"last_update":"0001-01-01T00:00:00Z","name_a2s":"Uncletopia | Montréal | 2 | All Maps","protocol":17,"map":"koth_viaduct","folder":"tf","game":"Team Fortress","app_id":440,"player_count":0,"max_players":24,"Bots":0,"server_type":"Dedicated","server_os":"Linux","password":true,"vac":true,"version":"7708610","steam_id":85568392924500088,"keywords":["cp","nocrits","nodmgspread","uncletopia"],"game_id":440,"stv_port":27026,"stv_name":"Uncletopia | Montréal | 2 | All Maps | STV","players":null},{"server_id":302,"name":"Uncletopia | Montréal | 3 | All Maps","name_short":"mtl-3","host":"mtl-1.ca.uncletopia.com","port":27035,"enabled":true,"region":"us-east","cc":"ca","latitude":45.50889,"longitude":-73.56167,"reserved":0,"last_update":"0001-01-01T00:00:00Z","name_a2s":"Uncletopia | Montréal | 3 | All Maps","protocol":17,"map":"koth_cascade","folder":"tf","game":"Team Fortress","app_id":440,"player_count":0,"max_players":24,"Bots":0,"server_type":"Dedicated","server_os":"Linux","password":true,"vac":true,"version":"7708610","steam_id":85568392924500089,"keywords":["cp","nocrits","nodmgspread","uncletopia"],"game_id":440,"stv_port":27036,"stv_name":"Uncletopia | Montréal | 3 | All Maps | STV","players":null},{"server_id":303,"name":"Uncletopia | Montréal | 4 | No Payload","name_short":"mtl-4","host":"mtl-1.ca.uncletopia.com","port":27045,"enabled":true,"region":"us-east","cc":"ca","latitude":45.50889,"longitude":-73.56167,"reserved":0,"last_update":"0001-01-01T00:00:00Z","name_a2s":"Uncletopia | Montréal | 4 | No Payload","protocol":17,"map":"pl_frontier_final","folder":"tf","game":"Team Fortress","app_id":440,"player_count":0,"max_players":24,"Bots":0,"server_type":"Dedicated","server_os":"Linux","password":true,"vac":true,"version":"7708610","steam_id":85568392924500090,"keywords":["nocrits","nodmgspread","payload","uncletopia"],"game_id":440,"stv_port":0,"stv_name":"","players":null},{"server_id":13,"name":"Uncletopia | New York City | 1 | All Maps","name_short":"nyc-1","host":"nyc-1.us.uncletopia.com","port":27015,"enabled":true,"region":"us-east","cc":"us","latitude":40.73061,"longitude":-73.93524,"reserved":0,"last_update":"0001-01-01T00:00:00Z","name_a2s":"Uncletopia | New York City | 1 | All Maps","protocol":17,"map":"ctf_snowfall_final","folder":"tf","game":"Team Fortress","app_id":440,"player_count":16,"max_players":24,"Bots":0,"server_type":"Dedicated","server_os":"Linux","password":true,"vac":true,"version":"7708610","steam_id":85568392924469993,"keywords":["ctf","nocrits","nodmgspread","uncletopia"],"game_id":440,"stv_port":27016,"stv_name":"Uncletopia | New York City | 1 | All Maps | STV","players":[{"user_id":587,"name":"Souper Scott","steam_id":76561198045518926,"connected_time":125000000000,"state":"active","ping":68},{"user_id":589,"name":"brerbo","steam_id":76561198080875862,"connected_time":67000000000,"state":"active","ping":55},{"user_id":584,"name":"Skaibae","steam_id":76561198134178824,"connected_time":246000000000,"state":"active","ping":45},{"user_id":497,"name":"DreaMz","steam_id":76561199067623395,"connected_time":3823000000000,"state":"active","ping":52},{"user_id":590,"name":"v⁧otlu","steam_id":76561198211993579,"connected_time":22000000000,"state":"spawning","ping":81},{"user_id":567,"name":"a sleepy weeb","steam_id":76561198118111687,"connected_time":1264000000000,"state":"active","ping":53},{"user_id":573,"name":"I'm Only 4 Inches","steam_id":76561198055542546,"connected_time":790000000000,"state":"active","ping":71},{"user_id":487,"name":"Silver","steam_id":76561198070197504,"connected_time":4767000000000,"state":"active","ping":30},{"user_id":575,"name":"ShaqtusHD","steam_id":76561199138286233,"connected_time":735000000000,"state":"active","ping":57},{"user_id":588,"name":"Shwartzy","steam_id":76561198073927139,"connected_time":118000000000,"state":"active","ping":52},{"user_id":568,"name":"Autumn Clover","steam_id":76561198012295314,"connected_time":1203000000000,"state":"active","ping":56},{"user_id":585,"name":"ZOME","steam_id":76561198098035337,"connected_time":223000000000,"state":"active","ping":62},{"user_id":572,"name":"vloney","steam_id":76561198159667829,"connected_time":1057000000000,"state":"active","ping":49},{"user_id":569,"name":"Dog Goggles","steam_id":76561197995233692,"connected_time":1190000000000,"state":"active","ping":60},{"user_id":582,"name":"Timber","steam_id":76561198024886009,"connected_time":433000000000,"state":"active","ping":79},{"user_id":581,"name":"trash juice","steam_id":76561198206662152,"connected_time":533000000000,"state":"active","ping":82}]},{"server_id":14,"name":"Uncletopia | New York City | 2 | All Maps","name_short":"nyc-2","host":"nyc-1.us.uncletopia.com","port":27025,"enabled":true,"region":"us-east","cc":"us","latitude":40.73061,"longitude":-73.93524,"reserved":0,"last_update":"0001-01-01T00:00:00Z","name_a2s":"Uncletopia | New York City | 2 | All Maps","protocol":17,"map":"koth_highpass","folder":"tf","game":"Team Fortress","app_id":440,"player_count":0,"max_players":24,"Bots":0,"server_type":"Dedicated","server_os":"Linux","password":true,"vac":true,"version":"7708610","steam_id":85568392924469994,"keywords":["cp","nocrits","nodmgspread","uncletopia"],"game_id":440,"stv_port":27026,"stv_name":"Uncletopia | New York City | 2 | All Maps | STV","players":null},{"server_id":15,"name":"Uncletopia | New York City | 3 | All Maps","name_short":"nyc-3","host":"nyc-1.us.uncletopia.com","port":27035,"enabled":true,"region":"us-east","cc":"us","latitude":40.73061,"longitude":-73.93524,"reserved":0,"last_update":"0001-01-01T00:00:00Z","name_a2s":"Uncletopia | New York City | 3 | All Maps","protocol":17,"map":"koth_cascade","folder":"tf","game":"Team Fortress","app_id":440,"player_count":22,"max_players":24,"Bots":0,"server_type":"Dedicated","server_os":"Linux","password":true,"vac":true,"version":"7708610","steam_id":85568392924742820,"keywords":["cp","nocrits","nodmgspread","uncletopia"],"game_id":440,"stv_port":27036,"stv_name":"Uncletopia | New York City | 3 | All Maps | STV","players":[{"user_id":246,"name":"⚡Mr.Muff ლ๊","steam_id":76561198217103553,"connected_time":16000000000,"state":"spawning","ping":78},{"user_id":236,"name":"jaxolotl","steam_id":76561199034893401,"connected_time":569000000000,"state":"active","ping":51},{"user_id":234,"name":"Brumpo Tungus","steam_id":76561198054669779,"connected_time":613000000000,"state":"active","ping":57},{"user_id":160,"name":"it_do_be_ivy","steam_id":76561198077796736,"connected_time":5015000000000,"state":"active","ping":48},{"user_id":219,"name":"Jun Manjoume","steam_id":76561198124040126,"connected_time":1520000000000,"state":"active","ping":60},{"user_id":200,"name":"BigGreenBeast","steam_id":76561199052862674,"connected_time":3478000000000,"state":"active","ping":59},{"user_id":237,"name":"Tourmaline Lazuli","steam_id":76561198987049358,"connected_time":424000000000,"state":"active","ping":70},{"user_id":178,"name":"CamoS1250","steam_id":76561198309917434,"connected_time":4300000000000,"state":"active","ping":80},{"user_id":230,"name":"lilygata","steam_id":76561198042448105,"connected_time":785000000000,"state":"active","ping":175},{"user_id":212,"name":"hippo mode","steam_id":76561198073455521,"connected_time":2128000000000,"state":"active","ping":43},{"user_id":220,"name":"bungle","steam_id":76561198314114834,"connected_time":1500000000000,"state":"active","ping":56},{"user_id":235,"name":"Komuki Tanka","steam_id":76561198076288064,"connected_time":607000000000,"state":"active","ping":167},{"user_id":238,"name":"C20H25N3O","steam_id":76561198976511412,"connected_time":388000000000,"state":"active","ping":69},{"user_id":239,"name":"ringme medic XD","steam_id":76561198094801861,"connected_time":339000000000,"state":"active","ping":84},{"user_id":240,"name":"ow#n","steam_id":76561198048969516,"connected_time":333000000000,"state":"active","ping":78},{"user_id":243,"name":"hemispherectomy","steam_id":76561198119178364,"connected_time":255000000000,"state":"active","ping":71},{"user_id":232,"name":"Quatzar","steam_id":76561199232104247,"connected_time":676000000000,"state":"active","ping":120},{"user_id":223,"name":"goodheartchris","steam_id":76561198045836210,"connected_time":1313000000000,"state":"active","ping":77},{"user_id":244,"name":"moonage72","steam_id":76561199187008629,"connected_time":246000000000,"state":"active","ping":65},{"user_id":203,"name":"Al Michaels","steam_id":76561198071217597,"connected_time":3341000000000,"state":"active","ping":65},{"user_id":216,"name":"eryn 🗺","steam_id":76561198004433070,"connected_time":1850000000000,"state":"active","ping":92},{"user_id":173,"name":"Your Local Jester","steam_id":76561199120223717,"connected_time":4540000000000,"state":"active","ping":63}]},{"server_id":16,"name":"Uncletopia | New York City | 4 | Community","name_short":"nyc-4","host":"nyc-1.us.uncletopia.com","port":27045,"enabled":true,"region":"us-east","cc":"us","latitude":40.73061,"longitude":-73.93524,"reserved":0,"last_update":"0001-01-01T00:00:00Z","name_a2s":"Uncletopia | New York City | 4 | Community","protocol":17,"map":"workshop/koth_bagel_rc5.ugc2514036946","folder":"tf","game":"Team Fortress","app_id":440,"player_count":3,"max_players":24,"Bots":0,"server_type":"Dedicated","server_os":"Linux","password":true,"vac":true,"version":"7708610","steam_id":85568392924742821,"keywords":["cp","nocrits","nodmgspread","uncletopia"],"game_id":440,"stv_port":27046,"stv_name":"Uncletopia | New York City | 4 | Community | STV","players":[{"user_id":13,"name":"No cost too great","steam_id":76561198892462283,"connected_time":831000000000,"state":"active","ping":42},{"user_id":14,"name":"the wutville lawyer (he/him)","steam_id":76561198257531708,"connected_time":773000000000,"state":"active","ping":49},{"user_id":17,"name":"Wutville Chad","steam_id":76561198956422685,"connected_time":550000000000,"state":"active","ping":52}]},{"server_id":142,"name":"Uncletopia | São Paulo | 1 | All Maps","name_short":"sao-1","host":"sao-1.br.uncletopia.com","port":27015,"enabled":true,"region":"sa","cc":"br","latitude":-23.533773,"longitude":-46.62529,"reserved":0,"last_update":"0001-01-01T00:00:00Z","name_a2s":"Uncletopia | São Paulo | 1 | All Maps","protocol":17,"map":"koth_cascade","folder":"tf","game":"Team Fortress","app_id":440,"player_count":0,"max_players":24,"Bots":0,"server_type":"Dedicated","server_os":"Linux","password":true,"vac":true,"version":"7708610","steam_id":85568392924469996,"keywords":["cp","nocrits","nodmgspread","uncletopia"],"game_id":440,"stv_port":27016,"stv_name":"Uncletopia | São Paulo | 1 | All Maps | STV","players":null},{"server_id":143,"name":"Uncletopia | São Paulo | 2 | All Maps","name_short":"sao-2","host":"sao-2.br.uncletopia.com","port":27015,"enabled":true,"region":"sa","cc":"br","latitude":-23.533773,"longitude":-46.62529,"reserved":0,"last_update":"0001-01-01T00:00:00Z","name_a2s":"Uncletopia | São Paulo | 2 | All Maps","protocol":17,"map":"koth_viaduct","folder":"tf","game":"Team Fortress","app_id":440,"player_count":0,"max_players":24,"Bots":0,"server_type":"Dedicated","server_os":"Linux","password":true,"vac":true,"version":"7708610","steam_id":85568392924485349,"keywords":["cp","nocrits","nodmgspread","uncletopia"],"game_id":440,"stv_port":27016,"stv_name":"Uncletopia | São Paulo | 2 | All Maps | STV","players":null},{"server_id":7,"name":"Uncletopia | Seattle | 1 | All Maps","name_short":"sea-1","host":"sea-1.us.uncletopia.com","port":27015,"enabled":true,"region":"us-west","cc":"us","latitude":47.608013,"longitude":-122.33517,"reserved":0,"last_update":"0001-01-01T00:00:00Z","name_a2s":"Uncletopia | Seattle | 1 | All Maps","protocol":17,"map":"pl_pier","folder":"tf","game":"Team Fortress","app_id":440,"player_count":23,"max_players":24,"Bots":0,"server_type":"Dedicated","server_os":"Linux","password":true,"vac":true,"version":"7708610","steam_id":85568392924469997,"keywords":["nocrits","nodmgspread","payload","uncletopia"],"game_id":440,"stv_port":27016,"stv_name":"Uncletopia | Seattle | 1 | All Maps | STV","players":[{"user_id":379,"name":"Soap","steam_id":76561198074619142,"connected_time":1709000000000,"state":"active","ping":151},{"user_id":376,"name":"BLU3","steam_id":76561198059652670,"connected_time":1865000000000,"state":"active","ping":50},{"user_id":387,"name":"ArchmageF","steam_id":76561197992246851,"connected_time":1143000000000,"state":"active","ping":59},{"user_id":380,"name":"ATmaster447","steam_id":76561198099239773,"connected_time":1649000000000,"state":"active","ping":108},{"user_id":378,"name":"Sunmist","steam_id":76561198027784824,"connected_time":1796000000000,"state":"active","ping":132},{"user_id":385,"name":"moe","steam_id":76561198929586245,"connected_time":1399000000000,"state":"active","ping":84},{"user_id":388,"name":"Joy in A Box","steam_id":76561198156820753,"connected_time":765000000000,"state":"active","ping":178},{"user_id":358,"name":"Sweets","steam_id":76561198998446307,"connected_time":2626000000000,"state":"active","ping":70},{"user_id":381,"name":"Frongus","steam_id":76561197979056451,"connected_time":1643000000000,"state":"active","ping":48},{"user_id":339,"name":"bitmappu","steam_id":76561199000786530,"connected_time":3290000000000,"state":"active","ping":78},{"user_id":359,"name":"Luca","steam_id":76561198125087140,"connected_time":2622000000000,"state":"active","ping":47},{"user_id":362,"name":"ThePriceIsRice","steam_id":76561198079069543,"connected_time":2164000000000,"state":"active","ping":62},{"user_id":374,"name":"4Real","steam_id":76561199051709367,"connected_time":1943000000000,"state":"active","ping":69},{"user_id":390,"name":"jpuck","steam_id":76561198025018960,"connected_time":188000000000,"state":"active","ping":123},{"user_id":382,"name":"Dragus","steam_id":76561198032967285,"connected_time":1636000000000,"state":"active","ping":106},{"user_id":367,"name":"Mystery Guy","steam_id":76561198359281076,"connected_time":2042000000000,"state":"active","ping":55},{"user_id":368,"name":"Wormy Getting Coal","steam_id":76561198054539200,"connected_time":2042000000000,"state":"active","ping":60},{"user_id":345,"name":"грустный","steam_id":76561198274550638,"connected_time":3084000000000,"state":"active","ping":110},{"user_id":391,"name":"wow","steam_id":76561198841016072,"connected_time":122000000000,"state":"active","ping":54},{"user_id":371,"name":"ORANGE","steam_id":76561198000401769,"connected_time":1970000000000,"state":"active","ping":51},{"user_id":375,"name":"Toasterduds","steam_id":76561198163477584,"connected_time":1902000000000,"state":"active","ping":75},{"user_id":372,"name":"fusionharbor302","steam_id":76561198993091253,"connected_time":1960000000000,"state":"active","ping":54},{"user_id":384,"name":"kramer","steam_id":76561198117761965,"connected_time":1584000000000,"state":"active","ping":125}]},{"server_id":119,"name":"Uncletopia | Seattle | 2 | All Maps","name_short":"sea-2","host":"sea-1.us.uncletopia.com","port":27025,"enabled":true,"region":"us-west","cc":"us","latitude":47.608013,"longitude":-122.33517,"reserved":0,"last_update":"0001-01-01T00:00:00Z","name_a2s":"Uncletopia | Seattle | 2 | All Maps","protocol":17,"map":"pl_borneo","folder":"tf","game":"Team Fortress","app_id":440,"player_count":24,"max_players":24,"Bots":0,"server_type":"Dedicated","server_os":"Linux","password":true,"vac":true,"version":"7708610","steam_id":85568392924469998,"keywords":["nocrits","nodmgspread","payload","uncletopia"],"game_id":440,"stv_port":27026,"stv_name":"Uncletopia | Seattle | 2 | All Maps | STV","players":[{"user_id":367,"name":"aaron","steam_id":76561198308883028,"connected_time":1400000000000,"state":"active","ping":78},{"user_id":373,"name":"JacenHan","steam_id":76561198077796718,"connected_time":774000000000,"state":"active","ping":46},{"user_id":319,"name":"chicken","steam_id":76561198148106437,"connected_time":2856000000000,"state":"active","ping":71},{"user_id":382,"name":"tkeati","steam_id":76561198056356574,"connected_time":217000000000,"state":"active","ping":44},{"user_id":374,"name":"Bevan(The Manager)","steam_id":76561198073890273,"connected_time":382000000000,"state":"active","ping":58},{"user_id":320,"name":"DrNubber","steam_id":76561199117434435,"connected_time":2843000000000,"state":"active","ping":80},{"user_id":376,"name":"pmvshchlk","steam_id":76561198335687579,"connected_time":367000000000,"state":"active","ping":65},{"user_id":323,"name":"wugmup","steam_id":76561199096287734,"connected_time":2819000000000,"state":"active","ping":87},{"user_id":378,"name":"grumpo","steam_id":76561198114077570,"connected_time":333000000000,"state":"active","ping":46},{"user_id":308,"name":"Idontknow","steam_id":76561199207044048,"connected_time":3964000000000,"state":"active","ping":46},{"user_id":379,"name":"KingSteve42","steam_id":76561198409455888,"connected_time":326000000000,"state":"active","ping":104},{"user_id":296,"name":"The Horny","steam_id":76561198863639459,"connected_time":4337000000000,"state":"active","ping":69},{"user_id":372,"name":"friend of the crow","steam_id":76561198146228439,"connected_time":910000000000,"state":"active","ping":49},{"user_id":327,"name":"exephur","steam_id":76561198135763234,"connected_time":2589000000000,"state":"active","ping":61},{"user_id":380,"name":"Crake","steam_id":76561198001959071,"connected_time":325000000000,"state":"active","ping":55},{"user_id":381,"name":"Foyboy™","steam_id":76561198072305817,"connected_time":324000000000,"state":"active","ping":93},{"user_id":364,"name":"oil","steam_id":76561198099980149,"connected_time":1453000000000,"state":"active","ping":80},{"user_id":366,"name":"Tw1tch3r","steam_id":76561199093785937,"connected_time":1423000000000,"state":"active","ping":104},{"user_id":315,"name":"kab789","steam_id":76561198069842202,"connected_time":3167000000000,"state":"active","ping":106},{"user_id":274,"name":"-BRH- Tangled up in Bluegrass","steam_id":76561197987181139,"connected_time":6143000000000,"state":"active","ping":106},{"user_id":352,"name":"Tom Skirrett","steam_id":76561198014600788,"connected_time":1815000000000,"state":"active","ping":72},{"user_id":307,"name":"Spearit5464","steam_id":76561199241807676,"connected_time":4033000000000,"state":"active","ping":52},{"user_id":368,"name":"NOT FRIENDLY","steam_id":76561198041327231,"connected_time":1367000000000,"state":"active","ping":56},{"user_id":375,"name":"Aux","steam_id":76561199091651065,"connected_time":380000000000,"state":"active","ping":183}]},{"server_id":17,"name":"Uncletopia | San Francisco | 1 | All Maps","name_short":"sfo-1","host":"sfo-1.us.uncletopia.com","port":27015,"enabled":true,"region":"us-west","cc":"us","latitude":37.77397,"longitude":-122.4313,"reserved":0,"last_update":"0001-01-01T00:00:00Z","name_a2s":"Uncletopia | San Francisco | 1 | All Maps","protocol":17,"map":"pl_swiftwater_final1","folder":"tf","game":"Team Fortress","app_id":440,"player_count":22,"max_players":24,"Bots":0,"server_type":"Dedicated","server_os":"Linux","password":true,"vac":true,"version":"7708610","steam_id":85568392924469999,"keywords":["nocrits","nodmgspread","payload","uncletopia"],"game_id":440,"stv_port":27016,"stv_name":"Uncletopia | San Francisco | 1 | All Maps | STV","players":[{"user_id":223,"name":"M4 Sherman","steam_id":76561198011096132,"connected_time":27000000000,"state":"spawning","ping":87},{"user_id":222,"name":"HellRaiser","steam_id":76561199051660033,"connected_time":45000000000,"state":"active","ping":80},{"user_id":203,"name":"legendary member","steam_id":76561198093276401,"connected_time":722000000000,"state":"active","ping":58},{"user_id":140,"name":"June","steam_id":76561198141803658,"connected_time":5067000000000,"state":"active","ping":47},{"user_id":190,"name":"FiddyFoMike","steam_id":76561198057072581,"connected_time":2199000000000,"state":"active","ping":45},{"user_id":202,"name":"Perididdle","steam_id":76561198056864606,"connected_time":729000000000,"state":"active","ping":74},{"user_id":177,"name":"Ruby","steam_id":76561198190950354,"connected_time":3115000000000,"state":"active","ping":57},{"user_id":224,"name":"♥","steam_id":76561198401455467,"connected_time":22000000000,"state":"active","ping":57},{"user_id":205,"name":"[Bandit]","steam_id":76561197986919852,"connected_time":705000000000,"state":"active","ping":62},{"user_id":208,"name":"Jax","steam_id":76561198251160282,"connected_time":654000000000,"state":"active","ping":66},{"user_id":225,"name":"CelebrantTheJust","steam_id":76561199130700388,"connected_time":12000000000,"state":"spawning","ping":116},{"user_id":187,"name":"Papi Nacho","steam_id":76561198170128009,"connected_time":2557000000000,"state":"active","ping":58},{"user_id":207,"name":"Dezmond","steam_id":76561198998127769,"connected_time":701000000000,"state":"active","ping":39},{"user_id":209,"name":"A UsedNom","steam_id":76561198402832756,"connected_time":639000000000,"state":"active","ping":32},{"user_id":200,"name":"Some Genius","steam_id":76561198101868089,"connected_time":741000000000,"state":"active","ping":42},{"user_id":188,"name":"Jax O'Gaytor","steam_id":76561198288922168,"connected_time":2469000000000,"state":"active","ping":62},{"user_id":183,"name":"Lambchop","steam_id":76561198043900363,"connected_time":2998000000000,"state":"active","ping":60},{"user_id":172,"name":"Marzbee115","steam_id":76561198095821025,"connected_time":3485000000000,"state":"active","ping":64},{"user_id":211,"name":"Saiopun","steam_id":76561199011832069,"connected_time":560000000000,"state":"active","ping":63},{"user_id":186,"name":"GameGuru the Green Gryphon","steam_id":76561198118495354,"connected_time":2825000000000,"state":"active","ping":73},{"user_id":189,"name":"Avem","steam_id":76561198058763710,"connected_time":2372000000000,"state":"active","ping":58},{"user_id":218,"name":"coffvee","steam_id":76561198232708132,"connected_time":368000000000,"state":"active","ping":56}]},{"server_id":18,"name":"Uncletopia | San Francisco | 2 | All Maps","name_short":"sfo-2","host":"sfo-1.us.uncletopia.com","port":27025,"enabled":true,"region":"us-west","cc":"us","latitude":37.77397,"longitude":-122.4313,"reserved":0,"last_update":"0001-01-01T00:00:00Z","name_a2s":"Uncletopia | San Francisco | 2 | All Maps","protocol":17,"map":"koth_cascade","folder":"tf","game":"Team Fortress","app_id":440,"player_count":0,"max_players":24,"Bots":0,"server_type":"Dedicated","server_os":"Linux","password":true,"vac":true,"version":"7708610","steam_id":85568392924470000,"keywords":["cp","nocrits","nodmgspread","uncletopia"],"game_id":440,"stv_port":0,"stv_name":"","players":null},{"server_id":19,"name":"Uncletopia | San Francisco | 3 | No Payload","name_short":"sfo-3","host":"sfo-1.us.uncletopia.com","port":27035,"enabled":true,"region":"us-west","cc":"us","latitude":37.77397,"longitude":-122.4313,"reserved":0,"last_update":"0001-01-01T00:00:00Z","name_a2s":"Uncletopia | San Francisco | 3 | No Payload","protocol":17,"map":"cp_yukon_final","folder":"tf","game":"Team Fortress","app_id":440,"player_count":0,"max_players":24,"Bots":0,"server_type":"Dedicated","server_os":"Linux","password":true,"vac":true,"version":"7708610","steam_id":85568392924742824,"keywords":["cp","nocrits","nodmgspread","uncletopia"],"game_id":440,"stv_port":27036,"stv_name":"Uncletopia | San Francisco | 3 | No Payload | STV","players":null},{"server_id":20,"name":"Uncletopia | San Francisco | 4 | Community","name_short":"sfo-4","host":"sfo-1.us.uncletopia.com","port":27045,"enabled":true,"region":"us-west","cc":"us","latitude":37.77397,"longitude":-122.4313,"reserved":0,"last_update":"0001-01-01T00:00:00Z","name_a2s":"Uncletopia | San Francisco | 4 | Community","protocol":17,"map":"workshop/koth_synthetic_rc6a.ugc1549817316","folder":"tf","game":"Team Fortress","app_id":440,"player_count":0,"max_players":24,"Bots":0,"server_type":"Dedicated","server_os":"Linux","password":true,"vac":true,"version":"7708610","steam_id":85568392924742826,"keywords":["cp","nocrits","nodmgspread","uncletopia"],"game_id":440,"stv_port":27046,"stv_name":"Uncletopia | San Francisco | 4 | Community | STV","players":null},{"server_id":141,"name":"Uncletopia | Sydney | 1 | All Maps","name_short":"syd-1","host":"syd-1.au.uncletopia.com","port":27015,"enabled":true,"region":"au","cc":"au","latitude":-33.865143,"longitude":151.2099,"reserved":0,"last_update":"0001-01-01T00:00:00Z","name_a2s":"Uncletopia | Sydney | 1 | All Maps","protocol":17,"map":"pl_snowycoast","folder":"tf","game":"Team Fortress","app_id":440,"player_count":24,"max_players":24,"Bots":0,"server_type":"Dedicated","server_os":"Linux","password":true,"vac":true,"version":"7708610","steam_id":85568392924470001,"keywords":["nocrits","nodmgspread","payload","uncletopia"],"game_id":440,"stv_port":27016,"stv_name":"Uncletopia | Sydney | 1 | All Maps | STV","players":[{"user_id":366,"name":"Leany","steam_id":76561198029322296,"connected_time":1884000000000,"state":"active","ping":127},{"user_id":393,"name":"hazz_mcpie -BvM-","steam_id":76561198092450084,"connected_time":80000000000,"state":"active","ping":84},{"user_id":391,"name":"no teles 4 u","steam_id":76561198018478297,"connected_time":126000000000,"state":"active","ping":71},{"user_id":376,"name":"Pellagra","steam_id":76561198072383513,"connected_time":1486000000000,"state":"active","ping":39},{"user_id":373,"name":"Jacobmeister","steam_id":76561198071652927,"connected_time":1582000000000,"state":"active","ping":77},{"user_id":381,"name":"swag messiah","steam_id":76561198387274195,"connected_time":1341000000000,"state":"active","ping":99},{"user_id":374,"name":"ุbifcheg","steam_id":76561198319806610,"connected_time":1561000000000,"state":"active","ping":63},{"user_id":359,"name":"2009 heavy","steam_id":76561198135180841,"connected_time":2253000000000,"state":"active","ping":43},{"user_id":386,"name":"michael","steam_id":76561198052848358,"connected_time":612000000000,"state":"active","ping":60},{"user_id":355,"name":"No comment","steam_id":76561199305879202,"connected_time":2506000000000,"state":"active","ping":92},{"user_id":269,"name":"LightningBlock","steam_id":76561198289997742,"connected_time":7571000000000,"state":"active","ping":30},{"user_id":340,"name":"clout","steam_id":76561198073310502,"connected_time":3058000000000,"state":"active","ping":75},{"user_id":382,"name":"Spicy Baguette","steam_id":76561198238030210,"connected_time":1135000000000,"state":"active","ping":55},{"user_id":363,"name":"CypressFluff (She/Her)","steam_id":76561198174667818,"connected_time":2160000000000,"state":"active","ping":56},{"user_id":332,"name":"blicky","steam_id":76561198029829077,"connected_time":3713000000000,"state":"active","ping":90},{"user_id":375,"name":"Vanessa","steam_id":76561198077728992,"connected_time":1540000000000,"state":"active","ping":60},{"user_id":356,"name":"Queen Elizabeth the second","steam_id":76561199383689810,"connected_time":2439000000000,"state":"active","ping":100},{"user_id":377,"name":"Charm","steam_id":76561198028891054,"connected_time":1472000000000,"state":"active","ping":64},{"user_id":379,"name":"waffles","steam_id":76561199005815714,"connected_time":1444000000000,"state":"active","ping":50},{"user_id":351,"name":"Krihty","steam_id":76561198108164262,"connected_time":2645000000000,"state":"active","ping":65},{"user_id":384,"name":"Deethy","steam_id":76561198849340748,"connected_time":965000000000,"state":"active","ping":35},{"user_id":388,"name":"curtis","steam_id":76561197993731862,"connected_time":579000000000,"state":"active","ping":94},{"user_id":324,"name":"mattypro101","steam_id":76561199388828115,"connected_time":4066000000000,"state":"active","ping":60},{"user_id":358,"name":"Teamfighting","steam_id":76561198160135508,"connected_time":2381000000000,"state":"active","ping":50}]},{"server_id":123,"name":"Uncletopia | Sydney | 2 | All Maps","name_short":"syd-2","host":"syd-1.au.uncletopia.com","port":27025,"enabled":true,"region":"au","cc":"au","latitude":-33.865143,"longitude":151.2099,"reserved":0,"last_update":"0001-01-01T00:00:00Z","name_a2s":"Uncletopia | Sydney | 2 | All Maps","protocol":17,"map":"koth_highpass","folder":"tf","game":"Team Fortress","app_id":440,"player_count":0,"max_players":24,"Bots":0,"server_type":"Dedicated","server_os":"Linux","password":true,"vac":true,"version":"7708610","steam_id":85568392924470002,"keywords":["cp","nocrits","nodmgspread","uncletopia"],"game_id":440,"stv_port":27026,"stv_name":"Uncletopia | Sydney | 2 | All Maps | STV","players":null},{"server_id":395,"name":"Uncletopia | Sydney | 3 | All Maps","name_short":"syd-3","host":"syd-1.au.uncletopia.com","port":27035,"enabled":true,"region":"au","cc":"au","latitude":-33.865143,"longitude":151.2099,"reserved":0,"last_update":"0001-01-01T00:00:00Z","name_a2s":"Uncletopia | Sydney | 3 | All Maps","protocol":17,"map":"pl_frontier_final","folder":"tf","game":"Team Fortress","app_id":440,"player_count":9,"max_players":24,"Bots":0,"server_type":"Dedicated","server_os":"Linux","password":true,"vac":true,"version":"7708610","steam_id":85568392925194467,"keywords":["nocrits","nodmgspread","payload","uncletopia"],"game_id":440,"stv_port":27036,"stv_name":"Uncletopia | Sydney | 3 | All Maps | STV","players":[{"user_id":11,"name":"AmethystDragon10","steam_id":76561198412979983,"connected_time":8864000000000,"state":"active","ping":78},{"user_id":48,"name":"Ownniceguy","steam_id":76561199216772555,"connected_time":1980000000000,"state":"active","ping":232},{"user_id":51,"name":"ChAri","steam_id":76561198065972154,"connected_time":1137000000000,"state":"active","ping":60},{"user_id":52,"name":"xX_sexhaver_Xx(real)","steam_id":76561199205171109,"connected_time":909000000000,"state":"active","ping":63},{"user_id":58,"name":"squrrel","steam_id":76561198083429611,"connected_time":538000000000,"state":"active","ping":76},{"user_id":60,"name":"stevo","steam_id":76561198117749786,"connected_time":265000000000,"state":"active","ping":81},{"user_id":57,"name":"ree boy","steam_id":76561199024189820,"connected_time":622000000000,"state":"active","ping":73},{"user_id":59,"name":"hive","steam_id":76561199099744527,"connected_time":469000000000,"state":"active","ping":47},{"user_id":61,"name":"INTENTIONS","steam_id":76561198241303512,"connected_time":169000000000,"state":"active","ping":50}]},{"server_id":396,"name":"Uncletopia | Sydney | 4 | All Maps","name_short":"syd-4","host":"syd-1.au.uncletopia.com","port":27045,"enabled":true,"region":"au","cc":"au","latitude":-33.865143,"longitude":151.2099,"reserved":0,"last_update":"0001-01-01T00:00:00Z","name_a2s":"Uncletopia | Sydney | 4 | All Maps","protocol":17,"map":"koth_lakeside_final","folder":"tf","game":"Team Fortress","app_id":440,"player_count":0,"max_players":24,"Bots":0,"server_type":"Dedicated","server_os":"Linux","password":true,"vac":true,"version":"7708610","steam_id":85568392925397958,"keywords":["cp","nocrits","nodmgspread","uncletopia"],"game_id":440,"stv_port":0,"stv_name":"","players":null},{"server_id":58,"name":"Uncletopia | Sydney | 5 | No Payload","name_short":"syd-5","host":"syd-1.au.uncletopia.com","port":27055,"enabled":true,"region":"au","cc":"au","latitude":-33.865143,"longitude":151.2099,"reserved":0,"last_update":"0001-01-01T00:00:00Z","name_a2s":"Uncletopia | Sydney | 5 | No Payload","protocol":17,"map":"koth_cascade","folder":"tf","game":"Team Fortress","app_id":440,"player_count":2,"max_players":24,"Bots":0,"server_type":"Dedicated","server_os":"Linux","password":true,"vac":true,"version":"7708610","steam_id":85568392925397959,"keywords":["cp","nocrits","nodmgspread","uncletopia"],"game_id":440,"stv_port":0,"stv_name":"","players":[{"user_id":5,"name":"Dommy magic","steam_id":76561198975696603,"connected_time":725000000000,"state":"active","ping":48},{"user_id":6,"name":"parsk","steam_id":76561199016906514,"connected_time":658000000000,"state":"active","ping":56}]},{"server_id":59,"name":"Uncletopia | Sydney | 6 | Community","name_short":"syd-6","host":"syd-1.au.uncletopia.com","port":27065,"enabled":true,"region":"au","cc":"au","latitude":-33.865143,"longitude":151.2099,"reserved":0,"last_update":"0001-01-01T00:00:00Z","name_a2s":"Uncletopia | Sydney | 6 | Community","protocol":17,"map":"workshop/koth_synthetic_rc6a.ugc1549817316","folder":"tf","game":"Team Fortress","app_id":440,"player_count":0,"max_players":24,"Bots":0,"server_type":"Dedicated","server_os":"Linux","password":true,"vac":true,"version":"7708610","steam_id":85568392925397960,"keywords":["cp","nocrits","nodmgspread","uncletopia"],"game_id":440,"stv_port":27066,"stv_name":"Uncletopia | Sydney | 6 | Community | STV","players":null},{"server_id":49,"name":"Uncletopia | Warsaw | 1 | All Maps","name_short":"waw-1","host":"waw-1.pl.uncletopia.com","port":27015,"enabled":true,"region":"eu","cc":"pl","latitude":52.2297,"longitude":21.017532,"reserved":0,"last_update":"0001-01-01T00:00:00Z","name_a2s":"Uncletopia | Warsaw | 1 | All Maps","protocol":17,"map":"koth_viaduct","folder":"tf","game":"Team Fortress","app_id":440,"player_count":0,"max_players":24,"Bots":0,"server_type":"Dedicated","server_os":"Linux","password":true,"vac":true,"version":"7708610","steam_id":85568392925397850,"keywords":["cp","nocrits","nodmgspread","uncletopia"],"game_id":440,"stv_port":27016,"stv_name":"Uncletopia | Warsaw | 1 | All Maps | STV","players":null},{"server_id":50,"name":"Uncletopia | Warsaw | 2 | All Maps","name_short":"waw-2","host":"waw-1.pl.uncletopia.com","port":27025,"enabled":true,"region":"eu","cc":"pl","latitude":52.2297,"longitude":21.017532,"reserved":0,"last_update":"0001-01-01T00:00:00Z","name_a2s":"Uncletopia | Warsaw | 2 | All Maps","protocol":17,"map":"koth_lakeside_final","folder":"tf","game":"Team Fortress","app_id":440,"player_count":0,"max_players":24,"Bots":0,"server_type":"Dedicated","server_os":"Linux","password":true,"vac":true,"version":"7708610","steam_id":85568392925397851,"keywords":["cp","nocrits","nodmgspread","uncletopia"],"game_id":440,"stv_port":27026,"stv_name":"Uncletopia | Warsaw | 2 | All Maps | STV","players":null},{"server_id":51,"name":"Uncletopia | Warsaw | 3 | All Maps","name_short":"waw-3","host":"waw-1.pl.uncletopia.com","port":27035,"enabled":true,"region":"eu","cc":"pl","latitude":52.2297,"longitude":21.017532,"reserved":0,"last_update":"0001-01-01T00:00:00Z","name_a2s":"Uncletopia | Warsaw | 3 | All Maps","protocol":17,"map":"koth_highpass","folder":"tf","game":"Team Fortress","app_id":440,"player_count":0,"max_players":24,"Bots":0,"server_type":"Dedicated","server_os":"Linux","password":true,"vac":true,"version":"7708610","steam_id":85568392925397852,"keywords":["cp","nocrits","nodmgspread","uncletopia"],"game_id":440,"stv_port":27036,"stv_name":"Uncletopia | Warsaw | 3 | All Maps | STV","players":null},{"server_id":52,"name":"Uncletopia | Warsaw | 4 | All Maps","name_short":"waw-4","host":"waw-1.pl.uncletopia.com","port":27045,"enabled":true,"region":"eu","cc":"pl","latitude":52.2297,"longitude":21.017532,"reserved":0,"last_update":"0001-01-01T00:00:00Z","name_a2s":"Uncletopia | Warsaw | 4 | All Maps","protocol":17,"map":"pl_snowycoast","folder":"tf","game":"Team Fortress","app_id":440,"player_count":0,"max_players":24,"Bots":0,"server_type":"Dedicated","server_os":"Linux","password":true,"vac":true,"version":"7708610","steam_id":85568392925397853,"keywords":["nocrits","nodmgspread","payload","uncletopia"],"game_id":440,"stv_port":27046,"stv_name":"Uncletopia | Warsaw | 4 | All Maps | STV","players":null},{"server_id":53,"name":"Uncletopia | Warsaw | 5 | No Payload","name_short":"waw-5","host":"waw-1.pl.uncletopia.com","port":27055,"enabled":true,"region":"eu","cc":"pl","latitude":52.2297,"longitude":21.017532,"reserved":0,"last_update":"0001-01-01T00:00:00Z","name_a2s":"Uncletopia | Warsaw | 5 | No Payload","protocol":17,"map":"plr_pipeline","folder":"tf","game":"Team Fortress","app_id":440,"player_count":0,"max_players":24,"Bots":0,"server_type":"Dedicated","server_os":"Linux","password":true,"vac":true,"version":"7708610","steam_id":85568392925397854,"keywords":["nocrits","nodmgspread","payload","uncletopia"],"game_id":440,"stv_port":27056,"stv_name":"Uncletopia | Warsaw | 5 | No Payload | STV","players":null},{"server_id":54,"name":"Uncletopia | Warsaw | 6 | Community","name_short":"waw-6","host":"waw-1.pl.uncletopia.com","port":27065,"enabled":true,"region":"eu","cc":"pl","latitude":52.2297,"longitude":21.017532,"reserved":0,"last_update":"0001-01-01T00:00:00Z","name_a2s":"Uncletopia | Warsaw | 6 | Community","protocol":17,"map":"koth_highpass","folder":"tf","game":"Team Fortress","app_id":440,"player_count":0,"max_players":24,"Bots":0,"server_type":"Dedicated","server_os":"Linux","password":true,"vac":true,"version":"7708610","steam_id":85568392925397856,"keywords":["cp","nocrits","nodmgspread","uncletopia"],"game_id":440,"stv_port":0,"stv_name":"","players":null}]}