{"status":true,"message":"","result":[{"server_id":9,"name":"Uncletopia | Atlanta | 1 | All Maps","name_short":"atl-1","host":"atl-1.us.uncletopia.com","port":27015,"enabled":true,"region":"us-east","cc":"us","latitude":33.753746,"longitude":-84.38633,"reserved":0,"last_update":"0001-01-01T00:00:00Z","name_a2s":"Uncletopia | Atlanta | 1 | All Maps","protocol":17,"map":"pl_swiftwater_final1","folder":"tf","game":"Team Fortress","app_id":440,"player_count":24,"max_players":24,"Bots":0,"server_type":"Dedicated","server_os":"Linux","password":true,"vac":true,"version":"7961495","steam_id":85568392924469982,"keywords":["nocrits","nodmgspread","payload","uncletopia"],"game_id":440,"stv_port":27016,"stv_name":"Uncletopia | Atlanta | 1 | All Maps | STV","players":[{"user_id":275,"name":"sumerian death metal warrior","steam_id":76561198997380708,"connected_time":1868000000000,"state":"active","ping":105},{"user_id":281,"name":"royal hooters","steam_id":76561198068022595,"connected_time":1510000000000,"state":"active","ping":67},{"user_id":241,"name":"TF2C | fac","steam_id":76561198009818412,"connected_time":4952000000000,"state":"active","ping":70},{"user_id":280,"name":"chen","steam_id":76561198064872330,"connected_time":1533000000000,"state":"active","ping":69},{"user_id":288,"name":"StuartBell511","steam_id":76561198060931721,"connected_time":728000000000,"state":"active","ping":63},{"user_id":291,"name":"trianamarco780","steam_id":76561199084319677,"connected_time":661000000000,"state":"active","ping":117},{"user_id":284,"name":"Radio_Troll","steam_id":76561199223701309,"connected_time":1401000000000,"state":"active","ping":56},{"user_id":292,"name":"gallowsCalibrator","steam_id":76561198404707578,"connected_time":607000000000,"state":"active","ping":53},{"user_id":245,"name":"punchy","steam_id":76561198200000641,"connected_time":4179000000000,"state":"active","ping":59},{"user_id":300,"name":"Echo","steam_id":76561198072092594,"connected_time":45000000000,"state":"active","ping":53},{"user_id":277,"name":"Xavibite","steam_id":76561198209380493,"connected_time":1762000000000,"state":"active","ping":61},{"user_id":285,"name":"1st place love live fan","steam_id":76561198037951506,"connected_time":1397000000000,"state":"active","ping":45},{"user_id":282,"name":"MillerWhite","steam_id":76561198076060357,"connected_time":1506000000000,"state":"active","ping":84},{"user_id":276,"name":"ark","steam_id":76561198041066271,"connected_time":1792000000000,"state":"active","ping":91},{"user_id":296,"name":"Chernov","steam_id":76561198014463424,"connected_time":471000000000,"state":"active","ping":61},{"user_id":274,"name":"Decolour","steam_id":76561199045608372,"connected_time":2342000000000,"state":"active","ping":86},{"user_id":258,"name":"Kuri","steam_id":76561199037050183,"connected_time":3576000000000,"state":"active","ping":101},{"user_id":244,"name":"The Kansas Crack Addict","steam_id":76561199022178492,"connected_time":4728000000000,"state":"active","ping":55},{"user_id":265,"name":"Carmaggedon","steam_id":76561198098744340,"connected_time":2703000000000,"state":"active","ping":59},{"user_id":143,"name":"Ashes!","steam_id":76561197998475441,"connected_time":15328000000000,"state":"active","ping":75},{"user_id":299,"name":"Sheembs","steam_id":76561199010524390,"connected_time":97000000000,"state":"active","ping":58},{"user_id":272,"name":"Just PYE","steam_id":76561199439622967,"connected_time":2372000000000,"state":"active","ping":71},{"user_id":293,"name":"guy","steam_id":76561198079925551,"connected_time":502000000000,"state":"active","ping":77},{"user_id":290,"name":"PinkLemonade","steam_id":76561198799286228,"connected_time":707000000000,"state":"active","ping":74}]},{"server_id":104,"name":"Uncletopia | Atlanta | 2 | All Maps","name_short":"atl-2","host":"atl-1.us.uncletopia.com","port":27025,"enabled":true,"region":"us-east","cc":"us","latitude":33.753746,"longitude":-84.38633,"reserved":0,"last_update":"0001-01-01T00:00:00Z","name_a2s":"Uncletopia | Atlanta | 2 | All Maps","protocol":17,"map":"pl_badwater","folder":"tf","game":"Team Fortress","app_id":440,"player_count":17,"max_players":24,"Bots":0,"server_type":"Dedicated","server_os":"Linux","password":true,"vac":true,"version":"7961495","steam_id":85568392924469983,"keywords":["nocrits","nodmgspread","payload","uncletopia"],"game_id":440,"stv_port":27026,"stv_name":"Uncletopia | Atlanta | 2 | All Maps | STV","players":[{"user_id":238,"name":"KYLE KYLESON","steam_id":76561198021920887,"connected_time":940000000000,"state":"active","ping":60},{"user_id":244,"name":"Drilly22","steam_id":76561198068838338,"connected_time":526000000000,"state":"active","ping":71},{"user_id":186,"name":"ZombieSlayer77","steam_id":76561199023974356,"connected_time":4845000000000,"state":"active","ping":70},{"user_id":234,"name":"hatchetax","steam_id":76561199013337543,"connected_time":1414000000000,"state":"active","ping":45},{"user_id":216,"name":"Novu","steam_id":76561198886997024,"connected_time":2603000000000,"state":"active","ping":87},{"user_id":232,"name":"aeon","steam_id":76561198068654532,"connected_time":1653000000000,"state":"active","ping":76},{"user_id":224,"name":"mrbeast109385079350229083479082","steam_id":76561198370687830,"connected_time":1982000000000,"state":"active","ping":71},{"user_id":245,"name":"Bombsgamer","steam_id":76561198350009050,"connected_time":504000000000,"state":"active","ping":93},{"user_id":251,"name":"get scrongled, idiot","steam_id":76561198115874625,"connected_time":2000000000,"state":"spawning","ping":95},{"user_id":248,"name":"TheDwarfKing","steam_id":76561198128269919,"connected_time":242000000000,"state":"active","ping":55},{"user_id":236,"name":"üçíbutaüçí","steam_id":76561198135538212,"connected_time":1304000000000,"state":"active","ping":69},{"user_id":226,"name":"Highground","steam_id":76561199197544789,"connected_time":1914000000000,"state":"active","ping":121},{"user_id":141,"name":"Indigo","steam_id":76561198430362969,"connected_time":6313000000000,"state":"active","ping":72},{"user_id":246,"name":"k0ka","steam_id":76561198247969962,"connected_time":466000000000,"state":"active","ping":60},{"user_id":214,"name":"MechaSixVII","steam_id":76561198014927379,"connected_time":3099000000000,"state":"active","ping":86},{"user_id":247,"name":"Srife5","steam_id":76561198290011653,"connected_time":460000000000,"state":"active","ping":52},{"user_id":249,"name":"T_is_for_Toenail","steam_id":76561198297066505,"connected_time":238000000000,"state":"active","ping":78}]},{"server_id":400,"name":"Uncletopia | Atlanta | 3 | Stopwatch","name_short":"atl-3","host":"atl-1.us.uncletopia.com","port":27035,"enabled":true,"region":"us-east","cc":"us","latitude":33.753746,"longitude":-84.38633,"reserved":0,"last_update":"0001-01-01T00:00:00Z","name_a2s":"Uncletopia | Atlanta | 3 | Stopwatch","protocol":17,"map":"workshop/koth_bagel_rc6.ugc2514036946","folder":"tf","game":"Team Fortress","app_id":440,"player_count":0,"max_players":24,"Bots":0,"server_type":"Dedicated","server_os":"Linux","password":true,"vac":true,"version":"7961495","steam_id":85568392924515187,"keywords":["cp","nocrits","nodmgspread","uncletopia"],"game_id":440,"stv_port":27036,"stv_name":"Uncletopia | Atlanta | 3 | Stopwatch | STV","players":null},{"server_id":401,"name":"Uncletopia | Atlanta | 4 | Community","name_short":"atl-4","host":"atl-1.us.uncletopia.com","port":27045,"enabled":true,"region":"us-east","cc":"us","latitude":33.753746,"longitude":-84.38633,"reserved":0,"last_update":"0001-01-01T00:00:00Z","name_a2s":"Uncletopia | Atlanta | 4 | Community","protocol":17,"map":"workshop/koth_kemptown_rc1.ugc767410655","folder":"tf","game":"Team Fortress","app_id":440,"player_count":0,"max_players":24,"Bots":0,"server_type":"Dedicated","server_os":"Linux","password":true,"vac":true,"version":"7961495","steam_id":85568392924515188,"keywords":["cp","nocrits","nodmgspread","uncletopia"],"game_id":440,"stv_port":27046,"stv_name":"Uncletopia | Atlanta | 4 | Community | STV","players":null},{"server_id":2,"name":"Uncletopia | Chicago | 1 | All Maps","name_short":"chi-1","host":"chi-1.us.uncletopia.com","port":27015,"enabled":true,"region":"us-central","cc":"us","latitude":41.881832,"longitude":-87.62318,"reserved":0,"last_update":"0001-01-01T00:00:00Z","name_a2s":"Uncletopia | Chicago | 1 | All Maps","protocol":17,"map":"cp_mountainlab","folder":"tf","game":"Team Fortress","app_id":440,"player_count":19,"max_players":24,"Bots":0,"server_type":"Dedicated","server_os":"Linux","password":true,"vac":true,"version":"7961495","steam_id":85568392924469984,"keywords":["cp","nocrits","nodmgspread","uncletopia"],"game_id":440,"stv_port":27016,"stv_name":"Uncletopia | Chicago | 1 | All Maps | STV","players":[{"user_id":432,"name":"Team Fortress 3","steam_id":76561198075562180,"connected_time":588000000000,"state":"active","ping":72},{"user_id":442,"name":"maxscout","steam_id":76561198448497948,"connected_time":228000000000,"state":"active","ping":85},{"user_id":393,"name":"Femboy Friday (they/them)\u0026","steam_id":76561198027321950,"connected_time":3722000000000,"state":"active","ping":85},{"user_id":437,"name":"kikikikoboy","steam_id":76561198073380271,"connected_time":452000000000,"state":"active","ping":78},{"user_id":422,"name":"Arthur Drexel","steam_id":76561198003904750,"connected_time":1176000000000,"state":"active","ping":81},{"user_id":430,"name":"Da McSpanker","steam_id":76561198208743000,"connected_time":637000000000,"state":"active","ping":73},{"user_id":418,"name":"OKLWONT","steam_id":76561198060328407,"connected_time":1608000000000,"state":"active","ping":68},{"user_id":431,"name":"IcyScrumpy","steam_id":76561198084605065,"connected_time":593000000000,"state":"active","ping":53},{"user_id":409,"name":"DuckKey","steam_id":76561198904477889,"connected_time":2113000000000,"state":"active","ping":55},{"user_id":433,"name":"Xyverle","steam_id":76561198799726415,"connected_time":587000000000,"state":"active","ping":57},{"user_id":436,"name":"milk then cereal","steam_id":76561198047168548,"connected_time":469000000000,"state":"active","ping":99},{"user_id":438,"name":"Blackwing","steam_id":76561198225732032,"connected_time":400000000000,"state":"active","ping":50},{"user_id":413,"name":"Fishpelt","steam_id":76561198085821138,"connected_time":2096000000000,"state":"active","ping":46},{"user_id":399,"name":"Anita Hanjaab","steam_id":76561199307270490,"connected_time":3021000000000,"state":"active","ping":76},{"user_id":439,"name":"johnny","steam_id":76561198050225055,"connected_time":383000000000,"state":"active","ping":96},{"user_id":443,"name":"grape","steam_id":76561198976352881,"connected_time":24000000000,"state":"active","ping":121},{"user_id":412,"name":"Krustyjared2","steam_id":76561199233015498,"connected_time":2100000000000,"state":"active","ping":79},{"user_id":373,"name":"J O S H¬≥¬≤","steam_id":76561198122603779,"connected_time":4883000000000,"state":"active","ping":96},{"user_id":416,"name":"Window Licker #pride","steam_id":76561198386717007,"connected_time":2041000000000,"state":"active","ping":59}]},{"server_id":106,"name":"Uncletopia | Chicago | 2 | All Maps","name_short":"chi-2","host":"chi-1.us.uncletopia.com","port":27025,"enabled":true,"region":"us-central","cc":"us","latitude":41.881832,"longitude":-87.62318,"reserved":0,"last_update":"0001-01-01T00:00:00Z","name_a2s":"Uncletopia | Chicago | 2 | All Maps","protocol":17,"map":"pl_barnblitz","folder":"tf","game":"Team Fortress","app_id":440,"player_count":24,"max_players":24,"Bots":0,"server_type":"Dedicated","server_os":"Linux","password":true,"vac":true,"version":"7961495","steam_id":85568392924469985,"keywords":["nocrits","nodmgspread","payload","uncletopia"],"game_id":440,"stv_port":27026,"stv_name":"Uncletopia | Chicago | 2 | All Maps | STV","players":[{"user_id":558,"name":"JakeTheSnake2007","steam_id":76561199101642283,"connected_time":1503000000000,"state":"active","ping":64},{"user_id":432,"name":"MedRed‚Ñ¢ #IATAH","steam_id":76561198002962970,"connected_time":6186000000000,"state":"active","ping":94},{"user_id":557,"name":"msay","steam_id":76561198170888029,"connected_time":1527000000000,"state":"active","ping":94},{"user_id":566,"name":"ApocalypticFirefly","steam_id":76561198064405546,"connected_time":591000000000,"state":"active","ping":146},{"user_id":346,"name":"Big Yoshi","steam_id":76561199160576376,"connected_time":7642000000000,"state":"active","ping":114},{"user_id":567,"name":"firefly77","steam_id":76561199155478745,"connected_time":504000000000,"state":"active","ping":81},{"user_id":565,"name":"tf2 AI chat bot","steam_id":76561198801207748,"connected_time":842000000000,"state":"active","ping":56},{"user_id":497,"name":"Swash","steam_id":76561197969421355,"connected_time":4295000000000,"state":"active","ping":54},{"user_id":441,"name":"hej","steam_id":76561197996366940,"connected_time":5901000000000,"state":"active","ping":60},{"user_id":555,"name":"Yam Jazzy Jim","steam_id":76561198000788950,"connected_time":1540000000000,"state":"active","ping":65},{"user_id":570,"name":"Asanez3","steam_id":76561198037381436,"connected_time":244000000000,"state":"active","ping":71},{"user_id":571,"name":"KevilPo","steam_id":76561199244507267,"connected_time":214000000000,"state":"active","ping":73},{"user_id":572,"name":"plutonium isotope","steam_id":76561198319442494,"connected_time":121000000000,"state":"active","ping":106},{"user_id":554,"name":"Flourish (she/her)","steam_id":76561198087413354,"connected_time":1542000000000,"state":"active","ping":107},{"user_id":549,"name":"gamerfan539","steam_id":76561198803527852,"connected_time":2011000000000,"state":"active","ping":64},{"user_id":551,"name":"og biden pack cart","steam_id":76561198253731826,"connected_time":1976000000000,"state":"active","ping":64},{"user_id":545,"name":"Mkwhackertracker","steam_id":76561198128343704,"connected_time":2071000000000,"state":"active","ping":64},{"user_id":522,"name":"A short man from texas","steam_id":76561199038566105,"connected_time":3219000000000,"state":"active","ping":113},{"user_id":563,"name":"Prsm","steam_id":76561198053344995,"connected_time":951000000000,"state":"active","ping":54},{"user_id":535,"name":"Kiss Master","steam_id":76561198289572271,"connected_time":2722000000000,"state":"active","ping":83},{"user_id":532,"name":"TheoLynwood","steam_id":76561198079596878,"connected_time":2983000000000,"state":"active","ping":71},{"user_id":573,"name":"Nobody","steam_id":76561198286486517,"connected_time":49000000000,"state":"active","ping":74},{"user_id":556,"name":"Rexosaur","steam_id":76561198172900177,"connected_time":1539000000000,"state":"active","ping":92},{"user_id":569,"name":"Lia_Rein","steam_id":76561198151569597,"connected_time":418000000000,"state":"active","ping":145}]},{"server_id":402,"name":"Uncletopia | Chicago | 3 | All Maps","name_short":"chi-3","host":"chi-1.us.uncletopia.com","port":27035,"enabled":true,"region":"us-central","cc":"us","latitude":41.881832,"longitude":-87.62318,"reserved":0,"last_update":"0001-01-01T00:00:00Z","name_a2s":"Uncletopia | Chicago | 3 | All Maps","protocol":17,"map":"koth_brazil","folder":"tf","game":"Team Fortress","app_id":440,"player_count":23,"max_players":24,"Bots":0,"server_type":"Dedicated","server_os":"Linux","password":true,"vac":true,"version":"7961495","steam_id":85568392924515191,"keywords":["cp","nocrits","nodmgspread","uncletopia"],"game_id":440,"stv_port":27036,"stv_name":"Uncletopia | Chicago | 3 | All Maps | STV","players":[{"user_id":187,"name":"Joyous Jenny","steam_id":76561198127998866,"connected_time":955000000000,"state":"active","ping":78},{"user_id":188,"name":"Crunchy","steam_id":76561198060342804,"connected_time":946000000000,"state":"active","ping":74},{"user_id":189,"name":"Cigtar","steam_id":76561198079842818,"connected_time":889000000000,"state":"active","ping":74},{"user_id":182,"name":"EnergyBolt30","steam_id":76561198925178957,"connected_time":1523000000000,"state":"active","ping":93},{"user_id":133,"name":"Menachem","steam_id":76561198041226420,"connected_time":4495000000000,"state":"active","ping":46},{"user_id":169,"name":"LavenderSys","steam_id":76561198289106015,"connected_time":2958000000000,"state":"active","ping":79},{"user_id":190,"name":"ExtraExtra","steam_id":76561198041816027,"connected_time":849000000000,"state":"active","ping":33},{"user_id":191,"name":"clr br","steam_id":76561199072909614,"connected_time":815000000000,"state":"active","ping":75},{"user_id":186,"name":"Rodent","steam_id":76561198033801957,"connected_time":985000000000,"state":"active","ping":91},{"user_id":192,"name":"Mika'chahus","steam_id":76561198190037535,"connected_time":784000000000,"state":"active","ping":46},{"user_id":177,"name":"FireQuiz","steam_id":76561198107357249,"connected_time":1956000000000,"state":"active","ping":105},{"user_id":201,"name":"joyeuxnoelle","steam_id":76561198062423120,"connected_time":541000000000,"state":"active","ping":77},{"user_id":184,"name":"Tom","steam_id":76561198070630154,"connected_time":1000000000000,"state":"active","ping":90},{"user_id":202,"name":"Torensz64(But weezer)","steam_id":76561198239036482,"connected_time":475000000000,"state":"active","ping":53},{"user_id":204,"name":"TF2 Ham","steam_id":76561199024930552,"connected_time":388000000000,"state":"active","ping":74},{"user_id":196,"name":"Disco Ball","steam_id":76561198359079379,"connected_time":676000000000,"state":"active","ping":69},{"user_id":124,"name":"robe","steam_id":76561198238166694,"connected_time":5117000000000,"state":"active","ping":78},{"user_id":197,"name":"Dr Oshawott","steam_id":76561198042021629,"connected_time":642000000000,"state":"active","ping":69},{"user_id":139,"name":"Kedata","steam_id":76561198047750050,"connected_time":4385000000000,"state":"active","ping":46},{"user_id":203,"name":"DaisyTheCat","steam_id":76561198241732704,"connected_time":454000000000,"state":"active","ping":154},{"user_id":179,"name":"BananaMangoFestival2013","steam_id":76561198218558897,"connected_time":1849000000000,"state":"active","ping":142},{"user_id":163,"name":"Squadle","steam_id":76561198366535794,"connected_time":3348000000000,"state":"active","ping":74},{"user_id":207,"name":"Tired¬∞","steam_id":76561198072620682,"connected_time":108000000000,"state":"active","ping":105}]},{"server_id":403,"name":"Uncletopia | Chicago | 4 | All Maps","name_short":"chi-4","host":"chi-1.us.uncletopia.com","port":27045,"enabled":true,"region":"us-central","cc":"us","latitude":41.881832,"longitude":-87.62318,"reserved":0,"last_update":"0001-01-01T00:00:00Z","name_a2s":"Uncletopia | Chicago | 4 | All Maps","protocol":17,"map":"pl_badwater","folder":"tf","game":"Team Fortress","app_id":440,"player_count":24,"max_players":24,"Bots":0,"server_type":"Dedicated","server_os":"Linux","password":true,"vac":true,"version":"7961495","steam_id":85568392924515193,"keywords":["nocrits","nodmgspread","payload","uncletopia"],"game_id":440,"stv_port":27046,"stv_name":"Uncletopia | Chicago | 4 | All Maps | STV","players":[{"user_id":136,"name":"Sillier-NA","steam_id":76561198112171949,"connected_time":1140000000000,"state":"active","ping":60},{"user_id":142,"name":"clavin","steam_id":76561198069380992,"connected_time":824000000000,"state":"active","ping":80},{"user_id":86,"name":"Pacts Gornax","steam_id":76561198066256419,"connected_time":4370000000000,"state":"active","ping":74},{"user_id":144,"name":"The Jar","steam_id":76561198146013385,"connected_time":798000000000,"state":"active","ping":70},{"user_id":135,"name":"Crombun","steam_id":76561198031559642,"connected_time":1204000000000,"state":"active","ping":78},{"user_id":148,"name":"RoFrogle","steam_id":76561199078941377,"connected_time":569000000000,"state":"active","ping":62},{"user_id":128,"name":"Laventhey","steam_id":76561198977523626,"connected_time":2590000000000,"state":"active","ping":68},{"user_id":132,"name":"SafetyInstructor","steam_id":76561199195205705,"connected_time":1994000000000,"state":"active","ping":87},{"user_id":147,"name":"Dude","steam_id":76561199058616824,"connected_time":698000000000,"state":"active","ping":75},{"user_id":49,"name":"Sunflower","steam_id":76561198081223793,"connected_time":6591000000000,"state":"active","ping":46},{"user_id":149,"name":"Deluxe_Taco34","steam_id":76561199037653437,"connected_time":568000000000,"state":"active","ping":115},{"user_id":105,"name":"‚ô• Sashisusesasako","steam_id":76561198040522288,"connected_time":3667000000000,"state":"active","ping":86},{"user_id":137,"name":"Green-Guy Geno","steam_id":76561198024512428,"connected_time":1044000000000,"state":"active","ping":92},{"user_id":106,"name":"lanoc","steam_id":76561198055415367,"connected_time":3665000000000,"state":"active","ping":60},{"user_id":145,"name":"battle clown","steam_id":76561198045788371,"connected_time":788000000000,"state":"active","ping":77},{"user_id":143,"name":"Psychosis","steam_id":76561198078659070,"connected_time":812000000000,"state":"active","ping":71},{"user_id":126,"name":"MoomyBoomy","steam_id":76561198150787961,"connected_time":2772000000000,"state":"active","ping":84},{"user_id":63,"name":"Amtyk","steam_id":76561197979130554,"connected_time":5899000000000,"state":"active","ping":66},{"user_id":146,"name":"Joshy","steam_id":76561198061405421,"connected_time":753000000000,"state":"active","ping":89},{"user_id":103,"name":"ThatGamingKiwi","steam_id":76561199170522237,"connected_time":3805000000000,"state":"active","ping":78},{"user_id":84,"name":"KittySlayer","steam_id":76561199230811439,"connected_time":4961000000000,"state":"active","ping":80},{"user_id":130,"name":"Real","steam_id":76561198119315680,"connected_time":2175000000000,"state":"active","ping":63},{"user_id":111,"name":"Boxcars","steam_id":76561198120978767,"connected_time":3371000000000,"state":"active","ping":99},{"user_id":114,"name":"momlovie","steam_id":76561198843933742,"connected_time":3332000000000,"state":"active","ping":66}]},{"server_id":36,"name":"Uncletopia | Chicago | 5 | All Maps","name_short":"chi-5","host":"chi-2.us.uncletopia.com","port":27015,"enabled":true,"region":"us-central","cc":"us","latitude":41.881832,"longitude":-87.62318,"reserved":0,"last_update":"0001-01-01T00:00:00Z","name_a2s":"Uncletopia | Chicago | 5 | All Maps","protocol":17,"map":"koth_sawmill","folder":"tf","game":"Team Fortress","app_id":440,"player_count":20,"max_players":24,"Bots":0,"server_type":"Dedicated","server_os":"Linux","password":true,"vac":true,"version":"7961495","steam_id":85568392924866362,"keywords":["cp","nocrits","nodmgspread","uncletopia"],"game_id":440,"stv_port":27016,"stv_name":"Uncletopia | Chicago | 5 | All Maps | STV","players":[{"user_id":177,"name":"hill of the king","steam_id":76561198099491925,"connected_time":621000000000,"state":"active","ping":72},{"user_id":181,"name":"dadgummit","steam_id":76561198005806915,"connected_time":511000000000,"state":"active","ping":57},{"user_id":105,"name":"Beebo, Son of Beebo","steam_id":76561198055948497,"connected_time":4830000000000,"state":"active","ping":54},{"user_id":175,"name":"Macaroni Man","steam_id":76561199374182948,"connected_time":835000000000,"state":"active","ping":122},{"user_id":186,"name":"Derpkinglol456","steam_id":76561199124719679,"connected_time":285000000000,"state":"active","ping":80},{"user_id":190,"name":"toastman","steam_id":76561198207073088,"connected_time":155000000000,"state":"active","ping":70},{"user_id":156,"name":"ctf_well","steam_id":76561198016826181,"connected_time":1860000000000,"state":"active","ping":71},{"user_id":185,"name":"Delsym Sipper","steam_id":76561198206177593,"connected_time":354000000000,"state":"active","ping":102},{"user_id":19,"name":"schnedwob","steam_id":76561197999146588,"connected_time":9003000000000,"state":"active","ping":71},{"user_id":176,"name":"Lordofthekevins","steam_id":76561198169066956,"connected_time":834000000000,"state":"active","ping":61},{"user_id":187,"name":"22moo","steam_id":76561199075331630,"connected_time":282000000000,"state":"active","ping":69},{"user_id":183,"name":"Chris P. Bacon","steam_id":76561198994704160,"connected_time":434000000000,"state":"active","ping":68},{"user_id":184,"name":"HurRhombus","steam_id":76561198080839440,"connected_time":379000000000,"state":"active","ping":61},{"user_id":136,"name":"shrexy","steam_id":76561198164593271,"connected_time":2635000000000,"state":"active","ping":49},{"user_id":111,"name":"gorf?","steam_id":76561198142286417,"connected_time":4786000000000,"state":"active","ping":59},{"user_id":163,"name":"Pika","steam_id":76561198068063436,"connected_time":1513000000000,"state":"active","ping":52},{"user_id":188,"name":"Aster","steam_id":76561198037920420,"connected_time":247000000000,"state":"active","ping":79},{"user_id":189,"name":"CheekiBreeki","steam_id":76561198008596138,"connected_time":191000000000,"state":"active","ping":87},{"user_id":191,"name":"Long Chicken From Burger King","steam_id":76561198011603359,"connected_time":129000000000,"state":"active","ping":86},{"user_id":145,"name":"bunsy","steam_id":76561198097292857,"connected_time":2283000000000,"state":"active","ping":59}]},{"server_id":37,"name":"Uncletopia | Chicago | 6 | All Maps","name_short":"chi-6","host":"chi-2.us.uncletopia.com","port":27025,"enabled":true,"region":"us-central","cc":"us","latitude":41.881832,"longitude":-87.62318,"reserved":0,"last_update":"0001-01-01T00:00:00Z","name_a2s":"Uncletopia | Chicago | 6 | All Maps","protocol":17,"map":"koth_viaduct","folder":"tf","game":"Team Fortress","app_id":440,"player_count":0,"max_players":24,"Bots":0,"server_type":"Dedicated","server_os":"Linux","password":true,"vac":true,"version":"7961495","steam_id":85568392924866363,"keywords":["cp","nocrits","nodmgspread","uncletopia"],"game_id":440,"stv_port":27026,"stv_name":"Uncletopia | Chicago | 6 | All Maps | STV","players":null},{"server_id":38,"name":"Uncletopia | Chicago | 7 | Stopwatch","name_short":"chi-7","host":"chi-2.us.uncletopia.com","port":27035,"enabled":true,"region":"us-central","cc":"us","latitude":41.881832,"longitude":-87.62318,"reserved":0,"last_update":"0001-01-01T00:00:00Z","name_a2s":"Uncletopia | Chicago | 7 | Stopwatch","protocol":17,"map":"cp_snakewater_final1","folder":"tf","game":"Team Fortress","app_id":440,"player_count":0,"max_players":24,"Bots":0,"server_type":"Dedicated","server_os":"Linux","password":true,"vac":true,"version":"7961495","steam_id":85568392924866364,"keywords":["cp","nocrits","nodmgspread","uncletopia"],"game_id":440,"stv_port":27036,"stv_name":"Uncletopia | Chicago | 7 | Stopwatch | STV","players":null},{"server_id":39,"name":"Uncletopia | Chicago | 8 | Community","name_short":"chi-8","host":"chi-2.us.uncletopia.com","port":27045,"enabled":true,"region":"us-central","cc":"us","latitude":41.881832,"longitude":-87.62318,"reserved":0,"last_update":"0001-01-01T00:00:00Z","name_a2s":"Uncletopia | Chicago | 8 | Community","protocol":17,"map":"pl_pier","folder":"tf","game":"Team Fortress","app_id":440,"player_count":2,"max_players":24,"Bots":0,"server_type":"Dedicated","server_os":"Linux","password":true,"vac":true,"version":"7961495","steam_id":85568392924866365,"keywords":["nocrits","nodmgspread","payload","uncletopia"],"game_id":440,"stv_port":27046,"stv_name":"Uncletopia | Chicago | 8 | Community | STV","players":[{"user_id":5,"name":"Kamikaze Speedruner (Blankus)","steam_id":76561198215486596,"connected_time":411000000000,"state":"active","ping":160},{"user_id":6,"name":"LakiorGaming","steam_id":76561199220617368,"connected_time":358000000000,"state":"active","ping":152}]},{"server_id":8,"name":"Uncletopia | Dallas | 1 | All Maps","name_short":"dal-1","host":"dal-1.us.uncletopia.com","port":27015,"enabled":true,"region":"us-central","cc":"us","latitude":32.779167,"longitude":-96.80889,"reserved":0,"last_update":"0001-01-01T00:00:00Z","name_a2s":"Uncletopia | Dallas | 1 | All Maps","protocol":17,"map":"pl_barnblitz","folder":"tf","game":"Team Fortress","app_id":440,"player_count":24,"max_players":24,"Bots":0,"server_type":"Dedicated","server_os":"Linux","password":true,"vac":true,"version":"7961495","steam_id":85568392924469986,"keywords":["nocrits","nodmgspread","payload","uncletopia"],"game_id":440,"stv_port":27016,"stv_name":"Uncletopia | Dallas | 1 | All Maps | STV","players":[{"user_id":361,"name":"theManMan","steam_id":76561199488457138,"connected_time":3086000000000,"state":"active","ping":109},{"user_id":362,"name":"hecca_oof","steam_id":76561199226471681,"connected_time":3009000000000,"state":"active","ping":81},{"user_id":394,"name":"Fiesta Factory","steam_id":76561199210382055,"connected_time":1491000000000,"state":"active","ping":139},{"user_id":381,"name":"milwaukee pasta bandit","steam_id":76561198417793830,"connected_time":2226000000000,"state":"active","ping":71},{"user_id":401,"name":"[BLU] XxcodgodxX","steam_id":76561199474871203,"connected_time":1306000000000,"state":"active","ping":88},{"user_id":365,"name":"Muffin","steam_id":76561198209987299,"connected_time":2942000000000,"state":"active","ping":136},{"user_id":396,"name":"Roken","steam_id":76561198037836282,"connected_time":1380000000000,"state":"active","ping":76},{"user_id":407,"name":"Mom","steam_id":76561198356812251,"connected_time":1177000000000,"state":"active","ping":66},{"user_id":409,"name":"for the king","steam_id":76561197973488858,"connected_time":915000000000,"state":"active","ping":75},{"user_id":392,"name":"SpectreBurn","steam_id":76561198163300780,"connected_time":1587000000000,"state":"active","ping":73},{"user_id":388,"name":"Pixelated Pussy","steam_id":76561198002511088,"connected_time":1936000000000,"state":"active","ping":91},{"user_id":398,"name":"Toxic Medic Main (he/they)","steam_id":76561198009314845,"connected_time":1345000000000,"state":"active","ping":102},{"user_id":378,"name":"Junfez","steam_id":76561198340001889,"connected_time":2593000000000,"state":"active","ping":95},{"user_id":341,"name":"Two-Ton Heavy Thing","steam_id":76561198201724274,"connected_time":4678000000000,"state":"active","ping":92},{"user_id":358,"name":"mutant demonic imp x-woman","steam_id":76561198132803810,"connected_time":3658000000000,"state":"active","ping":61},{"user_id":410,"name":"ComradeofSucc","steam_id":76561198076025718,"connected_time":851000000000,"state":"active","ping":77},{"user_id":329,"name":"Beanz :)","steam_id":76561199434233117,"connected_time":5314000000000,"state":"active","ping":53},{"user_id":385,"name":"corned beef","steam_id":76561199366782761,"connected_time":2154000000000,"state":"active","ping":156},{"user_id":408,"name":"schmuck","steam_id":76561198143789773,"connected_time":1168000000000,"state":"active","ping":46},{"user_id":387,"name":"Melonfrog","steam_id":76561198389885427,"connected_time":1975000000000,"state":"active","ping":75},{"user_id":373,"name":"Baannaannaa","steam_id":76561198042895194,"connected_time":2880000000000,"state":"active","ping":59},{"user_id":400,"name":"Bimbonito","steam_id":76561198069676563,"connected_time":1331000000000,"state":"active","ping":74},{"user_id":402,"name":"9Bendy9","steam_id":76561198164023601,"connected_time":1291000000000,"state":"active","ping":89},{"user_id":412,"name":"broken cog","steam_id":76561198087200115,"connected_time":461000000000,"state":"active","ping":88}]},{"server_id":108,"name":"Uncletopia | Dallas | 2 | All Maps","name_short":"dal-2","host":"dal-1.us.uncletopia.com","port":27025,"enabled":true,"region":"us-central","cc":"us","latitude":32.779167,"longitude":-96.80889,"reserved":0,"last_update":"0001-01-01T00:00:00Z","name_a2s":"Uncletopia | Dallas | 2 | All Maps","protocol":17,"map":"koth_viaduct","folder":"tf","game":"Team Fortress","app_id":440,"player_count":23,"max_players":24,"Bots":0,"server_type":"Dedicated","server_os":"Linux","password":true,"vac":true,"version":"7961495","steam_id":85568392924469988,"keywords":["cp","nocrits","nodmgspread","uncletopia"],"game_id":440,"stv_port":27026,"stv_name":"Uncletopia | Dallas | 2 | All Maps | STV","players":[{"user_id":249,"name":"UwU","steam_id":76561198971629959,"connected_time":1521000000000,"state":"active","ping":129},{"user_id":225,"name":"adam0o0","steam_id":76561198052250279,"connected_time":2516000000000,"state":"active","ping":62},{"user_id":259,"name":"LudicrousRed","steam_id":76561199047437703,"connected_time":218000000000,"state":"active","ping":55},{"user_id":251,"name":"WizzaBizza","steam_id":76561198146774796,"connected_time":1459000000000,"state":"active","ping":88},{"user_id":209,"name":"pafijohn","steam_id":76561198002535190,"connected_time":4774000000000,"state":"active","ping":75},{"user_id":260,"name":"UnkownGamerLOL","steam_id":76561198225902368,"connected_time":113000000000,"state":"active","ping":70},{"user_id":236,"name":"AMBROTOS","steam_id":76561198042600523,"connected_time":2021000000000,"state":"active","ping":45},{"user_id":223,"name":"Mellou","steam_id":76561198212048740,"connected_time":2623000000000,"state":"active","ping":53},{"user_id":261,"name":"Quash3011","steam_id":76561198190014861,"connected_time":101000000000,"state":"active","ping":151},{"user_id":229,"name":"OWEENIE","steam_id":76561198083135927,"connected_time":2214000000000,"state":"active","ping":51},{"user_id":230,"name":"Brawling Bouse","steam_id":76561198030271278,"connected_time":2202000000000,"state":"active","ping":94},{"user_id":256,"name":"category 5 girl moment","steam_id":76561198972801541,"connected_time":752000000000,"state":"active","ping":60},{"user_id":232,"name":"Chauncey von Snuffles III","steam_id":76561198021784746,"connected_time":2147000000000,"state":"active","ping":62},{"user_id":233,"name":"LaChancla","steam_id":76561198971528917,"connected_time":2090000000000,"state":"active","ping":56},{"user_id":235,"name":"Drakon","steam_id":76561198078210822,"connected_time":2032000000000,"state":"active","ping":94},{"user_id":240,"name":"finmin","steam_id":76561198127639913,"connected_time":1839000000000,"state":"active","ping":88},{"user_id":241,"name":"BIG NOSE","steam_id":76561199374905157,"connected_time":1836000000000,"state":"active","ping":96},{"user_id":242,"name":"ultra_beanman","steam_id":76561198008751185,"connected_time":1734000000000,"state":"active","ping":85},{"user_id":243,"name":"SauceBoss10","steam_id":76561198056475400,"connected_time":1693000000000,"state":"active","ping":80},{"user_id":262,"name":"Venat","steam_id":76561197997052326,"connected_time":12000000000,"state":"spawning","ping":90},{"user_id":246,"name":"RoraBeth","steam_id":76561197999432246,"connected_time":1683000000000,"state":"active","ping":90},{"user_id":258,"name":"menonamed","steam_id":76561198199564382,"connected_time":631000000000,"state":"active","ping":83},{"user_id":255,"name":"Lord Mendigo","steam_id":76561198207957111,"connected_time":1151000000000,"state":"active","ping":194}]},{"server_id":404,"name":"Uncletopia | Dallas | 3 | All Maps","name_short":"dal-3","host":"dal-1.us.uncletopia.com","port":27035,"enabled":true,"region":"us-central","cc":"us","latitude":32.779167,"longitude":-96.80889,"reserved":0,"last_update":"0001-01-01T00:00:00Z","name_a2s":"Uncletopia | Dallas | 3 | All Maps","protocol":17,"map":"pl_borneo","folder":"tf","game":"Team Fortress","app_id":440,"player_count":0,"max_players":24,"Bots":0,"server_type":"Dedicated","server_os":"Linux","password":true,"vac":true,"version":"7961495","steam_id":85568392924515219,"keywords":["nocrits","nodmgspread","payload","uncletopia"],"game_id":440,"stv_port":27036,"stv_name":"Uncletopia | Dallas | 3 | All Maps | STV","players":null},{"server_id":405,"name":"Uncletopia | Dallas | 4 | Community","name_short":"dal-4","host":"dal-1.us.uncletopia.com","port":27045,"enabled":true,"region":"us-central","cc":"us","latitude":32.779167,"longitude":-96.80889,"reserved":0,"last_update":"0001-01-01T00:00:00Z","name_a2s":"Uncletopia | Dallas | 4 | Community","protocol":17,"map":"pl_pier","folder":"tf","game":"Team Fortress","app_id":440,"player_count":0,"max_players":24,"Bots":0,"server_type":"Dedicated","server_os":"Linux","password":true,"vac":true,"version":"7961495","steam_id":85568392924515220,"keywords":["nocrits","nodmgspread","payload","uncletopia"],"game_id":440,"stv_port":27046,"stv_name":"Uncletopia | Dallas | 4 | Community | STV","players":null},{"server_id":5,"name":"Uncletopia | Frankfurt | 1 | All Maps","name_short":"frk-1","host":"frk-1.de.uncletopia.com","port":27015,"enabled":true,"region":"eu","cc":"de","latitude":50.110924,"longitude":8.682127,"reserved":0,"last_update":"0001-01-01T00:00:00Z","name_a2s":"Uncletopia | Frankfurt | 1 | All Maps","protocol":17,"map":"koth_king","folder":"tf","game":"Team Fortress","app_id":440,"player_count":23,"max_players":24,"Bots":0,"server_type":"Dedicated","server_os":"Linux","password":true,"vac":true,"version":"7961495","steam_id":85568392924469989,"keywords":["cp","nocrits","nodmgspread","uncletopia"],"game_id":440,"stv_port":27016,"stv_name":"Uncletopia | Frankfurt | 1 | All Maps | STV","players":[{"user_id":942,"name":"tully","steam_id":76561198058012525,"connected_time":1675000000000,"state":"active","ping":57},{"user_id":960,"name":"giacomellow","steam_id":76561197994027661,"connected_time":945000000000,"state":"active","ping":70},{"user_id":869,"name":"HoneyBe_","steam_id":76561198288930154,"connected_time":2882000000000,"state":"active","ping":77},{"user_id":790,"name":"=OKB= P4NTH3R","steam_id":76561197999204603,"connected_time":4498000000000,"state":"active","ping":54},{"user_id":962,"name":"ay","steam_id":76561198033695429,"connected_time":768000000000,"state":"active","ping":56},{"user_id":943,"name":"doug walker joins antifa","steam_id":76561198190073005,"connected_time":1673000000000,"state":"active","ping":57},{"user_id":964,"name":"kinimon","steam_id":76561198178453270,"connected_time":487000000000,"state":"active","ping":77},{"user_id":959,"name":"Egor Pomidor","steam_id":76561199175688390,"connected_time":952000000000,"state":"active","ping":75},{"user_id":961,"name":"Xiqui","steam_id":76561198818386611,"connected_time":941000000000,"state":"active","ping":79},{"user_id":957,"name":"Rai-the-CobaltClaw","steam_id":76561198027741747,"connected_time":1137000000000,"state":"active","ping":74},{"user_id":947,"name":"Gustavo_Fring_6969","steam_id":76561199373610279,"connected_time":1615000000000,"state":"active","ping":98},{"user_id":969,"name":"godmodule","steam_id":76561198165995444,"connected_time":5000000000,"state":"spawning","ping":59},{"user_id":965,"name":"pond","steam_id":76561198214849363,"connected_time":459000000000,"state":"active","ping":77},{"user_id":954,"name":"Milk","steam_id":76561198125876588,"connected_time":1429000000000,"state":"active","ping":55},{"user_id":949,"name":"Kingmax","steam_id":76561199379221929,"connected_time":1607000000000,"state":"active","ping":45},{"user_id":968,"name":"Mr Fruitypebbles","steam_id":76561198133823242,"connected_time":193000000000,"state":"active","ping":72},{"user_id":950,"name":"hotdog.enjoyer09@yahoo.com","steam_id":76561198884908952,"connected_time":1589000000000,"state":"active","ping":60},{"user_id":910,"name":"Vershal Smershal","steam_id":76561198116223995,"connected_time":2219000000000,"state":"active","ping":58},{"user_id":921,"name":"agent youppii","steam_id":76561198055264447,"connected_time":2066000000000,"state":"active","ping":72},{"user_id":967,"name":"Edla","steam_id":76561198062815315,"connected_time":304000000000,"state":"active","ping":129},{"user_id":920,"name":"Rarky","steam_id":76561198054398642,"connected_time":2090000000000,"state":"active","ping":59},{"user_id":801,"name":"Kenny","steam_id":76561198994898206,"connected_time":4247000000000,"state":"active","ping":73},{"user_id":884,"name":"fischman","steam_id":76561199064142670,"connected_time":2564000000000,"state":"active","ping":55}]},{"server_id":110,"name":"Uncletopia | Frankfurt | 2 | All Maps","name_short":"frk-2","host":"frk-1.de.uncletopia.com","port":27025,"enabled":true,"region":"eu","cc":"de","latitude":50.110924,"longitude":8.682127,"reserved":0,"last_update":"0001-01-01T00:00:00Z","name_a2s":"Uncletopia | Frankfurt | 2 | All Maps","protocol":17,"map":"pl_swiftwater_final1","folder":"tf","game":"Team Fortress","app_id":440,"player_count":24,"max_players":24,"Bots":0,"server_type":"Dedicated","server_os":"Linux","password":true,"vac":true,"version":"7961495","steam_id":85568392924469990,"keywords":["nocrits","nodmgspread","payload","uncletopia"],"game_id":440,"stv_port":27026,"stv_name":"Uncletopia | Frankfurt | 2 | All Maps | STV","players":[{"user_id":446,"name":"Bzd","steam_id":76561198204521956,"connected_time":142000000000,"state":"active","ping":73},{"user_id":436,"name":"tua","steam_id":76561198034955422,"connected_time":919000000000,"state":"active","ping":62},{"user_id":430,"name":"please do not the cat","steam_id":76561198089003514,"connected_time":1673000000000,"state":"active","ping":45},{"user_id":415,"name":"Voks_","steam_id":76561198159687785,"connected_time":2178000000000,"state":"active","ping":81},{"user_id":431,"name":"Ash","steam_id":76561198272001890,"connected_time":1667000000000,"state":"active","ping":67},{"user_id":437,"name":"LittleMan","steam_id":76561198272058740,"connected_time":827000000000,"state":"active","ping":70},{"user_id":438,"name":"The Power","steam_id":76561198060566884,"connected_time":824000000000,"state":"active","ping":57},{"user_id":403,"name":"Gener√°l Kiwi","steam_id":76561198255946537,"connected_time":2307000000000,"state":"active","ping":53},{"user_id":427,"name":"sHIFTINGvORTEX","steam_id":76561198231648332,"connected_time":1749000000000,"state":"active","ping":75},{"user_id":386,"name":"golfmastr","steam_id":76561198993144124,"connected_time":3429000000000,"state":"active","ping":74},{"user_id":439,"name":"gaming (official)","steam_id":76561198106012909,"connected_time":822000000000,"state":"active","ping":67},{"user_id":447,"name":"Odin","steam_id":76561198087800030,"connected_time":104000000000,"state":"active","ping":45},{"user_id":405,"name":"Nonok","steam_id":76561199480685498,"connected_time":2294000000000,"state":"active","ping":71},{"user_id":441,"name":"frenchie","steam_id":76561198178298931,"connected_time":368000000000,"state":"active","ping":48},{"user_id":445,"name":"wiserclub6","steam_id":76561198312144351,"connected_time":169000000000,"state":"active","ping":96},{"user_id":406,"name":"heavy sings (real)","steam_id":76561199023804405,"connected_time":2292000000000,"state":"active","ping":76},{"user_id":364,"name":"Penis Contortionist","steam_id":76561198073663784,"connected_time":5199000000000,"state":"active","ping":110},{"user_id":401,"name":"[Thrall891]","steam_id":76561198136402128,"connected_time":2481000000000,"state":"active","ping":94},{"user_id":425,"name":"cecko","steam_id":76561198798721254,"connected_time":1878000000000,"state":"active","ping":70},{"user_id":422,"name":"Doggo","steam_id":76561198091909701,"connected_time":1959000000000,"state":"active","ping":99},{"user_id":434,"name":"paypig","steam_id":76561198035137115,"connected_time":962000000000,"state":"active","ping":59},{"user_id":418,"name":"Kyokon","steam_id":76561198272907225,"connected_time":2164000000000,"state":"active","ping":71},{"user_id":384,"name":"Hey, I¬¥m Andy!","steam_id":76561198060337777,"connected_time":3708000000000,"state":"active","ping":77},{"user_id":426,"name":"Gui","steam_id":76561198072054467,"connected_time":1863000000000,"state":"active","ping":78}]},{"server_id":308,"name":"Uncletopia | Frankfurt | 3 | All Maps","name_short":"frk-3","host":"frk-1.de.uncletopia.com","port":27035,"enabled":true,"region":"eu","cc":"de","latitude":50.110924,"longitude":8.682127,"reserved":0,"last_update":"0001-01-01T00:00:00Z","name_a2s":"Uncletopia | Frankfurt | 3 | All Maps","protocol":17,"map":"pl_barnblitz","folder":"tf","game":"Team Fortress","app_id":440,"player_count":24,"max_players":24,"Bots":0,"server_type":"Dedicated","server_os":"Linux","password":true,"vac":true,"version":"7961495","steam_id":85568392924504274,"keywords":["nocrits","nodmgspread","payload","uncletopia"],"game_id":440,"stv_port":27036,"stv_name":"Uncletopia | Frankfurt | 3 | All Maps | STV","players":[{"user_id":683,"name":"REN","steam_id":76561198000596385,"connected_time":1120000000000,"state":"active","ping":69},{"user_id":669,"name":"Robo-Tavish","steam_id":76561198073284118,"connected_time":3910000000000,"state":"active","ping":55},{"user_id":689,"name":"runcar222","steam_id":76561198077085528,"connected_time":264000000000,"state":"active","ping":60},{"user_id":661,"name":"s a i","steam_id":76561197970379754,"connected_time":4409000000000,"state":"active","ping":54},{"user_id":690,"name":"Mr. Awki","steam_id":76561198061676496,"connected_time":251000000000,"state":"active","ping":72},{"user_id":685,"name":"Vinn0","steam_id":76561198987241284,"connected_time":1010000000000,"state":"active","ping":60},{"user_id":692,"name":"–∫–∞—Ä–∞—Å–∏–∫","steam_id":76561197971140507,"connected_time":225000000000,"state":"active","ping":74},{"user_id":676,"name":"Burrito","steam_id":76561198023919089,"connected_time":2132000000000,"state":"active","ping":85},{"user_id":691,"name":"kul","steam_id":76561198065179630,"connected_time":243000000000,"state":"active","ping":55},{"user_id":693,"name":"mrjam","steam_id":76561199229751943,"connected_time":221000000000,"state":"active","ping":80},{"user_id":682,"name":"xiiski","steam_id":76561198152387747,"connected_time":1172000000000,"state":"active","ping":96},{"user_id":694,"name":"envy","steam_id":76561198247411118,"connected_time":215000000000,"state":"active","ping":67},{"user_id":662,"name":"Relic","steam_id":76561199499093258,"connected_time":4380000000000,"state":"active","ping":59},{"user_id":695,"name":"Skatnaset","steam_id":76561198298457353,"connected_time":213000000000,"state":"active","ping":75},{"user_id":696,"name":"George W Bush","steam_id":76561198846784757,"connected_time":195000000000,"state":"active","ping":71},{"user_id":678,"name":"meriones","steam_id":76561198034234373,"connected_time":2109000000000,"state":"active","ping":55},{"user_id":687,"name":"Honorificabilitudinitatibus","steam_id":76561198008301397,"connected_time":993000000000,"state":"active","ping":180},{"user_id":679,"name":"Lennox","steam_id":76561198069063554,"connected_time":1808000000000,"state":"active","ping":45},{"user_id":684,"name":"Durin sein Vater","steam_id":76561198021246713,"connected_time":1047000000000,"state":"active","ping":39},{"user_id":680,"name":"Swagmaster","steam_id":76561198045828392,"connected_time":1805000000000,"state":"active","ping":64},{"user_id":597,"name":"MR BUBBLES","steam_id":76561198019005259,"connected_time":8601000000000,"state":"active","ping":105},{"user_id":699,"name":"mai","steam_id":76561198008959448,"connected_time":102000000000,"state":"active","ping":62},{"user_id":698,"name":"AftiksPL","steam_id":76561198875182686,"connected_time":172000000000,"state":"active","ping":84},{"user_id":670,"name":"Mak≈Çowicz","steam_id":76561198281831506,"connected_time":3733000000000,"state":"active","ping":84}]},{"server_id":309,"name":"Uncletopia | Frankfurt | 4 | All Maps","name_short":"frk-4","host":"frk-1.de.uncletopia.com","port":27045,"enabled":true,"region":"eu","cc":"de","latitude":50.110924,"longitude":8.682127,"reserved":0,"last_update":"0001-01-01T00:00:00Z","name_a2s":"Uncletopia | Frankfurt | 4 | All Maps","protocol":17,"map":"cp_process_final","folder":"tf","game":"Team Fortress","app_id":440,"player_count":24,"max_players":24,"Bots":0,"server_type":"Dedicated","server_os":"Linux","password":true,"vac":true,"version":"7961495","steam_id":85568392924504275,"keywords":["cp","nocrits","nodmgspread","uncletopia"],"game_id":440,"stv_port":27046,"stv_name":"Uncletopia | Frankfurt | 4 | All Maps | STV","players":[{"user_id":389,"name":"finbar","steam_id":76561198056812396,"connected_time":2162000000000,"state":"active","ping":85},{"user_id":416,"name":"g","steam_id":76561198195627067,"connected_time":670000000000,"state":"active","ping":70},{"user_id":388,"name":"Mike","steam_id":76561198266996665,"connected_time":2191000000000,"state":"active","ping":48},{"user_id":410,"name":"LadyMissfit","steam_id":76561198042236349,"connected_time":1086000000000,"state":"active","ping":66},{"user_id":397,"name":"ha,burger","steam_id":76561199093584225,"connected_time":1794000000000,"state":"active","ping":68},{"user_id":367,"name":"dractyloplume","steam_id":76561198315747969,"connected_time":3596000000000,"state":"active","ping":60},{"user_id":411,"name":"Random Crit","steam_id":76561198066978791,"connected_time":1081000000000,"state":"active","ping":58},{"user_id":409,"name":"Flying Squirrel","steam_id":76561198005202791,"connected_time":1141000000000,"state":"active","ping":63},{"user_id":421,"name":"Saucisse","steam_id":76561198119955969,"connected_time":184000000000,"state":"active","ping":66},{"user_id":393,"name":"CumbustiblePunda","steam_id":76561197974274677,"connected_time":2103000000000,"state":"active","ping":50},{"user_id":396,"name":"FJADL","steam_id":76561198237008214,"connected_time":1890000000000,"state":"active","ping":81},{"user_id":343,"name":":)","steam_id":76561198181072689,"connected_time":5608000000000,"state":"active","ping":76},{"user_id":415,"name":"Cillian","steam_id":76561199471571148,"connected_time":796000000000,"state":"active","ping":81},{"user_id":413,"name":"Mortis","steam_id":76561198160658223,"connected_time":1037000000000,"state":"active","ping":59},{"user_id":420,"name":"engineer gaming","steam_id":76561198976416610,"connected_time":421000000000,"state":"active","ping":64},{"user_id":408,"name":"DOKTOR SEX","steam_id":76561198226378616,"connected_time":1164000000000,"state":"active","ping":81},{"user_id":406,"name":"Tony","steam_id":76561198128993838,"connected_time":1286000000000,"state":"active","ping":75},{"user_id":407,"name":"ThiccSkin Detective","steam_id":76561198989449047,"connected_time":1270000000000,"state":"active","ping":117},{"user_id":358,"name":"Bulgur","steam_id":76561198015064675,"connected_time":4336000000000,"state":"active","ping":64},{"user_id":402,"name":"Isak","steam_id":76561198085959762,"connected_time":1533000000000,"state":"active","ping":79},{"user_id":424,"name":"psycho_geezer","steam_id":76561198013886907,"connected_time":48000000000,"state":"spawning","ping":58},{"user_id":403,"name":"JohnTraveltime","steam_id":76561199244281754,"connected_time":1528000000000,"state":"active","ping":62},{"user_id":422,"name":"Seducktive","steam_id":76561198003267177,"connected_time":167000000000,"state":"active","ping":159},{"user_id":425,"name":"immie^^","steam_id":76561197961231625,"connected_time":42000000000,"state":"active","ping":57}]},{"server_id":310,"name":"Uncletopia | Frankfurt | 5 | All Maps","name_short":"frk-5","host":"frk-1.de.uncletopia.com","port":27055,"enabled":true,"region":"eu","cc":"de","latitude":50.110924,"longitude":8.682127,"reserved":0,"last_update":"0001-01-01T00:00:00Z","name_a2s":"Uncletopia | Frankfurt | 5 | All Maps","protocol":17,"map":"pl_borneo","folder":"tf","game":"Team Fortress","app_id":440,"player_count":24,"max_players":24,"Bots":0,"server_type":"Dedicated","server_os":"Linux","password":true,"vac":true,"version":"7961495","steam_id":85568392924504277,"keywords":["nocrits","nodmgspread","payload","uncletopia"],"game_id":440,"stv_port":27056,"stv_name":"Uncletopia | Frankfurt | 5 | All Maps | STV","players":[{"user_id":646,"name":"Davidox Vu","steam_id":76561198373047051,"connected_time":2089000000000,"state":"active","ping":67},{"user_id":580,"name":"bl0x","steam_id":76561199061345151,"connected_time":9072000000000,"state":"active","ping":83},{"user_id":656,"name":"Fatmagic Mukbang ASMR","steam_id":76561198063492110,"connected_time":1728000000000,"state":"active","ping":84},{"user_id":604,"name":"g4yl0rd","steam_id":76561198195935759,"connected_time":6031000000000,"state":"active","ping":91},{"user_id":664,"name":"Raven","steam_id":76561198036076305,"connected_time":472000000000,"state":"active","ping":45},{"user_id":665,"name":"spik","steam_id":76561198343328308,"connected_time":332000000000,"state":"active","ping":52},{"user_id":663,"name":"JcsP","steam_id":76561198014671123,"connected_time":623000000000,"state":"active","ping":102},{"user_id":644,"name":"cursedbygod‚ô°","steam_id":76561198318291047,"connected_time":2176000000000,"state":"active","ping":106},{"user_id":616,"name":"pc \u003c shoe","steam_id":76561198071440081,"connected_time":5431000000000,"state":"active","ping":76},{"user_id":582,"name":"LOBZIK","steam_id":76561198114830120,"connected_time":9050000000000,"state":"active","ping":78},{"user_id":660,"name":"cocaine fan","steam_id":76561198123592400,"connected_time":700000000000,"state":"active","ping":90},{"user_id":668,"name":"◊ê◊ë◊ê","steam_id":76561198184360615,"connected_time":158000000000,"state":"active","ping":90},{"user_id":635,"name":"‚ô´ Calamarc ‚ô´","steam_id":76561198055292205,"connected_time":3660000000000,"state":"active","ping":67},{"user_id":637,"name":"TheFlames","steam_id":76561198179314694,"connected_time":3642000000000,"state":"active","ping":49},{"user_id":650,"name":"fexxor","steam_id":76561198030051719,"connected_time":1859000000000,"state":"active","ping":76},{"user_id":628,"name":"Angst","steam_id":76561197970562002,"connected_time":3909000000000,"state":"active","ping":49},{"user_id":661,"name":"Ziomek","steam_id":76561199131735098,"connected_time":697000000000,"state":"active","ping":69},{"user_id":658,"name":"JepCabestany","steam_id":76561198123812578,"connected_time":895000000000,"state":"active","ping":99},{"user_id":652,"name":"BoPoe","steam_id":76561198093333882,"connected_time":1852000000000,"state":"active","ping":99},{"user_id":662,"name":"Chambersite the Wizard","steam_id":76561198197022399,"connected_time":676000000000,"state":"active","ping":65},{"user_id":654,"name":"limbicsystem","steam_id":76561198025612680,"connected_time":1817000000000,"state":"active","ping":70},{"user_id":614,"name":"Monkey","steam_id":76561199008411791,"connected_time":5543000000000,"state":"active","ping":59},{"user_id":645,"name":"Mangophysics","steam_id":76561198328905546,"connected_time":2139000000000,"state":"active","ping":106},{"user_id":655,"name":"meatsoupcube","steam_id":76561198276802249,"connected_time":1764000000000,"state":"active","ping":110}]},{"server_id":311,"name":"Uncletopia | Frankfurt | 6 | All Maps","name_short":"frk-6","host":"frk-1.de.uncletopia.com","port":27065,"enabled":true,"region":"eu","cc":"de","latitude":50.110924,"longitude":8.682127,"reserved":0,"last_update":"0001-01-01T00:00:00Z","name_a2s":"Uncletopia | Frankfurt | 6 | All Maps","protocol":17,"map":"pl_barnblitz","folder":"tf","game":"Team Fortress","app_id":440,"player_count":24,"max_players":24,"Bots":0,"server_type":"Dedicated","server_os":"Linux","password":true,"vac":true,"version":"7961495","steam_id":85568392924504278,"keywords":["nocrits","nodmgspread","payload","uncletopia"],"game_id":440,"stv_port":27066,"stv_name":"Uncletopia | Frankfurt | 6 | All Maps | STV","players":[{"user_id":774,"name":"Gordo Milanesa","steam_id":76561197995001070,"connected_time":250000000000,"state":"active","ping":83},{"user_id":775,"name":"Hoff","steam_id":76561198138540938,"connected_time":135000000000,"state":"active","ping":76},{"user_id":725,"name":"rob","steam_id":76561198122211848,"connected_time":3531000000000,"state":"active","ping":87},{"user_id":743,"name":"sixhundredseventy","steam_id":76561199441772083,"connected_time":2426000000000,"state":"active","ping":55},{"user_id":768,"name":"tominus3","steam_id":76561199218867090,"connected_time":898000000000,"state":"active","ping":52},{"user_id":776,"name":"despikee","steam_id":76561198029805750,"connected_time":119000000000,"state":"active","ping":78},{"user_id":754,"name":"Dr. Livesey","steam_id":76561198071049943,"connected_time":2255000000000,"state":"active","ping":62},{"user_id":762,"name":"Alegz","steam_id":76561198287810139,"connected_time":1885000000000,"state":"active","ping":46},{"user_id":780,"name":"JustG","steam_id":76561198372638945,"connected_time":82000000000,"state":"active","ping":66},{"user_id":771,"name":"[Sheep] Tomco","steam_id":76561198388549261,"connected_time":547000000000,"state":"active","ping":77},{"user_id":784,"name":"dex","steam_id":76561198095560087,"connected_time":7000000000,"state":"spawning","ping":74},{"user_id":778,"name":"Frito","steam_id":76561198373177622,"connected_time":114000000000,"state":"active","ping":76},{"user_id":758,"name":"King Chuck's Suck and Fuck","steam_id":76561198030956814,"connected_time":2075000000000,"state":"active","ping":85},{"user_id":779,"name":"Lemon","steam_id":76561198188535947,"connected_time":104000000000,"state":"active","ping":70},{"user_id":759,"name":"Ross from F.R.I.E.N.D.S.","steam_id":76561198008511665,"connected_time":2032000000000,"state":"active","ping":59},{"user_id":772,"name":"Idiot","steam_id":76561199256424165,"connected_time":298000000000,"state":"active","ping":81},{"user_id":714,"name":"Ozzie","steam_id":76561197992915315,"connected_time":4361000000000,"state":"active","ping":81},{"user_id":749,"name":"Butters McKnife","steam_id":76561198007653168,"connected_time":2393000000000,"state":"active","ping":63},{"user_id":781,"name":"Pillow Full Of Spiders","steam_id":76561198249698432,"connected_time":74000000000,"state":"active","ping":75},{"user_id":773,"name":"Carlo","steam_id":76561198276491098,"connected_time":256000000000,"state":"active","ping":61},{"user_id":782,"name":"Silver","steam_id":76561198175238807,"connected_time":44000000000,"state":"active","ping":66},{"user_id":783,"name":"thussu","steam_id":76561198890409949,"connected_time":38000000000,"state":"active","ping":91},{"user_id":729,"name":"Unreliable, funny and dangerous","steam_id":76561198050709790,"connected_time":3309000000000,"state":"active","ping":102},{"user_id":770,"name":"M√©bh √ìg MacT√≠re","steam_id":76561198346399624,"connected_time":696000000000,"state":"active","ping":72}]},{"server_id":23,"name":"Uncletopia | Frankfurt | 7 | Stopwatch","name_short":"frk-7","host":"frk-1.de.uncletopia.com","port":27075,"enabled":true,"region":"eu","cc":"de","latitude":50.110924,"longitude":8.682127,"reserved":0,"last_update":"0001-01-01T00:00:00Z","name_a2s":"Uncletopia | Frankfurt | 7 | Stopwatch","protocol":17,"map":"cp_snakewater_final1","folder":"tf","game":"Team Fortress","app_id":440,"player_count":0,"max_players":24,"Bots":0,"server_type":"Dedicated","server_os":"Linux","password":true,"vac":true,"version":"7961495","steam_id":85568392924742827,"keywords":["cp","nocrits","nodmgspread","uncletopia"],"game_id":440,"stv_port":27076,"stv_name":"Uncletopia | Frankfurt | 7 | Stopwatch | STV","players":null},{"server_id":24,"name":"Uncletopia | Frankfurt | 8 | Community","name_short":"frk-8","host":"frk-1.de.uncletopia.com","port":27085,"enabled":true,"region":"eu","cc":"de","latitude":50.110924,"longitude":8.682127,"reserved":0,"last_update":"0001-01-01T00:00:00Z","name_a2s":"Uncletopia | Frankfurt | 8 | Community","protocol":17,"map":"workshop/cp_villa_b19.ugc2113052569","folder":"tf","game":"Team Fortress","app_id":440,"player_count":0,"max_players":24,"Bots":0,"server_type":"Dedicated","server_os":"Linux","password":true,"vac":true,"version":"7961495","steam_id":85568392924742828,"keywords":["cp","nocrits","nodmgspread","uncletopia"],"game_id":440,"stv_port":27086,"stv_name":"Uncletopia | Frankfurt | 8 | Community | STV","players":null},{"server_id":202,"name":"Uncletopia | Hong Kong | 1 | All Maps","name_short":"hgk-1","host":"hgk-1.hk.uncletopia.com","port":27015,"enabled":true,"region":"asia","cc":"hk","latitude":22.302711,"longitude":114.177216,"reserved":0,"last_update":"0001-01-01T00:00:00Z","name_a2s":"Uncletopia | Hong Kong | 1 | All Maps","protocol":17,"map":"koth_viaduct","folder":"tf","game":"Team Fortress","app_id":440,"player_count":2,"max_players":24,"Bots":0,"server_type":"Dedicated","server_os":"Linux","password":true,"vac":true,"version":"7961495","steam_id":85568392924494504,"keywords":["cp","nocrits","nodmgspread","uncletopia"],"game_id":440,"stv_port":27016,"stv_name":"Uncletopia | Hong Kong | 1 | All Maps | STV","players":[{"user_id":624,"name":"–ö—Ä—ã—Å—Å","steam_id":76561199224142797,"connected_time":329000000000,"state":"active","ping":330},{"user_id":625,"name":"doctor sex","steam_id":76561199473455049,"connected_time":311000000000,"state":"active","ping":232}]},{"server_id":1,"name":"Uncletopia | Los Angeles | 1 | All Maps","name_short":"lax-1","host":"lax-1.us.uncletopia.com","port":27015,"enabled":true,"region":"us-west","cc":"us","latitude":33.94279,"longitude":-118.41004,"reserved":0,"last_update":"0001-01-01T00:00:00Z","name_a2s":"Uncletopia | Los Angeles | 1 | All Maps","protocol":17,"map":"pl_borneo","folder":"tf","game":"Team Fortress","app_id":440,"player_count":24,"max_players":24,"Bots":0,"server_type":"Dedicated","server_os":"Linux","password":true,"vac":true,"version":"7961495","steam_id":85568392924469991,"keywords":["nocrits","nodmgspread","payload","uncletopia"],"game_id":440,"stv_port":27016,"stv_name":"Uncletopia | Los Angeles | 1 | All Maps | STV","players":[{"user_id":168,"name":"waffles con leche","steam_id":76561198246934872,"connected_time":59000000000,"state":"active","ping":70},{"user_id":166,"name":"willow","steam_id":76561198068266114,"connected_time":121000000000,"state":"active","ping":75},{"user_id":130,"name":"elder lich joe biden","steam_id":76561198257134732,"connected_time":1647000000000,"state":"active","ping":87},{"user_id":156,"name":"based, lit, bussin' burrito","steam_id":76561198131567365,"connected_time":300000000000,"state":"active","ping":76},{"user_id":157,"name":"green bean","steam_id":76561198113099204,"connected_time":294000000000,"state":"active","ping":47},{"user_id":142,"name":"Wackydavo","steam_id":76561197990094209,"connected_time":1047000000000,"state":"active","ping":93},{"user_id":163,"name":"gnome zone","steam_id":76561198883349445,"connected_time":179000000000,"state":"active","ping":64},{"user_id":23,"name":"Supersonic","steam_id":76561198042167127,"connected_time":8748000000000,"state":"active","ping":85},{"user_id":162,"name":"Micah","steam_id":76561198006837982,"connected_time":193000000000,"state":"active","ping":98},{"user_id":153,"name":"Maid 'n' China","steam_id":76561198423392976,"connected_time":695000000000,"state":"active","ping":58},{"user_id":140,"name":"SoCal Kaizer","steam_id":76561198334361081,"connected_time":1064000000000,"state":"active","ping":76},{"user_id":164,"name":"SCRŒîTTŒî","steam_id":76561199062024437,"connected_time":170000000000,"state":"active","ping":107},{"user_id":152,"name":"tsun.","steam_id":76561198079488962,"connected_time":720000000000,"state":"active","ping":86},{"user_id":146,"name":"Homie G Money","steam_id":76561198040050368,"connected_time":985000000000,"state":"active","ping":75},{"user_id":167,"name":"canakblasteran","steam_id":76561199472518822,"connected_time":73000000000,"state":"active","ping":59},{"user_id":111,"name":"Quigi","steam_id":76561198144645874,"connected_time":3043000000000,"state":"active","ping":81},{"user_id":148,"name":"bro pyro chill with the taunts","steam_id":76561199169445769,"connected_time":930000000000,"state":"active","ping":84},{"user_id":101,"name":"One Frame","steam_id":76561198143287731,"connected_time":3870000000000,"state":"active","ping":60},{"user_id":169,"name":"Binkems","steam_id":76561198084220655,"connected_time":9000000000,"state":"spawning","ping":102},{"user_id":107,"name":"heck","steam_id":76561198315694520,"connected_time":3421000000000,"state":"active","ping":45},{"user_id":170,"name":"Jam Jams","steam_id":76561198128811267,"connected_time":5000000000,"state":"spawning","ping":100},{"user_id":149,"name":"Madam Zo-Zo","steam_id":76561198136789464,"connected_time":912000000000,"state":"active","ping":63},{"user_id":135,"name":"Dietary Thunder","steam_id":76561198036177601,"connected_time":1497000000000,"state":"active","ping":81},{"user_id":150,"name":"K2f","steam_id":76561198049600563,"connected_time":844000000000,"state":"active","ping":55}]},{"server_id":112,"name":"Uncletopia | Los Angeles | 2 | All Maps","name_short":"lax-2","host":"lax-1.us.uncletopia.com","port":27025,"enabled":true,"region":"us-west","cc":"us","latitude":33.94279,"longitude":-118.41004,"reserved":0,"last_update":"0001-01-01T00:00:00Z","name_a2s":"Uncletopia | Los Angeles | 2 | All Maps","protocol":17,"map":"pl_frontier_final","folder":"tf","game":"Team Fortress","app_id":440,"player_count":0,"max_players":24,"Bots":0,"server_type":"Dedicated","server_os":"Linux","password":true,"vac":true,"version":"7961495","steam_id":85568392924469992,"keywords":["nocrits","nodmgspread","payload","uncletopia"],"game_id":440,"stv_port":27026,"stv_name":"Uncletopia | Los Angeles | 2 | All Maps | STV","players":null},{"server_id":324,"name":"Uncletopia | Los Angeles | 3 | All Maps","name_short":"lax-3","host":"lax-1.us.uncletopia.com","port":27035,"enabled":true,"region":"us-west","cc":"us","latitude":33.94279,"longitude":-118.41004,"reserved":0,"last_update":"0001-01-01T00:00:00Z","name_a2s":"Uncletopia | Los Angeles | 3 | All Maps","protocol":17,"map":"koth_viaduct","folder":"tf","game":"Team Fortress","app_id":440,"player_count":0,"max_players":24,"Bots":0,"server_type":"Dedicated","server_os":"Linux","password":true,"vac":true,"version":"7961495","steam_id":85568392924510198,"keywords":["cp","nocrits","nodmgspread","uncletopia"],"game_id":440,"stv_port":27036,"stv_name":"Uncletopia | Los Angeles | 3 | All Maps | STV","players":null},{"server_id":25,"name":"Uncletopia | Los Angeles | 4 | Stopwatch","name_short":"lax-4","host":"lax-1.us.uncletopia.com","port":27045,"enabled":true,"region":"us-west","cc":"us","latitude":33.94279,"longitude":-118.41004,"reserved":0,"last_update":"0001-01-01T00:00:00Z","name_a2s":"Uncletopia | Los Angeles | 4 | Stopwatch","protocol":17,"map":"cp_snakewater_final1","folder":"tf","game":"Team Fortress","app_id":440,"player_count":0,"max_players":24,"Bots":0,"server_type":"Dedicated","server_os":"Linux","password":true,"vac":true,"version":"7961495","steam_id":85568392924510199,"keywords":["cp","nocrits","nodmgspread","uncletopia"],"game_id":440,"stv_port":27046,"stv_name":"Uncletopia | Los Angeles | 4 | Stopwatch | STV","players":null},{"server_id":11,"name":"Uncletopia | London | 1 | All Maps","name_short":"lon-1","host":"lon-1.uk.uncletopia.com","port":27015,"enabled":true,"region":"eu","cc":"gb","latitude":51.509865,"longitude":-0.118092,"reserved":0,"last_update":"0001-01-01T00:00:00Z","name_a2s":"Uncletopia | London | 1 | All Maps","protocol":17,"map":"pl_upward","folder":"tf","game":"Team Fortress","app_id":440,"player_count":24,"max_players":24,"Bots":0,"server_type":"Dedicated","server_os":"Linux","password":true,"vac":true,"version":"7961495","steam_id":85568392924367362,"keywords":["nocrits","nodmgspread","payload","uncletopia"],"game_id":440,"stv_port":27016,"stv_name":"Uncletopia | London | 1 | All Maps | STV","players":[{"user_id":587,"name":"dec","steam_id":76561198009660168,"connected_time":8241000000000,"state":"active","ping":46},{"user_id":646,"name":"Ville","steam_id":76561198137424821,"connected_time":1661000000000,"state":"active","ping":64},{"user_id":616,"name":"albert","steam_id":76561198353496134,"connected_time":5356000000000,"state":"active","ping":48},{"user_id":653,"name":"Zamorocian","steam_id":76561198076604017,"connected_time":836000000000,"state":"active","ping":38},{"user_id":664,"name":"kittylover55","steam_id":76561198136297981,"connected_time":60000000000,"state":"spawning","ping":120},{"user_id":642,"name":"trite","steam_id":76561197983765323,"connected_time":2358000000000,"state":"active","ping":51},{"user_id":662,"name":"fafarafa","steam_id":76561198201947004,"connected_time":563000000000,"state":"active","ping":82},{"user_id":649,"name":"The","steam_id":76561199378865926,"connected_time":1264000000000,"state":"active","ping":72},{"user_id":612,"name":"deadkep","steam_id":76561198097463968,"connected_time":5620000000000,"state":"active","ping":59},{"user_id":631,"name":"shooer!","steam_id":76561198110531281,"connected_time":4089000000000,"state":"active","ping":76},{"user_id":663,"name":"Gen","steam_id":76561198021775885,"connected_time":72000000000,"state":"active","ping":53},{"user_id":584,"name":"Kahvi","steam_id":76561198723244199,"connected_time":8309000000000,"state":"active","ping":75},{"user_id":659,"name":"Marley","steam_id":76561198067663021,"connected_time":759000000000,"state":"active","ping":36},{"user_id":655,"name":"Zekken","steam_id":76561198165941760,"connected_time":815000000000,"state":"active","ping":44},{"user_id":658,"name":"Deur","steam_id":76561199014305863,"connected_time":770000000000,"state":"active","ping":102},{"user_id":657,"name":"Potato","steam_id":76561198115604238,"connected_time":771000000000,"state":"active","ping":45},{"user_id":594,"name":"skills and issues","steam_id":76561198048453764,"connected_time":7448000000000,"state":"active","ping":54},{"user_id":660,"name":"install gentoo","steam_id":76561198185257982,"connected_time":757000000000,"state":"active","ping":75},{"user_id":647,"name":"Veteranjr","steam_id":76561197999836556,"connected_time":1471000000000,"state":"active","ping":56},{"user_id":627,"name":"KnugenIV","steam_id":76561198127091993,"connected_time":4946000000000,"state":"active","ping":58},{"user_id":620,"name":"I like apple","steam_id":76561198108115790,"connected_time":5256000000000,"state":"active","ping":47},{"user_id":661,"name":"owo","steam_id":76561198158209651,"connected_time":702000000000,"state":"active","ping":58},{"user_id":604,"name":"milo","steam_id":76561198119016918,"connected_time":6369000000000,"state":"active","ping":58},{"user_id":634,"name":"GoblinGaming","steam_id":76561198360395476,"connected_time":3751000000000,"state":"active","ping":44}]},{"server_id":114,"name":"Uncletopia | London | 2 | All Maps","name_short":"lon-2","host":"lon-1.uk.uncletopia.com","port":27025,"enabled":true,"region":"eu","cc":"gb","latitude":51.509865,"longitude":-0.118092,"reserved":0,"last_update":"0001-01-01T00:00:00Z","name_a2s":"Uncletopia | London | 2 | All Maps","protocol":17,"map":"pl_barnblitz","folder":"tf","game":"Team Fortress","app_id":440,"player_count":0,"max_players":24,"Bots":0,"server_type":"Dedicated","server_os":"Linux","password":true,"vac":true,"version":"7961495","steam_id":85568392924470941,"keywords":["nocrits","nodmgspread","payload","uncletopia"],"game_id":440,"stv_port":27026,"stv_name":"Uncletopia | London | 2 | All Maps | STV","players":null},{"server_id":320,"name":"Uncletopia | London | 3 | All Maps","name_short":"lon-3","host":"lon-1.uk.uncletopia.com","port":27035,"enabled":true,"region":"eu","cc":"gb","latitude":51.509865,"longitude":-0.118092,"reserved":0,"last_update":"0001-01-01T00:00:00Z","name_a2s":"Uncletopia | London | 3 | All Maps","protocol":17,"map":"koth_cascade","folder":"tf","game":"Team Fortress","app_id":440,"player_count":0,"max_players":24,"Bots":0,"server_type":"Dedicated","server_os":"Linux","password":true,"vac":true,"version":"7961495","steam_id":85568392924510192,"keywords":["cp","nocrits","nodmgspread","uncletopia"],"game_id":440,"stv_port":27036,"stv_name":"Uncletopia | London | 3 | All Maps | STV","players":null},{"server_id":321,"name":"Uncletopia | London | 4 | All Maps","name_short":"lon-4","host":"lon-1.uk.uncletopia.com","port":27045,"enabled":true,"region":"eu","cc":"gb","latitude":51.509865,"longitude":-0.118092,"reserved":0,"last_update":"0001-01-01T00:00:00Z","name_a2s":"Uncletopia | London | 4 | All Maps","protocol":17,"map":"ctf_well","folder":"tf","game":"Team Fortress","app_id":440,"player_count":24,"max_players":24,"Bots":0,"server_type":"Dedicated","server_os":"Linux","password":true,"vac":true,"version":"7961495","steam_id":85568392924510193,"keywords":["ctf","nocrits","nodmgspread","uncletopia"],"game_id":440,"stv_port":27046,"stv_name":"Uncletopia | London | 4 | All Maps | STV","players":[{"user_id":794,"name":"‚ò© Knightz ‚ò©","steam_id":76561198040936414,"connected_time":195000000000,"state":"active","ping":103},{"user_id":755,"name":"Anton Stormbreaker","steam_id":76561198041426778,"connected_time":3376000000000,"state":"active","ping":59},{"user_id":795,"name":"Muzza Berton","steam_id":76561198162162816,"connected_time":142000000000,"state":"active","ping":78},{"user_id":687,"name":"Vorgor","steam_id":76561198157692022,"connected_time":7189000000000,"state":"active","ping":55},{"user_id":772,"name":"Miedzan","steam_id":76561198405250516,"connected_time":1912000000000,"state":"active","ping":75},{"user_id":779,"name":"BurningJoke","steam_id":76561199014358707,"connected_time":1414000000000,"state":"active","ping":57},{"user_id":793,"name":"crit hit!","steam_id":76561198112693639,"connected_time":219000000000,"state":"active","ping":46},{"user_id":785,"name":"LackOfSleep","steam_id":76561198019751794,"connected_time":1068000000000,"state":"active","ping":125},{"user_id":776,"name":"Splarvis","steam_id":76561198007792525,"connected_time":1670000000000,"state":"active","ping":44},{"user_id":760,"name":"MakeItRainbow","steam_id":76561198045098064,"connected_time":2939000000000,"state":"active","ping":60},{"user_id":740,"name":"MaxTgaX","steam_id":76561198046287539,"connected_time":4789000000000,"state":"active","ping":123},{"user_id":774,"name":"Mother","steam_id":76561198038282957,"connected_time":1727000000000,"state":"active","ping":78},{"user_id":759,"name":"‚ÜØ","steam_id":76561198055389492,"connected_time":2968000000000,"state":"active","ping":41},{"user_id":786,"name":"Dirty goblin","steam_id":76561198153207632,"connected_time":1059000000000,"state":"active","ping":91},{"user_id":581,"name":":3","steam_id":76561198169471853,"connected_time":13685000000000,"state":"active","ping":40},{"user_id":775,"name":"Equipment of war","steam_id":76561198030563843,"connected_time":1717000000000,"state":"active","ping":71},{"user_id":787,"name":"Mr_Pulse_","steam_id":76561198095001602,"connected_time":1039000000000,"state":"active","ping":89},{"user_id":782,"name":"tupid","steam_id":76561198436817109,"connected_time":1198000000000,"state":"active","ping":47},{"user_id":778,"name":"hibernatusseven","steam_id":76561199227618091,"connected_time":1606000000000,"state":"active","ping":59},{"user_id":792,"name":"_Cpt.Decoder_","steam_id":76561198236937010,"connected_time":319000000000,"state":"active","ping":101},{"user_id":789,"name":"CrangSign","steam_id":76561198370580355,"connected_time":975000000000,"state":"active","ping":59},{"user_id":742,"name":"Slayersbane","steam_id":76561198126726141,"connected_time":4767000000000,"state":"active","ping":153},{"user_id":770,"name":"The Dumbass","steam_id":76561198833392443,"connected_time":2267000000000,"state":"active","ping":77},{"user_id":783,"name":"tay zondayzay tonday","steam_id":76561198381889211,"connected_time":1175000000000,"state":"active","ping":133}]},{"server_id":21,"name":"Uncletopia | London | 5 | All Maps","name_short":"lon-5","host":"lon-1.uk.uncletopia.com","port":27055,"enabled":true,"region":"eu","cc":"gb","latitude":51.509865,"longitude":-0.118092,"reserved":0,"last_update":"0001-01-01T00:00:00Z","name_a2s":"Uncletopia | London | 5 | All Maps","protocol":17,"map":"pl_pier","folder":"tf","game":"Team Fortress","app_id":440,"player_count":24,"max_players":24,"Bots":0,"server_type":"Dedicated","server_os":"Linux","password":true,"vac":true,"version":"7961495","steam_id":85568392924742829,"keywords":["nocrits","nodmgspread","payload","uncletopia"],"game_id":440,"stv_port":27056,"stv_name":"Uncletopia | London | 5 | All Maps | STV","players":[{"user_id":513,"name":"battlerunerlite","steam_id":76561199220041060,"connected_time":1961000000000,"state":"active","ping":101},{"user_id":525,"name":"moglimbo","steam_id":76561198083937378,"connected_time":1626000000000,"state":"active","ping":47},{"user_id":484,"name":"Demicore","steam_id":76561197976922136,"connected_time":4870000000000,"state":"active","ping":70},{"user_id":529,"name":"‡∂ûbominasus 2137  #SaveTF2","steam_id":76561198030062981,"connected_time":1400000000000,"state":"active","ping":80},{"user_id":535,"name":"angry russian man","steam_id":76561198386712795,"connected_time":808000000000,"state":"active","ping":52},{"user_id":527,"name":"Pixel-Jay","steam_id":76561198853840115,"connected_time":1479000000000,"state":"active","ping":53},{"user_id":536,"name":"Brage","steam_id":76561198111623044,"connected_time":746000000000,"state":"active","ping":87},{"user_id":461,"name":"Arturias","steam_id":76561198188720263,"connected_time":5624000000000,"state":"active","ping":59},{"user_id":538,"name":"The Twice-Gorped Morp","steam_id":76561198052636352,"connected_time":667000000000,"state":"active","ping":47},{"user_id":475,"name":"Web Surfer","steam_id":76561198060307235,"connected_time":5151000000000,"state":"active","ping":56},{"user_id":464,"name":"Nickbro101","steam_id":76561198044271692,"connected_time":5549000000000,"state":"active","ping":47},{"user_id":528,"name":"After8","steam_id":76561198090750865,"connected_time":1445000000000,"state":"active","ping":77},{"user_id":483,"name":"(MAC) [BN] Crazyking","steam_id":76561198001668616,"connected_time":4909000000000,"state":"active","ping":55},{"user_id":505,"name":"m.morhac123","steam_id":76561199202883261,"connected_time":3307000000000,"state":"active","ping":77},{"user_id":542,"name":"Jimmy Poppadopolos","steam_id":76561198044825612,"connected_time":398000000000,"state":"active","ping":61},{"user_id":540,"name":"randompixel","steam_id":76561198003941207,"connected_time":586000000000,"state":"active","ping":58},{"user_id":487,"name":"Reimu","steam_id":76561198101532240,"connected_time":4737000000000,"state":"active","ping":58},{"user_id":477,"name":"Redrim","steam_id":76561197998374658,"connected_time":5101000000000,"state":"active","ping":68},{"user_id":508,"name":"[503. ]captain swiftfingers","steam_id":76561198043684517,"connected_time":3154000000000,"state":"active","ping":54},{"user_id":531,"name":"JayTheNoob247_","steam_id":76561199348803437,"connected_time":1263000000000,"state":"active","ping":126},{"user_id":533,"name":"asidender5","steam_id":76561198890986152,"connected_time":1076000000000,"state":"active","ping":37},{"user_id":518,"name":"Niyaah","steam_id":76561198110209191,"connected_time":1877000000000,"state":"active","ping":62},{"user_id":520,"name":"Taps","steam_id":76561198171147117,"connected_time":1831000000000,"state":"active","ping":67},{"user_id":544,"name":"*cracks dick* *dick glows*","steam_id":76561198329640236,"connected_time":238000000000,"state":"active","ping":48}]},{"server_id":22,"name":"Uncletopia | London | 6 | All Maps","name_short":"lon-6","host":"lon-1.uk.uncletopia.com","port":27065,"enabled":true,"region":"eu","cc":"gb","latitude":51.509865,"longitude":-0.118092,"reserved":0,"last_update":"0001-01-01T00:00:00Z","name_a2s":"Uncletopia | London | 6 | All Maps","protocol":17,"map":"cp_dustbowl","folder":"tf","game":"Team Fortress","app_id":440,"player_count":24,"max_players":24,"Bots":0,"server_type":"Dedicated","server_os":"Linux","password":true,"vac":true,"version":"7961495","steam_id":85568392924742830,"keywords":["cp","nocrits","nodmgspread","uncletopia"],"game_id":440,"stv_port":27066,"stv_name":"Uncletopia | London | 6 | All Maps | STV","players":[{"user_id":239,"name":"Quartzshard","steam_id":76561198041527954,"connected_time":9518000000000,"state":"active","ping":37},{"user_id":356,"name":"Furioso Jose","steam_id":76561198091431633,"connected_time":796000000000,"state":"active","ping":63},{"user_id":306,"name":"shadow39344","steam_id":76561198090639618,"connected_time":4460000000000,"state":"active","ping":57},{"user_id":309,"name":"ruschca","steam_id":76561198041966522,"connected_time":4048000000000,"state":"active","ping":41},{"user_id":310,"name":"ice","steam_id":76561198011015750,"connected_time":4043000000000,"state":"active","ping":67},{"user_id":355,"name":"GabrielUltrakill","steam_id":76561199200442395,"connected_time":897000000000,"state":"active","ping":75},{"user_id":369,"name":"Ninjeg","steam_id":76561197995307947,"connected_time":357000000000,"state":"active","ping":67},{"user_id":350,"name":"Turek","steam_id":76561198280066503,"connected_time":1307000000000,"state":"active","ping":86},{"user_id":363,"name":"Eggcracker","steam_id":76561199274850641,"connected_time":570000000000,"state":"active","ping":88},{"user_id":315,"name":"Coinc√© entre deux nichons","steam_id":76561198000866783,"connected_time":3889000000000,"state":"active","ping":56},{"user_id":313,"name":"Chish n' Fips","steam_id":76561198012300440,"connected_time":3999000000000,"state":"active","ping":46},{"user_id":314,"name":"Shlongulator","steam_id":76561198149779201,"connected_time":3948000000000,"state":"active","ping":56},{"user_id":359,"name":"milkshakedoodles","steam_id":76561198849952659,"connected_time":654000000000,"state":"active","ping":75},{"user_id":360,"name":"Medium flash","steam_id":76561198173218318,"connected_time":615000000000,"state":"active","ping":70},{"user_id":361,"name":"fayil","steam_id":76561199053645439,"connected_time":611000000000,"state":"active","ping":77},{"user_id":364,"name":"Cold Heart","steam_id":76561198109838745,"connected_time":548000000000,"state":"active","ping":62},{"user_id":370,"name":"Hell-0_World","steam_id":76561198109876007,"connected_time":333000000000,"state":"active","ping":173},{"user_id":325,"name":"psu","steam_id":76561198094652091,"connected_time":3522000000000,"state":"active","ping":85},{"user_id":347,"name":"TomNoSocks","steam_id":76561198114071046,"connected_time":2045000000000,"state":"active","ping":68},{"user_id":366,"name":"MustangCricket","steam_id":76561197963408317,"connected_time":524000000000,"state":"active","ping":70},{"user_id":320,"name":"powej","steam_id":76561198056381418,"connected_time":3817000000000,"state":"active","ping":30},{"user_id":367,"name":"Martin","steam_id":76561197963416927,"connected_time":506000000000,"state":"active","ping":57},{"user_id":342,"name":"It's a me Malario","steam_id":76561198176546013,"connected_time":2465000000000,"state":"active","ping":49},{"user_id":368,"name":"average manicotti enjoyer","steam_id":76561198059535856,"connected_time":473000000000,"state":"active","ping":177}]},{"server_id":40,"name":"Uncletopia | London | 7 | Stopwatch","name_short":"lon-7","host":"lon-1.uk.uncletopia.com","port":27075,"enabled":true,"region":"eu","cc":"gb","latitude":51.509865,"longitude":-0.118092,"reserved":0,"last_update":"0001-01-01T00:00:00Z","name_a2s":"Uncletopia | London | 7 | Stopwatch","protocol":17,"map":"koth_highpass","folder":"tf","game":"Team Fortress","app_id":440,"player_count":0,"max_players":24,"Bots":0,"server_type":"Dedicated","server_os":"Linux","password":true,"vac":true,"version":"7961495","steam_id":85568392924964314,"keywords":["cp","nocrits","nodmgspread","uncletopia"],"game_id":440,"stv_port":27076,"stv_name":"Uncletopia | London | 7 | Stopwatch | STV","players":null},{"server_id":41,"name":"Uncletopia | London | 8 | Community","name_short":"lon-8","host":"lon-1.uk.uncletopia.com","port":27085,"enabled":true,"region":"eu","cc":"gb","latitude":51.509865,"longitude":-0.118092,"reserved":0,"last_update":"0001-01-01T00:00:00Z","name_a2s":"Uncletopia | London | 8 | Community","protocol":17,"map":"workshop/pl_cactuscanyon_redux_final2.ugc2579644293","folder":"tf","game":"Team Fortress","app_id":440,"player_count":0,"max_players":24,"Bots":0,"server_type":"Dedicated","server_os":"Linux","password":true,"vac":true,"version":"7961495","steam_id":85568392924964315,"keywords":["nocrits","nodmgspread","payload","uncletopia"],"game_id":440,"stv_port":27086,"stv_name":"Uncletopia | London | 8 | Community | STV","players":null},{"server_id":300,"name":"Uncletopia | Montr√©al | 1 | One Thousand Uncles","name_short":"mtl-1","host":"mtl-1.ca.uncletopia.com","port":27015,"enabled":true,"region":"us-east","cc":"ca","latitude":45.50889,"longitude":-73.56167,"reserved":0,"last_update":"0001-01-01T00:00:00Z","name_a2s":"","protocol":0,"map":"","folder":"","game":"","app_id":0,"player_count":6,"max_players":0,"Bots":0,"server_type":"","server_os":"","password":false,"vac":false,"version":"","steam_id":0,"keywords":null,"game_id":0,"stv_port":0,"stv_name":"","players":[{"user_id":192,"name":"LizardMilk_19","steam_id":76561199435002235,"connected_time":491000000000,"state":"active","ping":178},{"user_id":190,"name":"duck ü¶Ü","steam_id":76561197998344127,"connected_time":1763000000000,"state":"active","ping":95},{"user_id":191,"name":"Rhutebeer","steam_id":76561198018302761,"connected_time":999000000000,"state":"active","ping":103},{"user_id":187,"name":"penis atomizer 9000 üè≥Ô∏è?","steam_id":76561198864841966,"connected_time":2265000000000,"state":"active","ping":112},{"user_id":184,"name":"FilipeLuk","steam_id":76561198150675438,"connected_time":3323000000000,"state":"active","ping":146},{"user_id":194,"name":"razzy","steam_id":76561198149124090,"connected_time":397000000000,"state":"active","ping":55}]},{"server_id":301,"name":"Uncletopia | Montr√©al | 2 | One Thousand Uncles","name_short":"mtl-2","host":"mtl-1.ca.uncletopia.com","port":27025,"enabled":true,"region":"us-east","cc":"ca","latitude":45.50889,"longitude":-73.56167,"reserved":0,"last_update":"0001-01-01T00:00:00Z","name_a2s":"","protocol":0,"map":"","folder":"","game":"","app_id":0,"player_count":0,"max_players":0,"Bots":0,"server_type":"","server_os":"","password":false,"vac":false,"version":"","steam_id":0,"keywords":null,"game_id":0,"stv_port":0,"stv_name":"","players":null},{"server_id":302,"name":"Uncletopia | Montr√©al | 3 | One Thousand Uncles","name_short":"mtl-3","host":"mtl-1.ca.uncletopia.com","port":27035,"enabled":true,"region":"us-east","cc":"ca","latitude":45.50889,"longitude":-73.56167,"reserved":0,"last_update":"0001-01-01T00:00:00Z","name_a2s":"","protocol":0,"map":"","folder":"","game":"","app_id":0,"player_count":0,"max_players":0,"Bots":0,"server_type":"","server_os":"","password":false,"vac":false,"version":"","steam_id":0,"keywords":null,"game_id":0,"stv_port":0,"stv_name":"","players":null},{"server_id":13,"name":"Uncletopia | New York City | 1 | All Maps","name_short":"nyc-1","host":"nyc-1.us.uncletopia.com","port":27015,"enabled":true,"region":"us-east","cc":"us","latitude":40.73061,"longitude":-73.93524,"reserved":0,"last_update":"0001-01-01T00:00:00Z","name_a2s":"Uncletopia | New York City | 1 | All Maps","protocol":17,"map":"pl_frontier_final","folder":"tf","game":"Team Fortress","app_id":440,"player_count":22,"max_players":24,"Bots":0,"server_type":"Dedicated","server_os":"Linux","password":true,"vac":true,"version":"7961495","steam_id":85568392924469993,"keywords":["nocrits","nodmgspread","payload","uncletopia"],"game_id":440,"stv_port":27016,"stv_name":"Uncletopia | New York City | 1 | All Maps | STV","players":[{"user_id":470,"name":"mtmounts","steam_id":76561198338890132,"connected_time":1118000000000,"state":"active","ping":57},{"user_id":466,"name":"Drake the Pixel","steam_id":76561198131824401,"connected_time":1187000000000,"state":"active","ping":58},{"user_id":467,"name":"bobbymcbobington","steam_id":76561199089411172,"connected_time":1179000000000,"state":"active","ping":121},{"user_id":485,"name":"Bacchus","steam_id":76561198113244990,"connected_time":32000000000,"state":"spawning","ping":76},{"user_id":451,"name":"Fish Fisherman","steam_id":76561198018656022,"connected_time":2252000000000,"state":"active","ping":55},{"user_id":469,"name":"milk","steam_id":76561198813251405,"connected_time":1151000000000,"state":"active","ping":52},{"user_id":412,"name":"Valoxi","steam_id":76561197995042938,"connected_time":4648000000000,"state":"active","ping":132},{"user_id":452,"name":"Smiles","steam_id":76561198107197973,"connected_time":2229000000000,"state":"active","ping":77},{"user_id":457,"name":"donatofina","steam_id":76561198353497885,"connected_time":1982000000000,"state":"active","ping":167},{"user_id":471,"name":"top 10 water","steam_id":76561198072087574,"connected_time":1116000000000,"state":"active","ping":40},{"user_id":472,"name":"marcus tillius","steam_id":76561197982832274,"connected_time":1105000000000,"state":"active","ping":68},{"user_id":463,"name":"TheWallaby","steam_id":76561198948037546,"connected_time":1277000000000,"state":"active","ping":51},{"user_id":461,"name":"a7om1k","steam_id":76561198048174130,"connected_time":1530000000000,"state":"active","ping":97},{"user_id":477,"name":"peniblor","steam_id":76561198307923786,"connected_time":494000000000,"state":"active","ping":122},{"user_id":418,"name":"Neacrock","steam_id":76561199178338856,"connected_time":4000000000000,"state":"active","ping":56},{"user_id":484,"name":"WhyToAll","steam_id":76561199443373554,"connected_time":242000000000,"state":"active","ping":91},{"user_id":456,"name":"BeerPowder","steam_id":76561198058129400,"connected_time":2012000000000,"state":"active","ping":53},{"user_id":447,"name":"Degree","steam_id":76561198059812393,"connected_time":2582000000000,"state":"active","ping":49},{"user_id":433,"name":"BeefClapper420","steam_id":76561198080892634,"connected_time":3398000000000,"state":"active","ping":66},{"user_id":465,"name":"booze cruiser","steam_id":76561198203395648,"connected_time":1217000000000,"state":"active","ping":63},{"user_id":480,"name":"jg125","steam_id":76561198824953530,"connected_time":473000000000,"state":"active","ping":173},{"user_id":445,"name":"HundchenTanque","steam_id":76561198122692754,"connected_time":2748000000000,"state":"active","ping":45}]},{"server_id":14,"name":"Uncletopia | New York City | 2 | All Maps","name_short":"nyc-2","host":"nyc-1.us.uncletopia.com","port":27025,"enabled":true,"region":"us-east","cc":"us","latitude":40.73061,"longitude":-73.93524,"reserved":0,"last_update":"0001-01-01T00:00:00Z","name_a2s":"Uncletopia | New York City | 2 | All Maps","protocol":17,"map":"pl_borneo","folder":"tf","game":"Team Fortress","app_id":440,"player_count":19,"max_players":24,"Bots":0,"server_type":"Dedicated","server_os":"Linux","password":true,"vac":true,"version":"7961495","steam_id":85568392924469994,"keywords":["nocrits","nodmgspread","payload","uncletopia"],"game_id":440,"stv_port":27026,"stv_name":"Uncletopia | New York City | 2 | All Maps | STV","players":[{"user_id":338,"name":"Alejandro","steam_id":76561197970051493,"connected_time":1725000000000,"state":"active","ping":127},{"user_id":340,"name":"saurhead","steam_id":76561198132937722,"connected_time":1013000000000,"state":"active","ping":48},{"user_id":333,"name":"nav","steam_id":76561198872608266,"connected_time":1876000000000,"state":"active","ping":55},{"user_id":367,"name":"sansa musa","steam_id":76561198163723555,"connected_time":163000000000,"state":"active","ping":42},{"user_id":342,"name":"Fog_Ballistic","steam_id":76561199074395345,"connected_time":994000000000,"state":"active","ping":72},{"user_id":334,"name":"-W3E- grim10465","steam_id":76561198045698581,"connected_time":1773000000000,"state":"active","ping":29},{"user_id":364,"name":"Piss God","steam_id":76561198090504334,"connected_time":291000000000,"state":"active","ping":60},{"user_id":368,"name":"mr hanky","steam_id":76561198938434440,"connected_time":79000000000,"state":"active","ping":105},{"user_id":351,"name":"friendly salamander","steam_id":76561198888219116,"connected_time":875000000000,"state":"active","ping":54},{"user_id":345,"name":"Put A Fork In The Microwave","steam_id":76561199449924929,"connected_time":964000000000,"state":"active","ping":100},{"user_id":347,"name":"Alex","steam_id":76561198829752579,"connected_time":957000000000,"state":"active","ping":67},{"user_id":365,"name":"Cervid√©","steam_id":76561198098579497,"connected_time":284000000000,"state":"active","ping":56},{"user_id":369,"name":"Gamer_Cghlawn.","steam_id":76561199229001122,"connected_time":73000000000,"state":"active","ping":85},{"user_id":350,"name":"Captain Bug","steam_id":76561198137763878,"connected_time":882000000000,"state":"active","ping":66},{"user_id":313,"name":"Training Bot [Easy]","steam_id":76561199119473164,"connected_time":4149000000000,"state":"active","ping":94},{"user_id":336,"name":"ninety9dragonfly","steam_id":76561198363406983,"connected_time":1749000000000,"state":"active","ping":128},{"user_id":355,"name":"ATL69 | weewa","steam_id":76561198064876090,"connected_time":754000000000,"state":"active","ping":47},{"user_id":356,"name":"Pablo Cornfield","steam_id":76561198154279297,"connected_time":720000000000,"state":"active","ping":66},{"user_id":359,"name":"Robert","steam_id":76561198154286864,"connected_time":596000000000,"state":"active","ping":70}]},{"server_id":15,"name":"Uncletopia | New York City | 3 | Stopwatch","name_short":"nyc-3","host":"nyc-1.us.uncletopia.com","port":27035,"enabled":true,"region":"us-east","cc":"us","latitude":40.73061,"longitude":-73.93524,"reserved":0,"last_update":"0001-01-01T00:00:00Z","name_a2s":"Uncletopia | New York City | 3 | Stopwatch","protocol":17,"map":"pl_snowycoast","folder":"tf","game":"Team Fortress","app_id":440,"player_count":0,"max_players":24,"Bots":0,"server_type":"Dedicated","server_os":"Linux","password":true,"vac":true,"version":"7961495","steam_id":85568392924742820,"keywords":["nocrits","nodmgspread","payload","uncletopia"],"game_id":440,"stv_port":27036,"stv_name":"Uncletopia | New York City | 3 | Stopwatch | STV","players":null},{"server_id":16,"name":"Uncletopia | New York City | 4 | Community","name_short":"nyc-4","host":"nyc-1.us.uncletopia.com","port":27045,"enabled":true,"region":"us-east","cc":"us","latitude":40.73061,"longitude":-73.93524,"reserved":0,"last_update":"0001-01-01T00:00:00Z","name_a2s":"Uncletopia | New York City | 4 | Community","protocol":17,"map":"workshop/koth_product_final.ugc454272353","folder":"tf","game":"Team Fortress","app_id":440,"player_count":0,"max_players":24,"Bots":0,"server_type":"Dedicated","server_os":"Linux","password":true,"vac":true,"version":"7961495","steam_id":85568392924742821,"keywords":["cp","nocrits","nodmgspread","uncletopia"],"game_id":440,"stv_port":27046,"stv_name":"Uncletopia | New York City | 4 | Community | STV","players":null},{"server_id":142,"name":"Uncletopia | S√£o Paulo | 1 | All Maps","name_short":"sao-1","host":"sao-1.br.uncletopia.com","port":27015,"enabled":true,"region":"sa","cc":"br","latitude":-23.533773,"longitude":-46.62529,"reserved":0,"last_update":"0001-01-01T00:00:00Z","name_a2s":"Uncletopia | S√£o Paulo | 1 | All Maps","protocol":17,"map":"koth_viaduct","folder":"tf","game":"Team Fortress","app_id":440,"player_count":0,"max_players":24,"Bots":0,"server_type":"Dedicated","server_os":"Linux","password":true,"vac":true,"version":"7961495","steam_id":85568392924469996,"keywords":["cp","nocrits","nodmgspread","uncletopia"],"game_id":440,"stv_port":27016,"stv_name":"Uncletopia | S√£o Paulo | 1 | All Maps | STV","players":null},{"server_id":143,"name":"Uncletopia | S√£o Paulo | 2 | Community","name_short":"sao-2","host":"sao-2.br.uncletopia.com","port":27015,"enabled":true,"region":"sa","cc":"br","latitude":-23.533773,"longitude":-46.62529,"reserved":0,"last_update":"0001-01-01T00:00:00Z","name_a2s":"Uncletopia | S√£o Paulo | 2 | Community","protocol":17,"map":"workshop/pl_highwood_b13.ugc1769496557","folder":"tf","game":"Team Fortress","app_id":440,"player_count":0,"max_players":24,"Bots":0,"server_type":"Dedicated","server_os":"Linux","password":true,"vac":true,"version":"7961495","steam_id":85568392924485349,"keywords":["nocrits","nodmgspread","payload","uncletopia"],"game_id":440,"stv_port":27016,"stv_name":"Uncletopia | S√£o Paulo | 2 | Community | STV","players":null},{"server_id":7,"name":"Uncletopia | Seattle | 1 | All Maps","name_short":"sea-1","host":"sea-1.us.uncletopia.com","port":27015,"enabled":true,"region":"us-west","cc":"us","latitude":47.608013,"longitude":-122.33517,"reserved":0,"last_update":"0001-01-01T00:00:00Z","name_a2s":"Uncletopia | Seattle | 1 | All Maps","protocol":17,"map":"plr_bananabay","folder":"tf","game":"Team Fortress","app_id":440,"player_count":22,"max_players":24,"Bots":0,"server_type":"Dedicated","server_os":"Linux","password":true,"vac":true,"version":"7961495","steam_id":85568392924469997,"keywords":["nocrits","nodmgspread","payload","uncletopia"],"game_id":440,"stv_port":27016,"stv_name":"Uncletopia | Seattle | 1 | All Maps | STV","players":[{"user_id":67,"name":"Master Of Whales","steam_id":76561198349104889,"connected_time":1796000000000,"state":"active","ping":77},{"user_id":82,"name":"zeplinnn","steam_id":76561198301300987,"connected_time":414000000000,"state":"active","ping":85},{"user_id":69,"name":"jello_hey","steam_id":76561199176327650,"connected_time":1741000000000,"state":"active","ping":112},{"user_id":83,"name":"cielael","steam_id":76561198043971956,"connected_time":306000000000,"state":"active","ping":74},{"user_id":68,"name":"rat who can kickflip","steam_id":76561198073620027,"connected_time":1779000000000,"state":"active","ping":44},{"user_id":24,"name":"you just got dyked on","steam_id":76561198018977723,"connected_time":4667000000000,"state":"active","ping":51},{"user_id":70,"name":"A Chair Gaming","steam_id":76561198304314991,"connected_time":1734000000000,"state":"active","ping":130},{"user_id":54,"name":"havarti gaming","steam_id":76561198069895678,"connected_time":3515000000000,"state":"active","ping":64},{"user_id":85,"name":"Cheese Fiend","steam_id":76561198053602591,"connected_time":248000000000,"state":"active","ping":104},{"user_id":79,"name":"Skoad","steam_id":76561198104650528,"connected_time":843000000000,"state":"active","ping":75},{"user_id":65,"name":"MachoStoopid","steam_id":76561198073534460,"connected_time":2243000000000,"state":"active","ping":45},{"user_id":35,"name":"¬´D·µÉ ≥·µè.,,.T·µâ·µê·µñ¬ª","steam_id":76561198018185884,"connected_time":3958000000000,"state":"active","ping":44},{"user_id":86,"name":"RainboomCrash","steam_id":76561198065612273,"connected_time":224000000000,"state":"active","ping":53},{"user_id":80,"name":"Noah1k","steam_id":76561199428633514,"connected_time":670000000000,"state":"active","ping":58},{"user_id":39,"name":"Knockonwood0","steam_id":76561198062635137,"connected_time":3840000000000,"state":"active","ping":104},{"user_id":87,"name":"SGT. HurricanneGrims","steam_id":76561198991364252,"connected_time":177000000000,"state":"active","ping":110},{"user_id":88,"name":"Furious George","steam_id":76561198405111646,"connected_time":120000000000,"state":"active","ping":57},{"user_id":78,"name":"Hog Rider","steam_id":76561198275999294,"connected_time":864000000000,"state":"active","ping":55},{"user_id":74,"name":"Nom Skirrett","steam_id":76561198014600788,"connected_time":1253000000000,"state":"active","ping":61},{"user_id":81,"name":"Lemur","steam_id":76561198056693287,"connected_time":621000000000,"state":"active","ping":44},{"user_id":89,"name":"Enterra","steam_id":76561198076640940,"connected_time":100000000000,"state":"active","ping":44},{"user_id":49,"name":"Chimp Peen's Revunge","steam_id":76561198165778514,"connected_time":3698000000000,"state":"active","ping":76}]},{"server_id":119,"name":"Uncletopia | Seattle | 2 | All Maps","name_short":"sea-2","host":"sea-1.us.uncletopia.com","port":27025,"enabled":true,"region":"us-west","cc":"us","latitude":47.608013,"longitude":-122.33517,"reserved":0,"last_update":"0001-01-01T00:00:00Z","name_a2s":"Uncletopia | Seattle | 2 | All Maps","protocol":17,"map":"pl_borneo","folder":"tf","game":"Team Fortress","app_id":440,"player_count":24,"max_players":24,"Bots":0,"server_type":"Dedicated","server_os":"Linux","password":true,"vac":true,"version":"7961495","steam_id":85568392924469998,"keywords":["nocrits","nodmgspread","payload","uncletopia"],"game_id":440,"stv_port":27026,"stv_name":"Uncletopia | Seattle | 2 | All Maps | STV","players":[{"user_id":483,"name":"milk.","steam_id":76561198475060900,"connected_time":462000000000,"state":"active","ping":90},{"user_id":484,"name":"Nooblord","steam_id":76561199105123730,"connected_time":449000000000,"state":"active","ping":47},{"user_id":485,"name":"Dongus","steam_id":76561197979056451,"connected_time":411000000000,"state":"active","ping":57},{"user_id":479,"name":"Thunder","steam_id":76561198097721532,"connected_time":1266000000000,"state":"active","ping":75},{"user_id":481,"name":"Artic_Ryuu","steam_id":76561198182194918,"connected_time":1024000000000,"state":"active","ping":75},{"user_id":464,"name":"joethefool","steam_id":76561199015436319,"connected_time":2146000000000,"state":"active","ping":117},{"user_id":491,"name":"Doctor Pyro","steam_id":76561198240400118,"connected_time":205000000000,"state":"active","ping":104},{"user_id":450,"name":"Tinaho","steam_id":76561198815585874,"connected_time":2632000000000,"state":"active","ping":45},{"user_id":467,"name":"goofy goober","steam_id":76561199024079388,"connected_time":1971000000000,"state":"active","ping":45},{"user_id":436,"name":"sudoku_fiend","steam_id":76561198152029104,"connected_time":3287000000000,"state":"active","ping":73},{"user_id":468,"name":"Wafflemuscle","steam_id":76561198868628982,"connected_time":1816000000000,"state":"active","ping":36},{"user_id":486,"name":"Hamlindigo Blue‚Ñ¢","steam_id":76561198116337540,"connected_time":372000000000,"state":"active","ping":83},{"user_id":477,"name":"Petrivus","steam_id":76561198202152453,"connected_time":1361000000000,"state":"active","ping":45},{"user_id":451,"name":"vareh","steam_id":76561197993190926,"connected_time":2519000000000,"state":"active","ping":60},{"user_id":453,"name":"Maple","steam_id":76561199021617905,"connected_time":2476000000000,"state":"active","ping":80},{"user_id":492,"name":"reject drugs and embrace God","steam_id":76561198452519031,"connected_time":202000000000,"state":"active","ping":48},{"user_id":454,"name":"dirty30","steam_id":76561198021226566,"connected_time":2462000000000,"state":"active","ping":49},{"user_id":487,"name":"imng","steam_id":76561198014988031,"connected_time":370000000000,"state":"active","ping":106},{"user_id":488,"name":"GlingGlop95","steam_id":76561198386865528,"connected_time":368000000000,"state":"active","ping":126},{"user_id":489,"name":"Infentdegree211","steam_id":76561198385234127,"connected_time":368000000000,"state":"active","ping":107},{"user_id":490,"name":"pickup truck with huge honks","steam_id":76561198111447214,"connected_time":358000000000,"state":"active","ping":114},{"user_id":471,"name":"Yoyo-Wo","steam_id":76561198880520205,"connected_time":1669000000000,"state":"active","ping":88},{"user_id":472,"name":"The Horselords and Animal Gods","steam_id":76561197975094050,"connected_time":1668000000000,"state":"active","ping":77},{"user_id":461,"name":"Cristanc99","steam_id":76561198114715810,"connected_time":2251000000000,"state":"active","ping":75}]},{"server_id":406,"name":"Uncletopia | Seattle | 3 | Stopwatch","name_short":"sea-3","host":"sea-1.us.uncletopia.com","port":27035,"enabled":true,"region":"us-west","cc":"us","latitude":47.608013,"longitude":-122.33517,"reserved":0,"last_update":"0001-01-01T00:00:00Z","name_a2s":"Uncletopia | Seattle | 3 | Stopwatch","protocol":17,"map":"pl_pier","folder":"tf","game":"Team Fortress","app_id":440,"player_count":0,"max_players":24,"Bots":0,"server_type":"Dedicated","server_os":"Linux","password":true,"vac":true,"version":"7961495","steam_id":85568392924515217,"keywords":["nocrits","nodmgspread","payload","uncletopia"],"game_id":440,"stv_port":27036,"stv_name":"Uncletopia | Seattle | 3 | Stopwatch | STV","players":null},{"server_id":17,"name":"Uncletopia | San Francisco | 1 | All Maps","name_short":"sfo-1","host":"sfo-1.us.uncletopia.com","port":27015,"enabled":true,"region":"us-west","cc":"us","latitude":37.77397,"longitude":-122.4313,"reserved":0,"last_update":"0001-01-01T00:00:00Z","name_a2s":"Uncletopia | San Francisco | 1 | All Maps","protocol":17,"map":"koth_cascade","folder":"tf","game":"Team Fortress","app_id":440,"player_count":0,"max_players":24,"Bots":0,"server_type":"Dedicated","server_os":"Linux","password":true,"vac":true,"version":"7961495","steam_id":85568392924469999,"keywords":["cp","nocrits","nodmgspread","uncletopia"],"game_id":440,"stv_port":27016,"stv_name":"Uncletopia | San Francisco | 1 | All Maps | STV","players":null},{"server_id":18,"name":"Uncletopia | San Francisco | 2 | All Maps","name_short":"sfo-2","host":"sfo-1.us.uncletopia.com","port":27025,"enabled":true,"region":"us-west","cc":"us","latitude":37.77397,"longitude":-122.4313,"reserved":0,"last_update":"0001-01-01T00:00:00Z","name_a2s":"Uncletopia | San Francisco | 2 | All Maps","protocol":17,"map":"cp_dustbowl","folder":"tf","game":"Team Fortress","app_id":440,"player_count":0,"max_players":24,"Bots":0,"server_type":"Dedicated","server_os":"Linux","password":true,"vac":true,"version":"7961495","steam_id":85568392924470000,"keywords":["cp","nocrits","nodmgspread","uncletopia"],"game_id":440,"stv_port":27026,"stv_name":"Uncletopia | San Francisco | 2 | All Maps | STV","players":null},{"server_id":19,"name":"Uncletopia | San Francisco | 3 | Stopwatch","name_short":"sfo-3","host":"sfo-1.us.uncletopia.com","port":27035,"enabled":true,"region":"us-west","cc":"us","latitude":37.77397,"longitude":-122.4313,"reserved":0,"last_update":"0001-01-01T00:00:00Z","name_a2s":"Uncletopia | San Francisco | 3 | Stopwatch","protocol":17,"map":"pl_pier","folder":"tf","game":"Team Fortress","app_id":440,"player_count":0,"max_players":24,"Bots":0,"server_type":"Dedicated","server_os":"Linux","password":true,"vac":true,"version":"7961495","steam_id":85568392924742824,"keywords":["nocrits","nodmgspread","payload","uncletopia"],"game_id":440,"stv_port":27036,"stv_name":"Uncletopia | San Francisco | 3 | Stopwatch | STV","players":null},{"server_id":20,"name":"Uncletopia | San Francisco | 4 | Community","name_short":"sfo-4","host":"sfo-1.us.uncletopia.com","port":27045,"enabled":true,"region":"us-west","cc":"us","latitude":37.77397,"longitude":-122.4313,"reserved":0,"last_update":"0001-01-01T00:00:00Z","name_a2s":"Uncletopia | San Francisco | 4 | Community","protocol":17,"map":"workshop/koth_ashville_final.ugc2130459942","folder":"tf","game":"Team Fortress","app_id":440,"player_count":0,"max_players":24,"Bots":0,"server_type":"Dedicated","server_os":"Linux","password":true,"vac":true,"version":"7961495","steam_id":85568392924742826,"keywords":["cp","nocrits","nodmgspread","uncletopia"],"game_id":440,"stv_port":27046,"stv_name":"Uncletopia | San Francisco | 4 | Community | STV","players":null},{"server_id":141,"name":"Uncletopia | Sydney | 1 | All Maps","name_short":"syd-1","host":"syd-1.au.uncletopia.com","port":27015,"enabled":true,"region":"au","cc":"au","latitude":-33.865143,"longitude":151.2099,"reserved":0,"last_update":"0001-01-01T00:00:00Z","name_a2s":"Uncletopia | Sydney | 1 | All Maps","protocol":17,"map":"koth_viaduct","folder":"tf","game":"Team Fortress","app_id":440,"player_count":0,"max_players":24,"Bots":0,"server_type":"Dedicated","server_os":"Linux","password":true,"vac":true,"version":"7961495","steam_id":85568392924470001,"keywords":["cp","nocrits","nodmgspread","uncletopia"],"game_id":440,"stv_port":27016,"stv_name":"Uncletopia | Sydney | 1 | All Maps | STV","players":null},{"server_id":123,"name":"Uncletopia | Sydney | 2 | All Maps","name_short":"syd-2","host":"syd-1.au.uncletopia.com","port":27025,"enabled":true,"region":"au","cc":"au","latitude":-33.865143,"longitude":151.2099,"reserved":0,"last_update":"0001-01-01T00:00:00Z","name_a2s":"Uncletopia | Sydney | 2 | All Maps","protocol":17,"map":"koth_lakeside_final","folder":"tf","game":"Team Fortress","app_id":440,"player_count":0,"max_players":24,"Bots":0,"server_type":"Dedicated","server_os":"Linux","password":true,"vac":true,"version":"7961495","steam_id":85568392924470002,"keywords":["cp","nocrits","nodmgspread","uncletopia"],"game_id":440,"stv_port":27026,"stv_name":"Uncletopia | Sydney | 2 | All Maps | STV","players":null},{"server_id":395,"name":"Uncletopia | Sydney | 3 | All Maps","name_short":"syd-3","host":"syd-1.au.uncletopia.com","port":27035,"enabled":true,"region":"au","cc":"au","latitude":-33.865143,"longitude":151.2099,"reserved":0,"last_update":"0001-01-01T00:00:00Z","name_a2s":"Uncletopia | Sydney | 3 | All Maps","protocol":17,"map":"pl_frontier_final","folder":"tf","game":"Team Fortress","app_id":440,"player_count":0,"max_players":24,"Bots":0,"server_type":"Dedicated","server_os":"Linux","password":true,"vac":true,"version":"7961495","steam_id":85568392925194467,"keywords":["nocrits","nodmgspread","payload","uncletopia"],"game_id":440,"stv_port":27036,"stv_name":"Uncletopia | Sydney | 3 | All Maps | STV","players":null},{"server_id":396,"name":"Uncletopia | Sydney | 4 | All Maps","name_short":"syd-4","host":"syd-1.au.uncletopia.com","port":27045,"enabled":true,"region":"au","cc":"au","latitude":-33.865143,"longitude":151.2099,"reserved":0,"last_update":"0001-01-01T00:00:00Z","name_a2s":"Uncletopia | Sydney | 4 | All Maps","protocol":17,"map":"cp_process_final","folder":"tf","game":"Team Fortress","app_id":440,"player_count":0,"max_players":24,"Bots":0,"server_type":"Dedicated","server_os":"Linux","password":true,"vac":true,"version":"7961495","steam_id":85568392925397958,"keywords":["cp","nocrits","nodmgspread","uncletopia"],"game_id":440,"stv_port":27046,"stv_name":"Uncletopia | Sydney | 4 | All Maps | STV","players":null},{"server_id":58,"name":"Uncletopia | Sydney | 5 | Stopwatch","name_short":"syd-5","host":"syd-1.au.uncletopia.com","port":27055,"enabled":true,"region":"au","cc":"au","latitude":-33.865143,"longitude":151.2099,"reserved":0,"last_update":"0001-01-01T00:00:00Z","name_a2s":"Uncletopia | Sydney | 5 | Stopwatch","protocol":17,"map":"pl_frontier_final","folder":"tf","game":"Team Fortress","app_id":440,"player_count":0,"max_players":24,"Bots":0,"server_type":"Dedicated","server_os":"Linux","password":true,"vac":true,"version":"7961495","steam_id":85568392925397959,"keywords":["nocrits","nodmgspread","payload","uncletopia"],"game_id":440,"stv_port":27056,"stv_name":"Uncletopia | Sydney | 5 | Stopwatch | STV","players":null},{"server_id":59,"name":"Uncletopia | Sydney | 6 | Community","name_short":"syd-6","host":"syd-1.au.uncletopia.com","port":27065,"enabled":true,"region":"au","cc":"au","latitude":-33.865143,"longitude":151.2099,"reserved":0,"last_update":"0001-01-01T00:00:00Z","name_a2s":"Uncletopia | Sydney | 6 | Community","protocol":17,"map":"cp_sunshine","folder":"tf","game":"Team Fortress","app_id":440,"player_count":0,"max_players":24,"Bots":0,"server_type":"Dedicated","server_os":"Linux","password":true,"vac":true,"version":"7961495","steam_id":85568392925397960,"keywords":["cp","nocrits","nodmgspread","uncletopia"],"game_id":440,"stv_port":27066,"stv_name":"Uncletopia | Sydney | 6 | Community | STV","players":null},{"server_id":49,"name":"Uncletopia | Warsaw | 1 | One Thousand Uncles","name_short":"waw-1","host":"waw-1.pl.uncletopia.com","port":27015,"enabled":true,"region":"eu","cc":"pl","latitude":52.2297,"longitude":21.017532,"reserved":0,"last_update":"0001-01-01T00:00:00Z","name_a2s":"Uncletopia | Warsaw | 1 | One Thousand Uncles","protocol":17,"map":"cp_egypt_final","folder":"tf","game":"Team Fortress","app_id":440,"player_count":25,"max_players":32,"Bots":16,"server_type":"Dedicated","server_os":"Linux","password":true,"vac":true,"version":"7961495","steam_id":85568392925397850,"keywords":["alltalk","bots","cp","danepve","increased_maxplayers","nocrits","norespawntime","uncletopia"],"game_id":440,"stv_port":0,"stv_name":"","players":[{"user_id":667,"name":"alicheek_86","steam_id":76561198253553809,"connected_time":3244000000000,"state":"active","ping":73},{"user_id":710,"name":"N3lly","steam_id":76561198815271970,"connected_time":317000000000,"state":"active","ping":69},{"user_id":711,"name":"nelipa84","steam_id":76561199259397833,"connected_time":3000000000,"state":"spawning","ping":46},{"user_id":689,"name":"jackthegreenlade","steam_id":76561199468264132,"connected_time":2443000000000,"state":"active","ping":104},{"user_id":541,"name":"Lucas096br","steam_id":76561198350760997,"connected_time":10680000000000,"state":"active","ping":305},{"user_id":706,"name":"Retro","steam_id":76561199181824842,"connected_time":1172000000000,"state":"active","ping":66},{"user_id":690,"name":"Professorstino","steam_id":76561199117907277,"connected_time":2410000000000,"state":"active","ping":157},{"user_id":691,"name":"demo flower","steam_id":76561199401272759,"connected_time":2309000000000,"state":"active","ping":69},{"user_id":705,"name":"cheesecake hunter","steam_id":76561198097769060,"connected_time":1218000000000,"state":"active","ping":75}]},{"server_id":50,"name":"Uncletopia | Warsaw | 2 | One Thousand Uncles","name_short":"waw-2","host":"waw-1.pl.uncletopia.com","port":27025,"enabled":true,"region":"eu","cc":"pl","latitude":52.2297,"longitude":21.017532,"reserved":0,"last_update":"0001-01-01T00:00:00Z","name_a2s":"Uncletopia | Warsaw | 2 | One Thousand Uncles","protocol":17,"map":"pl_upward","folder":"tf","game":"Team Fortress","app_id":440,"player_count":26,"max_players":32,"Bots":16,"server_type":"Dedicated","server_os":"Linux","password":true,"vac":true,"version":"7961495","steam_id":85568392925397851,"keywords":["alltalk","bots","danepve","increased_maxplayers","nocrits","norespawntime","payload","uncletopia"],"game_id":440,"stv_port":0,"stv_name":"","players":[{"user_id":174,"name":"MaTTy","steam_id":76561198154318571,"connected_time":1052000000000,"state":"active","ping":68},{"user_id":130,"name":"ÓÑ¶The BaphometÓÑ§","steam_id":76561198051424707,"connected_time":4560000000000,"state":"active","ping":187},{"user_id":146,"name":"Sergeant Reilly","steam_id":76561198051361872,"connected_time":2665000000000,"state":"active","ping":76},{"user_id":132,"name":"skike","steam_id":76561198071079992,"connected_time":4271000000000,"state":"active","ping":96},{"user_id":176,"name":"bENtO","steam_id":76561198082076676,"connected_time":149000000000,"state":"active","ping":60},{"user_id":151,"name":"mikado990","steam_id":76561198116629489,"connected_time":2032000000000,"state":"active","ping":43},{"user_id":172,"name":"C++, Git and Linux Enjoyer","steam_id":76561198277310442,"connected_time":1393000000000,"state":"active","ping":86},{"user_id":89,"name":"DigyB","steam_id":76561198014442345,"connected_time":6780000000000,"state":"active","ping":81},{"user_id":88,"name":"rodney mullen","steam_id":76561198030155915,"connected_time":6854000000000,"state":"active","ping":92},{"user_id":147,"name":"BlazeHX","steam_id":76561198827408017,"connected_time":2463000000000,"state":"active","ping":179}]},{"server_id":51,"name":"Uncletopia | Warsaw | 3 | All Maps","name_short":"waw-3","host":"waw-1.pl.uncletopia.com","port":27035,"enabled":true,"region":"eu","cc":"pl","latitude":52.2297,"longitude":21.017532,"reserved":0,"last_update":"0001-01-01T00:00:00Z","name_a2s":"Uncletopia | Warsaw | 3 | All Maps","protocol":17,"map":"plr_pipeline","folder":"tf","game":"Team Fortress","app_id":440,"player_count":0,"max_players":24,"Bots":0,"server_type":"Dedicated","server_os":"Linux","password":true,"vac":true,"version":"7961495","steam_id":85568392925397852,"keywords":["nocrits","nodmgspread","payload","uncletopia"],"game_id":440,"stv_port":27036,"stv_name":"Uncletopia | Warsaw | 3 | All Maps | STV","players":null},{"server_id":52,"name":"Uncletopia | Warsaw | 4 | All Maps","name_short":"waw-4","host":"waw-1.pl.uncletopia.com","port":27045,"enabled":true,"region":"eu","cc":"pl","latitude":52.2297,"longitude":21.017532,"reserved":0,"last_update":"0001-01-01T00:00:00Z","name_a2s":"Uncletopia | Warsaw | 4 | All Maps","protocol":17,"map":"pl_borneo","folder":"tf","game":"Team Fortress","app_id":440,"player_count":7,"max_players":24,"Bots":0,"server_type":"Dedicated","server_os":"Linux","password":true,"vac":true,"version":"7961495","steam_id":85568392925397853,"keywords":["nocrits","nodmgspread","payload","uncletopia"],"game_id":440,"stv_port":27046,"stv_name":"Uncletopia | Warsaw | 4 | All Maps | STV","players":[{"user_id":51,"name":"Rodak","steam_id":76561199135986344,"connected_time":177000000000,"state":"active","ping":61},{"user_id":46,"name":"Piesel","steam_id":76561198985453063,"connected_time":1645000000000,"state":"active","ping":32},{"user_id":36,"name":"A Bl√•haj Fan","steam_id":76561199029212388,"connected_time":4088000000000,"state":"active","ping":33},{"user_id":50,"name":"Advokat","steam_id":76561198307121174,"connected_time":460000000000,"state":"active","ping":47},{"user_id":48,"name":"Pirata","steam_id":76561199277116034,"connected_time":1504000000000,"state":"active","ping":34},{"user_id":42,"name":"Yuzu","steam_id":76561198121694613,"connected_time":2514000000000,"state":"active","ping":60},{"user_id":52,"name":"Flying skyhigh","steam_id":76561198372971096,"connected_time":43000000000,"state":"active","ping":80}]},{"server_id":53,"name":"Uncletopia | Warsaw | 5 | Stopwatch","name_short":"waw-5","host":"waw-1.pl.uncletopia.com","port":27055,"enabled":true,"region":"eu","cc":"pl","latitude":52.2297,"longitude":21.017532,"reserved":0,"last_update":"0001-01-01T00:00:00Z","name_a2s":"Uncletopia | Warsaw | 5 | Stopwatch","protocol":17,"map":"koth_lakeside_final","folder":"tf","game":"Team Fortress","app_id":440,"player_count":3,"max_players":24,"Bots":0,"server_type":"Dedicated","server_os":"Linux","password":true,"vac":true,"version":"7961495","steam_id":85568392925397854,"keywords":["cp","nocrits","nodmgspread","uncletopia"],"game_id":440,"stv_port":27056,"stv_name":"Uncletopia | Warsaw | 5 | Stopwatch | STV","players":[{"user_id":17,"name":"MisterT","steam_id":76561199084435129,"connected_time":479000000000,"state":"active","ping":93},{"user_id":15,"name":"reflexesis","steam_id":76561199477854533,"connected_time":1011000000000,"state":"active","ping":90},{"user_id":19,"name":"Tispy","steam_id":76561199207410049,"connected_time":68000000000,"state":"active","ping":109}]},{"server_id":54,"name":"Uncletopia | Warsaw | 6 | Community","name_short":"waw-6","host":"waw-1.pl.uncletopia.com","port":27065,"enabled":true,"region":"eu","cc":"pl","latitude":52.2297,"longitude":21.017532,"reserved":0,"last_update":"0001-01-01T00:00:00Z","name_a2s":"Uncletopia | Warsaw | 6 | Community","protocol":17,"map":"workshop/koth_ashville_final.ugc2130459942","folder":"tf","game":"Team Fortress","app_id":440,"player_count":0,"max_players":24,"Bots":0,"server_type":"Dedicated","server_os":"Linux","password":true,"vac":true,"version":"7961495","steam_id":85568392925397856,"keywords":["cp","nocrits","nodmgspread","uncletopia"],"game_id":440,"stv_port":27066,"stv_name":"Uncletopia | Warsaw | 6 | Community | STV","players":null}]}