{"status":true,"message":"","result":[{"server_id":9,"name":"Uncletopia | Atlanta | 1 | All Maps","name_short":"atl-1","host":"atl-1.us.uncletopia.com","port":27015,"enabled":true,"region":"us-east","cc":"us","latitude":33.753746,"longitude":-84.38633,"reserved":0,"last_update":"0001-01-01T00:00:00Z","name_a2s":"Uncletopia | Atlanta | 1 | All Maps","protocol":17,"map":"cp_mountainlab","folder":"tf","game":"Team Fortress","app_id":440,"player_count":24,"max_players":24,"Bots":0,"server_type":"Dedicated","server_os":"Linux","password":true,"vac":true,"version":"7961495","steam_id":85568392924469982,"keywords":["cp","nocrits","nodmgspread","uncletopia"],"game_id":440,"stv_port":27016,"stv_name":"Uncletopia | Atlanta | 1 | All Maps | STV","players":null},{"server_id":104,"name":"Uncletopia | Atlanta | 2 | All Maps","name_short":"atl-2","host":"atl-1.us.uncletopia.com","port":27025,"enabled":true,"region":"us-east","cc":"us","latitude":33.753746,"longitude":-84.38633,"reserved":0,"last_update":"0001-01-01T00:00:00Z","name_a2s":"Uncletopia | Atlanta | 2 | All Maps","protocol":17,"map":"pl_thundermountain","folder":"tf","game":"Team Fortress","app_id":440,"player_count":24,"max_players":24,"Bots":0,"server_type":"Dedicated","server_os":"Linux","password":true,"vac":true,"version":"7961495","steam_id":85568392924469983,"keywords":["nocrits","nodmgspread","payload","uncletopia"],"game_id":440,"stv_port":27026,"stv_name":"Uncletopia | Atlanta | 2 | All Maps | STV","players":null},{"server_id":400,"name":"Uncletopia | Atlanta | 3 | Stopwatch","name_short":"atl-3","host":"atl-1.us.uncletopia.com","port":27035,"enabled":true,"region":"us-east","cc":"us","latitude":33.753746,"longitude":-84.38633,"reserved":0,"last_update":"0001-01-01T00:00:00Z","name_a2s":"Uncletopia | Atlanta | 3 | Stopwatch","protocol":17,"map":"cp_sunshine","folder":"tf","game":"Team Fortress","app_id":440,"player_count":7,"max_players":24,"Bots":0,"server_type":"Dedicated","server_os":"Linux","password":true,"vac":true,"version":"7961495","steam_id":85568392924515187,"keywords":["cp","nocrits","nodmgspread","uncletopia"],"game_id":440,"stv_port":27036,"stv_name":"Uncletopia | Atlanta | 3 | Stopwatch | STV","players":null},{"server_id":401,"name":"Uncletopia | Atlanta | 4 | Community","name_short":"atl-4","host":"atl-1.us.uncletopia.com","port":27045,"enabled":true,"region":"us-east","cc":"us","latitude":33.753746,"longitude":-84.38633,"reserved":0,"last_update":"0001-01-01T00:00:00Z","name_a2s":"Uncletopia | Atlanta | 4 | Community","protocol":17,"map":"cp_reckoner_rc6","folder":"tf","game":"Team Fortress","app_id":440,"player_count":0,"max_players":24,"Bots":0,"server_type":"Dedicated","server_os":"Linux","password":true,"vac":true,"version":"7961495","steam_id":85568392924515188,"keywords":["cp","nocrits","nodmgspread","uncletopia"],"game_id":440,"stv_port":27046,"stv_name":"Uncletopia | Atlanta | 4 | Community | STV","players":null},{"server_id":2,"name":"Uncletopia | Chicago | 1 | All Maps","name_short":"chi-1","host":"chi-1.us.uncletopia.com","port":27015,"enabled":true,"region":"us-central","cc":"us","latitude":41.881832,"longitude":-87.62318,"reserved":0,"last_update":"0001-01-01T00:00:00Z","name_a2s":"Uncletopia | Chicago | 1 | All Maps","protocol":17,"map":"cp_mountainlab","folder":"tf","game":"Team Fortress","app_id":440,"player_count":24,"max_players":24,"Bots":0,"server_type":"Dedicated","server_os":"Linux","password":true,"vac":true,"version":"7961495","steam_id":85568392924469984,"keywords":["cp","nocrits","nodmgspread","uncletopia"],"game_id":440,"stv_port":27016,"stv_name":"Uncletopia | Chicago | 1 | All Maps | STV","players":[{"user_id":438,"name":"ADRIEN BRODY","steam_id":76561198009299473,"connected_time":5312000000000,"state":"active","ping":65},{"user_id":516,"name":"Genderneutron","steam_id":76561199022773775,"connected_time":841000000000,"state":"active","ping":98},{"user_id":507,"name":"YourExGayLover","steam_id":76561198041460359,"connected_time":1262000000000,"state":"active","ping":70},{"user_id":517,"name":"SenpaiZetch","steam_id":76561199132227118,"connected_time":807000000000,"state":"active","ping":79},{"user_id":530,"name":"TallBit","steam_id":76561199059748976,"connected_time":123000000000,"state":"active","ping":51},{"user_id":511,"name":"grass eater","steam_id":76561198310001024,"connected_time":1159000000000,"state":"active","ping":67},{"user_id":527,"name":"Praise_to_the_Flashlight!","steam_id":76561199001728789,"connected_time":363000000000,"state":"active","ping":61},{"user_id":518,"name":"Crunchy","steam_id":76561198060342804,"connected_time":451000000000,"state":"active","ping":82},{"user_id":484,"name":"NukaTheRabbit {Fur}","steam_id":76561198058692928,"connected_time":2104000000000,"state":"active","ping":60},{"user_id":467,"name":"OldRavensFan","steam_id":76561198043919562,"connected_time":3621000000000,"state":"active","ping":70},{"user_id":503,"name":"Dry Bones","steam_id":76561198341537452,"connected_time":1384000000000,"state":"active","ping":78},{"user_id":525,"name":"PhaserLazer","steam_id":76561198407341298,"connected_time":390000000000,"state":"active","ping":75},{"user_id":458,"name":"THORNFIELDGAMER","steam_id":76561199087167473,"connected_time":4302000000000,"state":"active","ping":89},{"user_id":487,"name":"Twitch University","steam_id":76561198120758046,"connected_time":1989000000000,"state":"active","ping":68},{"user_id":481,"name":"Nefy","steam_id":76561198030017316,"connected_time":2534000000000,"state":"active","ping":91},{"user_id":522,"name":"Arcane Flame","steam_id":76561198360024422,"connected_time":413000000000,"state":"active","ping":115},{"user_id":531,"name":"VicLoL","steam_id":76561198045580784,"connected_time":115000000000,"state":"active","ping":112},{"user_id":526,"name":"murderous deer","steam_id":76561198350832152,"connected_time":378000000000,"state":"active","ping":66},{"user_id":506,"name":"HOTA","steam_id":76561199002778841,"connected_time":1287000000000,"state":"active","ping":74},{"user_id":529,"name":"sharkbyt3","steam_id":76561197985793803,"connected_time":306000000000,"state":"active","ping":73},{"user_id":515,"name":"Mellow Yellow","steam_id":76561198406276981,"connected_time":896000000000,"state":"active","ping":56},{"user_id":508,"name":"Nova","steam_id":76561198296902861,"connected_time":1255000000000,"state":"active","ping":80},{"user_id":509,"name":"Xx_Savage_Twerks_xX","steam_id":76561198011665915,"connected_time":1252000000000,"state":"active","ping":63},{"user_id":521,"name":"‚ô•Bunny‚ô•Slut‚ô•","steam_id":76561198206376851,"connected_time":438000000000,"state":"active","ping":87}]},{"server_id":106,"name":"Uncletopia | Chicago | 2 | All Maps","name_short":"chi-2","host":"chi-1.us.uncletopia.com","port":27025,"enabled":true,"region":"us-central","cc":"us","latitude":41.881832,"longitude":-87.62318,"reserved":0,"last_update":"0001-01-01T00:00:00Z","name_a2s":"Uncletopia | Chicago | 2 | All Maps","protocol":17,"map":"pl_swiftwater_final1","folder":"tf","game":"Team Fortress","app_id":440,"player_count":24,"max_players":24,"Bots":0,"server_type":"Dedicated","server_os":"Linux","password":true,"vac":true,"version":"7961495","steam_id":85568392924469985,"keywords":["nocrits","nodmgspread","payload","uncletopia"],"game_id":440,"stv_port":27026,"stv_name":"Uncletopia | Chicago | 2 | All Maps | STV","players":[{"user_id":297,"name":"Lou","steam_id":76561198041394724,"connected_time":1183000000000,"state":"active","ping":49},{"user_id":259,"name":"Aerobro","steam_id":76561198033530996,"connected_time":3087000000000,"state":"active","ping":91},{"user_id":285,"name":"Wafflehead","steam_id":76561198053539741,"connected_time":2458000000000,"state":"active","ping":77},{"user_id":313,"name":"hammy","steam_id":76561198035751911,"connected_time":553000000000,"state":"active","ping":71},{"user_id":316,"name":"Alice in Rubberland","steam_id":76561198087328346,"connected_time":286000000000,"state":"active","ping":45},{"user_id":317,"name":"Dinodie","steam_id":76561198190332477,"connected_time":274000000000,"state":"active","ping":64},{"user_id":300,"name":"Aster","steam_id":76561198037920420,"connected_time":925000000000,"state":"active","ping":73},{"user_id":314,"name":"KATSURB","steam_id":76561199172118456,"connected_time":485000000000,"state":"active","ping":57},{"user_id":298,"name":"Adolf Dripler","steam_id":76561199012641732,"connected_time":1167000000000,"state":"active","ping":152},{"user_id":221,"name":"Le","steam_id":76561198817754233,"connected_time":5579000000000,"state":"active","ping":60},{"user_id":303,"name":"turnip","steam_id":76561197999375941,"connected_time":850000000000,"state":"active","ping":75},{"user_id":309,"name":"Old Man Johnson","steam_id":76561197984526216,"connected_time":794000000000,"state":"active","ping":105},{"user_id":295,"name":"Autumn, The Only Good Season","steam_id":76561198103496593,"connected_time":1512000000000,"state":"active","ping":60},{"user_id":218,"name":"randomperson88","steam_id":76561199228822173,"connected_time":5745000000000,"state":"active","ping":58},{"user_id":306,"name":"Zomboboi_","steam_id":76561198139401380,"connected_time":821000000000,"state":"active","ping":62},{"user_id":291,"name":"10HourNaps","steam_id":76561199082304859,"connected_time":1974000000000,"state":"active","ping":112},{"user_id":299,"name":"Julio","steam_id":76561198272237516,"connected_time":1166000000000,"state":"active","ping":55},{"user_id":302,"name":"wheat","steam_id":76561197971158435,"connected_time":870000000000,"state":"active","ping":56},{"user_id":288,"name":"LerN","steam_id":76561198083463877,"connected_time":2270000000000,"state":"active","ping":46},{"user_id":296,"name":"Deathpill","steam_id":76561197994404793,"connected_time":1200000000000,"state":"active","ping":75},{"user_id":305,"name":"Five","steam_id":76561198026640473,"connected_time":846000000000,"state":"active","ping":66},{"user_id":319,"name":"Flying Chemist","steam_id":76561198085039837,"connected_time":53000000000,"state":"spawning","ping":193},{"user_id":315,"name":"nhbiker","steam_id":76561198081277675,"connected_time":362000000000,"state":"active","ping":60},{"user_id":239,"name":"t.tv/FamilyGuyFunnyMoments277","steam_id":76561198416047580,"connected_time":4755000000000,"state":"active","ping":67}]},{"server_id":402,"name":"Uncletopia | Chicago | 3 | All Maps","name_short":"chi-3","host":"chi-1.us.uncletopia.com","port":27035,"enabled":true,"region":"us-central","cc":"us","latitude":41.881832,"longitude":-87.62318,"reserved":0,"last_update":"0001-01-01T00:00:00Z","name_a2s":"Uncletopia | Chicago | 3 | All Maps","protocol":17,"map":"koth_cascade","folder":"tf","game":"Team Fortress","app_id":440,"player_count":0,"max_players":24,"Bots":0,"server_type":"Dedicated","server_os":"Linux","password":true,"vac":true,"version":"7961495","steam_id":85568392924515191,"keywords":["cp","nocrits","nodmgspread","uncletopia"],"game_id":440,"stv_port":27036,"stv_name":"Uncletopia | Chicago | 3 | All Maps | STV","players":null},{"server_id":403,"name":"Uncletopia | Chicago | 4 | All Maps","name_short":"chi-4","host":"chi-1.us.uncletopia.com","port":27045,"enabled":true,"region":"us-central","cc":"us","latitude":41.881832,"longitude":-87.62318,"reserved":0,"last_update":"0001-01-01T00:00:00Z","name_a2s":"Uncletopia | Chicago | 4 | All Maps","protocol":17,"map":"pl_badwater","folder":"tf","game":"Team Fortress","app_id":440,"player_count":24,"max_players":24,"Bots":0,"server_type":"Dedicated","server_os":"Linux","password":true,"vac":true,"version":"7961495","steam_id":85568392924515193,"keywords":["nocrits","nodmgspread","payload","uncletopia"],"game_id":440,"stv_port":27046,"stv_name":"Uncletopia | Chicago | 4 | All Maps | STV","players":[{"user_id":80,"name":"yomommasabitch","steam_id":76561198323217150,"connected_time":241000000000,"state":"active","ping":59},{"user_id":64,"name":"Michaelpc1","steam_id":76561198088365519,"connected_time":1377000000000,"state":"active","ping":51},{"user_id":74,"name":"banana weapon collector","steam_id":76561199381954163,"connected_time":979000000000,"state":"active","ping":86},{"user_id":65,"name":"jayhong","steam_id":76561198046772832,"connected_time":1375000000000,"state":"active","ping":30},{"user_id":82,"name":"President James Dean","steam_id":76561198080122380,"connected_time":229000000000,"state":"active","ping":96},{"user_id":45,"name":"feudal","steam_id":76561198057374871,"connected_time":2238000000000,"state":"active","ping":59},{"user_id":21,"name":"nomocantgame","steam_id":76561198865074599,"connected_time":2733000000000,"state":"active","ping":167},{"user_id":67,"name":"xZoroarkgaming","steam_id":76561199199302865,"connected_time":1344000000000,"state":"active","ping":79},{"user_id":84,"name":"MrDudeMan","steam_id":76561198959351282,"connected_time":75000000000,"state":"active","ping":73},{"user_id":25,"name":"SIN K4RMA","steam_id":76561198869287223,"connected_time":2606000000000,"state":"active","ping":75},{"user_id":85,"name":"Jamie","steam_id":76561198058840477,"connected_time":29000000000,"state":"spawning","ping":74},{"user_id":75,"name":"ketchup","steam_id":76561197990543589,"connected_time":914000000000,"state":"active","ping":67},{"user_id":29,"name":"SneakySneak","steam_id":76561198064847921,"connected_time":2514000000000,"state":"active","ping":66},{"user_id":30,"name":"Toa of Time","steam_id":76561198086867556,"connected_time":2503000000000,"state":"active","ping":101},{"user_id":77,"name":"Zymiren","steam_id":76561198054985471,"connected_time":865000000000,"state":"active","ping":99},{"user_id":69,"name":"double xp weekend","steam_id":76561198052950547,"connected_time":1311000000000,"state":"active","ping":45},{"user_id":81,"name":"tobrehto","steam_id":76561198097544038,"connected_time":235000000000,"state":"active","ping":92},{"user_id":48,"name":"joe","steam_id":76561199389283507,"connected_time":2149000000000,"state":"active","ping":71},{"user_id":79,"name":"slide","steam_id":76561198038080028,"connected_time":673000000000,"state":"active","ping":90},{"user_id":76,"name":"Pylons","steam_id":76561198006976850,"connected_time":881000000000,"state":"active","ping":84},{"user_id":37,"name":"Spud \u003c3","steam_id":76561198208657333,"connected_time":2469000000000,"state":"active","ping":50},{"user_id":78,"name":"mArc","steam_id":76561198416030814,"connected_time":746000000000,"state":"active","ping":82},{"user_id":39,"name":"Imagine being trash at Medic","steam_id":76561197986530028,"connected_time":2455000000000,"state":"active","ping":102},{"user_id":83,"name":"josh","steam_id":76561198077902438,"connected_time":226000000000,"state":"active","ping":76}]},{"server_id":36,"name":"Uncletopia | Chicago | 5 | All Maps","name_short":"chi-5","host":"chi-2.us.uncletopia.com","port":27015,"enabled":true,"region":"us-central","cc":"us","latitude":41.881832,"longitude":-87.62318,"reserved":0,"last_update":"0001-01-01T00:00:00Z","name_a2s":"Uncletopia | Chicago | 5 | All Maps","protocol":17,"map":"pl_snowycoast","folder":"tf","game":"Team Fortress","app_id":440,"player_count":2,"max_players":24,"Bots":0,"server_type":"Dedicated","server_os":"Linux","password":true,"vac":true,"version":"7961495","steam_id":85568392924866362,"keywords":["nocrits","nodmgspread","payload","uncletopia"],"game_id":440,"stv_port":27016,"stv_name":"Uncletopia | Chicago | 5 | All Maps | STV","players":[{"user_id":128,"name":"Kingcole2022","steam_id":76561198030663950,"connected_time":111000000000,"state":"active","ping":74},{"user_id":129,"name":"Shady Businessman","steam_id":76561198143855968,"connected_time":80000000000,"state":"active","ping":87}]},{"server_id":37,"name":"Uncletopia | Chicago | 6 | All Maps","name_short":"chi-6","host":"chi-2.us.uncletopia.com","port":27025,"enabled":true,"region":"us-central","cc":"us","latitude":41.881832,"longitude":-87.62318,"reserved":0,"last_update":"0001-01-01T00:00:00Z","name_a2s":"Uncletopia | Chicago | 6 | All Maps","protocol":17,"map":"koth_cascade","folder":"tf","game":"Team Fortress","app_id":440,"player_count":0,"max_players":24,"Bots":0,"server_type":"Dedicated","server_os":"Linux","password":true,"vac":true,"version":"7961495","steam_id":85568392924866363,"keywords":["cp","nocrits","nodmgspread","uncletopia"],"game_id":440,"stv_port":27026,"stv_name":"Uncletopia | Chicago | 6 | All Maps | STV","players":null},{"server_id":38,"name":"Uncletopia | Chicago | 7 | Stopwatch","name_short":"chi-7","host":"chi-2.us.uncletopia.com","port":27035,"enabled":true,"region":"us-central","cc":"us","latitude":41.881832,"longitude":-87.62318,"reserved":0,"last_update":"0001-01-01T00:00:00Z","name_a2s":"Uncletopia | Chicago | 7 | Stopwatch","protocol":17,"map":"pl_badwater","folder":"tf","game":"Team Fortress","app_id":440,"player_count":0,"max_players":24,"Bots":0,"server_type":"Dedicated","server_os":"Linux","password":true,"vac":true,"version":"7961495","steam_id":85568392924866364,"keywords":["nocrits","nodmgspread","payload","uncletopia"],"game_id":440,"stv_port":27036,"stv_name":"Uncletopia | Chicago | 7 | Stopwatch | STV","players":null},{"server_id":39,"name":"Uncletopia | Chicago | 8 | Community","name_short":"chi-8","host":"chi-2.us.uncletopia.com","port":27045,"enabled":true,"region":"us-central","cc":"us","latitude":41.881832,"longitude":-87.62318,"reserved":0,"last_update":"0001-01-01T00:00:00Z","name_a2s":"Uncletopia | Chicago | 8 | Community","protocol":17,"map":"workshop/cp_bruhstbowl_b6.ugc2878604990","folder":"tf","game":"Team Fortress","app_id":440,"player_count":0,"max_players":24,"Bots":0,"server_type":"Dedicated","server_os":"Linux","password":true,"vac":true,"version":"7961495","steam_id":85568392924866365,"keywords":["cp","nocrits","nodmgspread","uncletopia"],"game_id":440,"stv_port":27046,"stv_name":"Uncletopia | Chicago | 8 | Community | STV","players":null},{"server_id":8,"name":"Uncletopia | Dallas | 1 | All Maps","name_short":"dal-1","host":"dal-1.us.uncletopia.com","port":27015,"enabled":true,"region":"us-central","cc":"us","latitude":32.779167,"longitude":-96.80889,"reserved":0,"last_update":"0001-01-01T00:00:00Z","name_a2s":"Uncletopia | Dallas | 1 | All Maps","protocol":17,"map":"pl_pier","folder":"tf","game":"Team Fortress","app_id":440,"player_count":24,"max_players":24,"Bots":0,"server_type":"Dedicated","server_os":"Linux","password":true,"vac":true,"version":"7961495","steam_id":85568392924469986,"keywords":["nocrits","nodmgspread","payload","uncletopia"],"game_id":440,"stv_port":27016,"stv_name":"Uncletopia | Dallas | 1 | All Maps | STV","players":[{"user_id":364,"name":"Aku+","steam_id":76561198813782795,"connected_time":345000000000,"state":"active","ping":166},{"user_id":346,"name":"Mr.Nostalgic","steam_id":76561198083240822,"connected_time":1212000000000,"state":"active","ping":95},{"user_id":351,"name":"Cam","steam_id":76561198139174433,"connected_time":1020000000000,"state":"active","ping":66},{"user_id":350,"name":"–û–±–∞–º–∞","steam_id":76561198134415874,"connected_time":1053000000000,"state":"active","ping":66},{"user_id":323,"name":"dumbest girl alive","steam_id":76561198062263639,"connected_time":3446000000000,"state":"active","ping":54},{"user_id":352,"name":"Jonny4Balls","steam_id":76561198979333994,"connected_time":1007000000000,"state":"active","ping":128},{"user_id":344,"name":"Silvermace","steam_id":76561198090696843,"connected_time":1292000000000,"state":"active","ping":60},{"user_id":369,"name":"shakoiwa","steam_id":76561199059441773,"connected_time":90000000000,"state":"active","ping":88},{"user_id":355,"name":"Marv_L","steam_id":76561198035709541,"connected_time":811000000000,"state":"active","ping":99},{"user_id":356,"name":"Oh no hermano","steam_id":76561199076405865,"connected_time":807000000000,"state":"active","ping":121},{"user_id":354,"name":"fuji5656","steam_id":76561198800408428,"connected_time":923000000000,"state":"active","ping":90},{"user_id":368,"name":"finger","steam_id":76561198068558572,"connected_time":172000000000,"state":"active","ping":65},{"user_id":305,"name":"êÇÉêÇÉêÇÉ","steam_id":76561198026563351,"connected_time":4765000000000,"state":"active","ping":80},{"user_id":340,"name":"chanoc","steam_id":76561198026734746,"connected_time":1746000000000,"state":"active","ping":92},{"user_id":361,"name":"Killbasa","steam_id":76561198064868400,"connected_time":357000000000,"state":"active","ping":96},{"user_id":292,"name":"Dogbone","steam_id":76561198145805801,"connected_time":6163000000000,"state":"active","ping":100},{"user_id":289,"name":"Genne","steam_id":76561198153434791,"connected_time":6280000000000,"state":"active","ping":86},{"user_id":327,"name":"judesro","steam_id":76561198352244888,"connected_time":3232000000000,"state":"active","ping":99},{"user_id":319,"name":"MancalaMadMan","steam_id":76561198347324053,"connected_time":3688000000000,"state":"active","ping":113},{"user_id":349,"name":"Captain Pronin","steam_id":76561198317859107,"connected_time":1105000000000,"state":"active","ping":90},{"user_id":362,"name":"Imrgrim","steam_id":76561198135866481,"connected_time":355000000000,"state":"active","ping":65},{"user_id":205,"name":"TheGFG","steam_id":76561198166150556,"connected_time":11772000000000,"state":"active","ping":71},{"user_id":299,"name":"The Foolish Samurai","steam_id":76561198094494945,"connected_time":5414000000000,"state":"active","ping":90},{"user_id":366,"name":"Carne Asada?","steam_id":76561198157252638,"connected_time":292000000000,"state":"active","ping":69}]},{"server_id":108,"name":"Uncletopia | Dallas | 2 | All Maps","name_short":"dal-2","host":"dal-1.us.uncletopia.com","port":27025,"enabled":true,"region":"us-central","cc":"us","latitude":32.779167,"longitude":-96.80889,"reserved":0,"last_update":"0001-01-01T00:00:00Z","name_a2s":"Uncletopia | Dallas | 2 | All Maps","protocol":17,"map":"cp_steel","folder":"tf","game":"Team Fortress","app_id":440,"player_count":24,"max_players":24,"Bots":0,"server_type":"Dedicated","server_os":"Linux","password":true,"vac":true,"version":"7961495","steam_id":85568392924469988,"keywords":["cp","nocrits","nodmgspread","uncletopia"],"game_id":440,"stv_port":27026,"stv_name":"Uncletopia | Dallas | 2 | All Maps | STV","players":[{"user_id":194,"name":"Ginnunga","steam_id":76561198000320083,"connected_time":498000000000,"state":"active","ping":74},{"user_id":171,"name":"Yeti","steam_id":76561199226373771,"connected_time":1728000000000,"state":"active","ping":45},{"user_id":188,"name":"Zebulaun","steam_id":76561197965160251,"connected_time":599000000000,"state":"active","ping":77},{"user_id":174,"name":"Bebop","steam_id":76561198010246894,"connected_time":1495000000000,"state":"active","ping":76},{"user_id":190,"name":"Madeline","steam_id":76561198002123006,"connected_time":593000000000,"state":"active","ping":101},{"user_id":176,"name":"Owl Pacino","steam_id":76561197979970666,"connected_time":1454000000000,"state":"active","ping":76},{"user_id":196,"name":"felony tomfoolery charges","steam_id":76561199068981957,"connected_time":150000000000,"state":"active","ping":75},{"user_id":139,"name":"cozy","steam_id":76561199044037628,"connected_time":4285000000000,"state":"active","ping":97},{"user_id":182,"name":"sock_vendor","steam_id":76561198059103865,"connected_time":930000000000,"state":"active","ping":95},{"user_id":155,"name":"Business_Goose","steam_id":76561199136405691,"connected_time":3876000000000,"state":"active","ping":132},{"user_id":153,"name":"Froggy Chair","steam_id":76561198259695175,"connected_time":3927000000000,"state":"active","ping":73},{"user_id":162,"name":"HEAVY WEATHER.","steam_id":76561198046884595,"connected_time":3160000000000,"state":"active","ping":92},{"user_id":191,"name":"look a meme","steam_id":76561198841304902,"connected_time":585000000000,"state":"active","ping":87},{"user_id":177,"name":"Just A Skunk Femboy","steam_id":76561199080883834,"connected_time":1453000000000,"state":"active","ping":91},{"user_id":159,"name":"Big Yoshi","steam_id":76561199160576376,"connected_time":3633000000000,"state":"active","ping":101},{"user_id":178,"name":"gretchling","steam_id":76561198046111695,"connected_time":1453000000000,"state":"active","ping":55},{"user_id":195,"name":"Karma","steam_id":76561198320530905,"connected_time":227000000000,"state":"active","ping":55},{"user_id":150,"name":"NGPlus","steam_id":76561198348945217,"connected_time":3984000000000,"state":"active","ping":162},{"user_id":186,"name":"One week at Frederick's","steam_id":76561198264752535,"connected_time":609000000000,"state":"active","ping":59},{"user_id":187,"name":"Captain Chicken","steam_id":76561198047767530,"connected_time":605000000000,"state":"active","ping":111},{"user_id":183,"name":"artichoke","steam_id":76561198980994364,"connected_time":629000000000,"state":"active","ping":103},{"user_id":192,"name":"good boy","steam_id":76561198012590103,"connected_time":579000000000,"state":"active","ping":65},{"user_id":181,"name":"mr_dripnsplash","steam_id":76561199145352716,"connected_time":1169000000000,"state":"active","ping":52},{"user_id":180,"name":"tydogzilla","steam_id":76561198054254518,"connected_time":1446000000000,"state":"active","ping":90}]},{"server_id":404,"name":"Uncletopia | Dallas | 3 | All Maps","name_short":"dal-3","host":"dal-1.us.uncletopia.com","port":27035,"enabled":true,"region":"us-central","cc":"us","latitude":32.779167,"longitude":-96.80889,"reserved":0,"last_update":"0001-01-01T00:00:00Z","name_a2s":"Uncletopia | Dallas | 3 | All Maps","protocol":17,"map":"pl_pier","folder":"tf","game":"Team Fortress","app_id":440,"player_count":24,"max_players":24,"Bots":0,"server_type":"Dedicated","server_os":"Linux","password":true,"vac":true,"version":"7961495","steam_id":85568392924515219,"keywords":["nocrits","nodmgspread","payload","uncletopia"],"game_id":440,"stv_port":27036,"stv_name":"Uncletopia | Dallas | 3 | All Maps | STV","players":[{"user_id":123,"name":"Hovg9000","steam_id":76561199191556710,"connected_time":808000000000,"state":"active","ping":113},{"user_id":72,"name":"Indian Elephant From Pokemon","steam_id":76561198064249841,"connected_time":5060000000000,"state":"active","ping":87},{"user_id":129,"name":"ShadowDragon0125","steam_id":76561198343849022,"connected_time":112000000000,"state":"active","ping":63},{"user_id":107,"name":"webaline  =Ôºæ‚óè ‚ãè ‚óèÔºæ=","steam_id":76561199052450127,"connected_time":1322000000000,"state":"active","ping":86},{"user_id":126,"name":"Varveer","steam_id":76561198218897383,"connected_time":149000000000,"state":"active","ping":78},{"user_id":108,"name":"Fewny","steam_id":76561198225977000,"connected_time":1262000000000,"state":"active","ping":73},{"user_id":128,"name":"Crack Addict","steam_id":76561198166681494,"connected_time":122000000000,"state":"active","ping":44},{"user_id":110,"name":"LittleFieryOne","steam_id":76561198107463724,"connected_time":1233000000000,"state":"active","ping":84},{"user_id":94,"name":"Shalom","steam_id":76561198410005222,"connected_time":3067000000000,"state":"active","ping":50},{"user_id":111,"name":"ChozoChorizo","steam_id":76561198272609196,"connected_time":1219000000000,"state":"active","ping":70},{"user_id":117,"name":"Eggster","steam_id":76561198871014814,"connected_time":1040000000000,"state":"active","ping":94},{"user_id":46,"name":"corviraptor (\u003c--- awesome)","steam_id":76561198058284392,"connected_time":6191000000000,"state":"active","ping":50},{"user_id":102,"name":"the chicken man","steam_id":76561198064302940,"connected_time":2897000000000,"state":"active","ping":87},{"user_id":93,"name":"Danoman47","steam_id":76561199377565865,"connected_time":3082000000000,"state":"active","ping":79},{"user_id":122,"name":"Jasmine Rice","steam_id":76561198163163590,"connected_time":830000000000,"state":"active","ping":61},{"user_id":97,"name":"Project_Counter","steam_id":76561198152786076,"connected_time":3008000000000,"state":"active","ping":60},{"user_id":65,"name":"StudioMania (#SAVETF2)","steam_id":76561198211315795,"connected_time":5405000000000,"state":"active","ping":71},{"user_id":114,"name":"Muffn","steam_id":76561198797691753,"connected_time":1142000000000,"state":"active","ping":77},{"user_id":130,"name":"Portaldude626","steam_id":76561198954610452,"connected_time":97000000000,"state":"active","ping":61},{"user_id":118,"name":"Nemesis Vampy üè¥‚ò≠","steam_id":76561198092062889,"connected_time":1022000000000,"state":"active","ping":75},{"user_id":125,"name":"xenok","steam_id":76561198014300682,"connected_time":649000000000,"state":"active","ping":94},{"user_id":127,"name":"captain red","steam_id":76561198191587983,"connected_time":145000000000,"state":"active","ping":76},{"user_id":100,"name":"quiteabizarreone","steam_id":76561198407122862,"connected_time":2946000000000,"state":"active","ping":90},{"user_id":131,"name":"Sarah.w","steam_id":76561199248461525,"connected_time":95000000000,"state":"active","ping":105}]},{"server_id":405,"name":"Uncletopia | Dallas | 4 | Community","name_short":"dal-4","host":"dal-1.us.uncletopia.com","port":27045,"enabled":true,"region":"us-central","cc":"us","latitude":32.779167,"longitude":-96.80889,"reserved":0,"last_update":"0001-01-01T00:00:00Z","name_a2s":"Uncletopia | Dallas | 4 | Community","protocol":17,"map":"workshop/pl_divulgence_b4b.ugc2884808746","folder":"tf","game":"Team Fortress","app_id":440,"player_count":1,"max_players":24,"Bots":0,"server_type":"Dedicated","server_os":"Linux","password":true,"vac":true,"version":"7961495","steam_id":85568392924515220,"keywords":["nocrits","nodmgspread","payload","uncletopia"],"game_id":440,"stv_port":27046,"stv_name":"Uncletopia | Dallas | 4 | Community | STV","players":[{"user_id":7,"name":"Dwaggy","steam_id":76561198027369555,"connected_time":84000000000,"state":"active","ping":53}]},{"server_id":5,"name":"Uncletopia | Frankfurt | 1 | All Maps","name_short":"frk-1","host":"frk-1.de.uncletopia.com","port":27015,"enabled":true,"region":"eu","cc":"de","latitude":50.110924,"longitude":8.682127,"reserved":0,"last_update":"0001-01-01T00:00:00Z","name_a2s":"Uncletopia | Frankfurt | 1 | All Maps","protocol":17,"map":"pl_frontier_final","folder":"tf","game":"Team Fortress","app_id":440,"player_count":23,"max_players":24,"Bots":0,"server_type":"Dedicated","server_os":"Linux","password":true,"vac":true,"version":"7961495","steam_id":85568392924469989,"keywords":["nocrits","nodmgspread","payload","uncletopia"],"game_id":440,"stv_port":27016,"stv_name":"Uncletopia | Frankfurt | 1 | All Maps | STV","players":[{"user_id":691,"name":"That Dude","steam_id":76561198980486227,"connected_time":182000000000,"state":"active","ping":184},{"user_id":681,"name":"Thats some dumb shit","steam_id":76561199266667550,"connected_time":869000000000,"state":"active","ping":102},{"user_id":683,"name":"kero","steam_id":76561199276272320,"connected_time":767000000000,"state":"active","ping":99},{"user_id":674,"name":"Ash","steam_id":76561198148738525,"connected_time":1251000000000,"state":"active","ping":115},{"user_id":652,"name":"Abro","steam_id":76561198349783352,"connected_time":2474000000000,"state":"active","ping":88},{"user_id":690,"name":"Rojapokemona","steam_id":76561198179925894,"connected_time":195000000000,"state":"active","ping":62},{"user_id":664,"name":"orphan smeller","steam_id":76561198107876224,"connected_time":1752000000000,"state":"active","ping":52},{"user_id":687,"name":"mohemmedmokhter2005","steam_id":76561199197650506,"connected_time":448000000000,"state":"active","ping":97},{"user_id":679,"name":"ATARAKSIA","steam_id":76561198119392756,"connected_time":1047000000000,"state":"active","ping":81},{"user_id":608,"name":"AdeAAa","steam_id":76561198974207724,"connected_time":6521000000000,"state":"active","ping":100},{"user_id":680,"name":"Calinvolea","steam_id":76561199193367863,"connected_time":1010000000000,"state":"active","ping":58},{"user_id":646,"name":"Summer ‚ô•","steam_id":76561198047723907,"connected_time":2978000000000,"state":"active","ping":48},{"user_id":688,"name":"M√©bh √ìg MacT√≠re","steam_id":76561198346399624,"connected_time":434000000000,"state":"active","ping":71},{"user_id":675,"name":"MannersMakethMann","steam_id":76561198158608309,"connected_time":1232000000000,"state":"active","ping":60},{"user_id":692,"name":"Zapchon","steam_id":76561198123856921,"connected_time":122000000000,"state":"active","ping":71},{"user_id":677,"name":"n0moral","steam_id":76561198269094523,"connected_time":1109000000000,"state":"active","ping":93},{"user_id":631,"name":"Urfangonultasadana","steam_id":76561199389286151,"connected_time":5005000000000,"state":"active","ping":93},{"user_id":662,"name":"froglids","steam_id":76561198045466919,"connected_time":1836000000000,"state":"active","ping":62},{"user_id":636,"name":"fynta","steam_id":76561198315371425,"connected_time":3826000000000,"state":"active","ping":58},{"user_id":678,"name":"TilkiLee","steam_id":76561199108512265,"connected_time":1091000000000,"state":"active","ping":93},{"user_id":670,"name":"Brian","steam_id":76561198077756206,"connected_time":1433000000000,"state":"active","ping":60},{"user_id":686,"name":"wG Domo","steam_id":76561198056790920,"connected_time":455000000000,"state":"active","ping":73},{"user_id":689,"name":"dvd of the simpsons season 6","steam_id":76561198075446150,"connected_time":426000000000,"state":"active","ping":98}]},{"server_id":110,"name":"Uncletopia | Frankfurt | 2 | All Maps","name_short":"frk-2","host":"frk-1.de.uncletopia.com","port":27025,"enabled":true,"region":"eu","cc":"de","latitude":50.110924,"longitude":8.682127,"reserved":0,"last_update":"0001-01-01T00:00:00Z","name_a2s":"Uncletopia | Frankfurt | 2 | All Maps","protocol":17,"map":"cp_sunshine","folder":"tf","game":"Team Fortress","app_id":440,"player_count":0,"max_players":24,"Bots":0,"server_type":"Dedicated","server_os":"Linux","password":true,"vac":true,"version":"7961495","steam_id":85568392924469990,"keywords":["cp","nocrits","nodmgspread","uncletopia"],"game_id":440,"stv_port":27026,"stv_name":"Uncletopia | Frankfurt | 2 | All Maps | STV","players":null},{"server_id":308,"name":"Uncletopia | Frankfurt | 3 | All Maps","name_short":"frk-3","host":"frk-1.de.uncletopia.com","port":27035,"enabled":true,"region":"eu","cc":"de","latitude":50.110924,"longitude":8.682127,"reserved":0,"last_update":"0001-01-01T00:00:00Z","name_a2s":"Uncletopia | Frankfurt | 3 | All Maps","protocol":17,"map":"pl_pier","folder":"tf","game":"Team Fortress","app_id":440,"player_count":6,"max_players":24,"Bots":0,"server_type":"Dedicated","server_os":"Linux","password":true,"vac":true,"version":"7961495","steam_id":85568392924504274,"keywords":["nocrits","nodmgspread","payload","uncletopia"],"game_id":440,"stv_port":27036,"stv_name":"Uncletopia | Frankfurt | 3 | All Maps | STV","players":[{"user_id":837,"name":"A Cat","steam_id":76561199015740181,"connected_time":1082000000000,"state":"active","ping":70},{"user_id":836,"name":"koningkelkont","steam_id":76561198845810880,"connected_time":1144000000000,"state":"active","ping":68},{"user_id":842,"name":"sticks","steam_id":76561198127099299,"connected_time":289000000000,"state":"active","ping":45},{"user_id":843,"name":"Hussain_144","steam_id":76561198346029208,"connected_time":251000000000,"state":"active","ping":174},{"user_id":844,"name":"JackDegle","steam_id":76561198427027677,"connected_time":35000000000,"state":"spawning","ping":62},{"user_id":813,"name":"basedgod","steam_id":76561198313835012,"connected_time":2848000000000,"state":"active","ping":58}]},{"server_id":309,"name":"Uncletopia | Frankfurt | 4 | All Maps","name_short":"frk-4","host":"frk-1.de.uncletopia.com","port":27045,"enabled":true,"region":"eu","cc":"de","latitude":50.110924,"longitude":8.682127,"reserved":0,"last_update":"0001-01-01T00:00:00Z","name_a2s":"Uncletopia | Frankfurt | 4 | All Maps","protocol":17,"map":"koth_viaduct","folder":"tf","game":"Team Fortress","app_id":440,"player_count":0,"max_players":24,"Bots":0,"server_type":"Dedicated","server_os":"Linux","password":true,"vac":true,"version":"7961495","steam_id":85568392924504275,"keywords":["cp","nocrits","nodmgspread","uncletopia"],"game_id":440,"stv_port":27046,"stv_name":"Uncletopia | Frankfurt | 4 | All Maps | STV","players":null},{"server_id":310,"name":"Uncletopia | Frankfurt | 5 | All Maps","name_short":"frk-5","host":"frk-1.de.uncletopia.com","port":27055,"enabled":true,"region":"eu","cc":"de","latitude":50.110924,"longitude":8.682127,"reserved":0,"last_update":"0001-01-01T00:00:00Z","name_a2s":"Uncletopia | Frankfurt | 5 | All Maps","protocol":17,"map":"pl_barnblitz","folder":"tf","game":"Team Fortress","app_id":440,"player_count":0,"max_players":24,"Bots":0,"server_type":"Dedicated","server_os":"Linux","password":true,"vac":true,"version":"7961495","steam_id":85568392924504277,"keywords":["nocrits","nodmgspread","payload","uncletopia"],"game_id":440,"stv_port":27056,"stv_name":"Uncletopia | Frankfurt | 5 | All Maps | STV","players":null},{"server_id":311,"name":"Uncletopia | Frankfurt | 6 | All Maps","name_short":"frk-6","host":"frk-1.de.uncletopia.com","port":27065,"enabled":true,"region":"eu","cc":"de","latitude":50.110924,"longitude":8.682127,"reserved":0,"last_update":"0001-01-01T00:00:00Z","name_a2s":"Uncletopia | Frankfurt | 6 | All Maps","protocol":17,"map":"koth_cascade","folder":"tf","game":"Team Fortress","app_id":440,"player_count":0,"max_players":24,"Bots":0,"server_type":"Dedicated","server_os":"Linux","password":true,"vac":true,"version":"7961495","steam_id":85568392924504278,"keywords":["cp","nocrits","nodmgspread","uncletopia"],"game_id":440,"stv_port":27066,"stv_name":"Uncletopia | Frankfurt | 6 | All Maps | STV","players":null},{"server_id":23,"name":"Uncletopia | Frankfurt | 7 | Stopwatch","name_short":"frk-7","host":"frk-1.de.uncletopia.com","port":27075,"enabled":true,"region":"eu","cc":"de","latitude":50.110924,"longitude":8.682127,"reserved":0,"last_update":"0001-01-01T00:00:00Z","name_a2s":"Uncletopia | Frankfurt | 7 | Stopwatch","protocol":17,"map":"pl_frontier_final","folder":"tf","game":"Team Fortress","app_id":440,"player_count":0,"max_players":24,"Bots":0,"server_type":"Dedicated","server_os":"Linux","password":true,"vac":true,"version":"7961495","steam_id":85568392924742827,"keywords":["nocrits","nodmgspread","payload","uncletopia"],"game_id":440,"stv_port":27076,"stv_name":"Uncletopia | Frankfurt | 7 | Stopwatch | STV","players":null},{"server_id":24,"name":"Uncletopia | Frankfurt | 8 | Community","name_short":"frk-8","host":"frk-1.de.uncletopia.com","port":27085,"enabled":true,"region":"eu","cc":"de","latitude":50.110924,"longitude":8.682127,"reserved":0,"last_update":"0001-01-01T00:00:00Z","name_a2s":"Uncletopia | Frankfurt | 8 | Community","protocol":17,"map":"workshop/rd_asteroid_redux_b1.ugc2154902912","folder":"tf","game":"Team Fortress","app_id":440,"player_count":0,"max_players":24,"Bots":0,"server_type":"Dedicated","server_os":"Linux","password":true,"vac":true,"version":"7961495","steam_id":85568392924742828,"keywords":["beta","nocrits","nodmgspread","rd","uncletopia"],"game_id":440,"stv_port":27086,"stv_name":"Uncletopia | Frankfurt | 8 | Community | STV","players":null},{"server_id":202,"name":"Uncletopia | Hong Kong | 1 | All Maps","name_short":"hgk-1","host":"hgk-1.hk.uncletopia.com","port":27015,"enabled":true,"region":"asia","cc":"hk","latitude":22.302711,"longitude":114.177216,"reserved":0,"last_update":"0001-01-01T00:00:00Z","name_a2s":"Uncletopia | Hong Kong | 1 | All Maps","protocol":17,"map":"pl_frontier_final","folder":"tf","game":"Team Fortress","app_id":440,"player_count":0,"max_players":24,"Bots":0,"server_type":"Dedicated","server_os":"Linux","password":true,"vac":true,"version":"7961495","steam_id":85568392924494504,"keywords":["nocrits","nodmgspread","payload","uncletopia"],"game_id":440,"stv_port":27016,"stv_name":"Uncletopia | Hong Kong | 1 | All Maps | STV","players":null},{"server_id":1,"name":"Uncletopia | Los Angeles | 1 | All Maps","name_short":"lax-1","host":"lax-1.us.uncletopia.com","port":27015,"enabled":true,"region":"us-west","cc":"us","latitude":33.94279,"longitude":-118.41004,"reserved":0,"last_update":"0001-01-01T00:00:00Z","name_a2s":"Uncletopia | Los Angeles | 1 | All Maps","protocol":17,"map":"koth_lakeside_final","folder":"tf","game":"Team Fortress","app_id":440,"player_count":0,"max_players":24,"Bots":0,"server_type":"Dedicated","server_os":"Linux","password":true,"vac":true,"version":"7961495","steam_id":85568392924469991,"keywords":["cp","nocrits","nodmgspread","uncletopia"],"game_id":440,"stv_port":27016,"stv_name":"Uncletopia | Los Angeles | 1 | All Maps | STV","players":null},{"server_id":112,"name":"Uncletopia | Los Angeles | 2 | All Maps","name_short":"lax-2","host":"lax-1.us.uncletopia.com","port":27025,"enabled":true,"region":"us-west","cc":"us","latitude":33.94279,"longitude":-118.41004,"reserved":0,"last_update":"0001-01-01T00:00:00Z","name_a2s":"Uncletopia | Los Angeles | 2 | All Maps","protocol":17,"map":"koth_lakeside_final","folder":"tf","game":"Team Fortress","app_id":440,"player_count":0,"max_players":24,"Bots":0,"server_type":"Dedicated","server_os":"Linux","password":true,"vac":true,"version":"7961495","steam_id":85568392924469992,"keywords":["cp","nocrits","nodmgspread","uncletopia"],"game_id":440,"stv_port":27026,"stv_name":"Uncletopia | Los Angeles | 2 | All Maps | STV","players":null},{"server_id":324,"name":"Uncletopia | Los Angeles | 3 | All Maps","name_short":"lax-3","host":"lax-1.us.uncletopia.com","port":27035,"enabled":true,"region":"us-west","cc":"us","latitude":33.94279,"longitude":-118.41004,"reserved":0,"last_update":"0001-01-01T00:00:00Z","name_a2s":"Uncletopia | Los Angeles | 3 | All Maps","protocol":17,"map":"pl_snowycoast","folder":"tf","game":"Team Fortress","app_id":440,"player_count":1,"max_players":24,"Bots":0,"server_type":"Dedicated","server_os":"Linux","password":true,"vac":true,"version":"7961495","steam_id":85568392924510198,"keywords":["nocrits","nodmgspread","payload","uncletopia"],"game_id":440,"stv_port":27036,"stv_name":"Uncletopia | Los Angeles | 3 | All Maps | STV","players":[{"user_id":10,"name":"Mr. Chromosome_Hunter","steam_id":76561198872467523,"connected_time":84000000000,"state":"spawning","ping":86}]},{"server_id":25,"name":"Uncletopia | Los Angeles | 4 | Stopwatch","name_short":"lax-4","host":"lax-1.us.uncletopia.com","port":27045,"enabled":true,"region":"us-west","cc":"us","latitude":33.94279,"longitude":-118.41004,"reserved":0,"last_update":"0001-01-01T00:00:00Z","name_a2s":"Uncletopia | Los Angeles | 4 | Stopwatch","protocol":17,"map":"pl_barnblitz","folder":"tf","game":"Team Fortress","app_id":440,"player_count":0,"max_players":24,"Bots":0,"server_type":"Dedicated","server_os":"Linux","password":true,"vac":true,"version":"7961495","steam_id":85568392924510199,"keywords":["nocrits","nodmgspread","payload","uncletopia"],"game_id":440,"stv_port":27046,"stv_name":"Uncletopia | Los Angeles | 4 | Stopwatch | STV","players":null},{"server_id":11,"name":"Uncletopia | London | 1 | All Maps","name_short":"lon-1","host":"lon-1.uk.uncletopia.com","port":27015,"enabled":true,"region":"eu","cc":"gb","latitude":51.509865,"longitude":-0.118092,"reserved":0,"last_update":"0001-01-01T00:00:00Z","name_a2s":"Uncletopia | London | 1 | All Maps","protocol":17,"map":"pl_frontier_final","folder":"tf","game":"Team Fortress","app_id":440,"player_count":19,"max_players":24,"Bots":0,"server_type":"Dedicated","server_os":"Linux","password":true,"vac":true,"version":"7961495","steam_id":85568392924367362,"keywords":["nocrits","nodmgspread","payload","uncletopia"],"game_id":440,"stv_port":27016,"stv_name":"Uncletopia | London | 1 | All Maps | STV","players":[{"user_id":599,"name":"Kristianma","steam_id":76561198021772843,"connected_time":557000000000,"state":"active","ping":74},{"user_id":561,"name":"Tanukibouwer","steam_id":76561198225438832,"connected_time":1912000000000,"state":"active","ping":47},{"user_id":595,"name":"Hyppy ja liipasin pohjaan :D","steam_id":76561198080669698,"connected_time":699000000000,"state":"active","ping":105},{"user_id":521,"name":"sora","steam_id":76561198096547662,"connected_time":6773000000000,"state":"active","ping":51},{"user_id":605,"name":"Dark Souls Reference","steam_id":76561198094102747,"connected_time":10000000000,"state":"active","ping":57},{"user_id":542,"name":"Slifer the Sky Furry","steam_id":76561198062255803,"connected_time":3751000000000,"state":"active","ping":65},{"user_id":575,"name":"MakeItRainbow","steam_id":76561198045098064,"connected_time":1520000000000,"state":"active","ping":60},{"user_id":548,"name":"beebo","steam_id":76561199120277007,"connected_time":2393000000000,"state":"spawning","ping":36},{"user_id":600,"name":"Gooby","steam_id":76561198383937031,"connected_time":532000000000,"state":"active","ping":45},{"user_id":559,"name":"s a i","steam_id":76561197970379754,"connected_time":2092000000000,"state":"active","ping":60},{"user_id":598,"name":"yava≈ü","steam_id":76561198170334258,"connected_time":622000000000,"state":"active","ping":60},{"user_id":603,"name":"_/Erodeus\\_","steam_id":76561198088638308,"connected_time":141000000000,"state":"active","ping":66},{"user_id":583,"name":"shenanigan","steam_id":76561198043452925,"connected_time":1192000000000,"state":"active","ping":85},{"user_id":571,"name":"Sabour","steam_id":76561197963965445,"connected_time":1582000000000,"state":"active","ping":69},{"user_id":531,"name":"stroyo","steam_id":76561198409592046,"connected_time":5500000000000,"state":"active","ping":45},{"user_id":550,"name":"xva","steam_id":76561198969286813,"connected_time":2380000000000,"state":"active","ping":61},{"user_id":581,"name":"s.ghost","steam_id":76561198851865793,"connected_time":1407000000000,"state":"active","ping":45},{"user_id":591,"name":"Prime Minister Rishi Sunak","steam_id":76561198846784757,"connected_time":1066000000000,"state":"active","ping":57},{"user_id":604,"name":"Bill Carr","steam_id":76561198110033943,"connected_time":67000000000,"state":"active","ping":34}]},{"server_id":114,"name":"Uncletopia | London | 2 | All Maps","name_short":"lon-2","host":"lon-1.uk.uncletopia.com","port":27025,"enabled":true,"region":"eu","cc":"gb","latitude":51.509865,"longitude":-0.118092,"reserved":0,"last_update":"0001-01-01T00:00:00Z","name_a2s":"Uncletopia | London | 2 | All Maps","protocol":17,"map":"pl_barnblitz","folder":"tf","game":"Team Fortress","app_id":440,"player_count":0,"max_players":24,"Bots":0,"server_type":"Dedicated","server_os":"Linux","password":true,"vac":true,"version":"7961495","steam_id":85568392924470941,"keywords":["nocrits","nodmgspread","payload","uncletopia"],"game_id":440,"stv_port":27026,"stv_name":"Uncletopia | London | 2 | All Maps | STV","players":null},{"server_id":320,"name":"Uncletopia | London | 3 | All Maps","name_short":"lon-3","host":"lon-1.uk.uncletopia.com","port":27035,"enabled":true,"region":"eu","cc":"gb","latitude":51.509865,"longitude":-0.118092,"reserved":0,"last_update":"0001-01-01T00:00:00Z","name_a2s":"Uncletopia | London | 3 | All Maps","protocol":17,"map":"pl_swiftwater_final1","folder":"tf","game":"Team Fortress","app_id":440,"player_count":23,"max_players":24,"Bots":0,"server_type":"Dedicated","server_os":"Linux","password":true,"vac":true,"version":"7961495","steam_id":85568392924510192,"keywords":["nocrits","nodmgspread","payload","uncletopia"],"game_id":440,"stv_port":27036,"stv_name":"Uncletopia | London | 3 | All Maps | STV","players":[{"user_id":368,"name":"Carlton Banks","steam_id":76561198300996149,"connected_time":5490000000000,"state":"active","ping":45},{"user_id":466,"name":"Vexu","steam_id":76561198113145846,"connected_time":36000000000,"state":"active","ping":86},{"user_id":432,"name":"Phalcon","steam_id":76561197987051394,"connected_time":1314000000000,"state":"active","ping":85},{"user_id":423,"name":"HoneyOTU","steam_id":76561198200366607,"connected_time":1530000000000,"state":"active","ping":144},{"user_id":447,"name":"COCKTOWER","steam_id":76561197995723404,"connected_time":1113000000000,"state":"active","ping":58},{"user_id":455,"name":"JaminDamin","steam_id":76561199465916540,"connected_time":274000000000,"state":"active","ping":165},{"user_id":456,"name":"(√î)√î)Wandering Singer(√î(√î)","steam_id":76561198126477141,"connected_time":227000000000,"state":"active","ping":132},{"user_id":457,"name":"ObamaMojang","steam_id":76561198141961474,"connected_time":199000000000,"state":"active","ping":53},{"user_id":458,"name":"Peakey The Bard","steam_id":76561198196607831,"connected_time":179000000000,"state":"active","ping":56},{"user_id":454,"name":"cuddle","steam_id":76561198805181599,"connected_time":319000000000,"state":"active","ping":45},{"user_id":459,"name":"This is my dog, Benji","steam_id":76561198119372509,"connected_time":168000000000,"state":"active","ping":43},{"user_id":460,"name":"VanderVof","steam_id":76561198068908074,"connected_time":158000000000,"state":"active","ping":56},{"user_id":465,"name":"alien","steam_id":76561197968892194,"connected_time":62000000000,"state":"active","ping":49},{"user_id":356,"name":"Cataleptic","steam_id":76561197997966949,"connected_time":5950000000000,"state":"active","ping":58},{"user_id":417,"name":". . .","steam_id":76561198184360615,"connected_time":1827000000000,"state":"active","ping":105},{"user_id":429,"name":"DarthMurloc_OW","steam_id":76561198075577711,"connected_time":1385000000000,"state":"active","ping":89},{"user_id":450,"name":"rummy","steam_id":76561197997573379,"connected_time":1024000000000,"state":"active","ping":45},{"user_id":433,"name":"Caramelion","steam_id":76561198097429047,"connected_time":1292000000000,"state":"active","ping":63},{"user_id":434,"name":"w+m1","steam_id":76561198010428082,"connected_time":1292000000000,"state":"active","ping":71},{"user_id":435,"name":"–î–∂–µ–∫–µ—Ç","steam_id":76561198327897125,"connected_time":1287000000000,"state":"active","ping":102},{"user_id":463,"name":"a heart thats full up like a la","steam_id":76561198072320671,"connected_time":114000000000,"state":"active","ping":33},{"user_id":437,"name":"iswaxan","steam_id":76561199214988157,"connected_time":1280000000000,"state":"active","ping":81},{"user_id":438,"name":"can u die from gargling honey","steam_id":76561197996269312,"connected_time":1270000000000,"state":"active","ping":30}]},{"server_id":321,"name":"Uncletopia | London | 4 | All Maps","name_short":"lon-4","host":"lon-1.uk.uncletopia.com","port":27045,"enabled":true,"region":"eu","cc":"gb","latitude":51.509865,"longitude":-0.118092,"reserved":0,"last_update":"0001-01-01T00:00:00Z","name_a2s":"Uncletopia | London | 4 | All Maps","protocol":17,"map":"cp_dustbowl","folder":"tf","game":"Team Fortress","app_id":440,"player_count":24,"max_players":24,"Bots":0,"server_type":"Dedicated","server_os":"Linux","password":true,"vac":true,"version":"7961495","steam_id":85568392924510193,"keywords":["cp","nocrits","nodmgspread","uncletopia"],"game_id":440,"stv_port":27046,"stv_name":"Uncletopia | London | 4 | All Maps | STV","players":[{"user_id":181,"name":"Chicken Fillet","steam_id":76561198062267267,"connected_time":3635000000000,"state":"active","ping":113},{"user_id":204,"name":"harryhux","steam_id":76561198228052940,"connected_time":2177000000000,"state":"active","ping":37},{"user_id":173,"name":"kbourbery","steam_id":76561198109943492,"connected_time":4857000000000,"state":"active","ping":41},{"user_id":207,"name":"Angelo254","steam_id":76561198327226011,"connected_time":2086000000000,"state":"active","ping":74},{"user_id":182,"name":"Meow","steam_id":76561198062433153,"connected_time":3570000000000,"state":"active","ping":110},{"user_id":224,"name":"JugoTopia","steam_id":76561197996067209,"connected_time":401000000000,"state":"active","ping":117},{"user_id":196,"name":"mr","steam_id":76561199037541925,"connected_time":2553000000000,"state":"active","ping":74},{"user_id":217,"name":"Deformed Gollum","steam_id":76561198155563589,"connected_time":1560000000000,"state":"active","ping":51},{"user_id":163,"name":"caramelldancin'","steam_id":76561198193357946,"connected_time":5479000000000,"state":"active","ping":102},{"user_id":206,"name":"Glacierwinter","steam_id":76561198229675152,"connected_time":2097000000000,"state":"active","ping":69},{"user_id":218,"name":"CHELOVEK_YAYCA","steam_id":76561198165428648,"connected_time":1471000000000,"state":"active","ping":130},{"user_id":212,"name":"DonutellaÓÑÉ","steam_id":76561198193972491,"connected_time":1707000000000,"state":"active","ping":46},{"user_id":78,"name":"sarii ‚òÜ","steam_id":76561199155102111,"connected_time":13302000000000,"state":"active","ping":81},{"user_id":219,"name":"HeavyMettleDick","steam_id":76561198001925087,"connected_time":1439000000000,"state":"active","ping":146},{"user_id":209,"name":"√áodar","steam_id":76561198235518444,"connected_time":2020000000000,"state":"active","ping":37},{"user_id":225,"name":"Vinnidict","steam_id":76561198037087000,"connected_time":380000000000,"state":"active","ping":73},{"user_id":74,"name":"Finn","steam_id":76561198179960193,"connected_time":13337000000000,"state":"active","ping":37},{"user_id":223,"name":"Jows","steam_id":76561199000204471,"connected_time":415000000000,"state":"active","ping":63},{"user_id":220,"name":"Blar","steam_id":76561198042438229,"connected_time":1087000000000,"state":"active","ping":56},{"user_id":222,"name":"Donut the Vikingchap","steam_id":76561197998255650,"connected_time":889000000000,"state":"active","ping":79},{"user_id":227,"name":"cora","steam_id":76561199474154775,"connected_time":307000000000,"state":"active","ping":57},{"user_id":199,"name":"Ham Merchant","steam_id":76561198389947352,"connected_time":2465000000000,"state":"active","ping":86},{"user_id":226,"name":"boo_thefeared","steam_id":76561198127967685,"connected_time":368000000000,"state":"active","ping":51},{"user_id":216,"name":"Level 1 Noob","steam_id":76561198088586340,"connected_time":1599000000000,"state":"active","ping":61}]},{"server_id":21,"name":"Uncletopia | London | 5 | All Maps","name_short":"lon-5","host":"lon-1.uk.uncletopia.com","port":27055,"enabled":true,"region":"eu","cc":"gb","latitude":51.509865,"longitude":-0.118092,"reserved":0,"last_update":"0001-01-01T00:00:00Z","name_a2s":"Uncletopia | London | 5 | All Maps","protocol":17,"map":"koth_highpass","folder":"tf","game":"Team Fortress","app_id":440,"player_count":0,"max_players":24,"Bots":0,"server_type":"Dedicated","server_os":"Linux","password":true,"vac":true,"version":"7961495","steam_id":85568392924742829,"keywords":["cp","nocrits","nodmgspread","uncletopia"],"game_id":440,"stv_port":27056,"stv_name":"Uncletopia | London | 5 | All Maps | STV","players":null},{"server_id":22,"name":"Uncletopia | London | 6 | All Maps","name_short":"lon-6","host":"lon-1.uk.uncletopia.com","port":27065,"enabled":true,"region":"eu","cc":"gb","latitude":51.509865,"longitude":-0.118092,"reserved":0,"last_update":"0001-01-01T00:00:00Z","name_a2s":"Uncletopia | London | 6 | All Maps","protocol":17,"map":"pl_pier","folder":"tf","game":"Team Fortress","app_id":440,"player_count":0,"max_players":24,"Bots":0,"server_type":"Dedicated","server_os":"Linux","password":true,"vac":true,"version":"7961495","steam_id":85568392924742830,"keywords":["nocrits","nodmgspread","payload","uncletopia"],"game_id":440,"stv_port":27066,"stv_name":"Uncletopia | London | 6 | All Maps | STV","players":null},{"server_id":40,"name":"Uncletopia | London | 7 | Stopwatch","name_short":"lon-7","host":"lon-1.uk.uncletopia.com","port":27075,"enabled":true,"region":"eu","cc":"gb","latitude":51.509865,"longitude":-0.118092,"reserved":0,"last_update":"0001-01-01T00:00:00Z","name_a2s":"Uncletopia | London | 7 | Stopwatch","protocol":17,"map":"workshop/koth_ashville_final.ugc2130459942","folder":"tf","game":"Team Fortress","app_id":440,"player_count":0,"max_players":24,"Bots":0,"server_type":"Dedicated","server_os":"Linux","password":true,"vac":true,"version":"7961495","steam_id":85568392924964314,"keywords":["cp","nocrits","nodmgspread","uncletopia"],"game_id":440,"stv_port":27076,"stv_name":"Uncletopia | London | 7 | Stopwatch | STV","players":null},{"server_id":41,"name":"Uncletopia | London | 8 | Community","name_short":"lon-8","host":"lon-1.uk.uncletopia.com","port":27085,"enabled":true,"region":"eu","cc":"gb","latitude":51.509865,"longitude":-0.118092,"reserved":0,"last_update":"0001-01-01T00:00:00Z","name_a2s":"Uncletopia | London | 8 | Community","protocol":17,"map":"workshop/koth_product_final.ugc454272353","folder":"tf","game":"Team Fortress","app_id":440,"player_count":0,"max_players":24,"Bots":0,"server_type":"Dedicated","server_os":"Linux","password":true,"vac":true,"version":"7961495","steam_id":85568392924964315,"keywords":["cp","nocrits","nodmgspread","uncletopia"],"game_id":440,"stv_port":27086,"stv_name":"Uncletopia | London | 8 | Community | STV","players":null},{"server_id":300,"name":"Uncletopia | Montr√©al | 1 | One Thousand Uncles","name_short":"mtl-1","host":"mtl-1.ca.uncletopia.com","port":27015,"enabled":true,"region":"us-east","cc":"ca","latitude":45.50889,"longitude":-73.56167,"reserved":0,"last_update":"0001-01-01T00:00:00Z","name_a2s":"","protocol":0,"map":"","folder":"","game":"","app_id":0,"player_count":15,"max_players":0,"Bots":0,"server_type":"","server_os":"","password":false,"vac":false,"version":"","steam_id":0,"keywords":null,"game_id":0,"stv_port":0,"stv_name":"","players":[{"user_id":58,"name":"Hoxatron","steam_id":76561198136288818,"connected_time":1769000000000,"state":"active","ping":88},{"user_id":3,"name":"‡∏∏","steam_id":76561198084134025,"connected_time":2860000000000,"state":"active","ping":82},{"user_id":4,"name":"Rayzen","steam_id":76561199468796639,"connected_time":2859000000000,"state":"active","ping":91},{"user_id":50,"name":"Anthid","steam_id":76561198074493797,"connected_time":2495000000000,"state":"active","ping":88},{"user_id":89,"name":"Moonly Days","steam_id":76561198188657895,"connected_time":712000000000,"state":"active","ping":155},{"user_id":25,"name":"I just joined","steam_id":76561198057999536,"connected_time":2825000000000,"state":"active","ping":114},{"user_id":60,"name":"Ping","steam_id":76561199206514106,"connected_time":1334000000000,"state":"active","ping":71},{"user_id":24,"name":"gideon nav my beloved","steam_id":76561198259092181,"connected_time":2845000000000,"state":"active","ping":48},{"user_id":42,"name":"Adam (Cursed Confetti Creature)","steam_id":76561198317690197,"connected_time":2795000000000,"state":"active","ping":53},{"user_id":52,"name":"Andallfor","steam_id":76561198350143349,"connected_time":2352000000000,"state":"active","ping":71},{"user_id":78,"name":"The Fragrance of Dark Coffee","steam_id":76561198013111370,"connected_time":1110000000000,"state":"active","ping":59},{"user_id":83,"name":"yeah","steam_id":76561198957358624,"connected_time":839000000000,"state":"active","ping":67},{"user_id":90,"name":"WolfintheWires","steam_id":76561197998385084,"connected_time":631000000000,"state":"active","ping":53},{"user_id":82,"name":"sheep","steam_id":76561198172943006,"connected_time":958000000000,"state":"active","ping":72},{"user_id":79,"name":"Jimmy Pubetron","steam_id":76561198077634776,"connected_time":1087000000000,"state":"active","ping":48}]},{"server_id":301,"name":"Uncletopia | Montr√©al | 2 | One Thousand Uncles","name_short":"mtl-2","host":"mtl-1.ca.uncletopia.com","port":27025,"enabled":true,"region":"us-east","cc":"ca","latitude":45.50889,"longitude":-73.56167,"reserved":0,"last_update":"0001-01-01T00:00:00Z","name_a2s":"","protocol":0,"map":"","folder":"","game":"","app_id":0,"player_count":13,"max_players":0,"Bots":0,"server_type":"","server_os":"","password":false,"vac":false,"version":"","steam_id":0,"keywords":null,"game_id":0,"stv_port":0,"stv_name":"","players":[{"user_id":2,"name":"Reza The Cool","steam_id":76561198372285506,"connected_time":1628000000000,"state":"active","ping":41},{"user_id":40,"name":"Anti swag corporation","steam_id":76561199015453645,"connected_time":1000000000,"state":"spawning","ping":62},{"user_id":39,"name":"Pear","steam_id":76561198868735267,"connected_time":51000000000,"state":"spawning","ping":128},{"user_id":22,"name":"manbearswineflu","steam_id":76561198083945137,"connected_time":1026000000000,"state":"active","ping":74},{"user_id":23,"name":"Rornir","steam_id":76561198081829615,"connected_time":972000000000,"state":"active","ping":59},{"user_id":24,"name":"A 2008 Laptop.","steam_id":76561198860068961,"connected_time":915000000000,"state":"active","ping":47},{"user_id":25,"name":"ShadowWasUhOh","steam_id":76561198400361935,"connected_time":889000000000,"state":"active","ping":86},{"user_id":26,"name":"Sheldon","steam_id":76561199157531109,"connected_time":835000000000,"state":"active","ping":227},{"user_id":27,"name":"Dr. Poopenmeyer","steam_id":76561198060070002,"connected_time":770000000000,"state":"active","ping":108},{"user_id":28,"name":"Prof. Fecalman","steam_id":76561198135137213,"connected_time":724000000000,"state":"active","ping":78},{"user_id":29,"name":"girl piss","steam_id":76561199036496807,"connected_time":626000000000,"state":"active","ping":131},{"user_id":32,"name":"Fragment Guy","steam_id":76561198178413086,"connected_time":453000000000,"state":"active","ping":63},{"user_id":36,"name":"Dr. Maybe","steam_id":76561198268304564,"connected_time":178000000000,"state":"active","ping":69}]},{"server_id":302,"name":"Uncletopia | Montr√©al | 3 | One Thousand Uncles","name_short":"mtl-3","host":"mtl-1.ca.uncletopia.com","port":27035,"enabled":true,"region":"us-east","cc":"ca","latitude":45.50889,"longitude":-73.56167,"reserved":0,"last_update":"0001-01-01T00:00:00Z","name_a2s":"","protocol":0,"map":"","folder":"","game":"","app_id":0,"player_count":0,"max_players":0,"Bots":0,"server_type":"","server_os":"","password":false,"vac":false,"version":"","steam_id":0,"keywords":null,"game_id":0,"stv_port":0,"stv_name":"","players":null},{"server_id":13,"name":"Uncletopia | New York City | 1 | All Maps","name_short":"nyc-1","host":"nyc-1.us.uncletopia.com","port":27015,"enabled":true,"region":"us-east","cc":"us","latitude":40.73061,"longitude":-73.93524,"reserved":0,"last_update":"0001-01-01T00:00:00Z","name_a2s":"Uncletopia | New York City | 1 | All Maps","protocol":17,"map":"pl_upward","folder":"tf","game":"Team Fortress","app_id":440,"player_count":24,"max_players":24,"Bots":0,"server_type":"Dedicated","server_os":"Linux","password":true,"vac":true,"version":"7961495","steam_id":85568392924469993,"keywords":["nocrits","nodmgspread","payload","uncletopia"],"game_id":440,"stv_port":27016,"stv_name":"Uncletopia | New York City | 1 | All Maps | STV","players":[{"user_id":378,"name":"taigaxx","steam_id":76561198202669250,"connected_time":733000000000,"state":"active","ping":61},{"user_id":336,"name":"Joy","steam_id":76561198073690173,"connected_time":2637000000000,"state":"active","ping":54},{"user_id":386,"name":"_CODIS","steam_id":76561197995794662,"connected_time":97000000000,"state":"active","ping":81},{"user_id":379,"name":"SolmonFish","steam_id":76561198942169006,"connected_time":719000000000,"state":"active","ping":49},{"user_id":359,"name":"Johnny Lawrence #JohnnyMaxxing","steam_id":76561199367141671,"connected_time":1516000000000,"state":"active","ping":45},{"user_id":375,"name":"vacuum cleaner","steam_id":76561198073474255,"connected_time":1116000000000,"state":"active","ping":73},{"user_id":372,"name":"IAmAProfesonal","steam_id":76561199171858953,"connected_time":1185000000000,"state":"active","ping":55},{"user_id":357,"name":"BarrowBaron","steam_id":76561198013633236,"connected_time":1530000000000,"state":"active","ping":66},{"user_id":380,"name":"Hotel Mario Next-Gen Remaster","steam_id":76561198217955315,"connected_time":710000000000,"state":"active","ping":100},{"user_id":382,"name":"Sigiferd","steam_id":76561198148788110,"connected_time":417000000000,"state":"active","ping":119},{"user_id":358,"name":"INFINITE","steam_id":76561197971285557,"connected_time":1521000000000,"state":"active","ping":50},{"user_id":360,"name":"‚¨û","steam_id":76561199052840531,"connected_time":1508000000000,"state":"active","ping":49},{"user_id":383,"name":"teh mummy","steam_id":76561198044123636,"connected_time":279000000000,"state":"active","ping":106},{"user_id":377,"name":"The Greendale Human Beings","steam_id":76561198055433422,"connected_time":929000000000,"state":"active","ping":68},{"user_id":366,"name":"Chimpish","steam_id":76561199263493270,"connected_time":1430000000000,"state":"active","ping":93},{"user_id":346,"name":"Tablaro","steam_id":76561198076915673,"connected_time":2283000000000,"state":"active","ping":71},{"user_id":385,"name":"Xavi","steam_id":76561198337783795,"connected_time":164000000000,"state":"active","ping":56},{"user_id":342,"name":"Trigger!","steam_id":76561198061514186,"connected_time":2368000000000,"state":"active","ping":88},{"user_id":381,"name":"Scoob","steam_id":76561198078633301,"connected_time":484000000000,"state":"active","ping":49},{"user_id":376,"name":"TLG, Certified Gamer Mom","steam_id":76561198076669951,"connected_time":1041000000000,"state":"active","ping":50},{"user_id":374,"name":"Ignatius J. Reilly","steam_id":76561198066958868,"connected_time":1183000000000,"state":"active","ping":65},{"user_id":334,"name":"bran","steam_id":76561199028457134,"connected_time":2679000000000,"state":"active","ping":46},{"user_id":354,"name":"Lemonade :3","steam_id":76561199109806211,"connected_time":1657000000000,"state":"active","ping":92},{"user_id":301,"name":"Nobody","steam_id":76561198286486517,"connected_time":4342000000000,"state":"active","ping":74}]},{"server_id":14,"name":"Uncletopia | New York City | 2 | All Maps","name_short":"nyc-2","host":"nyc-1.us.uncletopia.com","port":27025,"enabled":true,"region":"us-east","cc":"us","latitude":40.73061,"longitude":-73.93524,"reserved":0,"last_update":"0001-01-01T00:00:00Z","name_a2s":"Uncletopia | New York City | 2 | All Maps","protocol":17,"map":"cp_egypt_final","folder":"tf","game":"Team Fortress","app_id":440,"player_count":1,"max_players":24,"Bots":0,"server_type":"Dedicated","server_os":"Linux","password":true,"vac":true,"version":"7961495","steam_id":85568392924469994,"keywords":["cp","nocrits","nodmgspread","uncletopia"],"game_id":440,"stv_port":27026,"stv_name":"Uncletopia | New York City | 2 | All Maps | STV","players":[{"user_id":270,"name":"Sussin'","steam_id":76561198059813696,"connected_time":78000000000,"state":"active","ping":44}]},{"server_id":15,"name":"Uncletopia | New York City | 3 | Stopwatch","name_short":"nyc-3","host":"nyc-1.us.uncletopia.com","port":27035,"enabled":true,"region":"us-east","cc":"us","latitude":40.73061,"longitude":-73.93524,"reserved":0,"last_update":"0001-01-01T00:00:00Z","name_a2s":"Uncletopia | New York City | 3 | Stopwatch","protocol":17,"map":"cp_metalworks","folder":"tf","game":"Team Fortress","app_id":440,"player_count":3,"max_players":24,"Bots":0,"server_type":"Dedicated","server_os":"Linux","password":true,"vac":true,"version":"7961495","steam_id":85568392924742820,"keywords":["cp","nocrits","nodmgspread","uncletopia"],"game_id":440,"stv_port":27036,"stv_name":"Uncletopia | New York City | 3 | Stopwatch | STV","players":[{"user_id":38,"name":"jairo","steam_id":76561199006124613,"connected_time":291000000000,"state":"active","ping":107},{"user_id":39,"name":"Ajsa CFBI","steam_id":76561199235907971,"connected_time":275000000000,"state":"active","ping":106},{"user_id":40,"name":"DaybreakerYa","steam_id":76561199013632613,"connected_time":188000000000,"state":"active","ping":66}]},{"server_id":16,"name":"Uncletopia | New York City | 4 | Community","name_short":"nyc-4","host":"nyc-1.us.uncletopia.com","port":27045,"enabled":true,"region":"us-east","cc":"us","latitude":40.73061,"longitude":-73.93524,"reserved":0,"last_update":"0001-01-01T00:00:00Z","name_a2s":"Uncletopia | New York City | 4 | Community","protocol":17,"map":"workshop/cp_villa_b19.ugc2113052569","folder":"tf","game":"Team Fortress","app_id":440,"player_count":0,"max_players":24,"Bots":0,"server_type":"Dedicated","server_os":"Linux","password":true,"vac":true,"version":"7961495","steam_id":85568392924742821,"keywords":["cp","nocrits","nodmgspread","uncletopia"],"game_id":440,"stv_port":27046,"stv_name":"Uncletopia | New York City | 4 | Community | STV","players":null},{"server_id":142,"name":"Uncletopia | S√£o Paulo | 1 | All Maps","name_short":"sao-1","host":"sao-1.br.uncletopia.com","port":27015,"enabled":true,"region":"sa","cc":"br","latitude":-23.533773,"longitude":-46.62529,"reserved":0,"last_update":"0001-01-01T00:00:00Z","name_a2s":"Uncletopia | S√£o Paulo | 1 | All Maps","protocol":17,"map":"koth_highpass","folder":"tf","game":"Team Fortress","app_id":440,"player_count":1,"max_players":24,"Bots":0,"server_type":"Dedicated","server_os":"Linux","password":true,"vac":true,"version":"7961495","steam_id":85568392924469996,"keywords":["cp","nocrits","nodmgspread","uncletopia"],"game_id":440,"stv_port":27016,"stv_name":"Uncletopia | S√£o Paulo | 1 | All Maps | STV","players":[{"user_id":23,"name":"SoldierPie2007","steam_id":76561199491826166,"connected_time":44000000000,"state":"active","ping":84}]},{"server_id":143,"name":"Uncletopia | S√£o Paulo | 2 | Community","name_short":"sao-2","host":"sao-2.br.uncletopia.com","port":27015,"enabled":true,"region":"sa","cc":"br","latitude":-23.533773,"longitude":-46.62529,"reserved":0,"last_update":"0001-01-01T00:00:00Z","name_a2s":"Uncletopia | S√£o Paulo | 2 | Community","protocol":17,"map":"workshop/pl_badwater_pro_v12.ugc2142942074","folder":"tf","game":"Team Fortress","app_id":440,"player_count":1,"max_players":24,"Bots":0,"server_type":"Dedicated","server_os":"Linux","password":true,"vac":true,"version":"7961495","steam_id":85568392924485349,"keywords":["nocrits","nodmgspread","payload","uncletopia"],"game_id":440,"stv_port":27016,"stv_name":"Uncletopia | S√£o Paulo | 2 | Community | STV","players":[{"user_id":16,"name":"Rikk","steam_id":76561198169906997,"connected_time":928000000000,"state":"active","ping":107}]},{"server_id":7,"name":"Uncletopia | Seattle | 1 | All Maps","name_short":"sea-1","host":"sea-1.us.uncletopia.com","port":27015,"enabled":true,"region":"us-west","cc":"us","latitude":47.608013,"longitude":-122.33517,"reserved":0,"last_update":"0001-01-01T00:00:00Z","name_a2s":"Uncletopia | Seattle | 1 | All Maps","protocol":17,"map":"pl_borneo","folder":"tf","game":"Team Fortress","app_id":440,"player_count":24,"max_players":24,"Bots":0,"server_type":"Dedicated","server_os":"Linux","password":true,"vac":true,"version":"7961495","steam_id":85568392924469997,"keywords":["nocrits","nodmgspread","payload","uncletopia"],"game_id":440,"stv_port":27016,"stv_name":"Uncletopia | Seattle | 1 | All Maps | STV","players":[{"user_id":494,"name":"Jebediah Johnson","steam_id":76561198398346021,"connected_time":1900000000000,"state":"active","ping":32},{"user_id":519,"name":"Apollo","steam_id":76561198162364702,"connected_time":691000000000,"state":"active","ping":44},{"user_id":495,"name":"2 Point Tom","steam_id":76561198087617008,"connected_time":1780000000000,"state":"active","ping":46},{"user_id":496,"name":"Excalibrine","steam_id":76561198129312118,"connected_time":1708000000000,"state":"active","ping":45},{"user_id":497,"name":"Grassman (Cc)","steam_id":76561198026488532,"connected_time":1707000000000,"state":"active","ping":60},{"user_id":517,"name":"ghetto alchemy","steam_id":76561198015815935,"connected_time":917000000000,"state":"active","ping":78},{"user_id":518,"name":"Mr.Meeseeks","steam_id":76561198335193881,"connected_time":910000000000,"state":"active","ping":154},{"user_id":350,"name":"scallop pigeon","steam_id":76561199488457138,"connected_time":13497000000000,"state":"active","ping":52},{"user_id":468,"name":"Karg","steam_id":76561198091387866,"connected_time":3990000000000,"state":"active","ping":61},{"user_id":503,"name":"dogerich404","steam_id":76561199124102546,"connected_time":1357000000000,"state":"active","ping":81},{"user_id":501,"name":"pablo","steam_id":76561199182194253,"connected_time":1503000000000,"state":"active","ping":111},{"user_id":520,"name":"12 yottabytes of women's feet","steam_id":76561198057034390,"connected_time":27000000000,"state":"active","ping":48},{"user_id":505,"name":"muddy","steam_id":76561198035015260,"connected_time":1324000000000,"state":"active","ping":78},{"user_id":483,"name":"CHIEF_JUSTICE_FUCKASS","steam_id":76561199261675844,"connected_time":2818000000000,"state":"active","ping":47},{"user_id":506,"name":"MANYAH!!","steam_id":76561198043757265,"connected_time":1320000000000,"state":"active","ping":61},{"user_id":508,"name":"whole lotta nuthin","steam_id":76561198305201458,"connected_time":1290000000000,"state":"active","ping":106},{"user_id":471,"name":"Eraser cat","steam_id":76561199045570463,"connected_time":3888000000000,"state":"active","ping":49},{"user_id":509,"name":"DocValentyne","steam_id":76561199217303810,"connected_time":1238000000000,"state":"active","ping":47},{"user_id":462,"name":"WaveJumper","steam_id":76561197972509380,"connected_time":4593000000000,"state":"active","ping":43},{"user_id":510,"name":"Morse","steam_id":76561198039944542,"connected_time":1210000000000,"state":"active","ping":36},{"user_id":516,"name":"spacetoven","steam_id":76561198115821131,"connected_time":967000000000,"state":"active","ping":66},{"user_id":511,"name":"Mer","steam_id":76561198192171041,"connected_time":1191000000000,"state":"active","ping":148},{"user_id":512,"name":"Randle of John","steam_id":76561198328210524,"connected_time":1176000000000,"state":"active","ping":69},{"user_id":515,"name":"Tuna!","steam_id":76561198354590331,"connected_time":1062000000000,"state":"active","ping":74}]},{"server_id":119,"name":"Uncletopia | Seattle | 2 | All Maps","name_short":"sea-2","host":"sea-1.us.uncletopia.com","port":27025,"enabled":true,"region":"us-west","cc":"us","latitude":47.608013,"longitude":-122.33517,"reserved":0,"last_update":"0001-01-01T00:00:00Z","name_a2s":"Uncletopia | Seattle | 2 | All Maps","protocol":17,"map":"koth_lakeside_final","folder":"tf","game":"Team Fortress","app_id":440,"player_count":24,"max_players":24,"Bots":0,"server_type":"Dedicated","server_os":"Linux","password":true,"vac":true,"version":"7961495","steam_id":85568392924469998,"keywords":["cp","nocrits","nodmgspread","uncletopia"],"game_id":440,"stv_port":27026,"stv_name":"Uncletopia | Seattle | 2 | All Maps | STV","players":[{"user_id":18,"name":"Spread Joy, Not Hate","steam_id":76561198053117503,"connected_time":6928000000000,"state":"active","ping":60},{"user_id":158,"name":"catrinaisahuman","steam_id":76561198281355729,"connected_time":717000000000,"state":"active","ping":75},{"user_id":152,"name":"Casper","steam_id":76561198142131926,"connected_time":823000000000,"state":"active","ping":68},{"user_id":121,"name":"Lain","steam_id":76561198118282205,"connected_time":2329000000000,"state":"active","ping":119},{"user_id":153,"name":"lil nut","steam_id":76561198090199801,"connected_time":818000000000,"state":"active","ping":45},{"user_id":154,"name":"KILLATURD","steam_id":76561198123208016,"connected_time":812000000000,"state":"active","ping":52},{"user_id":156,"name":"she's 12","steam_id":76561198295034584,"connected_time":800000000000,"state":"active","ping":103},{"user_id":157,"name":"bobbymcbobington","steam_id":76561199089411172,"connected_time":756000000000,"state":"active","ping":164},{"user_id":30,"name":"DonoC","steam_id":76561198274473338,"connected_time":6057000000000,"state":"active","ping":102},{"user_id":163,"name":"MrQuack","steam_id":76561198873049714,"connected_time":629000000000,"state":"active","ping":73},{"user_id":35,"name":"Lawyer","steam_id":76561197974126447,"connected_time":6016000000000,"state":"active","ping":92},{"user_id":107,"name":"dillpickle","steam_id":76561198156957191,"connected_time":3263000000000,"state":"active","ping":101},{"user_id":146,"name":"rigatoniashes","steam_id":76561198285819311,"connected_time":949000000000,"state":"active","ping":72},{"user_id":166,"name":"Junpap","steam_id":76561198077324994,"connected_time":177000000000,"state":"active","ping":33},{"user_id":150,"name":"Jshoe","steam_id":76561198128252048,"connected_time":863000000000,"state":"active","ping":67},{"user_id":160,"name":"tomiz","steam_id":76561198827013832,"connected_time":682000000000,"state":"active","ping":83},{"user_id":143,"name":"Detaer","steam_id":76561197966125964,"connected_time":1168000000000,"state":"active","ping":67},{"user_id":161,"name":"The_Epic_Conclusion","steam_id":76561198084250179,"connected_time":653000000000,"state":"active","ping":107},{"user_id":47,"name":"ShackerJack","steam_id":76561198118017448,"connected_time":5671000000000,"state":"active","ping":52},{"user_id":164,"name":"Giga","steam_id":76561198057351539,"connected_time":372000000000,"state":"active","ping":81},{"user_id":165,"name":"how many holes spongebob got?","steam_id":76561198043497451,"connected_time":369000000000,"state":"active","ping":110},{"user_id":122,"name":"The local hobo","steam_id":76561198289650060,"connected_time":2319000000000,"state":"active","ping":68},{"user_id":136,"name":"ToddStool","steam_id":76561198338144919,"connected_time":1552000000000,"state":"active","ping":62},{"user_id":149,"name":"The Booty Creek Cheek Freak","steam_id":76561198965915291,"connected_time":897000000000,"state":"active","ping":117}]},{"server_id":406,"name":"Uncletopia | Seattle | 3 | Stopwatch","name_short":"sea-3","host":"sea-1.us.uncletopia.com","port":27035,"enabled":true,"region":"us-west","cc":"us","latitude":47.608013,"longitude":-122.33517,"reserved":0,"last_update":"0001-01-01T00:00:00Z","name_a2s":"Uncletopia | Seattle | 3 | Stopwatch","protocol":17,"map":"koth_highpass","folder":"tf","game":"Team Fortress","app_id":440,"player_count":0,"max_players":24,"Bots":0,"server_type":"Dedicated","server_os":"Linux","password":true,"vac":true,"version":"7961495","steam_id":85568392924515217,"keywords":["cp","nocrits","nodmgspread","uncletopia"],"game_id":440,"stv_port":27036,"stv_name":"Uncletopia | Seattle | 3 | Stopwatch | STV","players":null},{"server_id":17,"name":"Uncletopia | San Francisco | 1 | All Maps","name_short":"sfo-1","host":"sfo-1.us.uncletopia.com","port":27015,"enabled":true,"region":"us-west","cc":"us","latitude":37.77397,"longitude":-122.4313,"reserved":0,"last_update":"0001-01-01T00:00:00Z","name_a2s":"Uncletopia | San Francisco | 1 | All Maps","protocol":17,"map":"koth_viaduct","folder":"tf","game":"Team Fortress","app_id":440,"player_count":24,"max_players":24,"Bots":0,"server_type":"Dedicated","server_os":"Linux","password":true,"vac":true,"version":"7961495","steam_id":85568392924469999,"keywords":["cp","nocrits","nodmgspread","uncletopia"],"game_id":440,"stv_port":27016,"stv_name":"Uncletopia | San Francisco | 1 | All Maps | STV","players":[{"user_id":20,"name":"umongus","steam_id":76561199366064808,"connected_time":778000000000,"state":"active","ping":151},{"user_id":6,"name":"Panzer Vor","steam_id":76561198435091099,"connected_time":3025000000000,"state":"active","ping":58},{"user_id":12,"name":"Caspian","steam_id":76561199041466962,"connected_time":1417000000000,"state":"active","ping":39},{"user_id":13,"name":"Infernatious","steam_id":76561199483610732,"connected_time":1381000000000,"state":"active","ping":62},{"user_id":18,"name":"Buswolley","steam_id":76561197995205571,"connected_time":857000000000,"state":"active","ping":53},{"user_id":17,"name":"orphan slayer","steam_id":76561199476198856,"connected_time":999000000000,"state":"active","ping":114},{"user_id":19,"name":"ImBoof","steam_id":76561198047812934,"connected_time":831000000000,"state":"active","ping":85},{"user_id":21,"name":"Schnitz","steam_id":76561198265484253,"connected_time":698000000000,"state":"active","ping":70},{"user_id":22,"name":"lucwasa14","steam_id":76561199025617634,"connected_time":696000000000,"state":"active","ping":112},{"user_id":26,"name":"LU BU","steam_id":76561198058044061,"connected_time":586000000000,"state":"active","ping":73},{"user_id":35,"name":"FaZe hyaz (like to meow.. ALOT)","steam_id":76561199100342013,"connected_time":419000000000,"state":"active","ping":52},{"user_id":25,"name":"copper","steam_id":76561198146250533,"connected_time":615000000000,"state":"active","ping":53},{"user_id":41,"name":"noceof","steam_id":76561198043656816,"connected_time":340000000000,"state":"active","ping":162},{"user_id":28,"name":"crankshaft","steam_id":76561197992798282,"connected_time":515000000000,"state":"active","ping":52},{"user_id":33,"name":"Love Waffle","steam_id":76561197990077189,"connected_time":441000000000,"state":"active","ping":83},{"user_id":30,"name":"460BF0 JustAWarper","steam_id":76561198850723295,"connected_time":486000000000,"state":"active","ping":69},{"user_id":31,"name":"Portal2Player","steam_id":76561198062870114,"connected_time":480000000000,"state":"active","ping":131},{"user_id":32,"name":"Rusty","steam_id":76561198055585129,"connected_time":464000000000,"state":"active","ping":63},{"user_id":34,"name":"LivingRaccoon","steam_id":76561198035425632,"connected_time":431000000000,"state":"active","ping":61},{"user_id":36,"name":"brad","steam_id":76561198097715734,"connected_time":416000000000,"state":"active","ping":129},{"user_id":37,"name":"H.","steam_id":76561198074951179,"connected_time":390000000000,"state":"active","ping":68},{"user_id":38,"name":"Tom Cr√∫aich","steam_id":76561197999439911,"connected_time":389000000000,"state":"active","ping":79},{"user_id":39,"name":"SynSten","steam_id":76561199122281764,"connected_time":368000000000,"state":"active","ping":85},{"user_id":40,"name":"Norkkom","steam_id":76561198027073521,"connected_time":358000000000,"state":"active","ping":112}]},{"server_id":18,"name":"Uncletopia | San Francisco | 2 | All Maps","name_short":"sfo-2","host":"sfo-1.us.uncletopia.com","port":27025,"enabled":true,"region":"us-west","cc":"us","latitude":37.77397,"longitude":-122.4313,"reserved":0,"last_update":"0001-01-01T00:00:00Z","name_a2s":"Uncletopia | San Francisco | 2 | All Maps","protocol":17,"map":"cp_process_final","folder":"tf","game":"Team Fortress","app_id":440,"player_count":0,"max_players":24,"Bots":0,"server_type":"Dedicated","server_os":"Linux","password":true,"vac":true,"version":"7961495","steam_id":85568392924470000,"keywords":["cp","nocrits","nodmgspread","uncletopia"],"game_id":440,"stv_port":27026,"stv_name":"Uncletopia | San Francisco | 2 | All Maps | STV","players":null},{"server_id":19,"name":"Uncletopia | San Francisco | 3 | Stopwatch","name_short":"sfo-3","host":"sfo-1.us.uncletopia.com","port":27035,"enabled":true,"region":"us-west","cc":"us","latitude":37.77397,"longitude":-122.4313,"reserved":0,"last_update":"0001-01-01T00:00:00Z","name_a2s":"Uncletopia | San Francisco | 3 | Stopwatch","protocol":17,"map":"workshop/cp_process_f12.ugc2302948105","folder":"tf","game":"Team Fortress","app_id":440,"player_count":0,"max_players":24,"Bots":0,"server_type":"Dedicated","server_os":"Linux","password":true,"vac":true,"version":"7961495","steam_id":85568392924742824,"keywords":["cp","nocrits","nodmgspread","uncletopia"],"game_id":440,"stv_port":27036,"stv_name":"Uncletopia | San Francisco | 3 | Stopwatch | STV","players":null},{"server_id":20,"name":"Uncletopia | San Francisco | 4 | Community","name_short":"sfo-4","host":"sfo-1.us.uncletopia.com","port":27045,"enabled":true,"region":"us-west","cc":"us","latitude":37.77397,"longitude":-122.4313,"reserved":0,"last_update":"0001-01-01T00:00:00Z","name_a2s":"Uncletopia | San Francisco | 4 | Community","protocol":17,"map":"pl_pier","folder":"tf","game":"Team Fortress","app_id":440,"player_count":0,"max_players":24,"Bots":0,"server_type":"Dedicated","server_os":"Linux","password":true,"vac":true,"version":"7961495","steam_id":85568392924742826,"keywords":["nocrits","nodmgspread","payload","uncletopia"],"game_id":440,"stv_port":27046,"stv_name":"Uncletopia | San Francisco | 4 | Community | STV","players":null},{"server_id":141,"name":"Uncletopia | Sydney | 1 | All Maps","name_short":"syd-1","host":"syd-1.au.uncletopia.com","port":27015,"enabled":true,"region":"au","cc":"au","latitude":-33.865143,"longitude":151.2099,"reserved":0,"last_update":"0001-01-01T00:00:00Z","name_a2s":"Uncletopia | Sydney | 1 | All Maps","protocol":17,"map":"koth_viaduct","folder":"tf","game":"Team Fortress","app_id":440,"player_count":0,"max_players":24,"Bots":0,"server_type":"Dedicated","server_os":"Linux","password":true,"vac":true,"version":"7961495","steam_id":85568392924470001,"keywords":["cp","nocrits","nodmgspread","uncletopia"],"game_id":440,"stv_port":27016,"stv_name":"Uncletopia | Sydney | 1 | All Maps | STV","players":null},{"server_id":123,"name":"Uncletopia | Sydney | 2 | All Maps","name_short":"syd-2","host":"syd-1.au.uncletopia.com","port":27025,"enabled":true,"region":"au","cc":"au","latitude":-33.865143,"longitude":151.2099,"reserved":0,"last_update":"0001-01-01T00:00:00Z","name_a2s":"Uncletopia | Sydney | 2 | All Maps","protocol":17,"map":"koth_lakeside_final","folder":"tf","game":"Team Fortress","app_id":440,"player_count":0,"max_players":24,"Bots":0,"server_type":"Dedicated","server_os":"Linux","password":true,"vac":true,"version":"7961495","steam_id":85568392924470002,"keywords":["cp","nocrits","nodmgspread","uncletopia"],"game_id":440,"stv_port":27026,"stv_name":"Uncletopia | Sydney | 2 | All Maps | STV","players":null},{"server_id":395,"name":"Uncletopia | Sydney | 3 | All Maps","name_short":"syd-3","host":"syd-1.au.uncletopia.com","port":27035,"enabled":true,"region":"au","cc":"au","latitude":-33.865143,"longitude":151.2099,"reserved":0,"last_update":"0001-01-01T00:00:00Z","name_a2s":"Uncletopia | Sydney | 3 | All Maps","protocol":17,"map":"pl_frontier_final","folder":"tf","game":"Team Fortress","app_id":440,"player_count":0,"max_players":24,"Bots":0,"server_type":"Dedicated","server_os":"Linux","password":true,"vac":true,"version":"7961495","steam_id":85568392925194467,"keywords":["nocrits","nodmgspread","payload","uncletopia"],"game_id":440,"stv_port":27036,"stv_name":"Uncletopia | Sydney | 3 | All Maps | STV","players":null},{"server_id":396,"name":"Uncletopia | Sydney | 4 | All Maps","name_short":"syd-4","host":"syd-1.au.uncletopia.com","port":27045,"enabled":true,"region":"au","cc":"au","latitude":-33.865143,"longitude":151.2099,"reserved":0,"last_update":"0001-01-01T00:00:00Z","name_a2s":"Uncletopia | Sydney | 4 | All Maps","protocol":17,"map":"cp_process_final","folder":"tf","game":"Team Fortress","app_id":440,"player_count":0,"max_players":24,"Bots":0,"server_type":"Dedicated","server_os":"Linux","password":true,"vac":true,"version":"7961495","steam_id":85568392925397958,"keywords":["cp","nocrits","nodmgspread","uncletopia"],"game_id":440,"stv_port":27046,"stv_name":"Uncletopia | Sydney | 4 | All Maps | STV","players":null},{"server_id":58,"name":"Uncletopia | Sydney | 5 | Stopwatch","name_short":"syd-5","host":"syd-1.au.uncletopia.com","port":27055,"enabled":true,"region":"au","cc":"au","latitude":-33.865143,"longitude":151.2099,"reserved":0,"last_update":"0001-01-01T00:00:00Z","name_a2s":"Uncletopia | Sydney | 5 | Stopwatch","protocol":17,"map":"pl_frontier_final","folder":"tf","game":"Team Fortress","app_id":440,"player_count":0,"max_players":24,"Bots":0,"server_type":"Dedicated","server_os":"Linux","password":true,"vac":true,"version":"7961495","steam_id":85568392925397959,"keywords":["nocrits","nodmgspread","payload","uncletopia"],"game_id":440,"stv_port":27056,"stv_name":"Uncletopia | Sydney | 5 | Stopwatch | STV","players":null},{"server_id":59,"name":"Uncletopia | Sydney | 6 | Community","name_short":"syd-6","host":"syd-1.au.uncletopia.com","port":27065,"enabled":true,"region":"au","cc":"au","latitude":-33.865143,"longitude":151.2099,"reserved":0,"last_update":"0001-01-01T00:00:00Z","name_a2s":"Uncletopia | Sydney | 6 | Community","protocol":17,"map":"cp_sunshine","folder":"tf","game":"Team Fortress","app_id":440,"player_count":0,"max_players":24,"Bots":0,"server_type":"Dedicated","server_os":"Linux","password":true,"vac":true,"version":"7961495","steam_id":85568392925397960,"keywords":["cp","nocrits","nodmgspread","uncletopia"],"game_id":440,"stv_port":27066,"stv_name":"Uncletopia | Sydney | 6 | Community | STV","players":null},{"server_id":49,"name":"Uncletopia | Warsaw | 1 | One Thousand Uncles","name_short":"waw-1","host":"waw-1.pl.uncletopia.com","port":27015,"enabled":true,"region":"eu","cc":"pl","latitude":52.2297,"longitude":21.017532,"reserved":0,"last_update":"0001-01-01T00:00:00Z","name_a2s":"Uncletopia | Warsaw | 1 | One Thousand Uncles","protocol":17,"map":"pl_hoodoo_final","folder":"tf","game":"Team Fortress","app_id":440,"player_count":0,"max_players":32,"Bots":0,"server_type":"Dedicated","server_os":"Linux","password":true,"vac":true,"version":"7961495","steam_id":85568392925397850,"keywords":["alltalk","danepve","increased_maxplayers","nocrits","norespawntime","payload","uncletopia"],"game_id":440,"stv_port":0,"stv_name":"","players":null},{"server_id":50,"name":"Uncletopia | Warsaw | 2 | One Thousand Uncles","name_short":"waw-2","host":"waw-1.pl.uncletopia.com","port":27025,"enabled":true,"region":"eu","cc":"pl","latitude":52.2297,"longitude":21.017532,"reserved":0,"last_update":"0001-01-01T00:00:00Z","name_a2s":"Uncletopia | Warsaw | 2 | One Thousand Uncles","protocol":17,"map":"cp_dustbowl","folder":"tf","game":"Team Fortress","app_id":440,"player_count":28,"max_players":32,"Bots":16,"server_type":"Dedicated","server_os":"Linux","password":true,"vac":true,"version":"7961495","steam_id":85568392925397851,"keywords":["alltalk","bots","cp","danepve","increased_maxplayers","nocrits","norespawntime","uncletopia"],"game_id":440,"stv_port":0,"stv_name":"","players":[{"user_id":843,"name":"63756d","steam_id":76561198808699024,"connected_time":2096000000000,"state":"active","ping":72},{"user_id":814,"name":"hawkson","steam_id":76561198328814390,"connected_time":4451000000000,"state":"active","ping":111},{"user_id":858,"name":"Gluestick","steam_id":76561199013430308,"connected_time":66000000000,"state":"active","ping":216},{"user_id":844,"name":"FreonAddict9x19","steam_id":76561198060010824,"connected_time":1690000000000,"state":"active","ping":150},{"user_id":845,"name":"GeraldyJones65","steam_id":76561199122297098,"connected_time":1649000000000,"state":"active","ping":142},{"user_id":856,"name":"mob","steam_id":76561198099696876,"connected_time":300000000000,"state":"active","ping":81},{"user_id":857,"name":"zero","steam_id":76561198167828355,"connected_time":265000000000,"state":"active","ping":74},{"user_id":819,"name":"TylowStar","steam_id":76561198357107806,"connected_time":3819000000000,"state":"active","ping":90},{"user_id":736,"name":"Monke Hartmann","steam_id":76561198281389701,"connected_time":11223000000000,"state":"active","ping":105},{"user_id":851,"name":"pixelNERD","steam_id":76561198983633598,"connected_time":1023000000000,"state":"active","ping":53},{"user_id":812,"name":"Mirson","steam_id":76561198216819539,"connected_time":4977000000000,"state":"active","ping":45},{"user_id":813,"name":"Vibing Wave","steam_id":76561198866358613,"connected_time":4975000000000,"state":"active","ping":164}]},{"server_id":51,"name":"Uncletopia | Warsaw | 3 | All Maps","name_short":"waw-3","host":"waw-1.pl.uncletopia.com","port":27035,"enabled":true,"region":"eu","cc":"pl","latitude":52.2297,"longitude":21.017532,"reserved":0,"last_update":"0001-01-01T00:00:00Z","name_a2s":"Uncletopia | Warsaw | 3 | All Maps","protocol":17,"map":"cp_sunshine","folder":"tf","game":"Team Fortress","app_id":440,"player_count":0,"max_players":24,"Bots":0,"server_type":"Dedicated","server_os":"Linux","password":true,"vac":true,"version":"7961495","steam_id":85568392925397852,"keywords":["cp","nocrits","nodmgspread","uncletopia"],"game_id":440,"stv_port":27036,"stv_name":"Uncletopia | Warsaw | 3 | All Maps | STV","players":null},{"server_id":52,"name":"Uncletopia | Warsaw | 4 | All Maps","name_short":"waw-4","host":"waw-1.pl.uncletopia.com","port":27045,"enabled":true,"region":"eu","cc":"pl","latitude":52.2297,"longitude":21.017532,"reserved":0,"last_update":"0001-01-01T00:00:00Z","name_a2s":"Uncletopia | Warsaw | 4 | All Maps","protocol":17,"map":"pl_swiftwater_final1","folder":"tf","game":"Team Fortress","app_id":440,"player_count":0,"max_players":24,"Bots":0,"server_type":"Dedicated","server_os":"Linux","password":true,"vac":true,"version":"7961495","steam_id":85568392925397853,"keywords":["nocrits","nodmgspread","payload","uncletopia"],"game_id":440,"stv_port":27046,"stv_name":"Uncletopia | Warsaw | 4 | All Maps | STV","players":null},{"server_id":53,"name":"Uncletopia | Warsaw | 5 | Stopwatch","name_short":"waw-5","host":"waw-1.pl.uncletopia.com","port":27055,"enabled":true,"region":"eu","cc":"pl","latitude":52.2297,"longitude":21.017532,"reserved":0,"last_update":"0001-01-01T00:00:00Z","name_a2s":"Uncletopia | Warsaw | 5 | Stopwatch","protocol":17,"map":"workshop/koth_clearcut_b15.ugc2107050255","folder":"tf","game":"Team Fortress","app_id":440,"player_count":0,"max_players":24,"Bots":0,"server_type":"Dedicated","server_os":"Linux","password":true,"vac":true,"version":"7961495","steam_id":85568392925397854,"keywords":["cp","nocrits","nodmgspread","uncletopia"],"game_id":440,"stv_port":27056,"stv_name":"Uncletopia | Warsaw | 5 | Stopwatch | STV","players":null},{"server_id":54,"name":"Uncletopia | Warsaw | 6 | Community","name_short":"waw-6","host":"waw-1.pl.uncletopia.com","port":27065,"enabled":true,"region":"eu","cc":"pl","latitude":52.2297,"longitude":21.017532,"reserved":0,"last_update":"0001-01-01T00:00:00Z","name_a2s":"Uncletopia | Warsaw | 6 | Community","protocol":17,"map":"workshop/pl_badwater_pro_v12.ugc2142942074","folder":"tf","game":"Team Fortress","app_id":440,"player_count":0,"max_players":24,"Bots":0,"server_type":"Dedicated","server_os":"Linux","password":true,"vac":true,"version":"7961495","steam_id":85568392925397856,"keywords":["nocrits","nodmgspread","payload","uncletopia"],"game_id":440,"stv_port":27066,"stv_name":"Uncletopia | Warsaw | 6 | Community | STV","players":null}]}