{"status":true,"message":"","result":[{"server_id":9,"name":"Uncletopia | Atlanta | 1 | All Maps","name_short":"atl-1","host":"atl-1.us.uncletopia.com","port":27015,"enabled":true,"region":"us-east","cc":"us","latitude":33.753746,"longitude":-84.38633,"reserved":0,"last_update":"0001-01-01T00:00:00Z","name_a2s":"Uncletopia | Atlanta | 1 | All Maps","protocol":17,"map":"pl_upward","folder":"tf","game":"Team Fortress","app_id":440,"player_count":24,"max_players":24,"Bots":0,"server_type":"Dedicated","server_os":"Linux","password":true,"vac":true,"version":"7961495","steam_id":85568392924469982,"keywords":["nocrits","nodmgspread","payload","uncletopia"],"game_id":440,"stv_port":27016,"stv_name":"Uncletopia | Atlanta | 1 | All Maps | STV","players":[{"user_id":615,"name":"Sweater-Fan","steam_id":76561199389567214,"connected_time":717000000000,"state":"active","ping":66},{"user_id":611,"name":"twinblock","steam_id":76561198157414556,"connected_time":1168000000000,"state":"active","ping":72},{"user_id":577,"name":"Gunden","steam_id":76561198124380112,"connected_time":3811000000000,"state":"active","ping":55},{"user_id":614,"name":"rice white","steam_id":76561198320732910,"connected_time":739000000000,"state":"active","ping":75},{"user_id":606,"name":"BoyWithTheBeanie","steam_id":76561199435079308,"connected_time":2130000000000,"state":"active","ping":143},{"user_id":622,"name":"GuyGoom","steam_id":76561198254522178,"connected_time":460000000000,"state":"active","ping":75},{"user_id":599,"name":"njokuani","steam_id":76561199061380038,"connected_time":2591000000000,"state":"active","ping":60},{"user_id":545,"name":"shaderoses","steam_id":76561198070800500,"connected_time":7739000000000,"state":"active","ping":65},{"user_id":623,"name":"Weebmcgee","steam_id":76561198081231557,"connected_time":2000000000,"state":"spawning","ping":69},{"user_id":569,"name":"Stick","steam_id":76561198001509374,"connected_time":4766000000000,"state":"active","ping":66},{"user_id":609,"name":"Octto","steam_id":76561198070124921,"connected_time":1334000000000,"state":"active","ping":52},{"user_id":580,"name":"Tabris","steam_id":76561198123608690,"connected_time":3602000000000,"state":"active","ping":74},{"user_id":612,"name":"Dox","steam_id":76561198120368589,"connected_time":1134000000000,"state":"active","ping":61},{"user_id":559,"name":"Birch","steam_id":76561198316231704,"connected_time":5724000000000,"state":"active","ping":54},{"user_id":587,"name":"Muselk","steam_id":76561199289676387,"connected_time":3297000000000,"state":"active","ping":83},{"user_id":616,"name":"stratsboneless","steam_id":76561198975447100,"connected_time":667000000000,"state":"active","ping":62},{"user_id":581,"name":"centipede","steam_id":76561199238694456,"connected_time":3592000000000,"state":"active","ping":84},{"user_id":603,"name":"Snoopy","steam_id":76561198273735974,"connected_time":2490000000000,"state":"active","ping":93},{"user_id":617,"name":"Team Fartpiss Poo","steam_id":76561199163591880,"connected_time":656000000000,"state":"active","ping":87},{"user_id":555,"name":"Ludcmorais","steam_id":76561198359217809,"connected_time":6331000000000,"state":"active","ping":184},{"user_id":618,"name":"pigswill","steam_id":76561197999081865,"connected_time":642000000000,"state":"active","ping":77},{"user_id":620,"name":"victordead121","steam_id":76561199180843121,"connected_time":624000000000,"state":"active","ping":119},{"user_id":597,"name":"kolkon","steam_id":76561198073360267,"connected_time":2637000000000,"state":"active","ping":64},{"user_id":593,"name":"M249 | Spectre","steam_id":76561198118334485,"connected_time":3116000000000,"state":"active","ping":81}]},{"server_id":104,"name":"Uncletopia | Atlanta | 2 | All Maps","name_short":"atl-2","host":"atl-1.us.uncletopia.com","port":27025,"enabled":true,"region":"us-east","cc":"us","latitude":33.753746,"longitude":-84.38633,"reserved":0,"last_update":"0001-01-01T00:00:00Z","name_a2s":"Uncletopia | Atlanta | 2 | All Maps","protocol":17,"map":"cp_mountainlab","folder":"tf","game":"Team Fortress","app_id":440,"player_count":8,"max_players":24,"Bots":0,"server_type":"Dedicated","server_os":"Linux","password":true,"vac":true,"version":"7961495","steam_id":85568392924469983,"keywords":["cp","nocrits","nodmgspread","uncletopia"],"game_id":440,"stv_port":27026,"stv_name":"Uncletopia | Atlanta | 2 | All Maps | STV","players":[{"user_id":758,"name":"Dog","steam_id":76561198394890836,"connected_time":996000000000,"state":"active","ping":46},{"user_id":759,"name":"Bambcue","steam_id":76561199085439694,"connected_time":979000000000,"state":"active","ping":116},{"user_id":760,"name":"whycameback","steam_id":76561198222556872,"connected_time":924000000000,"state":"active","ping":84},{"user_id":761,"name":"Tabby!!!!","steam_id":76561198018288153,"connected_time":521000000000,"state":"active","ping":62},{"user_id":762,"name":"iMoRTaL_Mafia","steam_id":76561199146064870,"connected_time":402000000000,"state":"active","ping":135},{"user_id":763,"name":"Apollo","steam_id":76561198866054007,"connected_time":357000000000,"state":"active","ping":161},{"user_id":766,"name":"Edgy Red Gamer","steam_id":76561198208743000,"connected_time":70000000000,"state":"spawning","ping":109},{"user_id":765,"name":"hehe","steam_id":76561198125913580,"connected_time":184000000000,"state":"active","ping":75}]},{"server_id":400,"name":"Uncletopia | Atlanta | 3 | Stopwatch","name_short":"atl-3","host":"atl-1.us.uncletopia.com","port":27035,"enabled":true,"region":"us-east","cc":"us","latitude":33.753746,"longitude":-84.38633,"reserved":0,"last_update":"0001-01-01T00:00:00Z","name_a2s":"Uncletopia | Atlanta | 3 | Stopwatch","protocol":17,"map":"workshop/koth_clearcut_b15.ugc2107050255","folder":"tf","game":"Team Fortress","app_id":440,"player_count":0,"max_players":24,"Bots":0,"server_type":"Dedicated","server_os":"Linux","password":true,"vac":true,"version":"7961495","steam_id":85568392924515187,"keywords":["cp","nocrits","nodmgspread","uncletopia"],"game_id":440,"stv_port":27036,"stv_name":"Uncletopia | Atlanta | 3 | Stopwatch | STV","players":null},{"server_id":401,"name":"Uncletopia | Atlanta | 4 | Community","name_short":"atl-4","host":"atl-1.us.uncletopia.com","port":27045,"enabled":true,"region":"us-east","cc":"us","latitude":33.753746,"longitude":-84.38633,"reserved":0,"last_update":"0001-01-01T00:00:00Z","name_a2s":"Uncletopia | Atlanta | 4 | Community","protocol":17,"map":"workshop/pl_divulgence_b4b.ugc2884808746","folder":"tf","game":"Team Fortress","app_id":440,"player_count":0,"max_players":24,"Bots":0,"server_type":"Dedicated","server_os":"Linux","password":true,"vac":true,"version":"7961495","steam_id":85568392924515188,"keywords":["nocrits","nodmgspread","payload","uncletopia"],"game_id":440,"stv_port":27046,"stv_name":"Uncletopia | Atlanta | 4 | Community | STV","players":null},{"server_id":2,"name":"Uncletopia | Chicago | 1 | All Maps","name_short":"chi-1","host":"chi-1.us.uncletopia.com","port":27015,"enabled":true,"region":"us-central","cc":"us","latitude":41.881832,"longitude":-87.62318,"reserved":0,"last_update":"0001-01-01T00:00:00Z","name_a2s":"Uncletopia | Chicago | 1 | All Maps","protocol":17,"map":"pl_pier","folder":"tf","game":"Team Fortress","app_id":440,"player_count":0,"max_players":24,"Bots":0,"server_type":"Dedicated","server_os":"Linux","password":true,"vac":true,"version":"7961495","steam_id":85568392924469984,"keywords":["nocrits","nodmgspread","payload","uncletopia"],"game_id":440,"stv_port":27016,"stv_name":"Uncletopia | Chicago | 1 | All Maps | STV","players":null},{"server_id":106,"name":"Uncletopia | Chicago | 2 | All Maps","name_short":"chi-2","host":"chi-1.us.uncletopia.com","port":27025,"enabled":true,"region":"us-central","cc":"us","latitude":41.881832,"longitude":-87.62318,"reserved":0,"last_update":"0001-01-01T00:00:00Z","name_a2s":"Uncletopia | Chicago | 2 | All Maps","protocol":17,"map":"cp_dustbowl","folder":"tf","game":"Team Fortress","app_id":440,"player_count":24,"max_players":24,"Bots":0,"server_type":"Dedicated","server_os":"Linux","password":true,"vac":true,"version":"7961495","steam_id":85568392924469985,"keywords":["cp","nocrits","nodmgspread","uncletopia"],"game_id":440,"stv_port":27026,"stv_name":"Uncletopia | Chicago | 2 | All Maps | STV","players":[{"user_id":843,"name":"loser","steam_id":76561198259380127,"connected_time":1758000000000,"state":"active","ping":48},{"user_id":850,"name":"xLeoparrd","steam_id":76561198940657194,"connected_time":1401000000000,"state":"active","ping":75},{"user_id":859,"name":"bengineer","steam_id":76561198171912174,"connected_time":621000000000,"state":"active","ping":100},{"user_id":831,"name":"Dr.BendyBones","steam_id":76561198048846641,"connected_time":2386000000000,"state":"active","ping":67},{"user_id":821,"name":"DigbyDots","steam_id":76561199161676519,"connected_time":3729000000000,"state":"active","ping":67},{"user_id":832,"name":"rat 2","steam_id":76561198197297414,"connected_time":2380000000000,"state":"active","ping":43},{"user_id":811,"name":"13£","steam_id":76561198425726464,"connected_time":5136000000000,"state":"active","ping":73},{"user_id":858,"name":"alleeop43","steam_id":76561199029390266,"connected_time":776000000000,"state":"active","ping":132},{"user_id":834,"name":"Shadow Steak Ramen","steam_id":76561198077838946,"connected_time":2334000000000,"state":"active","ping":67},{"user_id":854,"name":"󠀡󠀡","steam_id":76561198348035053,"connected_time":974000000000,"state":"active","ping":120},{"user_id":822,"name":"Sun_Su","steam_id":76561198158458879,"connected_time":3697000000000,"state":"active","ping":109},{"user_id":841,"name":"ultralisk52","steam_id":76561198051666604,"connected_time":2025000000000,"state":"active","ping":60},{"user_id":855,"name":"ButterNutz","steam_id":76561198122404516,"connected_time":968000000000,"state":"active","ping":86},{"user_id":809,"name":"Rusted Cake","steam_id":76561198209755931,"connected_time":5153000000000,"state":"active","ping":103},{"user_id":798,"name":"Wique","steam_id":76561198071217597,"connected_time":5892000000000,"state":"active","ping":89},{"user_id":861,"name":"Metbol","steam_id":76561198001362410,"connected_time":405000000000,"state":"active","ping":82},{"user_id":852,"name":"TinyTator","steam_id":76561198799282234,"connected_time":1118000000000,"state":"active","ping":80},{"user_id":846,"name":"GoldtoothFour","steam_id":76561198055529332,"connected_time":1718000000000,"state":"active","ping":56},{"user_id":851,"name":"BurningJoke","steam_id":76561199014358707,"connected_time":1393000000000,"state":"active","ping":149},{"user_id":840,"name":"SaaxoM","steam_id":76561198208256603,"connected_time":2065000000000,"state":"active","ping":92},{"user_id":857,"name":"BurR","steam_id":76561198055431367,"connected_time":931000000000,"state":"active","ping":54},{"user_id":853,"name":"hdee","steam_id":76561198288729718,"connected_time":1081000000000,"state":"active","ping":82},{"user_id":829,"name":"berserker_tf2","steam_id":76561198303464488,"connected_time":3314000000000,"state":"active","ping":62},{"user_id":860,"name":"Dzhoshua","steam_id":76561198071915251,"connected_time":610000000000,"state":"active","ping":57}]},{"server_id":402,"name":"Uncletopia | Chicago | 3 | All Maps","name_short":"chi-3","host":"chi-1.us.uncletopia.com","port":27035,"enabled":true,"region":"us-central","cc":"us","latitude":41.881832,"longitude":-87.62318,"reserved":0,"last_update":"0001-01-01T00:00:00Z","name_a2s":"Uncletopia | Chicago | 3 | All Maps","protocol":17,"map":"cp_dustbowl","folder":"tf","game":"Team Fortress","app_id":440,"player_count":0,"max_players":24,"Bots":0,"server_type":"Dedicated","server_os":"Linux","password":true,"vac":true,"version":"7961495","steam_id":85568392924515191,"keywords":["cp","nocrits","nodmgspread","uncletopia"],"game_id":440,"stv_port":27036,"stv_name":"Uncletopia | Chicago | 3 | All Maps | STV","players":null},{"server_id":403,"name":"Uncletopia | Chicago | 4 | All Maps","name_short":"chi-4","host":"chi-1.us.uncletopia.com","port":27045,"enabled":true,"region":"us-central","cc":"us","latitude":41.881832,"longitude":-87.62318,"reserved":0,"last_update":"0001-01-01T00:00:00Z","name_a2s":"Uncletopia | Chicago | 4 | All Maps","protocol":17,"map":"koth_highpass","folder":"tf","game":"Team Fortress","app_id":440,"player_count":0,"max_players":24,"Bots":0,"server_type":"Dedicated","server_os":"Linux","password":true,"vac":true,"version":"7961495","steam_id":85568392924515193,"keywords":["cp","nocrits","nodmgspread","uncletopia"],"game_id":440,"stv_port":27046,"stv_name":"Uncletopia | Chicago | 4 | All Maps | STV","players":null},{"server_id":36,"name":"Uncletopia | Chicago | 5 | All Maps","name_short":"chi-5","host":"chi-2.us.uncletopia.com","port":27015,"enabled":true,"region":"us-central","cc":"us","latitude":41.881832,"longitude":-87.62318,"reserved":0,"last_update":"0001-01-01T00:00:00Z","name_a2s":"Uncletopia | Chicago | 5 | All Maps","protocol":17,"map":"koth_cascade","folder":"tf","game":"Team Fortress","app_id":440,"player_count":0,"max_players":24,"Bots":0,"server_type":"Dedicated","server_os":"Linux","password":true,"vac":true,"version":"7961495","steam_id":85568392924866362,"keywords":["cp","nocrits","nodmgspread","uncletopia"],"game_id":440,"stv_port":27016,"stv_name":"Uncletopia | Chicago | 5 | All Maps | STV","players":null},{"server_id":37,"name":"Uncletopia | Chicago | 6 | All Maps","name_short":"chi-6","host":"chi-2.us.uncletopia.com","port":27025,"enabled":true,"region":"us-central","cc":"us","latitude":41.881832,"longitude":-87.62318,"reserved":0,"last_update":"0001-01-01T00:00:00Z","name_a2s":"Uncletopia | Chicago | 6 | All Maps","protocol":17,"map":"cp_dustbowl","folder":"tf","game":"Team Fortress","app_id":440,"player_count":0,"max_players":24,"Bots":0,"server_type":"Dedicated","server_os":"Linux","password":true,"vac":true,"version":"7961495","steam_id":85568392924866363,"keywords":["cp","nocrits","nodmgspread","uncletopia"],"game_id":440,"stv_port":27026,"stv_name":"Uncletopia | Chicago | 6 | All Maps | STV","players":null},{"server_id":38,"name":"Uncletopia | Chicago | 7 | Stopwatch","name_short":"chi-7","host":"chi-2.us.uncletopia.com","port":27035,"enabled":true,"region":"us-central","cc":"us","latitude":41.881832,"longitude":-87.62318,"reserved":0,"last_update":"0001-01-01T00:00:00Z","name_a2s":"Uncletopia | Chicago | 7 | Stopwatch","protocol":17,"map":"cp_process_final","folder":"tf","game":"Team Fortress","app_id":440,"player_count":0,"max_players":24,"Bots":0,"server_type":"Dedicated","server_os":"Linux","password":true,"vac":true,"version":"7961495","steam_id":85568392924866364,"keywords":["cp","nocrits","nodmgspread","uncletopia"],"game_id":440,"stv_port":27036,"stv_name":"Uncletopia | Chicago | 7 | Stopwatch | STV","players":null},{"server_id":39,"name":"Uncletopia | Chicago | 8 | Community","name_short":"chi-8","host":"chi-2.us.uncletopia.com","port":27045,"enabled":true,"region":"us-central","cc":"us","latitude":41.881832,"longitude":-87.62318,"reserved":0,"last_update":"0001-01-01T00:00:00Z","name_a2s":"Uncletopia | Chicago | 8 | Community","protocol":17,"map":"workshop/cp_alloy_rc3.ugc592805587","folder":"tf","game":"Team Fortress","app_id":440,"player_count":0,"max_players":24,"Bots":0,"server_type":"Dedicated","server_os":"Linux","password":true,"vac":true,"version":"7961495","steam_id":85568392924866365,"keywords":["cp","nocrits","nodmgspread","uncletopia"],"game_id":440,"stv_port":27046,"stv_name":"Uncletopia | Chicago | 8 | Community | STV","players":null},{"server_id":8,"name":"Uncletopia | Dallas | 1 | All Maps","name_short":"dal-1","host":"dal-1.us.uncletopia.com","port":27015,"enabled":true,"region":"us-central","cc":"us","latitude":32.779167,"longitude":-96.80889,"reserved":0,"last_update":"0001-01-01T00:00:00Z","name_a2s":"Uncletopia | Dallas | 1 | All Maps","protocol":17,"map":"koth_highpass","folder":"tf","game":"Team Fortress","app_id":440,"player_count":22,"max_players":24,"Bots":0,"server_type":"Dedicated","server_os":"Linux","password":true,"vac":true,"version":"7961495","steam_id":85568392924469986,"keywords":["cp","nocrits","nodmgspread","uncletopia"],"game_id":440,"stv_port":27016,"stv_name":"Uncletopia | Dallas | 1 | All Maps | STV","players":[{"user_id":754,"name":"BackToSchoolAds","steam_id":76561198870281128,"connected_time":1157000000000,"state":"active","ping":99},{"user_id":761,"name":"goopgrabber","steam_id":76561199029951083,"connected_time":652000000000,"state":"active","ping":85},{"user_id":725,"name":"timestewer","steam_id":76561198367583372,"connected_time":2620000000000,"state":"active","ping":83},{"user_id":722,"name":"dave","steam_id":76561198135961731,"connected_time":2745000000000,"state":"active","ping":55},{"user_id":753,"name":"9/11 Airlines","steam_id":76561198096306325,"connected_time":1351000000000,"state":"active","ping":100},{"user_id":721,"name":"Ninjegeabey","steam_id":76561198217717789,"connected_time":2765000000000,"state":"active","ping":64},{"user_id":730,"name":"aleakia","steam_id":76561198822706133,"connected_time":2490000000000,"state":"active","ping":79},{"user_id":765,"name":"Minin","steam_id":76561198018819047,"connected_time":300000000000,"state":"active","ping":69},{"user_id":735,"name":"twink gaming","steam_id":76561199117379404,"connected_time":2297000000000,"state":"active","ping":76},{"user_id":755,"name":"imposter","steam_id":76561198085571748,"connected_time":1134000000000,"state":"active","ping":83},{"user_id":710,"name":"lil guy","steam_id":76561198030786504,"connected_time":3974000000000,"state":"active","ping":66},{"user_id":741,"name":"J3X","steam_id":76561198184753858,"connected_time":2041000000000,"state":"active","ping":84},{"user_id":749,"name":"Rock Kickass","steam_id":76561198450510841,"connected_time":1546000000000,"state":"active","ping":97},{"user_id":767,"name":"goofbears","steam_id":76561199100831175,"connected_time":192000000000,"state":"active","ping":60},{"user_id":671,"name":"motherfucker 2.0","steam_id":76561198141189209,"connected_time":7419000000000,"state":"active","ping":45},{"user_id":734,"name":"Larry Gooseman","steam_id":76561198018696922,"connected_time":2386000000000,"state":"active","ping":86},{"user_id":702,"name":"skegeton","steam_id":76561198095581099,"connected_time":5082000000000,"state":"active","ping":81},{"user_id":689,"name":"Whyamidoingthisaaaa","steam_id":76561199168837342,"connected_time":5839000000000,"state":"active","ping":96},{"user_id":713,"name":"AzuriousAlex","steam_id":76561198158026405,"connected_time":3918000000000,"state":"active","ping":81},{"user_id":757,"name":"tsbro40","steam_id":76561199455605580,"connected_time":1105000000000,"state":"active","ping":101},{"user_id":766,"name":"Sturdy Primate","steam_id":76561198057954897,"connected_time":260000000000,"state":"active","ping":92},{"user_id":762,"name":"small meth pouch","steam_id":76561198130412963,"connected_time":627000000000,"state":"active","ping":72}]},{"server_id":108,"name":"Uncletopia | Dallas | 2 | All Maps","name_short":"dal-2","host":"dal-1.us.uncletopia.com","port":27025,"enabled":true,"region":"us-central","cc":"us","latitude":32.779167,"longitude":-96.80889,"reserved":0,"last_update":"0001-01-01T00:00:00Z","name_a2s":"Uncletopia | Dallas | 2 | All Maps","protocol":17,"map":"pl_borneo","folder":"tf","game":"Team Fortress","app_id":440,"player_count":0,"max_players":24,"Bots":0,"server_type":"Dedicated","server_os":"Linux","password":true,"vac":true,"version":"7961495","steam_id":85568392924469988,"keywords":["nocrits","nodmgspread","payload","uncletopia"],"game_id":440,"stv_port":27026,"stv_name":"Uncletopia | Dallas | 2 | All Maps | STV","players":null},{"server_id":404,"name":"Uncletopia | Dallas | 3 | All Maps","name_short":"dal-3","host":"dal-1.us.uncletopia.com","port":27035,"enabled":true,"region":"us-central","cc":"us","latitude":32.779167,"longitude":-96.80889,"reserved":0,"last_update":"0001-01-01T00:00:00Z","name_a2s":"Uncletopia | Dallas | 3 | All Maps","protocol":17,"map":"pl_upward","folder":"tf","game":"Team Fortress","app_id":440,"player_count":0,"max_players":24,"Bots":0,"server_type":"Dedicated","server_os":"Linux","password":true,"vac":true,"version":"7961495","steam_id":85568392924515219,"keywords":["nocrits","nodmgspread","payload","uncletopia"],"game_id":440,"stv_port":27036,"stv_name":"Uncletopia | Dallas | 3 | All Maps | STV","players":null},{"server_id":405,"name":"Uncletopia | Dallas | 4 | Community","name_short":"dal-4","host":"dal-1.us.uncletopia.com","port":27045,"enabled":true,"region":"us-central","cc":"us","latitude":32.779167,"longitude":-96.80889,"reserved":0,"last_update":"0001-01-01T00:00:00Z","name_a2s":"Uncletopia | Dallas | 4 | Community","protocol":17,"map":"workshop/koth_slaughter_rc1.ugc1712845210","folder":"tf","game":"Team Fortress","app_id":440,"player_count":0,"max_players":24,"Bots":0,"server_type":"Dedicated","server_os":"Linux","password":true,"vac":true,"version":"7961495","steam_id":85568392924515220,"keywords":["cp","nocrits","nodmgspread","uncletopia"],"game_id":440,"stv_port":27046,"stv_name":"Uncletopia | Dallas | 4 | Community | STV","players":null},{"server_id":5,"name":"Uncletopia | Frankfurt | 1 | All Maps","name_short":"frk-1","host":"frk-1.de.uncletopia.com","port":27015,"enabled":true,"region":"eu","cc":"de","latitude":50.110924,"longitude":8.682127,"reserved":0,"last_update":"0001-01-01T00:00:00Z","name_a2s":"Uncletopia | Frankfurt | 1 | All Maps","protocol":17,"map":"koth_highpass","folder":"tf","game":"Team Fortress","app_id":440,"player_count":0,"max_players":24,"Bots":0,"server_type":"Dedicated","server_os":"Linux","password":true,"vac":true,"version":"7961495","steam_id":85568392924469989,"keywords":["cp","nocrits","nodmgspread","uncletopia"],"game_id":440,"stv_port":27016,"stv_name":"Uncletopia | Frankfurt | 1 | All Maps | STV","players":null},{"server_id":110,"name":"Uncletopia | Frankfurt | 2 | All Maps","name_short":"frk-2","host":"frk-1.de.uncletopia.com","port":27025,"enabled":true,"region":"eu","cc":"de","latitude":50.110924,"longitude":8.682127,"reserved":0,"last_update":"0001-01-01T00:00:00Z","name_a2s":"Uncletopia | Frankfurt | 2 | All Maps","protocol":17,"map":"cp_dustbowl","folder":"tf","game":"Team Fortress","app_id":440,"player_count":0,"max_players":24,"Bots":0,"server_type":"Dedicated","server_os":"Linux","password":true,"vac":true,"version":"7961495","steam_id":85568392924469990,"keywords":["cp","nocrits","nodmgspread","uncletopia"],"game_id":440,"stv_port":27026,"stv_name":"Uncletopia | Frankfurt | 2 | All Maps | STV","players":null},{"server_id":308,"name":"Uncletopia | Frankfurt | 3 | All Maps","name_short":"frk-3","host":"frk-1.de.uncletopia.com","port":27035,"enabled":true,"region":"eu","cc":"de","latitude":50.110924,"longitude":8.682127,"reserved":0,"last_update":"0001-01-01T00:00:00Z","name_a2s":"Uncletopia | Frankfurt | 3 | All Maps","protocol":17,"map":"pl_barnblitz","folder":"tf","game":"Team Fortress","app_id":440,"player_count":0,"max_players":24,"Bots":0,"server_type":"Dedicated","server_os":"Linux","password":true,"vac":true,"version":"7961495","steam_id":85568392924504274,"keywords":["nocrits","nodmgspread","payload","uncletopia"],"game_id":440,"stv_port":27036,"stv_name":"Uncletopia | Frankfurt | 3 | All Maps | STV","players":null},{"server_id":309,"name":"Uncletopia | Frankfurt | 4 | All Maps","name_short":"frk-4","host":"frk-1.de.uncletopia.com","port":27045,"enabled":true,"region":"eu","cc":"de","latitude":50.110924,"longitude":8.682127,"reserved":0,"last_update":"0001-01-01T00:00:00Z","name_a2s":"Uncletopia | Frankfurt | 4 | All Maps","protocol":17,"map":"koth_highpass","folder":"tf","game":"Team Fortress","app_id":440,"player_count":0,"max_players":24,"Bots":0,"server_type":"Dedicated","server_os":"Linux","password":true,"vac":true,"version":"7961495","steam_id":85568392924504275,"keywords":["cp","nocrits","nodmgspread","uncletopia"],"game_id":440,"stv_port":27046,"stv_name":"Uncletopia | Frankfurt | 4 | All Maps | STV","players":null},{"server_id":310,"name":"Uncletopia | Frankfurt | 5 | All Maps","name_short":"frk-5","host":"frk-1.de.uncletopia.com","port":27055,"enabled":true,"region":"eu","cc":"de","latitude":50.110924,"longitude":8.682127,"reserved":0,"last_update":"0001-01-01T00:00:00Z","name_a2s":"Uncletopia | Frankfurt | 5 | All Maps","protocol":17,"map":"pl_badwater","folder":"tf","game":"Team Fortress","app_id":440,"player_count":15,"max_players":24,"Bots":0,"server_type":"Dedicated","server_os":"Linux","password":true,"vac":true,"version":"7961495","steam_id":85568392924504277,"keywords":["nocrits","nodmgspread","payload","uncletopia"],"game_id":440,"stv_port":27056,"stv_name":"Uncletopia | Frankfurt | 5 | All Maps | STV","players":[{"user_id":4,"name":"Zeta","steam_id":76561198101917105,"connected_time":1324000000000,"state":"active","ping":137},{"user_id":5,"name":"Rin-Nakaret","steam_id":76561197971051188,"connected_time":1305000000000,"state":"active","ping":49},{"user_id":6,"name":"womandestroyer2006","steam_id":76561198173325629,"connected_time":1286000000000,"state":"active","ping":85},{"user_id":10,"name":"Grimm","steam_id":76561198044684227,"connected_time":529000000000,"state":"active","ping":58},{"user_id":19,"name":"Creamy","steam_id":76561198063907478,"connected_time":212000000000,"state":"active","ping":68},{"user_id":12,"name":"Plushy Freeman","steam_id":76561198004935560,"connected_time":430000000000,"state":"active","ping":61},{"user_id":13,"name":"Marcus","steam_id":76561198205027963,"connected_time":407000000000,"state":"active","ping":61},{"user_id":17,"name":"DragonslayerEE","steam_id":76561199023041492,"connected_time":238000000000,"state":"active","ping":59},{"user_id":15,"name":"look at my milkshake","steam_id":76561198071440081,"connected_time":328000000000,"state":"active","ping":76},{"user_id":16,"name":"Del0Voi","steam_id":76561198866515088,"connected_time":280000000000,"state":"active","ping":75},{"user_id":18,"name":"duckington duck","steam_id":76561199157117063,"connected_time":234000000000,"state":"active","ping":49},{"user_id":20,"name":"Basinox","steam_id":76561198019628384,"connected_time":209000000000,"state":"active","ping":66},{"user_id":21,"name":"Commando Booce","steam_id":76561199209786129,"connected_time":173000000000,"state":"active","ping":84},{"user_id":22,"name":"peng","steam_id":76561198313672607,"connected_time":159000000000,"state":"active","ping":100},{"user_id":23,"name":"The kebab man","steam_id":76561198142689234,"connected_time":75000000000,"state":"active","ping":99}]},{"server_id":311,"name":"Uncletopia | Frankfurt | 6 | All Maps","name_short":"frk-6","host":"frk-1.de.uncletopia.com","port":27065,"enabled":true,"region":"eu","cc":"de","latitude":50.110924,"longitude":8.682127,"reserved":0,"last_update":"0001-01-01T00:00:00Z","name_a2s":"Uncletopia | Frankfurt | 6 | All Maps","protocol":17,"map":"pl_pier","folder":"tf","game":"Team Fortress","app_id":440,"player_count":0,"max_players":24,"Bots":0,"server_type":"Dedicated","server_os":"Linux","password":true,"vac":true,"version":"7961495","steam_id":85568392924504278,"keywords":["nocrits","nodmgspread","payload","uncletopia"],"game_id":440,"stv_port":27066,"stv_name":"Uncletopia | Frankfurt | 6 | All Maps | STV","players":null},{"server_id":23,"name":"Uncletopia | Frankfurt | 7 | Stopwatch","name_short":"frk-7","host":"frk-1.de.uncletopia.com","port":27075,"enabled":true,"region":"eu","cc":"de","latitude":50.110924,"longitude":8.682127,"reserved":0,"last_update":"0001-01-01T00:00:00Z","name_a2s":"Uncletopia | Frankfurt | 7 | Stopwatch","protocol":17,"map":"pl_frontier_final","folder":"tf","game":"Team Fortress","app_id":440,"player_count":0,"max_players":24,"Bots":0,"server_type":"Dedicated","server_os":"Linux","password":true,"vac":true,"version":"7961495","steam_id":85568392924742827,"keywords":["nocrits","nodmgspread","payload","uncletopia"],"game_id":440,"stv_port":27076,"stv_name":"Uncletopia | Frankfurt | 7 | Stopwatch | STV","players":null},{"server_id":24,"name":"Uncletopia | Frankfurt | 8 | Community","name_short":"frk-8","host":"frk-1.de.uncletopia.com","port":27085,"enabled":true,"region":"eu","cc":"de","latitude":50.110924,"longitude":8.682127,"reserved":0,"last_update":"0001-01-01T00:00:00Z","name_a2s":"Uncletopia | Frankfurt | 8 | Community","protocol":17,"map":"cp_mountainlab","folder":"tf","game":"Team Fortress","app_id":440,"player_count":0,"max_players":24,"Bots":0,"server_type":"Dedicated","server_os":"Linux","password":true,"vac":true,"version":"7961495","steam_id":85568392924742828,"keywords":["cp","nocrits","nodmgspread","uncletopia"],"game_id":440,"stv_port":27086,"stv_name":"Uncletopia | Frankfurt | 8 | Community | STV","players":null},{"server_id":202,"name":"Uncletopia | Hong Kong | 1 | All Maps","name_short":"hgk-1","host":"hgk-1.hk.uncletopia.com","port":27015,"enabled":true,"region":"asia","cc":"hk","latitude":22.302711,"longitude":114.177216,"reserved":0,"last_update":"0001-01-01T00:00:00Z","name_a2s":"Uncletopia | Hong Kong | 1 | All Maps","protocol":17,"map":"pl_upward","folder":"tf","game":"Team Fortress","app_id":440,"player_count":24,"max_players":24,"Bots":0,"server_type":"Dedicated","server_os":"Linux","password":true,"vac":true,"version":"7961495","steam_id":85568392924494504,"keywords":["nocrits","nodmgspread","payload","uncletopia"],"game_id":440,"stv_port":27016,"stv_name":"Uncletopia | Hong Kong | 1 | All Maps | STV","players":[{"user_id":377,"name":"★a̲c̲a̲t̲","steam_id":76561198334099003,"connected_time":6812000000000,"state":"active","ping":145},{"user_id":499,"name":"sett.","steam_id":76561199010718657,"connected_time":3483000000000,"state":"active","ping":72},{"user_id":427,"name":"minepow","steam_id":76561198257589031,"connected_time":6035000000000,"state":"active","ping":45},{"user_id":489,"name":"LEGS","steam_id":76561199111623890,"connected_time":4150000000000,"state":"active","ping":62},{"user_id":432,"name":"Someone","steam_id":76561199243091145,"connected_time":5887000000000,"state":"active","ping":92},{"user_id":501,"name":"Joilee32","steam_id":76561199226255440,"connected_time":3064000000000,"state":"active","ping":77},{"user_id":516,"name":"child eater","steam_id":76561199404725474,"connected_time":1162000000000,"state":"active","ping":97},{"user_id":518,"name":"coakDeLera","steam_id":76561199262817512,"connected_time":1131000000000,"state":"active","ping":86},{"user_id":510,"name":"Fourth8","steam_id":76561198079927520,"connected_time":1538000000000,"state":"active","ping":44},{"user_id":524,"name":"左 辙","steam_id":76561198202460529,"connected_time":392000000000,"state":"active","ping":99},{"user_id":507,"name":"rachel.cylara.2003","steam_id":76561198819779240,"connected_time":1824000000000,"state":"active","ping":119},{"user_id":523,"name":"concho90hp","steam_id":76561198971346418,"connected_time":425000000000,"state":"active","ping":97},{"user_id":521,"name":"Ivy","steam_id":76561198400698408,"connected_time":477000000000,"state":"active","ping":97},{"user_id":508,"name":"DanePleaseOpenMoreAsiaServers","steam_id":76561199190321580,"connected_time":1813000000000,"state":"active","ping":61},{"user_id":504,"name":"screaming sniper","steam_id":76561199085568674,"connected_time":2556000000000,"state":"active","ping":59},{"user_id":519,"name":"i ran over a woman in 2001","steam_id":76561198008307645,"connected_time":1108000000000,"state":"active","ping":132},{"user_id":462,"name":"water tastes good","steam_id":76561199375947670,"connected_time":5247000000000,"state":"active","ping":69},{"user_id":137,"name":"beet juice","steam_id":76561198055553140,"connected_time":14664000000000,"state":"active","ping":79},{"user_id":520,"name":"average 2fort enjoyer","steam_id":76561198062112214,"connected_time":494000000000,"state":"active","ping":118},{"user_id":428,"name":"pyroman51","steam_id":76561198074339034,"connected_time":6028000000000,"state":"active","ping":80},{"user_id":484,"name":"Cheesey","steam_id":76561198975684137,"connected_time":4771000000000,"state":"active","ping":86},{"user_id":478,"name":"nishu","steam_id":76561198271837514,"connected_time":4881000000000,"state":"active","ping":71},{"user_id":152,"name":"allah no.1, gambling no.2","steam_id":76561198113401862,"connected_time":13416000000000,"state":"active","ping":89},{"user_id":422,"name":"Samoyed","steam_id":76561198299150410,"connected_time":6097000000000,"state":"active","ping":84}]},{"server_id":1,"name":"Uncletopia | Los Angeles | 1 | All Maps","name_short":"lax-1","host":"lax-1.us.uncletopia.com","port":27015,"enabled":true,"region":"us-west","cc":"us","latitude":33.94279,"longitude":-118.41004,"reserved":0,"last_update":"0001-01-01T00:00:00Z","name_a2s":"Uncletopia | Los Angeles | 1 | All Maps","protocol":17,"map":"ctf_2fort","folder":"tf","game":"Team Fortress","app_id":440,"player_count":21,"max_players":24,"Bots":0,"server_type":"Dedicated","server_os":"Linux","password":true,"vac":true,"version":"7961495","steam_id":85568392924469991,"keywords":["ctf","nocrits","nodmgspread","uncletopia"],"game_id":440,"stv_port":27016,"stv_name":"Uncletopia | Los Angeles | 1 | All Maps | STV","players":[{"user_id":696,"name":"Kng","steam_id":76561198993248203,"connected_time":1187000000000,"state":"active","ping":104},{"user_id":717,"name":"blozet","steam_id":76561199120161035,"connected_time":158000000000,"state":"active","ping":104},{"user_id":675,"name":"Sgt. Screwball","steam_id":76561198307963570,"connected_time":3411000000000,"state":"active","ping":78},{"user_id":694,"name":"Hendershot and his One Man Army","steam_id":76561198345471582,"connected_time":1702000000000,"state":"active","ping":93},{"user_id":697,"name":"Dickride Gaming","steam_id":76561198169915227,"connected_time":960000000000,"state":"active","ping":59},{"user_id":638,"name":"sobaka","steam_id":76561198116008934,"connected_time":6865000000000,"state":"active","ping":56},{"user_id":703,"name":"Chuckagoo","steam_id":76561198148829586,"connected_time":418000000000,"state":"active","ping":106},{"user_id":719,"name":"WarJourno","steam_id":76561198086792360,"connected_time":129000000000,"state":"active","ping":120},{"user_id":705,"name":"Hectic_Puppy (bday in 3 DAYS)","steam_id":76561198111645213,"connected_time":395000000000,"state":"active","ping":45},{"user_id":714,"name":"killeroverscore123","steam_id":76561199168131321,"connected_time":192000000000,"state":"active","ping":104},{"user_id":637,"name":"A Walnut #BUFFTHESPEED","steam_id":76561198136655837,"connected_time":6939000000000,"state":"active","ping":71},{"user_id":708,"name":"Prez Pineapple","steam_id":76561198253755258,"connected_time":300000000000,"state":"active","ping":71},{"user_id":709,"name":"Joply","steam_id":76561198236495392,"connected_time":252000000000,"state":"active","ping":116},{"user_id":667,"name":"Unlicensed Fed","steam_id":76561198166040449,"connected_time":4605000000000,"state":"active","ping":62},{"user_id":710,"name":"coolestskelly","steam_id":76561198044207796,"connected_time":242000000000,"state":"active","ping":98},{"user_id":712,"name":"Kimmothie","steam_id":76561198153173069,"connected_time":202000000000,"state":"active","ping":55},{"user_id":690,"name":"hambringer55","steam_id":76561199067067145,"connected_time":1888000000000,"state":"active","ping":56},{"user_id":713,"name":"mboddy","steam_id":76561197997190809,"connected_time":199000000000,"state":"active","ping":93},{"user_id":720,"name":"DrMonkey","steam_id":76561198939543244,"connected_time":127000000000,"state":"active","ping":85},{"user_id":716,"name":"video games","steam_id":76561198334059206,"connected_time":172000000000,"state":"active","ping":60},{"user_id":721,"name":".-.. --- ...- . / -.-- --- ..-","steam_id":76561198002483206,"connected_time":60000000000,"state":"active","ping":61}]},{"server_id":112,"name":"Uncletopia | Los Angeles | 2 | All Maps","name_short":"lax-2","host":"lax-1.us.uncletopia.com","port":27025,"enabled":true,"region":"us-west","cc":"us","latitude":33.94279,"longitude":-118.41004,"reserved":0,"last_update":"0001-01-01T00:00:00Z","name_a2s":"Uncletopia | Los Angeles | 2 | All Maps","protocol":17,"map":"cp_dustbowl","folder":"tf","game":"Team Fortress","app_id":440,"player_count":14,"max_players":24,"Bots":0,"server_type":"Dedicated","server_os":"Linux","password":true,"vac":true,"version":"7961495","steam_id":85568392924469992,"keywords":["cp","nocrits","nodmgspread","uncletopia"],"game_id":440,"stv_port":27026,"stv_name":"Uncletopia | Los Angeles | 2 | All Maps | STV","players":[{"user_id":468,"name":"TacoMan4Life","steam_id":76561198832562728,"connected_time":632000000000,"state":"active","ping":62},{"user_id":472,"name":"LeTonzy","steam_id":76561198005806699,"connected_time":491000000000,"state":"active","ping":56},{"user_id":368,"name":"Hektur Salmondchonka","steam_id":76561198136982572,"connected_time":7783000000000,"state":"active","ping":79},{"user_id":469,"name":"albert581_gaming","steam_id":76561198219209367,"connected_time":617000000000,"state":"active","ping":60},{"user_id":473,"name":"Doctor Fat Balls","steam_id":76561198060418001,"connected_time":346000000000,"state":"active","ping":118},{"user_id":470,"name":"stripes","steam_id":76561198037535607,"connected_time":593000000000,"state":"active","ping":43},{"user_id":471,"name":"mintsmatchamocha","steam_id":76561198420094402,"connected_time":575000000000,"state":"active","ping":40},{"user_id":474,"name":"Megatron G","steam_id":76561198168864083,"connected_time":332000000000,"state":"active","ping":72},{"user_id":475,"name":"fallingtree123","steam_id":76561198937414442,"connected_time":188000000000,"state":"active","ping":85},{"user_id":476,"name":"bcizzo","steam_id":76561197994399953,"connected_time":184000000000,"state":"active","ping":57},{"user_id":477,"name":"JPM岩","steam_id":76561198043967997,"connected_time":14000000000,"state":"active","ping":41},{"user_id":462,"name":"Violet","steam_id":76561198199541493,"connected_time":1198000000000,"state":"active","ping":47},{"user_id":460,"name":"$5 pizza","steam_id":76561198014847059,"connected_time":1228000000000,"state":"active","ping":66},{"user_id":465,"name":"CherryPieRed2023","steam_id":76561198998007496,"connected_time":1140000000000,"state":"active","ping":84}]},{"server_id":324,"name":"Uncletopia | Los Angeles | 3 | All Maps","name_short":"lax-3","host":"lax-1.us.uncletopia.com","port":27035,"enabled":true,"region":"us-west","cc":"us","latitude":33.94279,"longitude":-118.41004,"reserved":0,"last_update":"0001-01-01T00:00:00Z","name_a2s":"Uncletopia | Los Angeles | 3 | All Maps","protocol":17,"map":"koth_highpass","folder":"tf","game":"Team Fortress","app_id":440,"player_count":1,"max_players":24,"Bots":0,"server_type":"Dedicated","server_os":"Linux","password":true,"vac":true,"version":"7961495","steam_id":85568392924510198,"keywords":["cp","nocrits","nodmgspread","uncletopia"],"game_id":440,"stv_port":27036,"stv_name":"Uncletopia | Los Angeles | 3 | All Maps | STV","players":[{"user_id":543,"name":"Caert_","steam_id":76561198046344885,"connected_time":254000000000,"state":"active","ping":39}]},{"server_id":25,"name":"Uncletopia | Los Angeles | 4 | Stopwatch","name_short":"lax-4","host":"lax-1.us.uncletopia.com","port":27045,"enabled":true,"region":"us-west","cc":"us","latitude":33.94279,"longitude":-118.41004,"reserved":0,"last_update":"0001-01-01T00:00:00Z","name_a2s":"Uncletopia | Los Angeles | 4 | Stopwatch","protocol":17,"map":"koth_lakeside_final","folder":"tf","game":"Team Fortress","app_id":440,"player_count":0,"max_players":24,"Bots":0,"server_type":"Dedicated","server_os":"Linux","password":true,"vac":true,"version":"7961495","steam_id":85568392924510199,"keywords":["cp","nocrits","nodmgspread","uncletopia"],"game_id":440,"stv_port":27046,"stv_name":"Uncletopia | Los Angeles | 4 | Stopwatch | STV","players":null},{"server_id":11,"name":"Uncletopia | London | 1 | All Maps","name_short":"lon-1","host":"lon-1.uk.uncletopia.com","port":27015,"enabled":true,"region":"eu","cc":"gb","latitude":51.509865,"longitude":-0.118092,"reserved":0,"last_update":"0001-01-01T00:00:00Z","name_a2s":"Uncletopia | London | 1 | All Maps","protocol":17,"map":"koth_highpass","folder":"tf","game":"Team Fortress","app_id":440,"player_count":0,"max_players":24,"Bots":0,"server_type":"Dedicated","server_os":"Linux","password":true,"vac":true,"version":"7961495","steam_id":85568392924367362,"keywords":["cp","nocrits","nodmgspread","uncletopia"],"game_id":440,"stv_port":27016,"stv_name":"Uncletopia | London | 1 | All Maps | STV","players":null},{"server_id":114,"name":"Uncletopia | London | 2 | All Maps","name_short":"lon-2","host":"lon-1.uk.uncletopia.com","port":27025,"enabled":true,"region":"eu","cc":"gb","latitude":51.509865,"longitude":-0.118092,"reserved":0,"last_update":"0001-01-01T00:00:00Z","name_a2s":"Uncletopia | London | 2 | All Maps","protocol":17,"map":"ctf_sawmill","folder":"tf","game":"Team Fortress","app_id":440,"player_count":25,"max_players":24,"Bots":0,"server_type":"Dedicated","server_os":"Linux","password":true,"vac":true,"version":"7961495","steam_id":85568392924470941,"keywords":["ctf","nocrits","nodmgspread","uncletopia"],"game_id":440,"stv_port":27026,"stv_name":"Uncletopia | London | 2 | All Maps | STV","players":[{"user_id":100,"name":"Dmitry Kerman","steam_id":76561198300020540,"connected_time":1530000000000,"state":"active","ping":113},{"user_id":111,"name":"Uncle Nicky","steam_id":76561198063275767,"connected_time":466000000000,"state":"active","ping":30},{"user_id":76,"name":"Ember The Femboy","steam_id":76561198139630565,"connected_time":3642000000000,"state":"active","ping":53},{"user_id":9,"name":"dron gandon","steam_id":76561198412922428,"connected_time":9555000000000,"state":"active","ping":146},{"user_id":95,"name":"Excessive Clownery","steam_id":76561198130404188,"connected_time":2105000000000,"state":"active","ping":52},{"user_id":10,"name":"дилдюк","steam_id":76561198397720520,"connected_time":9551000000000,"state":"active","ping":134},{"user_id":101,"name":"Maks","steam_id":76561198315278876,"connected_time":1519000000000,"state":"active","ping":73},{"user_id":121,"name":"RLCrazyCat3","steam_id":76561197983757878,"connected_time":6000000000,"state":"spawning","ping":86},{"user_id":85,"name":"JXD","steam_id":76561198248058318,"connected_time":2766000000000,"state":"active","ping":60},{"user_id":120,"name":"hud_saytext_time 0","steam_id":76561198010327228,"connected_time":141000000000,"state":"active","ping":65},{"user_id":122,"name":"Rad","steam_id":76561199001560866,"connected_time":4000000000,"state":"spawning","ping":146},{"user_id":63,"name":"Lemmy","steam_id":76561199038870751,"connected_time":5147000000000,"state":"active","ping":56},{"user_id":102,"name":"Coca162","steam_id":76561198230656540,"connected_time":1453000000000,"state":"active","ping":48},{"user_id":64,"name":"rubn","steam_id":76561198119586410,"connected_time":5069000000000,"state":"active","ping":72},{"user_id":112,"name":"TheGuyFromFortnite","steam_id":76561199099649565,"connected_time":456000000000,"state":"active","ping":75},{"user_id":92,"name":"Dot","steam_id":76561198047299145,"connected_time":2336000000000,"state":"active","ping":84},{"user_id":114,"name":"Arctic","steam_id":76561199100669439,"connected_time":397000000000,"state":"active","ping":56},{"user_id":116,"name":"Nipa5000","steam_id":76561199027332005,"connected_time":259000000000,"state":"active","ping":86},{"user_id":117,"name":"compus","steam_id":76561199134152606,"connected_time":219000000000,"state":"active","ping":73},{"user_id":107,"name":"vert2spooky / / 月読命","steam_id":76561198914976373,"connected_time":1029000000000,"state":"active","ping":40},{"user_id":115,"name":"Blar","steam_id":76561198042438229,"connected_time":394000000000,"state":"active","ping":54},{"user_id":119,"name":"eon","steam_id":76561197971360276,"connected_time":167000000000,"state":"active","ping":70},{"user_id":110,"name":"Veirū Viseris","steam_id":76561197989857176,"connected_time":638000000000,"state":"active","ping":76},{"user_id":96,"name":"murderwow","steam_id":76561198024566944,"connected_time":1945000000000,"state":"active","ping":105},{"user_id":99,"name":"Urtaras","steam_id":76561198085604412,"connected_time":1701000000000,"state":"active","ping":52}]},{"server_id":320,"name":"Uncletopia | London | 3 | All Maps","name_short":"lon-3","host":"lon-1.uk.uncletopia.com","port":27035,"enabled":true,"region":"eu","cc":"gb","latitude":51.509865,"longitude":-0.118092,"reserved":0,"last_update":"0001-01-01T00:00:00Z","name_a2s":"Uncletopia | London | 3 | All Maps","protocol":17,"map":"cp_process_final","folder":"tf","game":"Team Fortress","app_id":440,"player_count":0,"max_players":24,"Bots":0,"server_type":"Dedicated","server_os":"Linux","password":true,"vac":true,"version":"7961495","steam_id":85568392924510192,"keywords":["cp","nocrits","nodmgspread","uncletopia"],"game_id":440,"stv_port":27036,"stv_name":"Uncletopia | London | 3 | All Maps | STV","players":null},{"server_id":321,"name":"Uncletopia | London | 4 | All Maps","name_short":"lon-4","host":"lon-1.uk.uncletopia.com","port":27045,"enabled":true,"region":"eu","cc":"gb","latitude":51.509865,"longitude":-0.118092,"reserved":0,"last_update":"0001-01-01T00:00:00Z","name_a2s":"Uncletopia | London | 4 | All Maps","protocol":17,"map":"koth_cascade","folder":"tf","game":"Team Fortress","app_id":440,"player_count":0,"max_players":24,"Bots":0,"server_type":"Dedicated","server_os":"Linux","password":true,"vac":true,"version":"7961495","steam_id":85568392924510193,"keywords":["cp","nocrits","nodmgspread","uncletopia"],"game_id":440,"stv_port":27046,"stv_name":"Uncletopia | London | 4 | All Maps | STV","players":null},{"server_id":21,"name":"Uncletopia | London | 5 | All Maps","name_short":"lon-5","host":"lon-1.uk.uncletopia.com","port":27055,"enabled":true,"region":"eu","cc":"gb","latitude":51.509865,"longitude":-0.118092,"reserved":0,"last_update":"0001-01-01T00:00:00Z","name_a2s":"Uncletopia | London | 5 | All Maps","protocol":17,"map":"koth_lakeside_final","folder":"tf","game":"Team Fortress","app_id":440,"player_count":0,"max_players":24,"Bots":0,"server_type":"Dedicated","server_os":"Linux","password":true,"vac":true,"version":"7961495","steam_id":85568392924742829,"keywords":["cp","nocrits","nodmgspread","uncletopia"],"game_id":440,"stv_port":27056,"stv_name":"Uncletopia | London | 5 | All Maps | STV","players":null},{"server_id":22,"name":"Uncletopia | London | 6 | All Maps","name_short":"lon-6","host":"lon-1.uk.uncletopia.com","port":27065,"enabled":true,"region":"eu","cc":"gb","latitude":51.509865,"longitude":-0.118092,"reserved":0,"last_update":"0001-01-01T00:00:00Z","name_a2s":"Uncletopia | London | 6 | All Maps","protocol":17,"map":"cp_dustbowl","folder":"tf","game":"Team Fortress","app_id":440,"player_count":0,"max_players":24,"Bots":0,"server_type":"Dedicated","server_os":"Linux","password":true,"vac":true,"version":"7961495","steam_id":85568392924742830,"keywords":["cp","nocrits","nodmgspread","uncletopia"],"game_id":440,"stv_port":27066,"stv_name":"Uncletopia | London | 6 | All Maps | STV","players":null},{"server_id":40,"name":"Uncletopia | London | 7 | Stopwatch","name_short":"lon-7","host":"lon-1.uk.uncletopia.com","port":27075,"enabled":true,"region":"eu","cc":"gb","latitude":51.509865,"longitude":-0.118092,"reserved":0,"last_update":"0001-01-01T00:00:00Z","name_a2s":"Uncletopia | London | 7 | Stopwatch","protocol":17,"map":"koth_lakeside_final","folder":"tf","game":"Team Fortress","app_id":440,"player_count":0,"max_players":24,"Bots":0,"server_type":"Dedicated","server_os":"Linux","password":true,"vac":true,"version":"7961495","steam_id":85568392924964314,"keywords":["cp","nocrits","nodmgspread","uncletopia"],"game_id":440,"stv_port":27076,"stv_name":"Uncletopia | London | 7 | Stopwatch | STV","players":null},{"server_id":41,"name":"Uncletopia | London | 8 | Community","name_short":"lon-8","host":"lon-1.uk.uncletopia.com","port":27085,"enabled":true,"region":"eu","cc":"gb","latitude":51.509865,"longitude":-0.118092,"reserved":0,"last_update":"0001-01-01T00:00:00Z","name_a2s":"Uncletopia | London | 8 | Community","protocol":17,"map":"cp_snakewater_final1","folder":"tf","game":"Team Fortress","app_id":440,"player_count":0,"max_players":24,"Bots":0,"server_type":"Dedicated","server_os":"Linux","password":true,"vac":true,"version":"7961495","steam_id":85568392924964315,"keywords":["cp","nocrits","nodmgspread","uncletopia"],"game_id":440,"stv_port":27086,"stv_name":"Uncletopia | London | 8 | Community | STV","players":null},{"server_id":300,"name":"Uncletopia | Montréal | 1 | One Thousand Uncles","name_short":"mtl-1","host":"mtl-1.ca.uncletopia.com","port":27015,"enabled":true,"region":"us-east","cc":"ca","latitude":45.50889,"longitude":-73.56167,"reserved":0,"last_update":"0001-01-01T00:00:00Z","name_a2s":"","protocol":0,"map":"","folder":"","game":"","app_id":0,"player_count":0,"max_players":0,"Bots":0,"server_type":"","server_os":"","password":false,"vac":false,"version":"","steam_id":0,"keywords":null,"game_id":0,"stv_port":0,"stv_name":"","players":null},{"server_id":301,"name":"Uncletopia | Montréal | 2 | One Thousand Uncles","name_short":"mtl-2","host":"mtl-1.ca.uncletopia.com","port":27025,"enabled":true,"region":"us-east","cc":"ca","latitude":45.50889,"longitude":-73.56167,"reserved":0,"last_update":"0001-01-01T00:00:00Z","name_a2s":"","protocol":0,"map":"","folder":"","game":"","app_id":0,"player_count":0,"max_players":0,"Bots":0,"server_type":"","server_os":"","password":false,"vac":false,"version":"","steam_id":0,"keywords":null,"game_id":0,"stv_port":0,"stv_name":"","players":null},{"server_id":302,"name":"Uncletopia | Montréal | 3 | One Thousand Uncles","name_short":"mtl-3","host":"mtl-1.ca.uncletopia.com","port":27035,"enabled":true,"region":"us-east","cc":"ca","latitude":45.50889,"longitude":-73.56167,"reserved":0,"last_update":"0001-01-01T00:00:00Z","name_a2s":"","protocol":0,"map":"","folder":"","game":"","app_id":0,"player_count":0,"max_players":0,"Bots":0,"server_type":"","server_os":"","password":false,"vac":false,"version":"","steam_id":0,"keywords":null,"game_id":0,"stv_port":0,"stv_name":"","players":null},{"server_id":13,"name":"Uncletopia | New York City | 1 | All Maps","name_short":"nyc-1","host":"nyc-1.us.uncletopia.com","port":27015,"enabled":true,"region":"us-east","cc":"us","latitude":40.73061,"longitude":-73.93524,"reserved":0,"last_update":"0001-01-01T00:00:00Z","name_a2s":"Uncletopia | New York City | 1 | All Maps","protocol":17,"map":"koth_lakeside_final","folder":"tf","game":"Team Fortress","app_id":440,"player_count":0,"max_players":24,"Bots":0,"server_type":"Dedicated","server_os":"Linux","password":true,"vac":true,"version":"7961495","steam_id":85568392924469993,"keywords":["cp","nocrits","nodmgspread","uncletopia"],"game_id":440,"stv_port":27016,"stv_name":"Uncletopia | New York City | 1 | All Maps | STV","players":null},{"server_id":14,"name":"Uncletopia | New York City | 2 | All Maps","name_short":"nyc-2","host":"nyc-1.us.uncletopia.com","port":27025,"enabled":true,"region":"us-east","cc":"us","latitude":40.73061,"longitude":-73.93524,"reserved":0,"last_update":"0001-01-01T00:00:00Z","name_a2s":"Uncletopia | New York City | 2 | All Maps","protocol":17,"map":"pl_borneo","folder":"tf","game":"Team Fortress","app_id":440,"player_count":24,"max_players":24,"Bots":0,"server_type":"Dedicated","server_os":"Linux","password":true,"vac":true,"version":"7961495","steam_id":85568392924469994,"keywords":["nocrits","nodmgspread","payload","uncletopia"],"game_id":440,"stv_port":27026,"stv_name":"Uncletopia | New York City | 2 | All Maps | STV","players":[{"user_id":851,"name":"Feleeg","steam_id":76561198452866612,"connected_time":1383000000000,"state":"active","ping":45},{"user_id":811,"name":"Zala","steam_id":76561197986321917,"connected_time":4509000000000,"state":"active","ping":79},{"user_id":821,"name":"ChaoticAngel","steam_id":76561198293528217,"connected_time":3305000000000,"state":"active","ping":48},{"user_id":846,"name":"Zerodian115","steam_id":76561198273719764,"connected_time":1865000000000,"state":"active","ping":173},{"user_id":858,"name":"Zedifo","steam_id":76561198044032070,"connected_time":349000000000,"state":"active","ping":109},{"user_id":847,"name":"bocaJ","steam_id":76561198374535092,"connected_time":1840000000000,"state":"active","ping":114},{"user_id":842,"name":"Chanddy","steam_id":76561198058949058,"connected_time":2124000000000,"state":"active","ping":59},{"user_id":859,"name":"King","steam_id":76561198123927752,"connected_time":288000000000,"state":"active","ping":58},{"user_id":806,"name":"Catdog32","steam_id":76561198113364714,"connected_time":4726000000000,"state":"active","ping":46},{"user_id":853,"name":"rugbyralph288","steam_id":76561198161475964,"connected_time":1235000000000,"state":"active","ping":92},{"user_id":807,"name":"xFactr","steam_id":76561198129007422,"connected_time":4725000000000,"state":"active","ping":41},{"user_id":797,"name":"Rambly Dambly","steam_id":76561198844496567,"connected_time":5423000000000,"state":"active","ping":45},{"user_id":862,"name":"dyson","steam_id":76561199081837220,"connected_time":120000000000,"state":"active","ping":74},{"user_id":832,"name":"Gargathor the Entity Catcher","steam_id":76561198189429665,"connected_time":2749000000000,"state":"active","ping":73},{"user_id":861,"name":"Slauvy","steam_id":76561198001479663,"connected_time":242000000000,"state":"active","ping":75},{"user_id":829,"name":"Weerk","steam_id":76561199209543551,"connected_time":2996000000000,"state":"active","ping":80},{"user_id":818,"name":"cure","steam_id":76561199174450788,"connected_time":3940000000000,"state":"active","ping":94},{"user_id":830,"name":"Green Icicle","steam_id":76561198069624529,"connected_time":2984000000000,"state":"active","ping":112},{"user_id":839,"name":"for the king","steam_id":76561197973488858,"connected_time":2266000000000,"state":"active","ping":45},{"user_id":856,"name":"Hoofuyu","steam_id":76561199022142345,"connected_time":384000000000,"state":"active","ping":77},{"user_id":855,"name":"klo.e","steam_id":76561198061808492,"connected_time":391000000000,"state":"active","ping":59},{"user_id":831,"name":"Fat Cruz","steam_id":76561198202445927,"connected_time":2950000000000,"state":"active","ping":61},{"user_id":860,"name":"Techne","steam_id":76561198090486583,"connected_time":280000000000,"state":"active","ping":96},{"user_id":796,"name":"sloth (be nice im cringe)","steam_id":76561198047098172,"connected_time":5546000000000,"state":"active","ping":64}]},{"server_id":15,"name":"Uncletopia | New York City | 3 | Stopwatch","name_short":"nyc-3","host":"nyc-1.us.uncletopia.com","port":27035,"enabled":true,"region":"us-east","cc":"us","latitude":40.73061,"longitude":-73.93524,"reserved":0,"last_update":"0001-01-01T00:00:00Z","name_a2s":"Uncletopia | New York City | 3 | Stopwatch","protocol":17,"map":"workshop/pl_barnblitz_pro7.ugc582280235","folder":"tf","game":"Team Fortress","app_id":440,"player_count":0,"max_players":24,"Bots":0,"server_type":"Dedicated","server_os":"Linux","password":true,"vac":true,"version":"7961495","steam_id":85568392924742820,"keywords":["nocrits","nodmgspread","payload","uncletopia"],"game_id":440,"stv_port":27036,"stv_name":"Uncletopia | New York City | 3 | Stopwatch | STV","players":null},{"server_id":16,"name":"Uncletopia | New York City | 4 | Community","name_short":"nyc-4","host":"nyc-1.us.uncletopia.com","port":27045,"enabled":true,"region":"us-east","cc":"us","latitude":40.73061,"longitude":-73.93524,"reserved":0,"last_update":"0001-01-01T00:00:00Z","name_a2s":"Uncletopia | New York City | 4 | Community","protocol":17,"map":"workshop/koth_synthetic_rc6a.ugc1549817316","folder":"tf","game":"Team Fortress","app_id":440,"player_count":0,"max_players":24,"Bots":0,"server_type":"Dedicated","server_os":"Linux","password":true,"vac":true,"version":"7961495","steam_id":85568392924742821,"keywords":["cp","nocrits","nodmgspread","uncletopia"],"game_id":440,"stv_port":27046,"stv_name":"Uncletopia | New York City | 4 | Community | STV","players":null},{"server_id":142,"name":"Uncletopia | São Paulo | 1 | All Maps","name_short":"sao-1","host":"sao-1.br.uncletopia.com","port":27015,"enabled":true,"region":"sa","cc":"br","latitude":-23.533773,"longitude":-46.62529,"reserved":0,"last_update":"0001-01-01T00:00:00Z","name_a2s":"Uncletopia | São Paulo | 1 | All Maps","protocol":17,"map":"koth_viaduct","folder":"tf","game":"Team Fortress","app_id":440,"player_count":0,"max_players":24,"Bots":0,"server_type":"Dedicated","server_os":"Linux","password":true,"vac":true,"version":"7961495","steam_id":85568392924469996,"keywords":["cp","nocrits","nodmgspread","uncletopia"],"game_id":440,"stv_port":27016,"stv_name":"Uncletopia | São Paulo | 1 | All Maps | STV","players":null},{"server_id":143,"name":"Uncletopia | São Paulo | 2 | Community","name_short":"sao-2","host":"sao-2.br.uncletopia.com","port":27015,"enabled":true,"region":"sa","cc":"br","latitude":-23.533773,"longitude":-46.62529,"reserved":0,"last_update":"0001-01-01T00:00:00Z","name_a2s":"Uncletopia | São Paulo | 2 | Community","protocol":17,"map":"workshop/cp_hazyfort_rc6.ugc1365963729","folder":"tf","game":"Team Fortress","app_id":440,"player_count":0,"max_players":24,"Bots":0,"server_type":"Dedicated","server_os":"Linux","password":true,"vac":true,"version":"7961495","steam_id":85568392924485349,"keywords":["cp","nocrits","nodmgspread","uncletopia"],"game_id":440,"stv_port":27016,"stv_name":"Uncletopia | São Paulo | 2 | Community | STV","players":null},{"server_id":7,"name":"Uncletopia | Seattle | 1 | All Maps","name_short":"sea-1","host":"sea-1.us.uncletopia.com","port":27015,"enabled":true,"region":"us-west","cc":"us","latitude":47.608013,"longitude":-122.33517,"reserved":0,"last_update":"0001-01-01T00:00:00Z","name_a2s":"Uncletopia | Seattle | 1 | All Maps","protocol":17,"map":"pl_thundermountain","folder":"tf","game":"Team Fortress","app_id":440,"player_count":24,"max_players":24,"Bots":0,"server_type":"Dedicated","server_os":"Linux","password":true,"vac":true,"version":"7961495","steam_id":85568392924469997,"keywords":["nocrits","nodmgspread","payload","uncletopia"],"game_id":440,"stv_port":27016,"stv_name":"Uncletopia | Seattle | 1 | All Maps | STV","players":[{"user_id":583,"name":"Haven","steam_id":76561198087584756,"connected_time":4740000000000,"state":"active","ping":60},{"user_id":607,"name":"uhfref","steam_id":76561198271369866,"connected_time":2914000000000,"state":"active","ping":73},{"user_id":589,"name":"spacey_","steam_id":76561197970406614,"connected_time":3942000000000,"state":"active","ping":67},{"user_id":618,"name":"Dutch-7.62","steam_id":76561198799253897,"connected_time":1962000000000,"state":"active","ping":59},{"user_id":560,"name":"Donny Q","steam_id":76561198020901703,"connected_time":8527000000000,"state":"active","ping":42},{"user_id":628,"name":"Havi","steam_id":76561198197832829,"connected_time":1403000000000,"state":"active","ping":46},{"user_id":629,"name":"Yaint","steam_id":76561198032868026,"connected_time":1032000000000,"state":"active","ping":47},{"user_id":584,"name":"raspberry sorbet","steam_id":76561198143371128,"connected_time":4738000000000,"state":"active","ping":69},{"user_id":612,"name":"Grand","steam_id":76561198290143399,"connected_time":2372000000000,"state":"active","ping":75},{"user_id":620,"name":"owl","steam_id":76561198088403016,"connected_time":1908000000000,"state":"active","ping":160},{"user_id":634,"name":"2 Point Tom","steam_id":76561198087617008,"connected_time":193000000000,"state":"active","ping":54},{"user_id":613,"name":"Lily Thorn","steam_id":76561198305488625,"connected_time":2348000000000,"state":"active","ping":57},{"user_id":626,"name":"hazel","steam_id":76561198037292232,"connected_time":1466000000000,"state":"active","ping":120},{"user_id":622,"name":"Sahalanthro","steam_id":76561199073298722,"connected_time":1815000000000,"state":"active","ping":83},{"user_id":582,"name":"Jodi Engwyrn","steam_id":76561198131833567,"connected_time":5187000000000,"state":"active","ping":70},{"user_id":596,"name":"CasemanTheBlondeBear","steam_id":76561198144862404,"connected_time":3730000000000,"state":"active","ping":59},{"user_id":625,"name":"4 life","steam_id":76561198175961598,"connected_time":1501000000000,"state":"active","ping":90},{"user_id":636,"name":"the Milky pirate","steam_id":76561198834350355,"connected_time":149000000000,"state":"active","ping":72},{"user_id":609,"name":"the bandit","steam_id":76561199158540950,"connected_time":2637000000000,"state":"active","ping":61},{"user_id":635,"name":"gorlab","steam_id":76561198025089694,"connected_time":182000000000,"state":"active","ping":72},{"user_id":623,"name":"jerry the abacus","steam_id":76561198041863231,"connected_time":1805000000000,"state":"active","ping":78},{"user_id":602,"name":"wendigo","steam_id":76561197994528974,"connected_time":3407000000000,"state":"active","ping":89},{"user_id":624,"name":"Deluxe_Taco34","steam_id":76561199037653437,"connected_time":1796000000000,"state":"active","ping":165},{"user_id":633,"name":"SadFapping","steam_id":76561198076651049,"connected_time":371000000000,"state":"active","ping":46}]},{"server_id":119,"name":"Uncletopia | Seattle | 2 | All Maps","name_short":"sea-2","host":"sea-1.us.uncletopia.com","port":27025,"enabled":true,"region":"us-west","cc":"us","latitude":47.608013,"longitude":-122.33517,"reserved":0,"last_update":"0001-01-01T00:00:00Z","name_a2s":"Uncletopia | Seattle | 2 | All Maps","protocol":17,"map":"cp_dustbowl","folder":"tf","game":"Team Fortress","app_id":440,"player_count":4,"max_players":24,"Bots":0,"server_type":"Dedicated","server_os":"Linux","password":true,"vac":true,"version":"7961495","steam_id":85568392924469998,"keywords":["cp","nocrits","nodmgspread","uncletopia"],"game_id":440,"stv_port":27026,"stv_name":"Uncletopia | Seattle | 2 | All Maps | STV","players":[{"user_id":598,"name":"cofferhead","steam_id":76561199191108449,"connected_time":1129000000000,"state":"active","ping":72},{"user_id":588,"name":"The Horny","steam_id":76561198863639459,"connected_time":2250000000000,"state":"active","ping":40},{"user_id":549,"name":"io_est","steam_id":76561198079538952,"connected_time":5146000000000,"state":"active","ping":30},{"user_id":595,"name":"Embie","steam_id":76561198358221011,"connected_time":1489000000000,"state":"active","ping":45}]},{"server_id":406,"name":"Uncletopia | Seattle | 3 | Stopwatch","name_short":"sea-3","host":"sea-1.us.uncletopia.com","port":27035,"enabled":true,"region":"us-west","cc":"us","latitude":47.608013,"longitude":-122.33517,"reserved":0,"last_update":"0001-01-01T00:00:00Z","name_a2s":"Uncletopia | Seattle | 3 | Stopwatch","protocol":17,"map":"workshop/koth_product_final.ugc454272353","folder":"tf","game":"Team Fortress","app_id":440,"player_count":0,"max_players":24,"Bots":0,"server_type":"Dedicated","server_os":"Linux","password":true,"vac":true,"version":"7961495","steam_id":85568392924515217,"keywords":["cp","nocrits","nodmgspread","uncletopia"],"game_id":440,"stv_port":27036,"stv_name":"Uncletopia | Seattle | 3 | Stopwatch | STV","players":null},{"server_id":17,"name":"Uncletopia | San Francisco | 1 | All Maps","name_short":"sfo-1","host":"sfo-1.us.uncletopia.com","port":27015,"enabled":true,"region":"us-west","cc":"us","latitude":37.77397,"longitude":-122.4313,"reserved":0,"last_update":"0001-01-01T00:00:00Z","name_a2s":"Uncletopia | San Francisco | 1 | All Maps","protocol":17,"map":"cp_altitude","folder":"tf","game":"Team Fortress","app_id":440,"player_count":0,"max_players":24,"Bots":0,"server_type":"Dedicated","server_os":"Linux","password":true,"vac":true,"version":"7961495","steam_id":85568392924469999,"keywords":["cp","nocrits","nodmgspread","uncletopia"],"game_id":440,"stv_port":27016,"stv_name":"Uncletopia | San Francisco | 1 | All Maps | STV","players":null},{"server_id":18,"name":"Uncletopia | San Francisco | 2 | All Maps","name_short":"sfo-2","host":"sfo-1.us.uncletopia.com","port":27025,"enabled":true,"region":"us-west","cc":"us","latitude":37.77397,"longitude":-122.4313,"reserved":0,"last_update":"0001-01-01T00:00:00Z","name_a2s":"Uncletopia | San Francisco | 2 | All Maps","protocol":17,"map":"pl_swiftwater_final1","folder":"tf","game":"Team Fortress","app_id":440,"player_count":24,"max_players":24,"Bots":0,"server_type":"Dedicated","server_os":"Linux","password":true,"vac":true,"version":"7961495","steam_id":85568392924470000,"keywords":["nocrits","nodmgspread","payload","uncletopia"],"game_id":440,"stv_port":27026,"stv_name":"Uncletopia | San Francisco | 2 | All Maps | STV","players":[{"user_id":610,"name":"Alf Creepypasta","steam_id":76561198841844093,"connected_time":1525000000000,"state":"active","ping":58},{"user_id":589,"name":"SkatingElephant","steam_id":76561198322312114,"connected_time":2726000000000,"state":"active","ping":86},{"user_id":563,"name":"Sariff","steam_id":76561198136446352,"connected_time":4296000000000,"state":"active","ping":102},{"user_id":627,"name":"Xexat","steam_id":76561198041668498,"connected_time":472000000000,"state":"active","ping":70},{"user_id":579,"name":"Spider Snake","steam_id":76561198049422729,"connected_time":3253000000000,"state":"active","ping":64},{"user_id":625,"name":"John16Mark","steam_id":76561198119445407,"connected_time":561000000000,"state":"active","ping":103},{"user_id":614,"name":"A_Un1t_0","steam_id":76561197966223353,"connected_time":1087000000000,"state":"active","ping":56},{"user_id":582,"name":"Doohickey","steam_id":76561198276310307,"connected_time":3019000000000,"state":"active","ping":106},{"user_id":616,"name":"fitotutus","steam_id":76561197974993253,"connected_time":1003000000000,"state":"active","ping":149},{"user_id":551,"name":"sandman","steam_id":76561198144772540,"connected_time":5556000000000,"state":"active","ping":98},{"user_id":635,"name":"BLØRG","steam_id":76561198036126673,"connected_time":151000000000,"state":"active","ping":84},{"user_id":615,"name":"Wolf401","steam_id":76561198800504620,"connected_time":1058000000000,"state":"active","ping":96},{"user_id":608,"name":"sadlaxx","steam_id":76561198061354919,"connected_time":1756000000000,"state":"active","ping":89},{"user_id":604,"name":"Eden","steam_id":76561198081284664,"connected_time":1883000000000,"state":"active","ping":60},{"user_id":636,"name":"strider","steam_id":76561198141817197,"connected_time":60000000000,"state":"active","ping":48},{"user_id":637,"name":"CheeseCake488","steam_id":76561199407617942,"connected_time":21000000000,"state":"active","ping":95},{"user_id":628,"name":"OliverOyl","steam_id":76561198273781861,"connected_time":449000000000,"state":"active","ping":94},{"user_id":592,"name":"Corbo","steam_id":76561198274519665,"connected_time":2586000000000,"state":"active","ping":64},{"user_id":629,"name":"top 10 sidewalks","steam_id":76561198844273999,"connected_time":438000000000,"state":"active","ping":65},{"user_id":599,"name":"finman","steam_id":76561198127639913,"connected_time":1985000000000,"state":"active","ping":60},{"user_id":630,"name":"NoireThings","steam_id":76561199041728231,"connected_time":430000000000,"state":"active","ping":107},{"user_id":631,"name":"Garfelf","steam_id":76561198419850129,"connected_time":408000000000,"state":"active","ping":80},{"user_id":634,"name":"l u n a r .","steam_id":76561198075773796,"connected_time":308000000000,"state":"active","ping":60},{"user_id":587,"name":"Isa","steam_id":76561199497669852,"connected_time":2799000000000,"state":"active","ping":37}]},{"server_id":19,"name":"Uncletopia | San Francisco | 3 | Stopwatch","name_short":"sfo-3","host":"sfo-1.us.uncletopia.com","port":27035,"enabled":true,"region":"us-west","cc":"us","latitude":37.77397,"longitude":-122.4313,"reserved":0,"last_update":"0001-01-01T00:00:00Z","name_a2s":"Uncletopia | San Francisco | 3 | Stopwatch","protocol":17,"map":"workshop/koth_clearcut_b15.ugc2107050255","folder":"tf","game":"Team Fortress","app_id":440,"player_count":0,"max_players":24,"Bots":0,"server_type":"Dedicated","server_os":"Linux","password":true,"vac":true,"version":"7961495","steam_id":85568392924742824,"keywords":["cp","nocrits","nodmgspread","uncletopia"],"game_id":440,"stv_port":27036,"stv_name":"Uncletopia | San Francisco | 3 | Stopwatch | STV","players":null},{"server_id":20,"name":"Uncletopia | San Francisco | 4 | Community","name_short":"sfo-4","host":"sfo-1.us.uncletopia.com","port":27045,"enabled":true,"region":"us-west","cc":"us","latitude":37.77397,"longitude":-122.4313,"reserved":0,"last_update":"0001-01-01T00:00:00Z","name_a2s":"Uncletopia | San Francisco | 4 | Community","protocol":17,"map":"workshop/cp_coilblaze_rc7.ugc1272700588","folder":"tf","game":"Team Fortress","app_id":440,"player_count":0,"max_players":24,"Bots":0,"server_type":"Dedicated","server_os":"Linux","password":true,"vac":true,"version":"7961495","steam_id":85568392924742826,"keywords":["cp","nocrits","nodmgspread","uncletopia"],"game_id":440,"stv_port":27046,"stv_name":"Uncletopia | San Francisco | 4 | Community | STV","players":null},{"server_id":141,"name":"Uncletopia | Sydney | 1 | All Maps","name_short":"syd-1","host":"syd-1.au.uncletopia.com","port":27015,"enabled":true,"region":"au","cc":"au","latitude":-33.865143,"longitude":151.2099,"reserved":0,"last_update":"0001-01-01T00:00:00Z","name_a2s":"Uncletopia | Sydney | 1 | All Maps","protocol":17,"map":"pl_borneo","folder":"tf","game":"Team Fortress","app_id":440,"player_count":11,"max_players":24,"Bots":0,"server_type":"Dedicated","server_os":"Linux","password":true,"vac":true,"version":"7961495","steam_id":85568392924470001,"keywords":["nocrits","nodmgspread","payload","uncletopia"],"game_id":440,"stv_port":27016,"stv_name":"Uncletopia | Sydney | 1 | All Maps | STV","players":[{"user_id":54,"name":"Akunébíokwudigbo","steam_id":76561198197777382,"connected_time":1491000000000,"state":"active","ping":49},{"user_id":56,"name":"Azure","steam_id":76561198108179408,"connected_time":1467000000000,"state":"active","ping":87},{"user_id":73,"name":"*akolai","steam_id":76561198075366402,"connected_time":59000000000,"state":"active","ping":33},{"user_id":74,"name":"Big Pattie","steam_id":76561198168001860,"connected_time":0,"state":"spawning","ping":56},{"user_id":62,"name":"Space.Wizard","steam_id":76561198311911966,"connected_time":709000000000,"state":"active","ping":57},{"user_id":63,"name":"doris","steam_id":76561198985688207,"connected_time":690000000000,"state":"active","ping":51},{"user_id":64,"name":"Cheese","steam_id":76561198862913374,"connected_time":656000000000,"state":"active","ping":60},{"user_id":66,"name":"wooper","steam_id":76561198105850827,"connected_time":567000000000,"state":"active","ping":68},{"user_id":67,"name":"nedwardo","steam_id":76561198337729320,"connected_time":544000000000,"state":"active","ping":58},{"user_id":69,"name":"Saint Patrick #JoinSillyFellas","steam_id":76561198336999112,"connected_time":338000000000,"state":"active","ping":47},{"user_id":71,"name":"monnickev","steam_id":76561198252587162,"connected_time":313000000000,"state":"active","ping":44}]},{"server_id":123,"name":"Uncletopia | Sydney | 2 | All Maps","name_short":"syd-2","host":"syd-1.au.uncletopia.com","port":27025,"enabled":true,"region":"au","cc":"au","latitude":-33.865143,"longitude":151.2099,"reserved":0,"last_update":"0001-01-01T00:00:00Z","name_a2s":"Uncletopia | Sydney | 2 | All Maps","protocol":17,"map":"pl_barnblitz","folder":"tf","game":"Team Fortress","app_id":440,"player_count":23,"max_players":24,"Bots":0,"server_type":"Dedicated","server_os":"Linux","password":true,"vac":true,"version":"7961495","steam_id":85568392924470002,"keywords":["nocrits","nodmgspread","payload","uncletopia"],"game_id":440,"stv_port":27026,"stv_name":"Uncletopia | Sydney | 2 | All Maps | STV","players":[{"user_id":127,"name":"Soapy","steam_id":76561198271173330,"connected_time":1925000000000,"state":"active","ping":52},{"user_id":138,"name":"krandlez` (Any/All)","steam_id":76561198044839726,"connected_time":1128000000000,"state":"active","ping":41},{"user_id":132,"name":"[TÐK] KeRpaL","steam_id":76561197974427061,"connected_time":1682000000000,"state":"active","ping":60},{"user_id":144,"name":"JBonesturtle","steam_id":76561199092667269,"connected_time":1085000000000,"state":"active","ping":85},{"user_id":149,"name":"saturation","steam_id":76561199457046392,"connected_time":945000000000,"state":"active","ping":80},{"user_id":143,"name":"no teles 4 u","steam_id":76561198018478297,"connected_time":1110000000000,"state":"active","ping":74},{"user_id":153,"name":"Hank","steam_id":76561198864457647,"connected_time":372000000000,"state":"active","ping":79},{"user_id":145,"name":"Worst Sniper","steam_id":76561198025733081,"connected_time":1059000000000,"state":"active","ping":81},{"user_id":155,"name":"Milk Boi","steam_id":76561198238708000,"connected_time":63000000000,"state":"active","ping":89},{"user_id":152,"name":"Chrisy","steam_id":76561198092382473,"connected_time":522000000000,"state":"active","ping":80},{"user_id":126,"name":"ForgottenPizzaUncle","steam_id":76561198064337953,"connected_time":1960000000000,"state":"active","ping":139},{"user_id":146,"name":"KeeperOfBalance","steam_id":76561198028070089,"connected_time":1049000000000,"state":"active","ping":90},{"user_id":118,"name":"† Reeve","steam_id":76561197969102326,"connected_time":2865000000000,"state":"active","ping":103},{"user_id":147,"name":"paray^","steam_id":76561198376383989,"connected_time":1005000000000,"state":"active","ping":65},{"user_id":117,"name":"Mikey","steam_id":76561198438203131,"connected_time":2941000000000,"state":"active","ping":48},{"user_id":122,"name":"Malphas","steam_id":76561198011425371,"connected_time":2202000000000,"state":"active","ping":57},{"user_id":156,"name":"Flak","steam_id":76561198205833232,"connected_time":19000000000,"state":"active","ping":60},{"user_id":124,"name":"fourjaf","steam_id":76561198163147051,"connected_time":2022000000000,"state":"active","ping":45},{"user_id":157,"name":"Fire_Dragon1","steam_id":76561198978045930,"connected_time":10000000000,"state":"spawning","ping":30},{"user_id":148,"name":"Officer cheesebread breathstink","steam_id":76561199222027878,"connected_time":963000000000,"state":"active","ping":65},{"user_id":106,"name":"jono","steam_id":76561198059701670,"connected_time":4026000000000,"state":"active","ping":41},{"user_id":151,"name":"kaiiyo","steam_id":76561199184299658,"connected_time":645000000000,"state":"active","ping":54},{"user_id":140,"name":"soupy","steam_id":76561198073734936,"connected_time":1125000000000,"state":"active","ping":91}]},{"server_id":395,"name":"Uncletopia | Sydney | 3 | All Maps","name_short":"syd-3","host":"syd-1.au.uncletopia.com","port":27035,"enabled":true,"region":"au","cc":"au","latitude":-33.865143,"longitude":151.2099,"reserved":0,"last_update":"0001-01-01T00:00:00Z","name_a2s":"Uncletopia | Sydney | 3 | All Maps","protocol":17,"map":"cp_altitude","folder":"tf","game":"Team Fortress","app_id":440,"player_count":0,"max_players":24,"Bots":0,"server_type":"Dedicated","server_os":"Linux","password":true,"vac":true,"version":"7961495","steam_id":85568392925194467,"keywords":["cp","nocrits","nodmgspread","uncletopia"],"game_id":440,"stv_port":27036,"stv_name":"Uncletopia | Sydney | 3 | All Maps | STV","players":null},{"server_id":396,"name":"Uncletopia | Sydney | 4 | All Maps","name_short":"syd-4","host":"syd-1.au.uncletopia.com","port":27045,"enabled":true,"region":"au","cc":"au","latitude":-33.865143,"longitude":151.2099,"reserved":0,"last_update":"0001-01-01T00:00:00Z","name_a2s":"Uncletopia | Sydney | 4 | All Maps","protocol":17,"map":"pl_snowycoast","folder":"tf","game":"Team Fortress","app_id":440,"player_count":0,"max_players":24,"Bots":0,"server_type":"Dedicated","server_os":"Linux","password":true,"vac":true,"version":"7961495","steam_id":85568392925397958,"keywords":["nocrits","nodmgspread","payload","uncletopia"],"game_id":440,"stv_port":27046,"stv_name":"Uncletopia | Sydney | 4 | All Maps | STV","players":null},{"server_id":58,"name":"Uncletopia | Sydney | 5 | Stopwatch","name_short":"syd-5","host":"syd-1.au.uncletopia.com","port":27055,"enabled":true,"region":"au","cc":"au","latitude":-33.865143,"longitude":151.2099,"reserved":0,"last_update":"0001-01-01T00:00:00Z","name_a2s":"Uncletopia | Sydney | 5 | Stopwatch","protocol":17,"map":"pl_frontier_final","folder":"tf","game":"Team Fortress","app_id":440,"player_count":0,"max_players":24,"Bots":0,"server_type":"Dedicated","server_os":"Linux","password":true,"vac":true,"version":"7961495","steam_id":85568392925397959,"keywords":["nocrits","nodmgspread","payload","uncletopia"],"game_id":440,"stv_port":27056,"stv_name":"Uncletopia | Sydney | 5 | Stopwatch | STV","players":null},{"server_id":59,"name":"Uncletopia | Sydney | 6 | Community","name_short":"syd-6","host":"syd-1.au.uncletopia.com","port":27065,"enabled":true,"region":"au","cc":"au","latitude":-33.865143,"longitude":151.2099,"reserved":0,"last_update":"0001-01-01T00:00:00Z","name_a2s":"Uncletopia | Sydney | 6 | Community","protocol":17,"map":"cp_sunshine","folder":"tf","game":"Team Fortress","app_id":440,"player_count":0,"max_players":24,"Bots":0,"server_type":"Dedicated","server_os":"Linux","password":true,"vac":true,"version":"7961495","steam_id":85568392925397960,"keywords":["cp","nocrits","nodmgspread","uncletopia"],"game_id":440,"stv_port":27066,"stv_name":"Uncletopia | Sydney | 6 | Community | STV","players":null},{"server_id":49,"name":"Uncletopia | Warsaw | 1 | One Thousand Uncles","name_short":"waw-1","host":"waw-1.pl.uncletopia.com","port":27015,"enabled":true,"region":"eu","cc":"pl","latitude":52.2297,"longitude":21.017532,"reserved":0,"last_update":"0001-01-01T00:00:00Z","name_a2s":"Uncletopia | Warsaw | 1 | One Thousand Uncles","protocol":17,"map":"pl_pier","folder":"tf","game":"Team Fortress","app_id":440,"player_count":0,"max_players":32,"Bots":0,"server_type":"Dedicated","server_os":"Linux","password":true,"vac":true,"version":"7961495","steam_id":85568392925397850,"keywords":["alltalk","danepve","increased_maxplayers","nocrits","norespawntime","payload","uncletopia"],"game_id":440,"stv_port":0,"stv_name":"","players":null},{"server_id":50,"name":"Uncletopia | Warsaw | 2 | One Thousand Uncles","name_short":"waw-2","host":"waw-1.pl.uncletopia.com","port":27025,"enabled":true,"region":"eu","cc":"pl","latitude":52.2297,"longitude":21.017532,"reserved":0,"last_update":"0001-01-01T00:00:00Z","name_a2s":"Uncletopia | Warsaw | 2 | One Thousand Uncles","protocol":17,"map":"pl_goldrush","folder":"tf","game":"Team Fortress","app_id":440,"player_count":0,"max_players":32,"Bots":0,"server_type":"Dedicated","server_os":"Linux","password":true,"vac":true,"version":"7961495","steam_id":85568392925397851,"keywords":["alltalk","danepve","increased_maxplayers","nocrits","norespawntime","payload","uncletopia"],"game_id":440,"stv_port":0,"stv_name":"","players":null},{"server_id":51,"name":"Uncletopia | Warsaw | 3 | All Maps","name_short":"waw-3","host":"waw-1.pl.uncletopia.com","port":27035,"enabled":true,"region":"eu","cc":"pl","latitude":52.2297,"longitude":21.017532,"reserved":0,"last_update":"0001-01-01T00:00:00Z","name_a2s":"Uncletopia | Warsaw | 3 | All Maps","protocol":17,"map":"plr_pipeline","folder":"tf","game":"Team Fortress","app_id":440,"player_count":0,"max_players":24,"Bots":0,"server_type":"Dedicated","server_os":"Linux","password":true,"vac":true,"version":"7961495","steam_id":85568392925397852,"keywords":["nocrits","nodmgspread","payload","uncletopia"],"game_id":440,"stv_port":27036,"stv_name":"Uncletopia | Warsaw | 3 | All Maps | STV","players":null},{"server_id":52,"name":"Uncletopia | Warsaw | 4 | All Maps","name_short":"waw-4","host":"waw-1.pl.uncletopia.com","port":27045,"enabled":true,"region":"eu","cc":"pl","latitude":52.2297,"longitude":21.017532,"reserved":0,"last_update":"0001-01-01T00:00:00Z","name_a2s":"Uncletopia | Warsaw | 4 | All Maps","protocol":17,"map":"cp_coldfront","folder":"tf","game":"Team Fortress","app_id":440,"player_count":0,"max_players":24,"Bots":0,"server_type":"Dedicated","server_os":"Linux","password":true,"vac":true,"version":"7961495","steam_id":85568392925397853,"keywords":["cp","nocrits","nodmgspread","uncletopia"],"game_id":440,"stv_port":27046,"stv_name":"Uncletopia | Warsaw | 4 | All Maps | STV","players":null},{"server_id":53,"name":"Uncletopia | Warsaw | 5 | Stopwatch","name_short":"waw-5","host":"waw-1.pl.uncletopia.com","port":27055,"enabled":true,"region":"eu","cc":"pl","latitude":52.2297,"longitude":21.017532,"reserved":0,"last_update":"0001-01-01T00:00:00Z","name_a2s":"Uncletopia | Warsaw | 5 | Stopwatch","protocol":17,"map":"workshop/pl_badwater_pro_v12.ugc2142942074","folder":"tf","game":"Team Fortress","app_id":440,"player_count":0,"max_players":24,"Bots":0,"server_type":"Dedicated","server_os":"Linux","password":true,"vac":true,"version":"7961495","steam_id":85568392925397854,"keywords":["nocrits","nodmgspread","payload","uncletopia"],"game_id":440,"stv_port":27056,"stv_name":"Uncletopia | Warsaw | 5 | Stopwatch | STV","players":null},{"server_id":54,"name":"Uncletopia | Warsaw | 6 | Community","name_short":"waw-6","host":"waw-1.pl.uncletopia.com","port":27065,"enabled":true,"region":"eu","cc":"pl","latitude":52.2297,"longitude":21.017532,"reserved":0,"last_update":"0001-01-01T00:00:00Z","name_a2s":"Uncletopia | Warsaw | 6 | Community","protocol":17,"map":"workshop/pl_badwater_pro_v12.ugc2142942074","folder":"tf","game":"Team Fortress","app_id":440,"player_count":0,"max_players":24,"Bots":0,"server_type":"Dedicated","server_os":"Linux","password":true,"vac":true,"version":"7961495","steam_id":85568392925397856,"keywords":["nocrits","nodmgspread","payload","uncletopia"],"game_id":440,"stv_port":27066,"stv_name":"Uncletopia | Warsaw | 6 | Community | STV","players":null}]}