{"status":true,"message":"","result":[{"server_id":9,"name":"Uncletopia | Atlanta | 1 | All Maps","name_short":"atl-1","host":"atl-1.us.uncletopia.com","port":27015,"enabled":true,"region":"us-east","cc":"us","latitude":33.753746,"longitude":-84.38633,"reserved":0,"last_update":"0001-01-01T00:00:00Z","name_a2s":"Uncletopia | Atlanta | 1 | All Maps","protocol":17,"map":"pl_snowycoast","folder":"tf","game":"Team Fortress","app_id":440,"player_count":0,"max_players":24,"Bots":0,"server_type":"Dedicated","server_os":"Linux","password":true,"vac":true,"version":"7961495","steam_id":85568392924469982,"keywords":["nocrits","nodmgspread","payload","uncletopia"],"game_id":440,"stv_port":27016,"stv_name":"Uncletopia | Atlanta | 1 | All Maps | STV","players":null},{"server_id":104,"name":"Uncletopia | Atlanta | 2 | All Maps","name_short":"atl-2","host":"atl-1.us.uncletopia.com","port":27025,"enabled":true,"region":"us-east","cc":"us","latitude":33.753746,"longitude":-84.38633,"reserved":0,"last_update":"0001-01-01T00:00:00Z","name_a2s":"Uncletopia | Atlanta | 2 | All Maps","protocol":17,"map":"koth_highpass","folder":"tf","game":"Team Fortress","app_id":440,"player_count":0,"max_players":24,"Bots":0,"server_type":"Dedicated","server_os":"Linux","password":true,"vac":true,"version":"7961495","steam_id":85568392924469983,"keywords":["cp","nocrits","nodmgspread","uncletopia"],"game_id":440,"stv_port":27026,"stv_name":"Uncletopia | Atlanta | 2 | All Maps | STV","players":null},{"server_id":400,"name":"Uncletopia | Atlanta | 3 | All Maps","name_short":"atl-3","host":"atl-1.us.uncletopia.com","port":27035,"enabled":true,"region":"us-east","cc":"us","latitude":33.753746,"longitude":-84.38633,"reserved":0,"last_update":"0001-01-01T00:00:00Z","name_a2s":"Uncletopia | Atlanta | 3 | All Maps","protocol":17,"map":"koth_cascade","folder":"tf","game":"Team Fortress","app_id":440,"player_count":0,"max_players":24,"Bots":0,"server_type":"Dedicated","server_os":"Linux","password":true,"vac":true,"version":"7961495","steam_id":85568392924515187,"keywords":["cp","nocrits","nodmgspread","uncletopia"],"game_id":440,"stv_port":27036,"stv_name":"Uncletopia | Atlanta | 3 | All Maps | STV","players":null},{"server_id":401,"name":"Uncletopia | Atlanta | 4 | Community","name_short":"atl-4","host":"atl-1.us.uncletopia.com","port":27045,"enabled":true,"region":"us-east","cc":"us","latitude":33.753746,"longitude":-84.38633,"reserved":0,"last_update":"0001-01-01T00:00:00Z","name_a2s":"Uncletopia | Atlanta | 4 | Community","protocol":17,"map":"cp_sunshine","folder":"tf","game":"Team Fortress","app_id":440,"player_count":0,"max_players":24,"Bots":0,"server_type":"Dedicated","server_os":"Linux","password":true,"vac":true,"version":"7961495","steam_id":85568392924515188,"keywords":["cp","nocrits","nodmgspread","uncletopia"],"game_id":440,"stv_port":27046,"stv_name":"Uncletopia | Atlanta | 4 | Community | STV","players":null},{"server_id":2,"name":"Uncletopia | Chicago | 1 | All Maps","name_short":"chi-1","host":"chi-1.us.uncletopia.com","port":27015,"enabled":true,"region":"us-central","cc":"us","latitude":41.881832,"longitude":-87.62318,"reserved":0,"last_update":"0001-01-01T00:00:00Z","name_a2s":"Uncletopia | Chicago | 1 | All Maps","protocol":17,"map":"cp_junction_final","folder":"tf","game":"Team Fortress","app_id":440,"player_count":24,"max_players":24,"Bots":0,"server_type":"Dedicated","server_os":"Linux","password":true,"vac":true,"version":"7961495","steam_id":85568392924469984,"keywords":["cp","nocrits","nodmgspread","uncletopia"],"game_id":440,"stv_port":27016,"stv_name":"Uncletopia | Chicago | 1 | All Maps | STV","players":[{"user_id":14,"name":"doamgeo468","steam_id":76561199485287045,"connected_time":5525000000000,"state":"active","ping":79},{"user_id":113,"name":"Looking for BBW in stanfield nc","steam_id":76561199207371234,"connected_time":119000000000,"state":"active","ping":71},{"user_id":41,"name":"Sergeant Snowflake","steam_id":76561198041474489,"connected_time":4166000000000,"state":"active","ping":58},{"user_id":118,"name":"Space Lizard","steam_id":76561198056798193,"connected_time":78000000000,"state":"active","ping":71},{"user_id":117,"name":"The Dreamer","steam_id":76561198047638312,"connected_time":93000000000,"state":"active","ping":40},{"user_id":110,"name":"BarrowBaron","steam_id":76561198013633236,"connected_time":123000000000,"state":"active","ping":49},{"user_id":93,"name":"Braindawg","steam_id":76561197988531991,"connected_time":2091000000000,"state":"active","ping":89},{"user_id":50,"name":"Magma Leader Maxie","steam_id":76561198341537452,"connected_time":3011000000000,"state":"active","ping":74},{"user_id":115,"name":"schlingo","steam_id":76561199087243980,"connected_time":104000000000,"state":"active","ping":96},{"user_id":114,"name":"Mcfighter2","steam_id":76561198168073956,"connected_time":109000000000,"state":"active","ping":174},{"user_id":121,"name":"coffee bagel","steam_id":76561198141198352,"connected_time":40000000000,"state":"active","ping":40},{"user_id":45,"name":"BotEthan","steam_id":76561198141829527,"connected_time":4099000000000,"state":"active","ping":60},{"user_id":111,"name":"Barbados Slim","steam_id":76561199483183459,"connected_time":122000000000,"state":"active","ping":89},{"user_id":120,"name":"Chargable_water","steam_id":76561199190556009,"connected_time":72000000000,"state":"active","ping":74},{"user_id":122,"name":"CerealKiller","steam_id":76561198995741281,"connected_time":29000000000,"state":"spawning","ping":44},{"user_id":123,"name":"iluvtopoo","steam_id":76561198843522498,"connected_time":19000000000,"state":"active","ping":117},{"user_id":102,"name":"Soy","steam_id":76561198050605191,"connected_time":1124000000000,"state":"active","ping":80},{"user_id":96,"name":"cool guy","steam_id":76561198204995668,"connected_time":1922000000000,"state":"active","ping":74},{"user_id":124,"name":"Cellus","steam_id":76561198067204847,"connected_time":19000000000,"state":"active","ping":61},{"user_id":37,"name":"Ice Queen","steam_id":76561198012747028,"connected_time":4222000000000,"state":"active","ping":61},{"user_id":76,"name":"‡∏∏","steam_id":76561198118480346,"connected_time":2415000000000,"state":"active","ping":71},{"user_id":43,"name":"BladeTheSaltyBeard","steam_id":76561198089468426,"connected_time":4130000000000,"state":"active","ping":84},{"user_id":44,"name":"NickleThePickle2","steam_id":76561199041485720,"connected_time":4122000000000,"state":"active","ping":87},{"user_id":89,"name":"Maverick","steam_id":76561198322829814,"connected_time":2142000000000,"state":"active","ping":76}]},{"server_id":106,"name":"Uncletopia | Chicago | 2 | All Maps","name_short":"chi-2","host":"chi-1.us.uncletopia.com","port":27025,"enabled":true,"region":"us-central","cc":"us","latitude":41.881832,"longitude":-87.62318,"reserved":0,"last_update":"0001-01-01T00:00:00Z","name_a2s":"Uncletopia | Chicago | 2 | All Maps","protocol":17,"map":"pl_borneo","folder":"tf","game":"Team Fortress","app_id":440,"player_count":0,"max_players":24,"Bots":0,"server_type":"Dedicated","server_os":"Linux","password":true,"vac":true,"version":"7961495","steam_id":85568392924469985,"keywords":["nocrits","nodmgspread","payload","uncletopia"],"game_id":440,"stv_port":27026,"stv_name":"Uncletopia | Chicago | 2 | All Maps | STV","players":null},{"server_id":402,"name":"Uncletopia | Chicago | 3 | All Maps","name_short":"chi-3","host":"chi-1.us.uncletopia.com","port":27035,"enabled":true,"region":"us-central","cc":"us","latitude":41.881832,"longitude":-87.62318,"reserved":0,"last_update":"0001-01-01T00:00:00Z","name_a2s":"Uncletopia | Chicago | 3 | All Maps","protocol":17,"map":"pl_upward","folder":"tf","game":"Team Fortress","app_id":440,"player_count":24,"max_players":24,"Bots":0,"server_type":"Dedicated","server_os":"Linux","password":true,"vac":true,"version":"7961495","steam_id":85568392924515191,"keywords":["nocrits","nodmgspread","payload","uncletopia"],"game_id":440,"stv_port":27036,"stv_name":"Uncletopia | Chicago | 3 | All Maps | STV","players":[{"user_id":10,"name":"ùï≠ùñîùñùùñäùñò","steam_id":76561198892028667,"connected_time":1777000000000,"state":"active","ping":61},{"user_id":7,"name":"BrickDiggity","steam_id":76561198297548684,"connected_time":2021000000000,"state":"active","ping":91},{"user_id":44,"name":"Mr. Tickle","steam_id":76561198126684647,"connected_time":126000000000,"state":"active","ping":60},{"user_id":11,"name":"King Spaghetti","steam_id":76561198027067890,"connected_time":1751000000000,"state":"active","ping":53},{"user_id":40,"name":"Mavrick","steam_id":76561198039678150,"connected_time":551000000000,"state":"active","ping":63},{"user_id":13,"name":"maS","steam_id":76561198033846407,"connected_time":1670000000000,"state":"active","ping":46},{"user_id":14,"name":"baguette","steam_id":76561198066048980,"connected_time":1609000000000,"state":"active","ping":44},{"user_id":18,"name":"Mocanthl","steam_id":76561198043778324,"connected_time":1328000000000,"state":"active","ping":70},{"user_id":42,"name":"Ostin","steam_id":76561197993726444,"connected_time":167000000000,"state":"active","ping":75},{"user_id":20,"name":"Insert_User_","steam_id":76561199229663997,"connected_time":1301000000000,"state":"active","ping":79},{"user_id":21,"name":"Lucon","steam_id":76561198067147724,"connected_time":1277000000000,"state":"active","ping":64},{"user_id":22,"name":"mr.sapyoursentry","steam_id":76561199202571828,"connected_time":1253000000000,"state":"active","ping":88},{"user_id":23,"name":"Cjmanjanson","steam_id":76561198048553474,"connected_time":1250000000000,"state":"active","ping":43},{"user_id":25,"name":"november","steam_id":76561198368460175,"connected_time":1207000000000,"state":"active","ping":73},{"user_id":26,"name":"sal","steam_id":76561198814096380,"connected_time":1199000000000,"state":"active","ping":104},{"user_id":27,"name":"Cosmic Torgue","steam_id":76561198828724945,"connected_time":1123000000000,"state":"active","ping":78},{"user_id":31,"name":"Drachma","steam_id":76561198007310514,"connected_time":993000000000,"state":"active","ping":55},{"user_id":29,"name":"clmb","steam_id":76561198413125750,"connected_time":1107000000000,"state":"active","ping":63},{"user_id":30,"name":"tiananmensquare1989","steam_id":76561199076837870,"connected_time":1023000000000,"state":"active","ping":89},{"user_id":32,"name":"RuinLucky","steam_id":76561199481172481,"connected_time":990000000000,"state":"active","ping":88},{"user_id":41,"name":"tris","steam_id":76561198160335315,"connected_time":189000000000,"state":"active","ping":43},{"user_id":46,"name":"King's Disease","steam_id":76561198076639682,"connected_time":107000000000,"state":"active","ping":72},{"user_id":37,"name":"Roz257","steam_id":76561198842844532,"connected_time":927000000000,"state":"active","ping":57},{"user_id":38,"name":"Lia_Rein TTV","steam_id":76561198151569597,"connected_time":880000000000,"state":"active","ping":179}]},{"server_id":403,"name":"Uncletopia | Chicago | 4 | All Maps","name_short":"chi-4","host":"chi-1.us.uncletopia.com","port":27045,"enabled":true,"region":"us-central","cc":"us","latitude":41.881832,"longitude":-87.62318,"reserved":0,"last_update":"0001-01-01T00:00:00Z","name_a2s":"Uncletopia | Chicago | 4 | All Maps","protocol":17,"map":"cp_altitude","folder":"tf","game":"Team Fortress","app_id":440,"player_count":0,"max_players":24,"Bots":0,"server_type":"Dedicated","server_os":"Linux","password":true,"vac":true,"version":"7961495","steam_id":85568392924515193,"keywords":["cp","nocrits","nodmgspread","uncletopia"],"game_id":440,"stv_port":27046,"stv_name":"Uncletopia | Chicago | 4 | All Maps | STV","players":null},{"server_id":36,"name":"Uncletopia | Chicago | 5 | All Maps","name_short":"chi-5","host":"chi-2.us.uncletopia.com","port":27015,"enabled":true,"region":"us-central","cc":"us","latitude":41.881832,"longitude":-87.62318,"reserved":0,"last_update":"0001-01-01T00:00:00Z","name_a2s":"Uncletopia | Chicago | 5 | All Maps","protocol":17,"map":"pl_barnblitz","folder":"tf","game":"Team Fortress","app_id":440,"player_count":0,"max_players":24,"Bots":0,"server_type":"Dedicated","server_os":"Linux","password":true,"vac":true,"version":"7961495","steam_id":85568392924866362,"keywords":["nocrits","nodmgspread","payload","uncletopia"],"game_id":440,"stv_port":27016,"stv_name":"Uncletopia | Chicago | 5 | All Maps | STV","players":null},{"server_id":37,"name":"Uncletopia | Chicago | 6 | All Maps","name_short":"chi-6","host":"chi-2.us.uncletopia.com","port":27025,"enabled":true,"region":"us-central","cc":"us","latitude":41.881832,"longitude":-87.62318,"reserved":0,"last_update":"0001-01-01T00:00:00Z","name_a2s":"Uncletopia | Chicago | 6 | All Maps","protocol":17,"map":"pl_borneo","folder":"tf","game":"Team Fortress","app_id":440,"player_count":3,"max_players":24,"Bots":0,"server_type":"Dedicated","server_os":"Linux","password":true,"vac":true,"version":"7961495","steam_id":85568392924866363,"keywords":["nocrits","nodmgspread","payload","uncletopia"],"game_id":440,"stv_port":27026,"stv_name":"Uncletopia | Chicago | 6 | All Maps | STV","players":[{"user_id":6,"name":"Snowy","steam_id":76561198360209483,"connected_time":275000000000,"state":"active","ping":81},{"user_id":7,"name":"Dragoon","steam_id":76561198211973253,"connected_time":264000000000,"state":"active","ping":70},{"user_id":8,"name":"Okpar","steam_id":76561199221067945,"connected_time":17000000000,"state":"active","ping":88}]},{"server_id":38,"name":"Uncletopia | Chicago | 7 | Stopwatch Beta","name_short":"chi-7","host":"chi-2.us.uncletopia.com","port":27035,"enabled":true,"region":"us-central","cc":"us","latitude":41.881832,"longitude":-87.62318,"reserved":0,"last_update":"0001-01-01T00:00:00Z","name_a2s":"Uncletopia | Chicago | 7 | Stopwatch Beta","protocol":17,"map":"pl_badwater","folder":"tf","game":"Team Fortress","app_id":440,"player_count":0,"max_players":24,"Bots":0,"server_type":"Dedicated","server_os":"Linux","password":true,"vac":true,"version":"7961495","steam_id":85568392924866364,"keywords":["nocrits","nodmgspread","payload","uncletopia"],"game_id":440,"stv_port":27036,"stv_name":"Uncletopia | Chicago | 7 | Stopwatch Beta | STV","players":null},{"server_id":39,"name":"Uncletopia | Chicago | 8 | Community","name_short":"chi-8","host":"chi-2.us.uncletopia.com","port":27045,"enabled":true,"region":"us-central","cc":"us","latitude":41.881832,"longitude":-87.62318,"reserved":0,"last_update":"0001-01-01T00:00:00Z","name_a2s":"Uncletopia | Chicago | 8 | Community","protocol":17,"map":"workshop/pl_badwater_pro_v12.ugc2142942074","folder":"tf","game":"Team Fortress","app_id":440,"player_count":24,"max_players":24,"Bots":0,"server_type":"Dedicated","server_os":"Linux","password":true,"vac":true,"version":"7961495","steam_id":85568392924866365,"keywords":["nocrits","nodmgspread","payload","uncletopia"],"game_id":440,"stv_port":27046,"stv_name":"Uncletopia | Chicago | 8 | Community | STV","players":[{"user_id":46,"name":"evegioyidechadab","steam_id":76561198075991626,"connected_time":934000000000,"state":"active","ping":169},{"user_id":56,"name":"MIXERRULES | KnockBack.TV","steam_id":76561198087658491,"connected_time":50000000000,"state":"active","ping":45},{"user_id":53,"name":"Joe","steam_id":76561198247499954,"connected_time":243000000000,"state":"active","ping":65},{"user_id":8,"name":"AndrewP","steam_id":76561198991129355,"connected_time":2785000000000,"state":"active","ping":93},{"user_id":24,"name":"Master Roshi","steam_id":76561198104954286,"connected_time":1946000000000,"state":"active","ping":123},{"user_id":54,"name":"[]{}#^*+=","steam_id":76561198127039453,"connected_time":211000000000,"state":"active","ping":95},{"user_id":50,"name":"!!","steam_id":76561198042937036,"connected_time":791000000000,"state":"active","ping":60},{"user_id":45,"name":"M4bro","steam_id":76561197961297168,"connected_time":1100000000000,"state":"active","ping":84},{"user_id":52,"name":"JoeFalco","steam_id":76561198064005012,"connected_time":276000000000,"state":"active","ping":82},{"user_id":32,"name":"Quinolone","steam_id":76561198188206482,"connected_time":1636000000000,"state":"active","ping":75},{"user_id":48,"name":"Cheese_Miser_","steam_id":76561198240011418,"connected_time":823000000000,"state":"active","ping":67},{"user_id":19,"name":"GalacticHero2068","steam_id":76561199063612661,"connected_time":2254000000000,"state":"active","ping":91},{"user_id":20,"name":"summerlis","steam_id":76561198165324438,"connected_time":2200000000000,"state":"active","ping":89},{"user_id":41,"name":"submackeen","steam_id":76561198799855913,"connected_time":1356000000000,"state":"active","ping":74},{"user_id":27,"name":"Medicine Man","steam_id":76561199186496740,"connected_time":1743000000000,"state":"active","ping":85},{"user_id":51,"name":"pop7up","steam_id":76561198159869674,"connected_time":468000000000,"state":"active","ping":64},{"user_id":31,"name":"jon.cinnamon","steam_id":76561198127316418,"connected_time":1655000000000,"state":"active","ping":62},{"user_id":33,"name":"ChebJeb","steam_id":76561198981377081,"connected_time":1627000000000,"state":"active","ping":82},{"user_id":34,"name":"filthy white trash","steam_id":76561198154176367,"connected_time":1602000000000,"state":"active","ping":73},{"user_id":35,"name":"Metagamermario","steam_id":76561199417190355,"connected_time":1591000000000,"state":"active","ping":71},{"user_id":36,"name":"hammy","steam_id":76561198035751911,"connected_time":1552000000000,"state":"active","ping":69},{"user_id":55,"name":"Wengatang","steam_id":76561198021747059,"connected_time":58000000000,"state":"active","ping":44},{"user_id":38,"name":"Jrock","steam_id":76561198045715996,"connected_time":1515000000000,"state":"active","ping":93},{"user_id":39,"name":"indi","steam_id":76561198045917538,"connected_time":1498000000000,"state":"active","ping":45}]},{"server_id":8,"name":"Uncletopia | Dallas | 1 | All Maps","name_short":"dal-1","host":"dal-1.us.uncletopia.com","port":27015,"enabled":true,"region":"us-central","cc":"us","latitude":32.779167,"longitude":-96.80889,"reserved":0,"last_update":"0001-01-01T00:00:00Z","name_a2s":"Uncletopia | Dallas | 1 | All Maps","protocol":17,"map":"koth_harvest_final","folder":"tf","game":"Team Fortress","app_id":440,"player_count":24,"max_players":24,"Bots":0,"server_type":"Dedicated","server_os":"Linux","password":true,"vac":true,"version":"7961495","steam_id":85568392924469986,"keywords":["cp","nocrits","nodmgspread","uncletopia"],"game_id":440,"stv_port":27016,"stv_name":"Uncletopia | Dallas | 1 | All Maps | STV","players":[{"user_id":4,"name":"Jerk Tryhard (roleplay)","steam_id":76561199470538309,"connected_time":7914000000000,"state":"active","ping":73},{"user_id":86,"name":"jbsuperfan","steam_id":76561199003458938,"connected_time":15000000000,"state":"active","ping":106},{"user_id":6,"name":"leesh","steam_id":76561198079603938,"connected_time":7817000000000,"state":"active","ping":59},{"user_id":78,"name":"ATL1 | on my hunting trip","steam_id":76561198315341646,"connected_time":545000000000,"state":"active","ping":88},{"user_id":16,"name":"duke8714","steam_id":76561199229982201,"connected_time":6110000000000,"state":"active","ping":66},{"user_id":69,"name":"soltuno","steam_id":76561198074430565,"connected_time":1072000000000,"state":"active","ping":98},{"user_id":54,"name":"pelt","steam_id":76561197993593754,"connected_time":2745000000000,"state":"active","ping":64},{"user_id":52,"name":"Malac","steam_id":76561198004482629,"connected_time":3147000000000,"state":"active","ping":104},{"user_id":49,"name":"Themed Hat Enjoyer","steam_id":76561198047101338,"connected_time":3419000000000,"state":"active","ping":93},{"user_id":51,"name":"Outta Kenya","steam_id":76561198153604875,"connected_time":3161000000000,"state":"active","ping":73},{"user_id":75,"name":"Sleuth","steam_id":76561198418288939,"connected_time":730000000000,"state":"active","ping":101},{"user_id":59,"name":"Fred","steam_id":76561197983870604,"connected_time":2407000000000,"state":"active","ping":65},{"user_id":81,"name":"xLeoparrd","steam_id":76561198940657194,"connected_time":478000000000,"state":"active","ping":48},{"user_id":77,"name":"scout gaming","steam_id":76561199314496252,"connected_time":561000000000,"state":"active","ping":105},{"user_id":47,"name":"CheeseCake488","steam_id":76561199407617942,"connected_time":3522000000000,"state":"active","ping":100},{"user_id":76,"name":"‚òÖ ‚òÖ AL ‚òÖ ‚òÖ","steam_id":76561199020764069,"connected_time":674000000000,"state":"active","ping":111},{"user_id":74,"name":"klopse","steam_id":76561198314981454,"connected_time":746000000000,"state":"active","ping":76},{"user_id":85,"name":"!! NOT A FLYING TOY !!","steam_id":76561198069735882,"connected_time":67000000000,"state":"active","ping":75},{"user_id":66,"name":"40K","steam_id":76561198070599668,"connected_time":1772000000000,"state":"active","ping":102},{"user_id":84,"name":"Shmizzy","steam_id":76561198189418762,"connected_time":137000000000,"state":"active","ping":96},{"user_id":83,"name":"rad killl raccoon","steam_id":76561198980975595,"connected_time":343000000000,"state":"active","ping":119},{"user_id":71,"name":"FI LO","steam_id":76561198976530881,"connected_time":892000000000,"state":"active","ping":62},{"user_id":82,"name":"Tr1pleABattery","steam_id":76561198028848587,"connected_time":455000000000,"state":"active","ping":75},{"user_id":40,"name":"Ryzema","steam_id":76561198165594229,"connected_time":4599000000000,"state":"active","ping":87}]},{"server_id":108,"name":"Uncletopia | Dallas | 2 | All Maps","name_short":"dal-2","host":"dal-1.us.uncletopia.com","port":27025,"enabled":true,"region":"us-central","cc":"us","latitude":32.779167,"longitude":-96.80889,"reserved":0,"last_update":"0001-01-01T00:00:00Z","name_a2s":"Uncletopia | Dallas | 2 | All Maps","protocol":17,"map":"koth_highpass","folder":"tf","game":"Team Fortress","app_id":440,"player_count":0,"max_players":24,"Bots":0,"server_type":"Dedicated","server_os":"Linux","password":true,"vac":true,"version":"7961495","steam_id":85568392924469988,"keywords":["cp","nocrits","nodmgspread","uncletopia"],"game_id":440,"stv_port":27026,"stv_name":"Uncletopia | Dallas | 2 | All Maps | STV","players":null},{"server_id":404,"name":"Uncletopia | Dallas | 3 | All Maps","name_short":"dal-3","host":"dal-1.us.uncletopia.com","port":27035,"enabled":true,"region":"us-central","cc":"us","latitude":32.779167,"longitude":-96.80889,"reserved":0,"last_update":"0001-01-01T00:00:00Z","name_a2s":"Uncletopia | Dallas | 3 | All Maps","protocol":17,"map":"pl_frontier_final","folder":"tf","game":"Team Fortress","app_id":440,"player_count":0,"max_players":24,"Bots":0,"server_type":"Dedicated","server_os":"Linux","password":true,"vac":true,"version":"7961495","steam_id":85568392924515219,"keywords":["nocrits","nodmgspread","payload","uncletopia"],"game_id":440,"stv_port":27036,"stv_name":"Uncletopia | Dallas | 3 | All Maps | STV","players":null},{"server_id":405,"name":"Uncletopia | Dallas | 4 | Community","name_short":"dal-4","host":"dal-1.us.uncletopia.com","port":27045,"enabled":true,"region":"us-central","cc":"us","latitude":32.779167,"longitude":-96.80889,"reserved":0,"last_update":"0001-01-01T00:00:00Z","name_a2s":"Uncletopia | Dallas | 4 | Community","protocol":17,"map":"pl_badwater","folder":"tf","game":"Team Fortress","app_id":440,"player_count":0,"max_players":24,"Bots":0,"server_type":"Dedicated","server_os":"Linux","password":true,"vac":true,"version":"7961495","steam_id":85568392924515220,"keywords":["nocrits","nodmgspread","payload","uncletopia"],"game_id":440,"stv_port":27046,"stv_name":"Uncletopia | Dallas | 4 | Community | STV","players":null},{"server_id":5,"name":"Uncletopia | Frankfurt | 1 | All Maps","name_short":"frk-1","host":"frk-1.de.uncletopia.com","port":27015,"enabled":true,"region":"eu","cc":"de","latitude":50.110924,"longitude":8.682127,"reserved":0,"last_update":"0001-01-01T00:00:00Z","name_a2s":"Uncletopia | Frankfurt | 1 | All Maps","protocol":17,"map":"pl_barnblitz","folder":"tf","game":"Team Fortress","app_id":440,"player_count":24,"max_players":24,"Bots":0,"server_type":"Dedicated","server_os":"Linux","password":true,"vac":true,"version":"7961495","steam_id":85568392924469989,"keywords":["nocrits","nodmgspread","payload","uncletopia"],"game_id":440,"stv_port":27016,"stv_name":"Uncletopia | Frankfurt | 1 | All Maps | STV","players":[{"user_id":359,"name":"domek","steam_id":76561198048447632,"connected_time":1253000000000,"state":"active","ping":60},{"user_id":313,"name":"Life Symbiont","steam_id":76561198095952777,"connected_time":4013000000000,"state":"active","ping":58},{"user_id":226,"name":"vurtun","steam_id":76561198857395274,"connected_time":8163000000000,"state":"active","ping":55},{"user_id":354,"name":"Zizman","steam_id":76561198446562910,"connected_time":1347000000000,"state":"active","ping":144},{"user_id":360,"name":"MudFlap","steam_id":76561198257541676,"connected_time":1048000000000,"state":"active","ping":108},{"user_id":371,"name":"Filipesko","steam_id":76561198831347261,"connected_time":157000000000,"state":"active","ping":55},{"user_id":365,"name":"Doriian","steam_id":76561198071438810,"connected_time":394000000000,"state":"active","ping":76},{"user_id":178,"name":"Geoff the Oracle","steam_id":76561198053759965,"connected_time":12091000000000,"state":"active","ping":72},{"user_id":355,"name":"Optimist 50","steam_id":76561198039631442,"connected_time":1338000000000,"state":"active","ping":86},{"user_id":322,"name":"Gugu","steam_id":76561198161822358,"connected_time":3674000000000,"state":"active","ping":64},{"user_id":373,"name":"thorstianer","steam_id":76561199090304505,"connected_time":43000000000,"state":"active","ping":56},{"user_id":356,"name":"Spanns","steam_id":76561197998349793,"connected_time":1326000000000,"state":"active","ping":73},{"user_id":362,"name":"AWP Bodyshot :) ‚ù§","steam_id":76561198029928533,"connected_time":421000000000,"state":"active","ping":38},{"user_id":361,"name":"Kaktus_kak","steam_id":76561198250938524,"connected_time":424000000000,"state":"active","ping":59},{"user_id":333,"name":"Terminally Offline","steam_id":76561198146194820,"connected_time":2400000000000,"state":"active","ping":52},{"user_id":363,"name":"LivEssense","steam_id":76561198052476979,"connected_time":408000000000,"state":"active","ping":78},{"user_id":338,"name":"Grof Drakula","steam_id":76561198857523284,"connected_time":1878000000000,"state":"active","ping":173},{"user_id":374,"name":"neJ","steam_id":76561198003397488,"connected_time":12000000000,"state":"active","ping":74},{"user_id":372,"name":"rets","steam_id":76561198061551392,"connected_time":103000000000,"state":"active","ping":45},{"user_id":345,"name":"A.D.H.|Artem","steam_id":76561198041801369,"connected_time":1784000000000,"state":"active","ping":80},{"user_id":346,"name":"Tails8521","steam_id":76561198051747164,"connected_time":1734000000000,"state":"active","ping":60},{"user_id":370,"name":"Veir≈´ Viseris","steam_id":76561197989857176,"connected_time":229000000000,"state":"active","ping":74},{"user_id":369,"name":"Valoxi","steam_id":76561197995042938,"connected_time":272000000000,"state":"active","ping":62},{"user_id":350,"name":"HelwiiHill","steam_id":76561198066730552,"connected_time":1597000000000,"state":"active","ping":93}]},{"server_id":110,"name":"Uncletopia | Frankfurt | 2 | All Maps","name_short":"frk-2","host":"frk-1.de.uncletopia.com","port":27025,"enabled":true,"region":"eu","cc":"de","latitude":50.110924,"longitude":8.682127,"reserved":0,"last_update":"0001-01-01T00:00:00Z","name_a2s":"Uncletopia | Frankfurt | 2 | All Maps","protocol":17,"map":"pl_frontier_final","folder":"tf","game":"Team Fortress","app_id":440,"player_count":24,"max_players":24,"Bots":0,"server_type":"Dedicated","server_os":"Linux","password":true,"vac":true,"version":"7961495","steam_id":85568392924469990,"keywords":["nocrits","nodmgspread","payload","uncletopia"],"game_id":440,"stv_port":27026,"stv_name":"Uncletopia | Frankfurt | 2 | All Maps | STV","players":[{"user_id":180,"name":"Intimatt","steam_id":76561198066393546,"connected_time":337000000000,"state":"active","ping":72},{"user_id":136,"name":"shof","steam_id":76561198196671363,"connected_time":1704000000000,"state":"active","ping":114},{"user_id":182,"name":"Mr.Schnittlauch","steam_id":76561198295868113,"connected_time":181000000000,"state":"active","ping":47},{"user_id":138,"name":"BucklingPARTY34","steam_id":76561199026306287,"connected_time":1566000000000,"state":"active","ping":101},{"user_id":183,"name":"Penis Contortionist","steam_id":76561198073663784,"connected_time":146000000000,"state":"active","ping":49},{"user_id":155,"name":"przksk","steam_id":76561198450284221,"connected_time":1098000000000,"state":"active","ping":71},{"user_id":141,"name":"StandAlloy","steam_id":76561199466218699,"connected_time":1515000000000,"state":"active","ping":105},{"user_id":181,"name":"your_local_penguin","steam_id":76561199224954346,"connected_time":232000000000,"state":"active","ping":99},{"user_id":176,"name":"Krisu","steam_id":76561198158792510,"connected_time":537000000000,"state":"active","ping":86},{"user_id":165,"name":"redder","steam_id":76561198168231617,"connected_time":901000000000,"state":"active","ping":60},{"user_id":145,"name":"X-Rays","steam_id":76561199128442731,"connected_time":1363000000000,"state":"active","ping":124},{"user_id":166,"name":"Jeerven","steam_id":76561198259189841,"connected_time":845000000000,"state":"active","ping":60},{"user_id":178,"name":"Plow cheese","steam_id":76561198142478067,"connected_time":475000000000,"state":"active","ping":76},{"user_id":184,"name":"Kollegvla","steam_id":76561198058268742,"connected_time":126000000000,"state":"active","ping":55},{"user_id":149,"name":"Rengii76","steam_id":76561198869802076,"connected_time":1314000000000,"state":"active","ping":75},{"user_id":152,"name":"Nipa5000","steam_id":76561199027332005,"connected_time":1240000000000,"state":"active","ping":80},{"user_id":153,"name":"hhhhhh","steam_id":76561198031982574,"connected_time":1186000000000,"state":"active","ping":61},{"user_id":185,"name":"Kanny","steam_id":76561198058810184,"connected_time":122000000000,"state":"active","ping":59},{"user_id":163,"name":"–ë—É–±–∏—Å–ª–∞–≤ –ü–∞–ª—ã—á","steam_id":76561198161205559,"connected_time":956000000000,"state":"active","ping":92},{"user_id":186,"name":"Bill_nye","steam_id":76561199216249214,"connected_time":110000000000,"state":"active","ping":134},{"user_id":158,"name":"BallinScout","steam_id":76561198152443697,"connected_time":1052000000000,"state":"active","ping":64},{"user_id":164,"name":"Annie Wilkes","steam_id":76561198071210041,"connected_time":934000000000,"state":"active","ping":59},{"user_id":160,"name":"help c gui lib flag as trojan","steam_id":76561198845044956,"connected_time":1043000000000,"state":"active","ping":74},{"user_id":171,"name":"Basil","steam_id":76561198046832312,"connected_time":711000000000,"state":"active","ping":81}]},{"server_id":308,"name":"Uncletopia | Frankfurt | 3 | All Maps","name_short":"frk-3","host":"frk-1.de.uncletopia.com","port":27035,"enabled":true,"region":"eu","cc":"de","latitude":50.110924,"longitude":8.682127,"reserved":0,"last_update":"0001-01-01T00:00:00Z","name_a2s":"Uncletopia | Frankfurt | 3 | All Maps","protocol":17,"map":"koth_highpass","folder":"tf","game":"Team Fortress","app_id":440,"player_count":15,"max_players":24,"Bots":0,"server_type":"Dedicated","server_os":"Linux","password":true,"vac":true,"version":"7961495","steam_id":85568392924504274,"keywords":["cp","nocrits","nodmgspread","uncletopia"],"game_id":440,"stv_port":27036,"stv_name":"Uncletopia | Frankfurt | 3 | All Maps | STV","players":[{"user_id":34,"name":"hyvakii705","steam_id":76561198086630552,"connected_time":18491000000000,"state":"active","ping":104},{"user_id":288,"name":"PH4NTOMtry","steam_id":76561198979390263,"connected_time":1858000000000,"state":"active","ping":82},{"user_id":267,"name":"Pacyfista Feminista Frutarianin","steam_id":76561198435883762,"connected_time":2992000000000,"state":"active","ping":78},{"user_id":313,"name":"–ü–∏—Ö—Å–∏–ª–∏","steam_id":76561198870763698,"connected_time":1008000000000,"state":"active","ping":104},{"user_id":232,"name":"Brixlemy","steam_id":76561198222855616,"connected_time":4418000000000,"state":"active","ping":76},{"user_id":321,"name":"rabbit | trade.tf","steam_id":76561198378990855,"connected_time":159000000000,"state":"active","ping":78},{"user_id":314,"name":"FallenHerald","steam_id":76561199011720024,"connected_time":986000000000,"state":"active","ping":66},{"user_id":289,"name":"old dumpster","steam_id":76561198251951544,"connected_time":1856000000000,"state":"active","ping":135},{"user_id":293,"name":"DarkCIbrid","steam_id":76561198141270232,"connected_time":1561000000000,"state":"active","ping":60},{"user_id":316,"name":"Redmond Nagisa","steam_id":76561198339056295,"connected_time":564000000000,"state":"active","ping":66},{"user_id":279,"name":"Piox","steam_id":76561198125689157,"connected_time":2312000000000,"state":"active","ping":89},{"user_id":315,"name":"Stalin","steam_id":76561198302520466,"connected_time":804000000000,"state":"active","ping":88},{"user_id":308,"name":"JOJOJOJOJOJOJOJOJ","steam_id":76561198010189563,"connected_time":1261000000000,"state":"active","ping":62},{"user_id":280,"name":"Moiseicho45","steam_id":76561199054826363,"connected_time":2311000000000,"state":"active","ping":75},{"user_id":307,"name":"Salamdar","steam_id":76561198061910407,"connected_time":1349000000000,"state":"active","ping":47}]},{"server_id":309,"name":"Uncletopia | Frankfurt | 4 | All Maps","name_short":"frk-4","host":"frk-1.de.uncletopia.com","port":27045,"enabled":true,"region":"eu","cc":"de","latitude":50.110924,"longitude":8.682127,"reserved":0,"last_update":"0001-01-01T00:00:00Z","name_a2s":"Uncletopia | Frankfurt | 4 | All Maps","protocol":17,"map":"pl_swiftwater_final1","folder":"tf","game":"Team Fortress","app_id":440,"player_count":24,"max_players":24,"Bots":0,"server_type":"Dedicated","server_os":"Linux","password":true,"vac":true,"version":"7961495","steam_id":85568392924504275,"keywords":["nocrits","nodmgspread","payload","uncletopia"],"game_id":440,"stv_port":27046,"stv_name":"Uncletopia | Frankfurt | 4 | All Maps | STV","players":[{"user_id":211,"name":"wouris","steam_id":76561198876188003,"connected_time":1406000000000,"state":"active","ping":59},{"user_id":235,"name":"leonardini.w","steam_id":76561199097963071,"connected_time":77000000000,"state":"active","ping":79},{"user_id":189,"name":"Pico","steam_id":76561198063552545,"connected_time":3435000000000,"state":"active","ping":100},{"user_id":229,"name":"jovi_","steam_id":76561198449280552,"connected_time":225000000000,"state":"active","ping":57},{"user_id":210,"name":"Numb3r5421","steam_id":76561199183216118,"connected_time":1730000000000,"state":"active","ping":153},{"user_id":223,"name":"UNDORA","steam_id":76561198852456692,"connected_time":380000000000,"state":"active","ping":86},{"user_id":205,"name":"choob303","steam_id":76561198206375860,"connected_time":1998000000000,"state":"active","ping":66},{"user_id":227,"name":"Ash","steam_id":76561198148738525,"connected_time":272000000000,"state":"active","ping":108},{"user_id":231,"name":"MIKA","steam_id":76561198312451814,"connected_time":160000000000,"state":"active","ping":53},{"user_id":206,"name":"xavier","steam_id":76561198076494034,"connected_time":1996000000000,"state":"active","ping":52},{"user_id":212,"name":"TheEventGuy","steam_id":76561197972797744,"connected_time":1247000000000,"state":"active","ping":60},{"user_id":228,"name":"swueuws","steam_id":76561198020716743,"connected_time":261000000000,"state":"active","ping":49},{"user_id":163,"name":"guh","steam_id":76561198257158275,"connected_time":4738000000000,"state":"active","ping":140},{"user_id":224,"name":"mesŒª","steam_id":76561198324582918,"connected_time":361000000000,"state":"active","ping":102},{"user_id":179,"name":"GuSkand","steam_id":76561198043775605,"connected_time":3894000000000,"state":"active","ping":78},{"user_id":230,"name":"Master Of Noob","steam_id":76561198217926783,"connected_time":205000000000,"state":"active","ping":72},{"user_id":194,"name":"Schmack","steam_id":76561198026535437,"connected_time":3374000000000,"state":"active","ping":59},{"user_id":207,"name":"holy moly","steam_id":76561198163081194,"connected_time":1980000000000,"state":"active","ping":59},{"user_id":219,"name":"HUGO","steam_id":76561198317134996,"connected_time":413000000000,"state":"active","ping":75},{"user_id":232,"name":"-15 Social Credit","steam_id":76561199013107775,"connected_time":140000000000,"state":"active","ping":77},{"user_id":233,"name":"Amdu","steam_id":76561198939711234,"connected_time":127000000000,"state":"active","ping":102},{"user_id":217,"name":"Btek1405","steam_id":76561198174356454,"connected_time":526000000000,"state":"active","ping":78},{"user_id":234,"name":"Diggity","steam_id":76561198297157085,"connected_time":122000000000,"state":"active","ping":59},{"user_id":236,"name":"Hammer","steam_id":76561198149187199,"connected_time":48000000000,"state":"spawning","ping":120}]},{"server_id":310,"name":"Uncletopia | Frankfurt | 5 | All Maps","name_short":"frk-5","host":"frk-1.de.uncletopia.com","port":27055,"enabled":true,"region":"eu","cc":"de","latitude":50.110924,"longitude":8.682127,"reserved":0,"last_update":"0001-01-01T00:00:00Z","name_a2s":"Uncletopia | Frankfurt | 5 | All Maps","protocol":17,"map":"cp_mossrock","folder":"tf","game":"Team Fortress","app_id":440,"player_count":21,"max_players":24,"Bots":0,"server_type":"Dedicated","server_os":"Linux","password":true,"vac":true,"version":"7961495","steam_id":85568392924504277,"keywords":["cp","nocrits","nodmgspread","uncletopia"],"game_id":440,"stv_port":27056,"stv_name":"Uncletopia | Frankfurt | 5 | All Maps | STV","players":[{"user_id":44,"name":"–ë–æ–µ–≤–æ–π –∫–æ–º–∞—Ä","steam_id":76561198796564094,"connected_time":1801000000000,"state":"active","ping":80},{"user_id":9,"name":"walluu","steam_id":76561198121830870,"connected_time":3624000000000,"state":"active","ping":62},{"user_id":58,"name":"boo_thefeared","steam_id":76561198127967685,"connected_time":967000000000,"state":"active","ping":62},{"user_id":16,"name":"nemelex","steam_id":76561198958005865,"connected_time":3090000000000,"state":"active","ping":58},{"user_id":40,"name":"Nor1h_l1zard","steam_id":76561198250011918,"connected_time":2490000000000,"state":"active","ping":74},{"user_id":19,"name":"Hexagon","steam_id":76561198151205758,"connected_time":2912000000000,"state":"active","ping":44},{"user_id":56,"name":"G/3","steam_id":76561198234844188,"connected_time":996000000000,"state":"active","ping":55},{"user_id":57,"name":"Andr√°s","steam_id":76561198272546996,"connected_time":995000000000,"state":"active","ping":64},{"user_id":63,"name":"snork","steam_id":76561198138386260,"connected_time":323000000000,"state":"active","ping":61},{"user_id":66,"name":"cotroD","steam_id":76561198130063938,"connected_time":30000000000,"state":"active","ping":96},{"user_id":24,"name":"4kku","steam_id":76561198315976800,"connected_time":2765000000000,"state":"active","ping":86},{"user_id":49,"name":"Khrinde","steam_id":76561198036744526,"connected_time":1739000000000,"state":"active","ping":94},{"user_id":67,"name":"fifrok","steam_id":76561198799267621,"connected_time":28000000000,"state":"active","ping":114},{"user_id":27,"name":"√áanak yalayƒ±cƒ±","steam_id":76561198113677852,"connected_time":2743000000000,"state":"active","ping":84},{"user_id":45,"name":"Maxwell","steam_id":76561198088925893,"connected_time":1779000000000,"state":"active","ping":82},{"user_id":29,"name":"Lorenzo Lovers","steam_id":76561198073973581,"connected_time":2696000000000,"state":"active","ping":79},{"user_id":31,"name":"Wenolainen","steam_id":76561198334592800,"connected_time":2690000000000,"state":"active","ping":82},{"user_id":60,"name":"XPullaHiiri","steam_id":76561198031652375,"connected_time":535000000000,"state":"active","ping":77},{"user_id":54,"name":"T_G_G","steam_id":76561199114568070,"connected_time":1496000000000,"state":"active","ping":136},{"user_id":59,"name":"Shourai","steam_id":76561198201192634,"connected_time":964000000000,"state":"active","ping":59},{"user_id":52,"name":"Redline","steam_id":76561198336794034,"connected_time":1535000000000,"state":"active","ping":121}]},{"server_id":311,"name":"Uncletopia | Frankfurt | 6 | All Maps","name_short":"frk-6","host":"frk-1.de.uncletopia.com","port":27065,"enabled":true,"region":"eu","cc":"de","latitude":50.110924,"longitude":8.682127,"reserved":0,"last_update":"0001-01-01T00:00:00Z","name_a2s":"Uncletopia | Frankfurt | 6 | All Maps","protocol":17,"map":"koth_cascade","folder":"tf","game":"Team Fortress","app_id":440,"player_count":0,"max_players":24,"Bots":0,"server_type":"Dedicated","server_os":"Linux","password":true,"vac":true,"version":"7961495","steam_id":85568392924504278,"keywords":["cp","nocrits","nodmgspread","uncletopia"],"game_id":440,"stv_port":27066,"stv_name":"Uncletopia | Frankfurt | 6 | All Maps | STV","players":null},{"server_id":23,"name":"Uncletopia | Frankfurt | 7 | Stopwatch Beta","name_short":"frk-7","host":"frk-1.de.uncletopia.com","port":27075,"enabled":true,"region":"eu","cc":"de","latitude":50.110924,"longitude":8.682127,"reserved":0,"last_update":"0001-01-01T00:00:00Z","name_a2s":"Uncletopia | Frankfurt | 7 | Stopwatch Beta","protocol":17,"map":"pl_borneo","folder":"tf","game":"Team Fortress","app_id":440,"player_count":0,"max_players":24,"Bots":0,"server_type":"Dedicated","server_os":"Linux","password":true,"vac":true,"version":"7961495","steam_id":85568392924742827,"keywords":["nocrits","nodmgspread","payload","uncletopia"],"game_id":440,"stv_port":27076,"stv_name":"Uncletopia | Frankfurt | 7 | Stopwatch Beta | STV","players":null},{"server_id":24,"name":"Uncletopia | Frankfurt | 8 | Community","name_short":"frk-8","host":"frk-1.de.uncletopia.com","port":27085,"enabled":true,"region":"eu","cc":"de","latitude":50.110924,"longitude":8.682127,"reserved":0,"last_update":"0001-01-01T00:00:00Z","name_a2s":"Uncletopia | Frankfurt | 8 | Community","protocol":17,"map":"workshop/koth_product_final.ugc454272353","folder":"tf","game":"Team Fortress","app_id":440,"player_count":0,"max_players":24,"Bots":0,"server_type":"Dedicated","server_os":"Linux","password":true,"vac":true,"version":"7961495","steam_id":85568392924742828,"keywords":["cp","nocrits","nodmgspread","uncletopia"],"game_id":440,"stv_port":27086,"stv_name":"Uncletopia | Frankfurt | 8 | Community | STV","players":null},{"server_id":202,"name":"Uncletopia | Hong Kong | 1 | All Maps","name_short":"hgk-1","host":"hgk-1.hk.uncletopia.com","port":27015,"enabled":true,"region":"asia","cc":"hk","latitude":22.302711,"longitude":114.177216,"reserved":0,"last_update":"0001-01-01T00:00:00Z","name_a2s":"Uncletopia | Hong Kong | 1 | All Maps","protocol":17,"map":"pl_frontier_final","folder":"tf","game":"Team Fortress","app_id":440,"player_count":22,"max_players":24,"Bots":0,"server_type":"Dedicated","server_os":"Linux","password":true,"vac":true,"version":"7961495","steam_id":85568392924494504,"keywords":["nocrits","nodmgspread","payload","uncletopia"],"game_id":440,"stv_port":27016,"stv_name":"Uncletopia | Hong Kong | 1 | All Maps | STV","players":[{"user_id":425,"name":"Hor4ngi","steam_id":76561198989168133,"connected_time":731000000000,"state":"active","ping":82},{"user_id":371,"name":"TomCat","steam_id":76561198133744053,"connected_time":4780000000000,"state":"active","ping":114},{"user_id":426,"name":"JDSFE","steam_id":76561198975490851,"connected_time":709000000000,"state":"active","ping":70},{"user_id":427,"name":"t e r r i b l e  c o c k","steam_id":76561199086487373,"connected_time":696000000000,"state":"active","ping":98},{"user_id":396,"name":"ArcticDolphin","steam_id":76561198203626319,"connected_time":2446000000000,"state":"active","ping":141},{"user_id":394,"name":"mrfreeman","steam_id":76561199189735185,"connected_time":3515000000000,"state":"active","ping":74},{"user_id":433,"name":"ËóçÊòü‰∫∫„ä£Huang","steam_id":76561197979279092,"connected_time":262000000000,"state":"active","ping":82},{"user_id":345,"name":"diss","steam_id":76561199085668965,"connected_time":6740000000000,"state":"active","ping":67},{"user_id":428,"name":"Stewb","steam_id":76561198131423270,"connected_time":665000000000,"state":"active","ping":61},{"user_id":201,"name":"Milf (The fan O'Milk)","steam_id":76561198213031155,"connected_time":19888000000000,"state":"active","ping":92},{"user_id":212,"name":"p1st0n","steam_id":76561198992723983,"connected_time":17621000000000,"state":"active","ping":100},{"user_id":432,"name":"Talkk More","steam_id":76561198305424433,"connected_time":320000000000,"state":"active","ping":100},{"user_id":434,"name":"val | dragon arc","steam_id":76561198981897135,"connected_time":60000000000,"state":"active","ping":75},{"user_id":405,"name":"Pillboi","steam_id":76561198011172886,"connected_time":2141000000000,"state":"active","ping":36},{"user_id":435,"name":"ceestiar","steam_id":76561198125946388,"connected_time":44000000000,"state":"active","ping":90},{"user_id":337,"name":"nicky manage","steam_id":76561198055553140,"connected_time":7570000000000,"state":"active","ping":73},{"user_id":368,"name":"ÊØç„ÅÆËÇâÂõ£Â≠ê@hao123.com","steam_id":76561198069561896,"connected_time":5473000000000,"state":"active","ping":33},{"user_id":418,"name":"arona (devbuild v0.69.2)","steam_id":76561199487160658,"connected_time":2058000000000,"state":"spawning","ping":54},{"user_id":296,"name":"Dokutah, Husband of W","steam_id":76561199273390091,"connected_time":11810000000000,"state":"active","ping":62},{"user_id":357,"name":"As√ºra","steam_id":76561198320939701,"connected_time":6025000000000,"state":"active","ping":73},{"user_id":378,"name":"blue drink","steam_id":76561199146847474,"connected_time":4370000000000,"state":"active","ping":32},{"user_id":408,"name":"Puddin","steam_id":76561198140052918,"connected_time":2117000000000,"state":"active","ping":89}]},{"server_id":1,"name":"Uncletopia | Los Angeles | 1 | All Maps","name_short":"lax-1","host":"lax-1.us.uncletopia.com","port":27015,"enabled":true,"region":"us-west","cc":"us","latitude":33.94279,"longitude":-118.41004,"reserved":0,"last_update":"0001-01-01T00:00:00Z","name_a2s":"Uncletopia | Los Angeles | 1 | All Maps","protocol":17,"map":"cp_mountainlab","folder":"tf","game":"Team Fortress","app_id":440,"player_count":0,"max_players":24,"Bots":0,"server_type":"Dedicated","server_os":"Linux","password":true,"vac":true,"version":"7961495","steam_id":85568392924469991,"keywords":["cp","nocrits","nodmgspread","uncletopia"],"game_id":440,"stv_port":27016,"stv_name":"Uncletopia | Los Angeles | 1 | All Maps | STV","players":null},{"server_id":112,"name":"Uncletopia | Los Angeles | 2 | All Maps","name_short":"lax-2","host":"lax-1.us.uncletopia.com","port":27025,"enabled":true,"region":"us-west","cc":"us","latitude":33.94279,"longitude":-118.41004,"reserved":0,"last_update":"0001-01-01T00:00:00Z","name_a2s":"Uncletopia | Los Angeles | 2 | All Maps","protocol":17,"map":"pl_borneo","folder":"tf","game":"Team Fortress","app_id":440,"player_count":0,"max_players":24,"Bots":0,"server_type":"Dedicated","server_os":"Linux","password":true,"vac":true,"version":"7961495","steam_id":85568392924469992,"keywords":["nocrits","nodmgspread","payload","uncletopia"],"game_id":440,"stv_port":27026,"stv_name":"Uncletopia | Los Angeles | 2 | All Maps | STV","players":null},{"server_id":324,"name":"Uncletopia | Los Angeles | 3 | All Maps","name_short":"lax-3","host":"lax-1.us.uncletopia.com","port":27035,"enabled":true,"region":"us-west","cc":"us","latitude":33.94279,"longitude":-118.41004,"reserved":0,"last_update":"0001-01-01T00:00:00Z","name_a2s":"Uncletopia | Los Angeles | 3 | All Maps","protocol":17,"map":"cp_process_final","folder":"tf","game":"Team Fortress","app_id":440,"player_count":0,"max_players":24,"Bots":0,"server_type":"Dedicated","server_os":"Linux","password":true,"vac":true,"version":"7961495","steam_id":85568392924510198,"keywords":["cp","nocrits","nodmgspread","uncletopia"],"game_id":440,"stv_port":27036,"stv_name":"Uncletopia | Los Angeles | 3 | All Maps | STV","players":null},{"server_id":25,"name":"Uncletopia | Los Angeles | 4 | Stopwatch Beta","name_short":"lax-4","host":"lax-1.us.uncletopia.com","port":27045,"enabled":true,"region":"us-west","cc":"us","latitude":33.94279,"longitude":-118.41004,"reserved":0,"last_update":"0001-01-01T00:00:00Z","name_a2s":"Uncletopia | Los Angeles | 4 | Stopwatch Beta","protocol":17,"map":"pl_upward","folder":"tf","game":"Team Fortress","app_id":440,"player_count":0,"max_players":24,"Bots":0,"server_type":"Dedicated","server_os":"Linux","password":true,"vac":true,"version":"7961495","steam_id":85568392924510199,"keywords":["nocrits","nodmgspread","payload","uncletopia"],"game_id":440,"stv_port":27046,"stv_name":"Uncletopia | Los Angeles | 4 | Stopwatch Beta | STV","players":null},{"server_id":11,"name":"Uncletopia | London | 1 | All Maps","name_short":"lon-1","host":"lon-1.uk.uncletopia.com","port":27015,"enabled":true,"region":"eu","cc":"gb","latitude":51.509865,"longitude":-0.118092,"reserved":0,"last_update":"0001-01-01T00:00:00Z","name_a2s":"Uncletopia | London | 1 | All Maps","protocol":17,"map":"pl_barnblitz","folder":"tf","game":"Team Fortress","app_id":440,"player_count":23,"max_players":24,"Bots":0,"server_type":"Dedicated","server_os":"Linux","password":true,"vac":true,"version":"7961495","steam_id":85568392924367362,"keywords":["nocrits","nodmgspread","payload","uncletopia"],"game_id":440,"stv_port":27016,"stv_name":"Uncletopia | London | 1 | All Maps | STV","players":[{"user_id":271,"name":"Snake-chan","steam_id":76561199044755854,"connected_time":10429000000000,"state":"active","ping":69},{"user_id":360,"name":"Dr ADHD MD","steam_id":76561198025252995,"connected_time":3186000000000,"state":"active","ping":46},{"user_id":384,"name":"unconditional love","steam_id":76561199026097466,"connected_time":1026000000000,"state":"active","ping":68},{"user_id":304,"name":"Mr_Pulse_","steam_id":76561198095001602,"connected_time":8122000000000,"state":"active","ping":100},{"user_id":400,"name":"conehead","steam_id":76561198157984921,"connected_time":147000000000,"state":"active","ping":65},{"user_id":385,"name":"pyromaniac","steam_id":76561198292781255,"connected_time":898000000000,"state":"active","ping":79},{"user_id":391,"name":"*_Peashooter_*","steam_id":76561198851472632,"connected_time":745000000000,"state":"active","ping":59},{"user_id":356,"name":"Chef Magpie","steam_id":76561198043926401,"connected_time":3450000000000,"state":"active","ping":102},{"user_id":365,"name":"Kirby2Rosy","steam_id":76561198013115723,"connected_time":2530000000000,"state":"active","ping":53},{"user_id":386,"name":"KnugenIV","steam_id":76561198127091993,"connected_time":892000000000,"state":"active","ping":63},{"user_id":346,"name":"SuntanPikachu","steam_id":76561198121242476,"connected_time":4736000000000,"state":"active","ping":65},{"user_id":383,"name":"p!ke","steam_id":76561198416081952,"connected_time":1221000000000,"state":"active","ping":52},{"user_id":401,"name":"roham","steam_id":76561199158743877,"connected_time":139000000000,"state":"active","ping":174},{"user_id":329,"name":"hipster_doofus","steam_id":76561197970902697,"connected_time":5799000000000,"state":"active","ping":58},{"user_id":396,"name":"MiKEY","steam_id":76561198058600622,"connected_time":305000000000,"state":"active","ping":45},{"user_id":305,"name":":3","steam_id":76561198169471853,"connected_time":7946000000000,"state":"active","ping":36},{"user_id":370,"name":"Mr.O #deletesniper","steam_id":76561198039567498,"connected_time":2430000000000,"state":"active","ping":55},{"user_id":399,"name":"pavle","steam_id":76561198351777058,"connected_time":250000000000,"state":"active","ping":94},{"user_id":388,"name":"emag live","steam_id":76561198047164140,"connected_time":830000000000,"state":"active","ping":61},{"user_id":358,"name":"jermany","steam_id":76561198126599355,"connected_time":3279000000000,"state":"active","ping":36},{"user_id":371,"name":"exRage","steam_id":76561198449953655,"connected_time":2429000000000,"state":"active","ping":74},{"user_id":372,"name":"hammertime","steam_id":76561199097714393,"connected_time":2393000000000,"state":"active","ping":162},{"user_id":379,"name":"gr3821","steam_id":76561198091531010,"connected_time":1529000000000,"state":"active","ping":41}]},{"server_id":114,"name":"Uncletopia | London | 2 | All Maps","name_short":"lon-2","host":"lon-1.uk.uncletopia.com","port":27025,"enabled":true,"region":"eu","cc":"gb","latitude":51.509865,"longitude":-0.118092,"reserved":0,"last_update":"0001-01-01T00:00:00Z","name_a2s":"Uncletopia | London | 2 | All Maps","protocol":17,"map":"cp_mountainlab","folder":"tf","game":"Team Fortress","app_id":440,"player_count":24,"max_players":24,"Bots":0,"server_type":"Dedicated","server_os":"Linux","password":true,"vac":true,"version":"7961495","steam_id":85568392924470941,"keywords":["cp","nocrits","nodmgspread","uncletopia"],"game_id":440,"stv_port":27026,"stv_name":"Uncletopia | London | 2 | All Maps | STV","players":[{"user_id":307,"name":"utterly flabbergasted","steam_id":76561198027187109,"connected_time":2255000000000,"state":"active","ping":49},{"user_id":337,"name":"Liamish11","steam_id":76561198176235318,"connected_time":40000000000,"state":"active","ping":89},{"user_id":319,"name":"anaphylaxis","steam_id":76561198097396447,"connected_time":762000000000,"state":"active","ping":49},{"user_id":329,"name":"Exe_Red","steam_id":76561198154952759,"connected_time":552000000000,"state":"active","ping":90},{"user_id":323,"name":"simeswipe","steam_id":76561198188471097,"connected_time":619000000000,"state":"active","ping":80},{"user_id":295,"name":"RojLulTheFake","steam_id":76561199375831856,"connected_time":2829000000000,"state":"active","ping":112},{"user_id":334,"name":"My left foot itches","steam_id":76561198078411001,"connected_time":387000000000,"state":"active","ping":89},{"user_id":303,"name":"MaTTy","steam_id":76561198154318571,"connected_time":2425000000000,"state":"active","ping":74},{"user_id":326,"name":"Shadowwalker","steam_id":76561198344642637,"connected_time":578000000000,"state":"active","ping":160},{"user_id":316,"name":"Marabosha","steam_id":76561198137599173,"connected_time":1181000000000,"state":"active","ping":119},{"user_id":266,"name":"Rick Astley Is A F2P?","steam_id":76561199258805660,"connected_time":4665000000000,"state":"active","ping":128},{"user_id":241,"name":"AleXandriX","steam_id":76561198035203950,"connected_time":5756000000000,"state":"active","ping":64},{"user_id":338,"name":"Kiogeki","steam_id":76561197996707843,"connected_time":11000000000,"state":"spawning","ping":76},{"user_id":330,"name":"pierogi","steam_id":76561198718760200,"connected_time":530000000000,"state":"active","ping":54},{"user_id":336,"name":"Mong","steam_id":76561198254497427,"connected_time":219000000000,"state":"active","ping":49},{"user_id":311,"name":"Adam Sandler (from grown ups)","steam_id":76561199251933053,"connected_time":2210000000000,"state":"active","ping":155},{"user_id":332,"name":"Cosmetic brain","steam_id":76561198055936410,"connected_time":469000000000,"state":"active","ping":84},{"user_id":305,"name":"MaeMae","steam_id":76561198252524452,"connected_time":2389000000000,"state":"active","ping":45},{"user_id":299,"name":"Jalape√±o","steam_id":76561198113373333,"connected_time":2479000000000,"state":"active","ping":70},{"user_id":321,"name":"Dispenser(Dispenser)","steam_id":76561199211831658,"connected_time":737000000000,"state":"active","ping":62},{"user_id":318,"name":"my mom","steam_id":76561199225201569,"connected_time":845000000000,"state":"active","ping":118},{"user_id":306,"name":"gagalak","steam_id":76561198089979108,"connected_time":2363000000000,"state":"active","ping":101},{"user_id":333,"name":"someone","steam_id":76561199471582243,"connected_time":427000000000,"state":"active","ping":100},{"user_id":335,"name":"Aspxts","steam_id":76561199125254746,"connected_time":379000000000,"state":"active","ping":139}]},{"server_id":320,"name":"Uncletopia | London | 3 | All Maps","name_short":"lon-3","host":"lon-1.uk.uncletopia.com","port":27035,"enabled":true,"region":"eu","cc":"gb","latitude":51.509865,"longitude":-0.118092,"reserved":0,"last_update":"0001-01-01T00:00:00Z","name_a2s":"Uncletopia | London | 3 | All Maps","protocol":17,"map":"pl_borneo","folder":"tf","game":"Team Fortress","app_id":440,"player_count":24,"max_players":24,"Bots":0,"server_type":"Dedicated","server_os":"Linux","password":true,"vac":true,"version":"7961495","steam_id":85568392924510192,"keywords":["nocrits","nodmgspread","payload","uncletopia"],"game_id":440,"stv_port":27036,"stv_name":"Uncletopia | London | 3 | All Maps | STV","players":[{"user_id":111,"name":"NALA","steam_id":76561198039806469,"connected_time":1434000000000,"state":"active","ping":82},{"user_id":95,"name":"Luuk","steam_id":76561198088266026,"connected_time":2127000000000,"state":"active","ping":43},{"user_id":118,"name":"Kamanie","steam_id":76561198135448255,"connected_time":897000000000,"state":"active","ping":64},{"user_id":54,"name":"Eggcracker","steam_id":76561199274850641,"connected_time":4914000000000,"state":"active","ping":82},{"user_id":119,"name":"DreadAngel","steam_id":76561198049357836,"connected_time":881000000000,"state":"active","ping":56},{"user_id":126,"name":"Pronton","steam_id":76561198082502910,"connected_time":741000000000,"state":"active","ping":62},{"user_id":39,"name":"mohemmedmokhter2005","steam_id":76561199197650506,"connected_time":5722000000000,"state":"active","ping":105},{"user_id":135,"name":"SpilledMilk","steam_id":76561198174123971,"connected_time":48000000000,"state":"active","ping":70},{"user_id":107,"name":"–¥–∂–µ–≥–µ–º–∏ —Ö—ç–ø–∫–∏–Ω–≥—Å","steam_id":76561198131531394,"connected_time":1907000000000,"state":"active","ping":105},{"user_id":129,"name":"soldier","steam_id":76561198749919074,"connected_time":659000000000,"state":"active","ping":84},{"user_id":123,"name":"WolfmanCZ","steam_id":76561199157141414,"connected_time":775000000000,"state":"active","ping":76},{"user_id":133,"name":"Boki","steam_id":76561198044553351,"connected_time":348000000000,"state":"active","ping":60},{"user_id":33,"name":"quickfast","steam_id":76561199438900919,"connected_time":5976000000000,"state":"active","ping":45},{"user_id":125,"name":"WomenBeardLike","steam_id":76561198390184314,"connected_time":761000000000,"state":"active","ping":59},{"user_id":49,"name":"DrExplosive","steam_id":76561198063678579,"connected_time":5222000000000,"state":"active","ping":40},{"user_id":132,"name":"panakid","steam_id":76561198364121077,"connected_time":504000000000,"state":"active","ping":104},{"user_id":99,"name":"Xiqui","steam_id":76561198818386611,"connected_time":2088000000000,"state":"active","ping":79},{"user_id":109,"name":"fartcollector","steam_id":76561198048304703,"connected_time":1534000000000,"state":"active","ping":46},{"user_id":117,"name":"joachym","steam_id":76561198428579761,"connected_time":976000000000,"state":"active","ping":72},{"user_id":56,"name":"Wardruna96","steam_id":76561199057083828,"connected_time":4870000000000,"state":"active","ping":77},{"user_id":127,"name":"mob","steam_id":76561198099696876,"connected_time":731000000000,"state":"active","ping":75},{"user_id":110,"name":"Aarquus","steam_id":76561198006689878,"connected_time":1512000000000,"state":"active","ping":67},{"user_id":116,"name":"cynosure","steam_id":76561198121286517,"connected_time":1125000000000,"state":"active","ping":39},{"user_id":128,"name":"SaltyPig","steam_id":76561198213643013,"connected_time":728000000000,"state":"active","ping":49}]},{"server_id":321,"name":"Uncletopia | London | 4 | All Maps","name_short":"lon-4","host":"lon-1.uk.uncletopia.com","port":27045,"enabled":true,"region":"eu","cc":"gb","latitude":51.509865,"longitude":-0.118092,"reserved":0,"last_update":"0001-01-01T00:00:00Z","name_a2s":"Uncletopia | London | 4 | All Maps","protocol":17,"map":"pl_frontier_final","folder":"tf","game":"Team Fortress","app_id":440,"player_count":4,"max_players":24,"Bots":0,"server_type":"Dedicated","server_os":"Linux","password":true,"vac":true,"version":"7961495","steam_id":85568392924510193,"keywords":["nocrits","nodmgspread","payload","uncletopia"],"game_id":440,"stv_port":27046,"stv_name":"Uncletopia | London | 4 | All Maps | STV","players":[{"user_id":21,"name":"Tx_madmash","steam_id":76561198924656512,"connected_time":736000000000,"state":"active","ping":79},{"user_id":12,"name":"Certified Hood pybro (ua)","steam_id":76561198970562699,"connected_time":2719000000000,"state":"active","ping":48},{"user_id":24,"name":"MBTPROGRUSSY (REAL)","steam_id":76561199238544137,"connected_time":600000000000,"state":"active","ping":70},{"user_id":26,"name":"I-I","steam_id":76561198267969436,"connected_time":496000000000,"state":"active","ping":64}]},{"server_id":21,"name":"Uncletopia | London | 5 | All Maps","name_short":"lon-5","host":"lon-1.uk.uncletopia.com","port":27055,"enabled":true,"region":"eu","cc":"gb","latitude":51.509865,"longitude":-0.118092,"reserved":0,"last_update":"0001-01-01T00:00:00Z","name_a2s":"Uncletopia | London | 5 | All Maps","protocol":17,"map":"ctf_2fort","folder":"tf","game":"Team Fortress","app_id":440,"player_count":14,"max_players":24,"Bots":0,"server_type":"Dedicated","server_os":"Linux","password":true,"vac":true,"version":"7961495","steam_id":85568392924742829,"keywords":["ctf","nocrits","nodmgspread","uncletopia"],"game_id":440,"stv_port":27056,"stv_name":"Uncletopia | London | 5 | All Maps | STV","players":[{"user_id":296,"name":"dustbowl-n√§tverket","steam_id":76561198061248329,"connected_time":3658000000000,"state":"active","ping":71},{"user_id":325,"name":"Notnaton","steam_id":76561198057438672,"connected_time":323000000000,"state":"active","ping":101},{"user_id":294,"name":"Dr. Funkenstein","steam_id":76561197977816210,"connected_time":3761000000000,"state":"active","ping":59},{"user_id":314,"name":"w+m1","steam_id":76561198010428082,"connected_time":1345000000000,"state":"active","ping":69},{"user_id":327,"name":"Aisforlike","steam_id":76561199482110668,"connected_time":231000000000,"state":"active","ping":150},{"user_id":277,"name":"LuddeKudde","steam_id":76561198394550832,"connected_time":4290000000000,"state":"active","ping":69},{"user_id":273,"name":"Creative","steam_id":76561198835034247,"connected_time":5601000000000,"state":"active","ping":78},{"user_id":326,"name":"Barbatruc","steam_id":76561198119019916,"connected_time":319000000000,"state":"active","ping":62},{"user_id":311,"name":"Lyncurion","steam_id":76561199260022725,"connected_time":1842000000000,"state":"active","ping":84},{"user_id":286,"name":"spy among us","steam_id":76561198392537090,"connected_time":3869000000000,"state":"active","ping":63},{"user_id":234,"name":"Œ©mega","steam_id":76561198142672787,"connected_time":8937000000000,"state":"active","ping":60},{"user_id":317,"name":"YunikkoN","steam_id":76561198211962412,"connected_time":1169000000000,"state":"active","ping":94},{"user_id":316,"name":"Zaka","steam_id":76561198148434957,"connected_time":1229000000000,"state":"active","ping":86},{"user_id":293,"name":"Mymy","steam_id":76561198819871606,"connected_time":3795000000000,"state":"active","ping":93}]},{"server_id":22,"name":"Uncletopia | London | 6 | All Maps","name_short":"lon-6","host":"lon-1.uk.uncletopia.com","port":27065,"enabled":true,"region":"eu","cc":"gb","latitude":51.509865,"longitude":-0.118092,"reserved":0,"last_update":"0001-01-01T00:00:00Z","name_a2s":"Uncletopia | London | 6 | All Maps","protocol":17,"map":"pl_borneo","folder":"tf","game":"Team Fortress","app_id":440,"player_count":21,"max_players":24,"Bots":0,"server_type":"Dedicated","server_os":"Linux","password":true,"vac":true,"version":"7961495","steam_id":85568392924742830,"keywords":["nocrits","nodmgspread","payload","uncletopia"],"game_id":440,"stv_port":27066,"stv_name":"Uncletopia | London | 6 | All Maps | STV","players":[{"user_id":167,"name":"Wuffington","steam_id":76561198033762881,"connected_time":3161000000000,"state":"active","ping":34},{"user_id":16,"name":"W  A  T  E  R","steam_id":76561198069846520,"connected_time":9767000000000,"state":"active","ping":65},{"user_id":203,"name":"Kjat","steam_id":76561198839433592,"connected_time":23000000000,"state":"spawning","ping":57},{"user_id":201,"name":"com lag","steam_id":76561198019019392,"connected_time":232000000000,"state":"active","ping":50},{"user_id":182,"name":"dakotztda","steam_id":76561198044189114,"connected_time":1852000000000,"state":"active","ping":66},{"user_id":34,"name":"Bart„ÉÑ","steam_id":76561198164718893,"connected_time":7440000000000,"state":"active","ping":32},{"user_id":202,"name":"loopyloo","steam_id":76561198044306059,"connected_time":193000000000,"state":"active","ping":33},{"user_id":166,"name":"bailey","steam_id":76561198327418768,"connected_time":3229000000000,"state":"active","ping":38},{"user_id":204,"name":"Grillem Dafoe","steam_id":76561198306874574,"connected_time":15000000000,"state":"active","ping":59},{"user_id":193,"name":"bad_egg","steam_id":76561198870666753,"connected_time":714000000000,"state":"active","ping":76},{"user_id":190,"name":"cansado","steam_id":76561198003898089,"connected_time":1082000000000,"state":"active","ping":75},{"user_id":174,"name":"Juandale Dingle","steam_id":76561198156330775,"connected_time":1970000000000,"state":"active","ping":46},{"user_id":130,"name":"Ch4bby","steam_id":76561198058792875,"connected_time":4563000000000,"state":"active","ping":48},{"user_id":106,"name":"Jughead","steam_id":76561198000355410,"connected_time":5367000000000,"state":"active","ping":37},{"user_id":194,"name":"Pirkage #transrights","steam_id":76561198323002691,"connected_time":671000000000,"state":"spawning","ping":57},{"user_id":186,"name":"Jacket II #SaveTF2","steam_id":76561198297594947,"connected_time":1474000000000,"state":"active","ping":133},{"user_id":195,"name":"Ixsus\u003c3","steam_id":76561198094756869,"connected_time":665000000000,"state":"active","ping":59},{"user_id":177,"name":"jge","steam_id":76561198123186387,"connected_time":1896000000000,"state":"active","ping":48},{"user_id":200,"name":"ThePump","steam_id":76561198845710840,"connected_time":265000000000,"state":"active","ping":180},{"user_id":196,"name":"Rodia","steam_id":76561197968293161,"connected_time":662000000000,"state":"active","ping":74},{"user_id":181,"name":"Solymr ibn Wali Barad","steam_id":76561198044008976,"connected_time":1866000000000,"state":"active","ping":59}]},{"server_id":40,"name":"Uncletopia | London | 7 | No Payload","name_short":"lon-7","host":"lon-1.uk.uncletopia.com","port":27075,"enabled":true,"region":"eu","cc":"gb","latitude":51.509865,"longitude":-0.118092,"reserved":0,"last_update":"0001-01-01T00:00:00Z","name_a2s":"Uncletopia | London | 7 | No Payload","protocol":17,"map":"plr_nightfall_final","folder":"tf","game":"Team Fortress","app_id":440,"player_count":0,"max_players":24,"Bots":0,"server_type":"Dedicated","server_os":"Linux","password":true,"vac":true,"version":"7961495","steam_id":85568392924964314,"keywords":["nocrits","nodmgspread","payload","uncletopia"],"game_id":440,"stv_port":27076,"stv_name":"Uncletopia | London | 7 | No Payload | STV","players":null},{"server_id":41,"name":"Uncletopia | London | 8 | Community","name_short":"lon-8","host":"lon-1.uk.uncletopia.com","port":27085,"enabled":true,"region":"eu","cc":"gb","latitude":51.509865,"longitude":-0.118092,"reserved":0,"last_update":"0001-01-01T00:00:00Z","name_a2s":"Uncletopia | London | 8 | Community","protocol":17,"map":"workshop/cp_glacier_rc6.ugc2905735376","folder":"tf","game":"Team Fortress","app_id":440,"player_count":0,"max_players":24,"Bots":0,"server_type":"Dedicated","server_os":"Linux","password":true,"vac":true,"version":"7961495","steam_id":85568392924964315,"keywords":["cp","nocrits","nodmgspread","uncletopia"],"game_id":440,"stv_port":27086,"stv_name":"Uncletopia | London | 8 | Community | STV","players":null},{"server_id":300,"name":"Uncletopia | Montr√©al | 1 | All Maps","name_short":"mtl-1","host":"mtl-1.ca.uncletopia.com","port":27015,"enabled":true,"region":"us-east","cc":"ca","latitude":45.50889,"longitude":-73.56167,"reserved":0,"last_update":"0001-01-01T00:00:00Z","name_a2s":"","protocol":0,"map":"","folder":"","game":"","app_id":0,"player_count":21,"max_players":0,"Bots":0,"server_type":"","server_os":"","password":false,"vac":false,"version":"","steam_id":0,"keywords":null,"game_id":0,"stv_port":0,"stv_name":"","players":[{"user_id":3,"name":"Evillou","steam_id":76561198010395648,"connected_time":16799000000000,"state":"active","ping":52},{"user_id":121,"name":"KDAscarlet","steam_id":76561198041365507,"connected_time":280000000000,"state":"active","ping":131},{"user_id":110,"name":"joebot","steam_id":76561197975606100,"connected_time":1229000000000,"state":"active","ping":67},{"user_id":100,"name":"AMBVURT","steam_id":76561198910561700,"connected_time":2461000000000,"state":"active","ping":84},{"user_id":104,"name":"Yami","steam_id":76561198116546266,"connected_time":2123000000000,"state":"active","ping":51},{"user_id":71,"name":"yes daddy","steam_id":76561198166100997,"connected_time":4394000000000,"state":"active","ping":75},{"user_id":108,"name":"tsaide","steam_id":76561198384120999,"connected_time":1405000000000,"state":"active","ping":72},{"user_id":23,"name":"the last Rhode Islander","steam_id":76561198330205913,"connected_time":8499000000000,"state":"active","ping":77},{"user_id":96,"name":"ShadowWasUhOh","steam_id":76561198400361935,"connected_time":2910000000000,"state":"active","ping":79},{"user_id":75,"name":"Jango","steam_id":76561198084589742,"connected_time":4063000000000,"state":"active","ping":93},{"user_id":109,"name":"Lil Bo L33T","steam_id":76561198041843704,"connected_time":1357000000000,"state":"active","ping":73},{"user_id":103,"name":"plushie","steam_id":76561198088103572,"connected_time":2261000000000,"state":"active","ping":135},{"user_id":107,"name":"Calypso","steam_id":76561199015827567,"connected_time":1431000000000,"state":"active","ping":77},{"user_id":86,"name":"[SpaceVillain]","steam_id":76561198091162429,"connected_time":3478000000000,"state":"active","ping":55},{"user_id":119,"name":"Fredde5","steam_id":76561198102482063,"connected_time":832000000000,"state":"active","ping":139},{"user_id":122,"name":"Crouching Noob Hidden Sniper","steam_id":76561197971328473,"connected_time":278000000000,"state":"active","ping":76},{"user_id":62,"name":"freyjaaaaaaaaaaaaaaaaaaaaaaaaaa","steam_id":76561198249206656,"connected_time":5036000000000,"state":"active","ping":51},{"user_id":118,"name":"Proct","steam_id":76561198033652856,"connected_time":872000000000,"state":"active","ping":44},{"user_id":93,"name":"Uncle Corn","steam_id":76561198095887403,"connected_time":3207000000000,"state":"active","ping":64},{"user_id":120,"name":"Kataklysm","steam_id":76561199025168404,"connected_time":648000000000,"state":"active","ping":79},{"user_id":115,"name":"Nephi","steam_id":76561198031525122,"connected_time":1069000000000,"state":"active","ping":72}]},{"server_id":301,"name":"Uncletopia | Montr√©al | 2 | All Maps","name_short":"mtl-2","host":"mtl-1.ca.uncletopia.com","port":27025,"enabled":true,"region":"us-east","cc":"ca","latitude":45.50889,"longitude":-73.56167,"reserved":0,"last_update":"0001-01-01T00:00:00Z","name_a2s":"","protocol":0,"map":"","folder":"","game":"","app_id":0,"player_count":0,"max_players":0,"Bots":0,"server_type":"","server_os":"","password":false,"vac":false,"version":"","steam_id":0,"keywords":null,"game_id":0,"stv_port":0,"stv_name":"","players":null},{"server_id":302,"name":"Uncletopia | Montr√©al | 3 | All Maps","name_short":"mtl-3","host":"mtl-1.ca.uncletopia.com","port":27035,"enabled":true,"region":"us-east","cc":"ca","latitude":45.50889,"longitude":-73.56167,"reserved":0,"last_update":"0001-01-01T00:00:00Z","name_a2s":"","protocol":0,"map":"","folder":"","game":"","app_id":0,"player_count":0,"max_players":0,"Bots":0,"server_type":"","server_os":"","password":false,"vac":false,"version":"","steam_id":0,"keywords":null,"game_id":0,"stv_port":0,"stv_name":"","players":null},{"server_id":303,"name":"Uncletopia | Montr√©al | 4 | No Payload","name_short":"mtl-4","host":"mtl-1.ca.uncletopia.com","port":27045,"enabled":true,"region":"us-east","cc":"ca","latitude":45.50889,"longitude":-73.56167,"reserved":0,"last_update":"0001-01-01T00:00:00Z","name_a2s":"","protocol":0,"map":"","folder":"","game":"","app_id":0,"player_count":0,"max_players":0,"Bots":0,"server_type":"","server_os":"","password":false,"vac":false,"version":"","steam_id":0,"keywords":null,"game_id":0,"stv_port":0,"stv_name":"","players":null},{"server_id":13,"name":"Uncletopia | New York City | 1 | All Maps","name_short":"nyc-1","host":"nyc-1.us.uncletopia.com","port":27015,"enabled":true,"region":"us-east","cc":"us","latitude":40.73061,"longitude":-73.93524,"reserved":0,"last_update":"0001-01-01T00:00:00Z","name_a2s":"Uncletopia | New York City | 1 | All Maps","protocol":17,"map":"cp_dustbowl","folder":"tf","game":"Team Fortress","app_id":440,"player_count":24,"max_players":24,"Bots":0,"server_type":"Dedicated","server_os":"Linux","password":true,"vac":true,"version":"7961495","steam_id":85568392924469993,"keywords":["cp","nocrits","nodmgspread","uncletopia"],"game_id":440,"stv_port":27016,"stv_name":"Uncletopia | New York City | 1 | All Maps | STV","players":[{"user_id":32,"name":"too deep for most to understand","steam_id":76561198022636144,"connected_time":3921000000000,"state":"active","ping":53},{"user_id":33,"name":"MondoDong","steam_id":76561197991400109,"connected_time":3888000000000,"state":"active","ping":51},{"user_id":93,"name":"Bastard_Yanisaur","steam_id":76561199134114075,"connected_time":567000000000,"state":"active","ping":96},{"user_id":87,"name":"spherewithahat","steam_id":76561199122192660,"connected_time":761000000000,"state":"active","ping":57},{"user_id":60,"name":"feenman","steam_id":76561199383834799,"connected_time":2917000000000,"state":"active","ping":110},{"user_id":37,"name":"BRO_TEIN_SHAKE","steam_id":76561198035547173,"connected_time":3631000000000,"state":"active","ping":92},{"user_id":83,"name":"glass eater","steam_id":76561199229710761,"connected_time":828000000000,"state":"active","ping":60},{"user_id":91,"name":"e","steam_id":76561198137759797,"connected_time":631000000000,"state":"active","ping":107},{"user_id":70,"name":"Stryder","steam_id":76561199387418697,"connected_time":2628000000000,"state":"active","ping":100},{"user_id":95,"name":"GodOfBeefy","steam_id":76561198796420092,"connected_time":153000000000,"state":"active","ping":127},{"user_id":46,"name":"Stonks","steam_id":76561199490085068,"connected_time":3161000000000,"state":"active","ping":63},{"user_id":71,"name":"Ratimedes","steam_id":76561199083035892,"connected_time":2617000000000,"state":"active","ping":111},{"user_id":88,"name":"Estrogen Bundle","steam_id":76561198086733903,"connected_time":739000000000,"state":"active","ping":53},{"user_id":89,"name":"Rhutebeer","steam_id":76561198018302761,"connected_time":723000000000,"state":"active","ping":100},{"user_id":53,"name":"the gamer hermit crab","steam_id":76561198969402276,"connected_time":3006000000000,"state":"active","ping":60},{"user_id":58,"name":"tacofever","steam_id":76561198010966507,"connected_time":2929000000000,"state":"active","ping":113},{"user_id":82,"name":"rattlin' bog","steam_id":76561198224551028,"connected_time":1262000000000,"state":"active","ping":56},{"user_id":57,"name":"Cryonics","steam_id":76561198314197911,"connected_time":2944000000000,"state":"active","ping":70},{"user_id":78,"name":"Hope","steam_id":76561199182558088,"connected_time":1993000000000,"state":"active","ping":89},{"user_id":94,"name":"top 10 worst games #1 tf2","steam_id":76561199445629071,"connected_time":322000000000,"state":"active","ping":46},{"user_id":77,"name":"Doubie","steam_id":76561198104492019,"connected_time":2323000000000,"state":"active","ping":65},{"user_id":90,"name":"Blucario","steam_id":76561198033558515,"connected_time":703000000000,"state":"active","ping":70},{"user_id":84,"name":"Sockhead","steam_id":76561198253181773,"connected_time":828000000000,"state":"active","ping":87},{"user_id":80,"name":"saib","steam_id":76561198966980576,"connected_time":1672000000000,"state":"active","ping":43}]},{"server_id":14,"name":"Uncletopia | New York City | 2 | All Maps","name_short":"nyc-2","host":"nyc-1.us.uncletopia.com","port":27025,"enabled":true,"region":"us-east","cc":"us","latitude":40.73061,"longitude":-73.93524,"reserved":0,"last_update":"0001-01-01T00:00:00Z","name_a2s":"Uncletopia | New York City | 2 | All Maps","protocol":17,"map":"pl_pier","folder":"tf","game":"Team Fortress","app_id":440,"player_count":24,"max_players":24,"Bots":0,"server_type":"Dedicated","server_os":"Linux","password":true,"vac":true,"version":"7961495","steam_id":85568392924469994,"keywords":["nocrits","nodmgspread","payload","uncletopia"],"game_id":440,"stv_port":27026,"stv_name":"Uncletopia | New York City | 2 | All Maps | STV","players":[{"user_id":108,"name":"-Dexter-","steam_id":76561198173324789,"connected_time":162000000000,"state":"active","ping":70},{"user_id":104,"name":"stupid bastard","steam_id":76561199195104977,"connected_time":273000000000,"state":"active","ping":56},{"user_id":90,"name":"zzzPoison","steam_id":76561198302928116,"connected_time":777000000000,"state":"active","ping":75},{"user_id":94,"name":"1000 Gigglebytes of clown girls","steam_id":76561198290719848,"connected_time":601000000000,"state":"active","ping":91},{"user_id":54,"name":"Konyuna","steam_id":76561198067951988,"connected_time":4566000000000,"state":"active","ping":68},{"user_id":86,"name":"Jattiti","steam_id":76561199214217870,"connected_time":900000000000,"state":"active","ping":74},{"user_id":52,"name":"Lost","steam_id":76561198093713427,"connected_time":4582000000000,"state":"active","ping":66},{"user_id":93,"name":"the 2fort avenger","steam_id":76561199084254755,"connected_time":653000000000,"state":"active","ping":50},{"user_id":109,"name":"CuSO4","steam_id":76561199278147589,"connected_time":159000000000,"state":"active","ping":55},{"user_id":101,"name":"Butters495","steam_id":76561197998689042,"connected_time":385000000000,"state":"active","ping":69},{"user_id":102,"name":"YINGBING43","steam_id":76561198166141576,"connected_time":350000000000,"state":"active","ping":78},{"user_id":82,"name":"Wade Boggs","steam_id":76561199491889281,"connected_time":1363000000000,"state":"active","ping":68},{"user_id":43,"name":"ulti_fd","steam_id":76561198050926014,"connected_time":5455000000000,"state":"active","ping":45},{"user_id":59,"name":"Fredfredfood","steam_id":76561198072824802,"connected_time":3746000000000,"state":"active","ping":71},{"user_id":46,"name":"Yodakage Kira","steam_id":76561198440570859,"connected_time":5369000000000,"state":"active","ping":129},{"user_id":84,"name":"YourFriendJessie","steam_id":76561198176883097,"connected_time":986000000000,"state":"active","ping":44},{"user_id":96,"name":"The1douglas69","steam_id":76561199163489550,"connected_time":577000000000,"state":"active","ping":88},{"user_id":97,"name":"fear_the-penguins","steam_id":76561199013292217,"connected_time":563000000000,"state":"active","ping":56},{"user_id":30,"name":"Drygongames","steam_id":76561198250418424,"connected_time":5846000000000,"state":"active","ping":105},{"user_id":99,"name":"FilipinoBear","steam_id":76561198018604158,"connected_time":514000000000,"state":"active","ping":84},{"user_id":85,"name":"DaNuke","steam_id":76561198067866914,"connected_time":982000000000,"state":"active","ping":81},{"user_id":56,"name":"Ôº•ÔΩéÔΩÑÔΩÖÔΩíÔºÆÔΩÖÔΩÉÔΩíÔΩè","steam_id":76561198044304293,"connected_time":4187000000000,"state":"active","ping":178},{"user_id":100,"name":"off the ZAZA","steam_id":76561198327322690,"connected_time":497000000000,"state":"active","ping":55},{"user_id":107,"name":"PileofPolygons","steam_id":76561199321343460,"connected_time":195000000000,"state":"active","ping":69}]},{"server_id":15,"name":"Uncletopia | New York City | 3 | Stopwatch Beta","name_short":"nyc-3","host":"nyc-1.us.uncletopia.com","port":27035,"enabled":true,"region":"us-east","cc":"us","latitude":40.73061,"longitude":-73.93524,"reserved":0,"last_update":"0001-01-01T00:00:00Z","name_a2s":"Uncletopia | New York City | 3 | Stopwatch Beta","protocol":17,"map":"workshop/koth_product_final.ugc454272353","folder":"tf","game":"Team Fortress","app_id":440,"player_count":0,"max_players":24,"Bots":0,"server_type":"Dedicated","server_os":"Linux","password":true,"vac":true,"version":"7961495","steam_id":85568392924742820,"keywords":["cp","nocrits","nodmgspread","uncletopia"],"game_id":440,"stv_port":27036,"stv_name":"Uncletopia | New York City | 3 | Stopwatch Beta | STV","players":null},{"server_id":16,"name":"Uncletopia | New York City | 4 | Community","name_short":"nyc-4","host":"nyc-1.us.uncletopia.com","port":27045,"enabled":true,"region":"us-east","cc":"us","latitude":40.73061,"longitude":-73.93524,"reserved":0,"last_update":"0001-01-01T00:00:00Z","name_a2s":"Uncletopia | New York City | 4 | Community","protocol":17,"map":"koth_lakeside_final","folder":"tf","game":"Team Fortress","app_id":440,"player_count":0,"max_players":24,"Bots":0,"server_type":"Dedicated","server_os":"Linux","password":true,"vac":true,"version":"7961495","steam_id":85568392924742821,"keywords":["cp","nocrits","nodmgspread","uncletopia"],"game_id":440,"stv_port":27046,"stv_name":"Uncletopia | New York City | 4 | Community | STV","players":null},{"server_id":142,"name":"Uncletopia | S√£o Paulo | 1 | All Maps","name_short":"sao-1","host":"sao-1.br.uncletopia.com","port":27015,"enabled":true,"region":"sa","cc":"br","latitude":-23.533773,"longitude":-46.62529,"reserved":0,"last_update":"0001-01-01T00:00:00Z","name_a2s":"Uncletopia | S√£o Paulo | 1 | All Maps","protocol":17,"map":"koth_highpass","folder":"tf","game":"Team Fortress","app_id":440,"player_count":0,"max_players":24,"Bots":0,"server_type":"Dedicated","server_os":"Linux","password":true,"vac":true,"version":"7961495","steam_id":85568392924469996,"keywords":["cp","nocrits","nodmgspread","uncletopia"],"game_id":440,"stv_port":27016,"stv_name":"Uncletopia | S√£o Paulo | 1 | All Maps | STV","players":null},{"server_id":143,"name":"Uncletopia | S√£o Paulo | 2 | Community","name_short":"sao-2","host":"sao-2.br.uncletopia.com","port":27015,"enabled":true,"region":"sa","cc":"br","latitude":-23.533773,"longitude":-46.62529,"reserved":0,"last_update":"0001-01-01T00:00:00Z","name_a2s":"Uncletopia | S√£o Paulo | 2 | Community","protocol":17,"map":"cp_snakewater_final1","folder":"tf","game":"Team Fortress","app_id":440,"player_count":0,"max_players":24,"Bots":0,"server_type":"Dedicated","server_os":"Linux","password":true,"vac":true,"version":"7961495","steam_id":85568392924485349,"keywords":["cp","nocrits","nodmgspread","uncletopia"],"game_id":440,"stv_port":27016,"stv_name":"Uncletopia | S√£o Paulo | 2 | Community | STV","players":null},{"server_id":7,"name":"Uncletopia | Seattle | 1 | All Maps","name_short":"sea-1","host":"sea-1.us.uncletopia.com","port":27015,"enabled":true,"region":"us-west","cc":"us","latitude":47.608013,"longitude":-122.33517,"reserved":0,"last_update":"0001-01-01T00:00:00Z","name_a2s":"Uncletopia | Seattle | 1 | All Maps","protocol":17,"map":"koth_lakeside_final","folder":"tf","game":"Team Fortress","app_id":440,"player_count":0,"max_players":24,"Bots":0,"server_type":"Dedicated","server_os":"Linux","password":true,"vac":true,"version":"7961495","steam_id":85568392924469997,"keywords":["cp","nocrits","nodmgspread","uncletopia"],"game_id":440,"stv_port":27016,"stv_name":"Uncletopia | Seattle | 1 | All Maps | STV","players":null},{"server_id":119,"name":"Uncletopia | Seattle | 2 | All Maps","name_short":"sea-2","host":"sea-1.us.uncletopia.com","port":27025,"enabled":true,"region":"us-west","cc":"us","latitude":47.608013,"longitude":-122.33517,"reserved":0,"last_update":"0001-01-01T00:00:00Z","name_a2s":"Uncletopia | Seattle | 2 | All Maps","protocol":17,"map":"cp_process_final","folder":"tf","game":"Team Fortress","app_id":440,"player_count":0,"max_players":24,"Bots":0,"server_type":"Dedicated","server_os":"Linux","password":true,"vac":true,"version":"7961495","steam_id":85568392924469998,"keywords":["cp","nocrits","nodmgspread","uncletopia"],"game_id":440,"stv_port":27026,"stv_name":"Uncletopia | Seattle | 2 | All Maps | STV","players":null},{"server_id":406,"name":"Uncletopia | Seattle | 3 | Stopwatch Beta","name_short":"sea-3","host":"sea-1.us.uncletopia.com","port":27035,"enabled":true,"region":"us-west","cc":"us","latitude":47.608013,"longitude":-122.33517,"reserved":0,"last_update":"0001-01-01T00:00:00Z","name_a2s":"Uncletopia | Seattle | 3 | Stopwatch Beta","protocol":17,"map":"koth_lakeside_final","folder":"tf","game":"Team Fortress","app_id":440,"player_count":0,"max_players":24,"Bots":0,"server_type":"Dedicated","server_os":"Linux","password":true,"vac":true,"version":"7961495","steam_id":85568392924515217,"keywords":["cp","nocrits","nodmgspread","uncletopia"],"game_id":440,"stv_port":27036,"stv_name":"Uncletopia | Seattle | 3 | Stopwatch Beta | STV","players":null},{"server_id":17,"name":"Uncletopia | San Francisco | 1 | All Maps","name_short":"sfo-1","host":"sfo-1.us.uncletopia.com","port":27015,"enabled":true,"region":"us-west","cc":"us","latitude":37.77397,"longitude":-122.4313,"reserved":0,"last_update":"0001-01-01T00:00:00Z","name_a2s":"Uncletopia | San Francisco | 1 | All Maps","protocol":17,"map":"pl_snowycoast","folder":"tf","game":"Team Fortress","app_id":440,"player_count":0,"max_players":24,"Bots":0,"server_type":"Dedicated","server_os":"Linux","password":true,"vac":true,"version":"7961495","steam_id":85568392924469999,"keywords":["nocrits","nodmgspread","payload","uncletopia"],"game_id":440,"stv_port":27016,"stv_name":"Uncletopia | San Francisco | 1 | All Maps | STV","players":null},{"server_id":18,"name":"Uncletopia | San Francisco | 2 | All Maps","name_short":"sfo-2","host":"sfo-1.us.uncletopia.com","port":27025,"enabled":true,"region":"us-west","cc":"us","latitude":37.77397,"longitude":-122.4313,"reserved":0,"last_update":"0001-01-01T00:00:00Z","name_a2s":"Uncletopia | San Francisco | 2 | All Maps","protocol":17,"map":"koth_viaduct","folder":"tf","game":"Team Fortress","app_id":440,"player_count":0,"max_players":24,"Bots":0,"server_type":"Dedicated","server_os":"Linux","password":true,"vac":true,"version":"7961495","steam_id":85568392924470000,"keywords":["cp","nocrits","nodmgspread","uncletopia"],"game_id":440,"stv_port":27026,"stv_name":"Uncletopia | San Francisco | 2 | All Maps | STV","players":null},{"server_id":19,"name":"Uncletopia | San Francisco | 3 | Stopwatch Beta","name_short":"sfo-3","host":"sfo-1.us.uncletopia.com","port":27035,"enabled":true,"region":"us-west","cc":"us","latitude":37.77397,"longitude":-122.4313,"reserved":0,"last_update":"0001-01-01T00:00:00Z","name_a2s":"Uncletopia | San Francisco | 3 | Stopwatch Beta","protocol":17,"map":"pl_borneo","folder":"tf","game":"Team Fortress","app_id":440,"player_count":0,"max_players":24,"Bots":0,"server_type":"Dedicated","server_os":"Linux","password":true,"vac":true,"version":"7961495","steam_id":85568392924742824,"keywords":["nocrits","nodmgspread","payload","uncletopia"],"game_id":440,"stv_port":27036,"stv_name":"Uncletopia | San Francisco | 3 | Stopwatch Beta | STV","players":null},{"server_id":20,"name":"Uncletopia | San Francisco | 4 | Community","name_short":"sfo-4","host":"sfo-1.us.uncletopia.com","port":27045,"enabled":true,"region":"us-west","cc":"us","latitude":37.77397,"longitude":-122.4313,"reserved":0,"last_update":"0001-01-01T00:00:00Z","name_a2s":"Uncletopia | San Francisco | 4 | Community","protocol":17,"map":"koth_viaduct","folder":"tf","game":"Team Fortress","app_id":440,"player_count":0,"max_players":24,"Bots":0,"server_type":"Dedicated","server_os":"Linux","password":true,"vac":true,"version":"7961495","steam_id":85568392924742826,"keywords":["cp","nocrits","nodmgspread","uncletopia"],"game_id":440,"stv_port":27046,"stv_name":"Uncletopia | San Francisco | 4 | Community | STV","players":null},{"server_id":141,"name":"Uncletopia | Sydney | 1 | All Maps","name_short":"syd-1","host":"syd-1.au.uncletopia.com","port":27015,"enabled":true,"region":"au","cc":"au","latitude":-33.865143,"longitude":151.2099,"reserved":0,"last_update":"0001-01-01T00:00:00Z","name_a2s":"Uncletopia | Sydney | 1 | All Maps","protocol":17,"map":"koth_highpass","folder":"tf","game":"Team Fortress","app_id":440,"player_count":0,"max_players":24,"Bots":0,"server_type":"Dedicated","server_os":"Linux","password":true,"vac":true,"version":"7961495","steam_id":85568392924470001,"keywords":["cp","nocrits","nodmgspread","uncletopia"],"game_id":440,"stv_port":27016,"stv_name":"Uncletopia | Sydney | 1 | All Maps | STV","players":null},{"server_id":123,"name":"Uncletopia | Sydney | 2 | All Maps","name_short":"syd-2","host":"syd-1.au.uncletopia.com","port":27025,"enabled":true,"region":"au","cc":"au","latitude":-33.865143,"longitude":151.2099,"reserved":0,"last_update":"0001-01-01T00:00:00Z","name_a2s":"Uncletopia | Sydney | 2 | All Maps","protocol":17,"map":"pl_borneo","folder":"tf","game":"Team Fortress","app_id":440,"player_count":8,"max_players":24,"Bots":0,"server_type":"Dedicated","server_os":"Linux","password":true,"vac":true,"version":"7961495","steam_id":85568392924470002,"keywords":["nocrits","nodmgspread","payload","uncletopia"],"game_id":440,"stv_port":27026,"stv_name":"Uncletopia | Sydney | 2 | All Maps | STV","players":[{"user_id":399,"name":"Frog Friend","steam_id":76561198054505772,"connected_time":1162000000000,"state":"active","ping":56},{"user_id":406,"name":"Jeshƒ´","steam_id":76561198105982416,"connected_time":664000000000,"state":"active","ping":49},{"user_id":407,"name":"Tofu","steam_id":76561198025637573,"connected_time":186000000000,"state":"active","ping":31},{"user_id":408,"name":"Dead_Memes","steam_id":76561198948570929,"connected_time":6000000000,"state":"spawning","ping":286},{"user_id":318,"name":"‚±£êåÑ≈§êåÑ“∞","steam_id":76561199140764838,"connected_time":8124000000000,"state":"active","ping":72},{"user_id":392,"name":"wasnaj","steam_id":76561198041124433,"connected_time":1886000000000,"state":"active","ping":73},{"user_id":384,"name":"Iron Man Armored Adventures","steam_id":76561198202555552,"connected_time":2747000000000,"state":"active","ping":36},{"user_id":387,"name":"Average Mobile Gamer","steam_id":76561198089653987,"connected_time":2690000000000,"state":"active","ping":53}]},{"server_id":395,"name":"Uncletopia | Sydney | 3 | All Maps","name_short":"syd-3","host":"syd-1.au.uncletopia.com","port":27035,"enabled":true,"region":"au","cc":"au","latitude":-33.865143,"longitude":151.2099,"reserved":0,"last_update":"0001-01-01T00:00:00Z","name_a2s":"Uncletopia | Sydney | 3 | All Maps","protocol":17,"map":"cp_process_final","folder":"tf","game":"Team Fortress","app_id":440,"player_count":0,"max_players":24,"Bots":0,"server_type":"Dedicated","server_os":"Linux","password":true,"vac":true,"version":"7961495","steam_id":85568392925194467,"keywords":["cp","nocrits","nodmgspread","uncletopia"],"game_id":440,"stv_port":27036,"stv_name":"Uncletopia | Sydney | 3 | All Maps | STV","players":null},{"server_id":396,"name":"Uncletopia | Sydney | 4 | All Maps","name_short":"syd-4","host":"syd-1.au.uncletopia.com","port":27045,"enabled":true,"region":"au","cc":"au","latitude":-33.865143,"longitude":151.2099,"reserved":0,"last_update":"0001-01-01T00:00:00Z","name_a2s":"Uncletopia | Sydney | 4 | All Maps","protocol":17,"map":"koth_lakeside_final","folder":"tf","game":"Team Fortress","app_id":440,"player_count":4,"max_players":24,"Bots":0,"server_type":"Dedicated","server_os":"Linux","password":true,"vac":true,"version":"7961495","steam_id":85568392925397958,"keywords":["cp","nocrits","nodmgspread","uncletopia"],"game_id":440,"stv_port":27046,"stv_name":"Uncletopia | Sydney | 4 | All Maps | STV","players":[{"user_id":136,"name":"moosemeow","steam_id":76561198849004573,"connected_time":6290000000000,"state":"active","ping":52},{"user_id":137,"name":"Squark","steam_id":76561199117672518,"connected_time":6173000000000,"state":"active","ping":45},{"user_id":150,"name":"jesse","steam_id":76561198238031616,"connected_time":710000000000,"state":"active","ping":87},{"user_id":151,"name":"96 bars of revenge","steam_id":76561198280237790,"connected_time":415000000000,"state":"active","ping":69}]},{"server_id":58,"name":"Uncletopia | Sydney | 5 | Stopwatch Beta","name_short":"syd-5","host":"syd-1.au.uncletopia.com","port":27055,"enabled":true,"region":"au","cc":"au","latitude":-33.865143,"longitude":151.2099,"reserved":0,"last_update":"0001-01-01T00:00:00Z","name_a2s":"Uncletopia | Sydney | 5 | Stopwatch Beta","protocol":17,"map":"koth_viaduct","folder":"tf","game":"Team Fortress","app_id":440,"player_count":0,"max_players":24,"Bots":0,"server_type":"Dedicated","server_os":"Linux","password":true,"vac":true,"version":"7961495","steam_id":85568392925397959,"keywords":["cp","nocrits","nodmgspread","uncletopia"],"game_id":440,"stv_port":27056,"stv_name":"Uncletopia | Sydney | 5 | Stopwatch Beta | STV","players":null},{"server_id":59,"name":"Uncletopia | Sydney | 6 | Community","name_short":"syd-6","host":"syd-1.au.uncletopia.com","port":27065,"enabled":true,"region":"au","cc":"au","latitude":-33.865143,"longitude":151.2099,"reserved":0,"last_update":"0001-01-01T00:00:00Z","name_a2s":"Uncletopia | Sydney | 6 | Community","protocol":17,"map":"koth_cascade","folder":"tf","game":"Team Fortress","app_id":440,"player_count":0,"max_players":24,"Bots":0,"server_type":"Dedicated","server_os":"Linux","password":true,"vac":true,"version":"7961495","steam_id":85568392925397960,"keywords":["cp","nocrits","nodmgspread","uncletopia"],"game_id":440,"stv_port":27066,"stv_name":"Uncletopia | Sydney | 6 | Community | STV","players":null},{"server_id":49,"name":"Uncletopia | Warsaw | 1 | All Maps","name_short":"waw-1","host":"waw-1.pl.uncletopia.com","port":27015,"enabled":true,"region":"eu","cc":"pl","latitude":52.2297,"longitude":21.017532,"reserved":0,"last_update":"0001-01-01T00:00:00Z","name_a2s":"Uncletopia | Warsaw | 1 | All Maps","protocol":17,"map":"cp_dustbowl","folder":"tf","game":"Team Fortress","app_id":440,"player_count":0,"max_players":24,"Bots":0,"server_type":"Dedicated","server_os":"Linux","password":true,"vac":true,"version":"7961495","steam_id":85568392925397850,"keywords":["cp","nocrits","nodmgspread","uncletopia"],"game_id":440,"stv_port":27016,"stv_name":"Uncletopia | Warsaw | 1 | All Maps | STV","players":null},{"server_id":50,"name":"Uncletopia | Warsaw | 2 | All Maps","name_short":"waw-2","host":"waw-1.pl.uncletopia.com","port":27025,"enabled":true,"region":"eu","cc":"pl","latitude":52.2297,"longitude":21.017532,"reserved":0,"last_update":"0001-01-01T00:00:00Z","name_a2s":"Uncletopia | Warsaw | 2 | All Maps","protocol":17,"map":"cp_dustbowl","folder":"tf","game":"Team Fortress","app_id":440,"player_count":0,"max_players":24,"Bots":0,"server_type":"Dedicated","server_os":"Linux","password":true,"vac":true,"version":"7961495","steam_id":85568392925397851,"keywords":["cp","nocrits","nodmgspread","uncletopia"],"game_id":440,"stv_port":27026,"stv_name":"Uncletopia | Warsaw | 2 | All Maps | STV","players":null},{"server_id":51,"name":"Uncletopia | Warsaw | 3 | All Maps","name_short":"waw-3","host":"waw-1.pl.uncletopia.com","port":27035,"enabled":true,"region":"eu","cc":"pl","latitude":52.2297,"longitude":21.017532,"reserved":0,"last_update":"0001-01-01T00:00:00Z","name_a2s":"Uncletopia | Warsaw | 3 | All Maps","protocol":17,"map":"cp_dustbowl","folder":"tf","game":"Team Fortress","app_id":440,"player_count":0,"max_players":24,"Bots":0,"server_type":"Dedicated","server_os":"Linux","password":true,"vac":true,"version":"7961495","steam_id":85568392925397852,"keywords":["cp","nocrits","nodmgspread","uncletopia"],"game_id":440,"stv_port":27036,"stv_name":"Uncletopia | Warsaw | 3 | All Maps | STV","players":null},{"server_id":52,"name":"Uncletopia | Warsaw | 4 | All Maps","name_short":"waw-4","host":"waw-1.pl.uncletopia.com","port":27045,"enabled":true,"region":"eu","cc":"pl","latitude":52.2297,"longitude":21.017532,"reserved":0,"last_update":"0001-01-01T00:00:00Z","name_a2s":"Uncletopia | Warsaw | 4 | All Maps","protocol":17,"map":"koth_highpass","folder":"tf","game":"Team Fortress","app_id":440,"player_count":0,"max_players":24,"Bots":0,"server_type":"Dedicated","server_os":"Linux","password":true,"vac":true,"version":"7961495","steam_id":85568392925397853,"keywords":["cp","nocrits","nodmgspread","uncletopia"],"game_id":440,"stv_port":27046,"stv_name":"Uncletopia | Warsaw | 4 | All Maps | STV","players":null},{"server_id":53,"name":"Uncletopia | Warsaw | 5 | Stopwatch Beta","name_short":"waw-5","host":"waw-1.pl.uncletopia.com","port":27055,"enabled":true,"region":"eu","cc":"pl","latitude":52.2297,"longitude":21.017532,"reserved":0,"last_update":"0001-01-01T00:00:00Z","name_a2s":"Uncletopia | Warsaw | 5 | Stopwatch Beta","protocol":17,"map":"workshop/koth_bagel_rc6.ugc2514036946","folder":"tf","game":"Team Fortress","app_id":440,"player_count":0,"max_players":24,"Bots":0,"server_type":"Dedicated","server_os":"Linux","password":true,"vac":true,"version":"7961495","steam_id":85568392925397854,"keywords":["cp","nocrits","nodmgspread","uncletopia"],"game_id":440,"stv_port":27056,"stv_name":"Uncletopia | Warsaw | 5 | Stopwatch Beta | STV","players":null},{"server_id":54,"name":"Uncletopia | Warsaw | 6 | Community","name_short":"waw-6","host":"waw-1.pl.uncletopia.com","port":27065,"enabled":true,"region":"eu","cc":"pl","latitude":52.2297,"longitude":21.017532,"reserved":0,"last_update":"0001-01-01T00:00:00Z","name_a2s":"Uncletopia | Warsaw | 6 | Community","protocol":17,"map":"workshop/pl_boundary_final1.ugc456799153","folder":"tf","game":"Team Fortress","app_id":440,"player_count":0,"max_players":24,"Bots":0,"server_type":"Dedicated","server_os":"Linux","password":true,"vac":true,"version":"7961495","steam_id":85568392925397856,"keywords":["nocrits","nodmgspread","payload","uncletopia"],"game_id":440,"stv_port":27066,"stv_name":"Uncletopia | Warsaw | 6 | Community | STV","players":null}]}