{"status":true,"message":"","result":[{"server_id":9,"name":"Uncletopia | Atlanta | 1 | All Maps","name_short":"atl-1","host":"atl-1.us.uncletopia.com","port":27015,"enabled":true,"region":"us-east","cc":"us","latitude":33.753746,"longitude":-84.38633,"reserved":0,"last_update":"0001-01-01T00:00:00Z","name_a2s":"Uncletopia | Atlanta | 1 | All Maps","protocol":17,"map":"koth_nucleus","folder":"tf","game":"Team Fortress","app_id":440,"player_count":24,"max_players":24,"Bots":0,"server_type":"Dedicated","server_os":"Linux","password":true,"vac":true,"version":"7708610","steam_id":85568392924469982,"keywords":["cp","nocrits","nodmgspread","uncletopia"],"game_id":440,"stv_port":27016,"stv_name":"Uncletopia | Atlanta | 1 | All Maps | STV","players":[{"user_id":465,"name":"ATL1 | p4ka","steam_id":76561198315291317,"connected_time":4557000000000,"state":"active","ping":70},{"user_id":510,"name":"ATL1 | J O V A","steam_id":76561198090333536,"connected_time":369000000000,"state":"active","ping":61},{"user_id":486,"name":"DABESTIKE","steam_id":76561199025178770,"connected_time":2896000000000,"state":"active","ping":71},{"user_id":490,"name":"C papi","steam_id":76561198027779564,"connected_time":2694000000000,"state":"active","ping":50},{"user_id":502,"name":"Stampdawg","steam_id":76561198050500060,"connected_time":779000000000,"state":"active","ping":80},{"user_id":457,"name":"Abbashea","steam_id":76561199182136969,"connected_time":4669000000000,"state":"active","ping":113},{"user_id":423,"name":"Elixir","steam_id":76561198166786809,"connected_time":8353000000000,"state":"active","ping":77},{"user_id":504,"name":"rose","steam_id":76561198048882285,"connected_time":725000000000,"state":"active","ping":60},{"user_id":492,"name":"imsomeotherguy","steam_id":76561199140899863,"connected_time":2642000000000,"state":"active","ping":70},{"user_id":481,"name":"jpuck","steam_id":76561198025018960,"connected_time":3326000000000,"state":"active","ping":50},{"user_id":476,"name":"sansa musa","steam_id":76561198163723555,"connected_time":3835000000000,"state":"active","ping":75},{"user_id":426,"name":"ATL1 | a very merry ma0re","steam_id":76561199231971506,"connected_time":7539000000000,"state":"active","ping":66},{"user_id":505,"name":"Greg","steam_id":76561198880573799,"connected_time":724000000000,"state":"active","ping":97},{"user_id":512,"name":"HARRY","steam_id":76561198842067238,"connected_time":125000000000,"state":"active","ping":60},{"user_id":498,"name":"ATL1 | Lancer Fan Club","steam_id":76561198355495948,"connected_time":1109000000000,"state":"active","ping":84},{"user_id":506,"name":"ItsThatBear","steam_id":76561198169617659,"connected_time":724000000000,"state":"active","ping":99},{"user_id":496,"name":"Expert Scrunger","steam_id":76561198799293845,"connected_time":1288000000000,"state":"active","ping":93},{"user_id":495,"name":"obamiun","steam_id":76561199121276474,"connected_time":2199000000000,"state":"active","ping":144},{"user_id":458,"name":"--_Cook_--","steam_id":76561198080855748,"connected_time":4668000000000,"state":"active","ping":45},{"user_id":478,"name":"V!CT!M","steam_id":76561198962721502,"connected_time":3337000000000,"state":"active","ping":85},{"user_id":376,"name":"ATL1 | Phestive Pango","steam_id":76561198069811545,"connected_time":12422000000000,"state":"active","ping":45},{"user_id":514,"name":"RedNax","steam_id":76561198427967575,"connected_time":74000000000,"state":"active","ping":104},{"user_id":480,"name":"Amaretto Sour","steam_id":76561198063112844,"connected_time":3334000000000,"state":"active","ping":82},{"user_id":459,"name":"SnowStorm","steam_id":76561198095817025,"connected_time":4666000000000,"state":"active","ping":39}]},{"server_id":400,"name":"Uncletopia | Atlanta | 3 | All Maps","name_short":"atl-3","host":"atl-1.us.uncletopia.com","port":27035,"enabled":true,"region":"us-east","cc":"us","latitude":33.753746,"longitude":-84.38633,"reserved":0,"last_update":"0001-01-01T00:00:00Z","name_a2s":"Uncletopia | Atlanta | 3 | All Maps","protocol":17,"map":"pl_frontier_final","folder":"tf","game":"Team Fortress","app_id":440,"player_count":24,"max_players":24,"Bots":0,"server_type":"Dedicated","server_os":"Linux","password":true,"vac":true,"version":"7708610","steam_id":85568392924515187,"keywords":["nocrits","nodmgspread","payload","uncletopia"],"game_id":440,"stv_port":27036,"stv_name":"Uncletopia | Atlanta | 3 | All Maps | STV","players":[{"user_id":250,"name":"Evil Pipo","steam_id":76561198171466414,"connected_time":4127000000000,"state":"active","ping":94},{"user_id":268,"name":"can i have some ice cream","steam_id":76561198029318657,"connected_time":2587000000000,"state":"active","ping":60},{"user_id":295,"name":"Inky (Coolest)","steam_id":76561198968337022,"connected_time":311000000000,"state":"active","ping":59},{"user_id":213,"name":"no fun allowed","steam_id":76561198023888890,"connected_time":7888000000000,"state":"active","ping":75},{"user_id":269,"name":"Smelowskia","steam_id":76561198084251115,"connected_time":2584000000000,"state":"active","ping":69},{"user_id":298,"name":"sketchesgallore","steam_id":76561198331254794,"connected_time":232000000000,"state":"active","ping":116},{"user_id":239,"name":"Huge","steam_id":76561199030987614,"connected_time":5455000000000,"state":"active","ping":107},{"user_id":297,"name":"marlex20","steam_id":76561198043779844,"connected_time":260000000000,"state":"active","ping":79},{"user_id":283,"name":"Go Away","steam_id":76561199213453506,"connected_time":1336000000000,"state":"active","ping":103},{"user_id":299,"name":"BigPepperoni","steam_id":76561198891731663,"connected_time":220000000000,"state":"active","ping":76},{"user_id":291,"name":"Pills","steam_id":76561198799440163,"connected_time":1163000000000,"state":"active","ping":93},{"user_id":257,"name":"wes","steam_id":76561198273536400,"connected_time":3762000000000,"state":"active","ping":71},{"user_id":290,"name":"hi","steam_id":76561198378775945,"connected_time":1190000000000,"state":"active","ping":56},{"user_id":300,"name":"Aggressive Expansion","steam_id":76561198060029617,"connected_time":170000000000,"state":"active","ping":44},{"user_id":211,"name":"Snazzi","steam_id":76561198085208276,"connected_time":7898000000000,"state":"active","ping":75},{"user_id":282,"name":"Mr.Oxiclean","steam_id":76561198144729009,"connected_time":1531000000000,"state":"active","ping":61},{"user_id":301,"name":"Xx_True gamer_xX","steam_id":76561199210541615,"connected_time":155000000000,"state":"active","ping":65},{"user_id":261,"name":"Pablo Sanchez","steam_id":76561198031368462,"connected_time":3609000000000,"state":"active","ping":79},{"user_id":303,"name":"1rampart","steam_id":76561198872251615,"connected_time":118000000000,"state":"active","ping":49},{"user_id":243,"name":"Radical Centrist","steam_id":76561198071883643,"connected_time":5393000000000,"state":"active","ping":71},{"user_id":305,"name":"Ghost of pl_frontier","steam_id":76561198040444697,"connected_time":68000000000,"state":"active","ping":65},{"user_id":306,"name":"Firesword495","steam_id":76561199174342673,"connected_time":67000000000,"state":"active","ping":67},{"user_id":307,"name":"¬øskitt1eS?","steam_id":76561198330093211,"connected_time":59000000000,"state":"active","ping":48},{"user_id":296,"name":"Fausto Murillo","steam_id":76561198936120487,"connected_time":311000000000,"state":"active","ping":127}]},{"server_id":401,"name":"Uncletopia | Atlanta | 4 | No Payload","name_short":"atl-4","host":"atl-1.us.uncletopia.com","port":27045,"enabled":true,"region":"us-east","cc":"us","latitude":33.753746,"longitude":-84.38633,"reserved":0,"last_update":"0001-01-01T00:00:00Z","name_a2s":"Uncletopia | Atlanta | 4 | No Payload","protocol":17,"map":"plr_pipeline","folder":"tf","game":"Team Fortress","app_id":440,"player_count":0,"max_players":24,"Bots":0,"server_type":"Dedicated","server_os":"Linux","password":true,"vac":true,"version":"7708610","steam_id":85568392924515188,"keywords":["nocrits","nodmgspread","payload","uncletopia"],"game_id":440,"stv_port":27046,"stv_name":"Uncletopia | Atlanta | 4 | No Payload | STV","players":null},{"server_id":2,"name":"Uncletopia | Chicago | 1 | All Maps","name_short":"chi-1","host":"chi-1.us.uncletopia.com","port":27015,"enabled":true,"region":"us-central","cc":"us","latitude":41.881832,"longitude":-87.62318,"reserved":0,"last_update":"0001-01-01T00:00:00Z","name_a2s":"Uncletopia | Chicago | 1 | All Maps","protocol":17,"map":"pl_borneo","folder":"tf","game":"Team Fortress","app_id":440,"player_count":25,"max_players":24,"Bots":0,"server_type":"Dedicated","server_os":"Linux","password":true,"vac":true,"version":"7708610","steam_id":85568392924469984,"keywords":["nocrits","nodmgspread","payload","uncletopia"],"game_id":440,"stv_port":27016,"stv_name":"Uncletopia | Chicago | 1 | All Maps | STV","players":[{"user_id":629,"name":"silly","steam_id":76561199009200975,"connected_time":4085000000000,"state":"active","ping":76},{"user_id":659,"name":"YourDom","steam_id":76561198451730653,"connected_time":1306000000000,"state":"active","ping":64},{"user_id":666,"name":"j4miecl4rk","steam_id":76561198404312721,"connected_time":1128000000000,"state":"active","ping":50},{"user_id":662,"name":"The Engie","steam_id":76561198049418537,"connected_time":1200000000000,"state":"active","ping":77},{"user_id":640,"name":"Pigzilla","steam_id":76561198373968267,"connected_time":3160000000000,"state":"active","ping":61},{"user_id":664,"name":"I'm Only 4 Inches","steam_id":76561198055542546,"connected_time":1165000000000,"state":"active","ping":47},{"user_id":672,"name":"floof","steam_id":76561198167756375,"connected_time":170000000000,"state":"active","ping":93},{"user_id":653,"name":"√íw√ì","steam_id":76561197997304387,"connected_time":2114000000000,"state":"active","ping":76},{"user_id":647,"name":"John Darksoul","steam_id":76561198031675881,"connected_time":2626000000000,"state":"active","ping":47},{"user_id":665,"name":"Hylic","steam_id":76561199051314589,"connected_time":1140000000000,"state":"active","ping":63},{"user_id":663,"name":"Probably Aleks","steam_id":76561199106731358,"connected_time":1169000000000,"state":"active","ping":66},{"user_id":639,"name":"Jetcom10","steam_id":76561198076388168,"connected_time":3254000000000,"state":"active","ping":69},{"user_id":671,"name":"Dev","steam_id":76561198066956277,"connected_time":234000000000,"state":"active","ping":71},{"user_id":588,"name":"Mr.ToasterOven","steam_id":76561199120586450,"connected_time":6301000000000,"state":"active","ping":50},{"user_id":661,"name":"Evil clown","steam_id":76561199229169396,"connected_time":1264000000000,"state":"active","ping":62},{"user_id":626,"name":"GoPlayPC","steam_id":76561199017636549,"connected_time":4153000000000,"state":"active","ping":63},{"user_id":667,"name":"girlboss","steam_id":76561197989019617,"connected_time":1125000000000,"state":"active","ping":49},{"user_id":670,"name":"ASadTeddyBear","steam_id":76561198968206673,"connected_time":1044000000000,"state":"active","ping":78},{"user_id":562,"name":"Zeora","steam_id":76561198799145251,"connected_time":8100000000000,"state":"active","ping":74},{"user_id":611,"name":"Droop","steam_id":76561198856700517,"connected_time":4767000000000,"state":"active","ping":51},{"user_id":669,"name":"There must be those who remembe","steam_id":76561198286792807,"connected_time":1103000000000,"state":"active","ping":64},{"user_id":636,"name":"Cinnabun","steam_id":76561198155346702,"connected_time":3327000000000,"state":"active","ping":69},{"user_id":673,"name":"Lia_Reindeer","steam_id":76561198151569597,"connected_time":72000000000,"state":"active","ping":146},{"user_id":617,"name":"Pie","steam_id":76561198054721133,"connected_time":4536000000000,"state":"active","ping":90},{"user_id":642,"name":"jingle.JIFF","steam_id":76561198045181760,"connected_time":3102000000000,"state":"active","ping":55}]},{"server_id":106,"name":"Uncletopia | Chicago | 2 | All Maps","name_short":"chi-2","host":"chi-1.us.uncletopia.com","port":27025,"enabled":true,"region":"us-central","cc":"us","latitude":41.881832,"longitude":-87.62318,"reserved":0,"last_update":"0001-01-01T00:00:00Z","name_a2s":"Uncletopia | Chicago | 2 | All Maps","protocol":17,"map":"cp_coldfront","folder":"tf","game":"Team Fortress","app_id":440,"player_count":23,"max_players":24,"Bots":0,"server_type":"Dedicated","server_os":"Linux","password":true,"vac":true,"version":"7708610","steam_id":85568392924469985,"keywords":["cp","nocrits","nodmgspread","uncletopia"],"game_id":440,"stv_port":27026,"stv_name":"Uncletopia | Chicago | 2 | All Maps | STV","players":[{"user_id":396,"name":"xxashketchup712","steam_id":76561198067232540,"connected_time":2914000000000,"state":"active","ping":74},{"user_id":432,"name":"Fabydoi","steam_id":76561199146674144,"connected_time":223000000000,"state":"active","ping":78},{"user_id":433,"name":"freestyla","steam_id":76561198828549499,"connected_time":163000000000,"state":"active","ping":106},{"user_id":419,"name":"Kamin","steam_id":76561198255299559,"connected_time":1198000000000,"state":"active","ping":83},{"user_id":436,"name":"Scum Knight","steam_id":76561198282444763,"connected_time":93000000000,"state":"active","ping":62},{"user_id":420,"name":"üê∫-Iwky-ü¶ä","steam_id":76561198185616311,"connected_time":1172000000000,"state":"active","ping":86},{"user_id":428,"name":"Feels like summer","steam_id":76561199067402431,"connected_time":651000000000,"state":"active","ping":81},{"user_id":434,"name":"Q","steam_id":76561198983847352,"connected_time":152000000000,"state":"active","ping":60},{"user_id":435,"name":"user interface","steam_id":76561198049238840,"connected_time":107000000000,"state":"active","ping":75},{"user_id":427,"name":"Merry Math #PLAYOFFSMODE","steam_id":76561198053967778,"connected_time":677000000000,"state":"active","ping":54},{"user_id":313,"name":"stop","steam_id":76561198268686419,"connected_time":7343000000000,"state":"active","ping":52},{"user_id":437,"name":"Dealyo","steam_id":76561198282395338,"connected_time":84000000000,"state":"active","ping":84},{"user_id":431,"name":"Birds1Œ©6","steam_id":76561198819495676,"connected_time":273000000000,"state":"active","ping":67},{"user_id":438,"name":"ur a weeeeeeeiner","steam_id":76561198083798918,"connected_time":82000000000,"state":"active","ping":63},{"user_id":430,"name":"AaroWill | Save TF2","steam_id":76561198066595014,"connected_time":312000000000,"state":"active","ping":105},{"user_id":400,"name":"023e20902o0239ee02390o239e","steam_id":76561198175741741,"connected_time":2882000000000,"state":"active","ping":75},{"user_id":425,"name":"trees","steam_id":76561198140694544,"connected_time":906000000000,"state":"active","ping":47},{"user_id":426,"name":"GrooveTrain","steam_id":76561198026668432,"connected_time":848000000000,"state":"active","ping":101},{"user_id":411,"name":"Hawkborne","steam_id":76561198107249245,"connected_time":1898000000000,"state":"active","ping":62},{"user_id":405,"name":"jodie.blend","steam_id":76561198140701807,"connected_time":2288000000000,"state":"active","ping":72},{"user_id":407,"name":"coal","steam_id":76561198027252280,"connected_time":2015000000000,"state":"active","ping":53},{"user_id":440,"name":"boo_thefeared","steam_id":76561198127967685,"connected_time":56000000000,"state":"active","ping":127},{"user_id":403,"name":"Steve Jobs' cousin Hand Jobs","steam_id":76561198282766831,"connected_time":2553000000000,"state":"active","ping":40}]},{"server_id":402,"name":"Uncletopia | Chicago | 3 | All Maps","name_short":"chi-3","host":"chi-1.us.uncletopia.com","port":27035,"enabled":true,"region":"us-central","cc":"us","latitude":41.881832,"longitude":-87.62318,"reserved":0,"last_update":"0001-01-01T00:00:00Z","name_a2s":"Uncletopia | Chicago | 3 | All Maps","protocol":17,"map":"cp_sunshine","folder":"tf","game":"Team Fortress","app_id":440,"player_count":18,"max_players":24,"Bots":0,"server_type":"Dedicated","server_os":"Linux","password":true,"vac":true,"version":"7708610","steam_id":85568392924515191,"keywords":["cp","nocrits","nodmgspread","uncletopia"],"game_id":440,"stv_port":27036,"stv_name":"Uncletopia | Chicago | 3 | All Maps | STV","players":[{"user_id":203,"name":"The Animated Gamer","steam_id":76561198120639995,"connected_time":2708000000000,"state":"active","ping":93},{"user_id":222,"name":"Hell's Reindeer","steam_id":76561198065310364,"connected_time":891000000000,"state":"active","ping":52},{"user_id":225,"name":"Boggerung","steam_id":76561198111417325,"connected_time":476000000000,"state":"active","ping":58},{"user_id":211,"name":"Michaelpc1","steam_id":76561198088365519,"connected_time":1888000000000,"state":"active","ping":75},{"user_id":212,"name":"RIT Obelix","steam_id":76561198274715109,"connected_time":1764000000000,"state":"active","ping":47},{"user_id":201,"name":"EPICAlbert777","steam_id":76561198093718909,"connected_time":3078000000000,"state":"active","ping":77},{"user_id":176,"name":"SSBM Pelican","steam_id":76561198040697907,"connected_time":4132000000000,"state":"active","ping":74},{"user_id":214,"name":"Smart Guy","steam_id":76561199027006151,"connected_time":1724000000000,"state":"active","ping":105},{"user_id":230,"name":"Zeadros","steam_id":76561198170158482,"connected_time":118000000000,"state":"active","ping":50},{"user_id":229,"name":"RaixaR","steam_id":76561198025289430,"connected_time":253000000000,"state":"active","ping":71},{"user_id":179,"name":"Soap Man","steam_id":76561198000490235,"connected_time":3854000000000,"state":"spawning","ping":117},{"user_id":216,"name":"garfield","steam_id":76561198114119308,"connected_time":1691000000000,"state":"active","ping":57},{"user_id":207,"name":"poobis-130 inbound","steam_id":76561198123287268,"connected_time":2196000000000,"state":"active","ping":45},{"user_id":217,"name":"NotDarkquez","steam_id":76561199022954754,"connected_time":1688000000000,"state":"active","ping":105},{"user_id":145,"name":"Furious George","steam_id":76561198405111646,"connected_time":5766000000000,"state":"active","ping":87},{"user_id":227,"name":"Kartyac","steam_id":76561197991069005,"connected_time":439000000000,"state":"active","ping":75},{"user_id":220,"name":"Hobocop","steam_id":76561198076321907,"connected_time":1654000000000,"state":"active","ping":68},{"user_id":224,"name":"jimmie","steam_id":76561198042583389,"connected_time":876000000000,"state":"active","ping":59}]},{"server_id":403,"name":"Uncletopia | Chicago | 4 | All Maps","name_short":"chi-4","host":"chi-1.us.uncletopia.com","port":27045,"enabled":true,"region":"us-central","cc":"us","latitude":41.881832,"longitude":-87.62318,"reserved":0,"last_update":"0001-01-01T00:00:00Z","name_a2s":"Uncletopia | Chicago | 4 | All Maps","protocol":17,"map":"pl_thundermountain","folder":"tf","game":"Team Fortress","app_id":440,"player_count":24,"max_players":24,"Bots":0,"server_type":"Dedicated","server_os":"Linux","password":true,"vac":true,"version":"7708610","steam_id":85568392924515193,"keywords":["nocrits","nodmgspread","payload","uncletopia"],"game_id":440,"stv_port":27046,"stv_name":"Uncletopia | Chicago | 4 | All Maps | STV","players":[{"user_id":187,"name":"coffee bagel","steam_id":76561198141198352,"connected_time":6000000000,"state":"spawning","ping":45},{"user_id":183,"name":"bimbo blow up doll! \u003c3","steam_id":76561198959541006,"connected_time":229000000000,"state":"active","ping":70},{"user_id":116,"name":"Manlymedic45","steam_id":76561199379376478,"connected_time":6258000000000,"state":"active","ping":139},{"user_id":137,"name":"Andrestor","steam_id":76561198005934930,"connected_time":3464000000000,"state":"active","ping":123},{"user_id":168,"name":"lokm","steam_id":76561198030374238,"connected_time":1834000000000,"state":"active","ping":108},{"user_id":182,"name":"Normalux","steam_id":76561198293891426,"connected_time":442000000000,"state":"active","ping":71},{"user_id":130,"name":"Kinbo2487","steam_id":76561198184714198,"connected_time":4234000000000,"state":"active","ping":65},{"user_id":82,"name":"A Hard Boiled Egg","steam_id":76561197979078330,"connected_time":8214000000000,"state":"active","ping":60},{"user_id":125,"name":"Rukks","steam_id":76561197993918954,"connected_time":4933000000000,"state":"active","ping":66},{"user_id":186,"name":"a real gummy krabby patty","steam_id":76561198238842076,"connected_time":126000000000,"state":"active","ping":75},{"user_id":157,"name":"idiot","steam_id":76561198270926835,"connected_time":3070000000000,"state":"active","ping":97},{"user_id":177,"name":"Rein","steam_id":76561198300340427,"connected_time":987000000000,"state":"active","ping":61},{"user_id":165,"name":"Ask Nicely For Heals","steam_id":76561198138478907,"connected_time":2263000000000,"state":"active","ping":49},{"user_id":178,"name":"minion from minions","steam_id":76561199001464827,"connected_time":954000000000,"state":"active","ping":81},{"user_id":179,"name":"Goatking","steam_id":76561198068447650,"connected_time":918000000000,"state":"active","ping":69},{"user_id":84,"name":"Fuzzy Toast","steam_id":76561198028067781,"connected_time":8209000000000,"state":"active","ping":45},{"user_id":134,"name":"parm spagert with bassil","steam_id":76561198047476380,"connected_time":4025000000000,"state":"active","ping":59},{"user_id":154,"name":"PopTartHadouken","steam_id":76561198200397882,"connected_time":3131000000000,"state":"active","ping":84},{"user_id":176,"name":"Corbe","steam_id":76561198353893927,"connected_time":1534000000000,"state":"active","ping":44},{"user_id":180,"name":"DSM-IVCE","steam_id":76561199438515797,"connected_time":662000000000,"state":"active","ping":127},{"user_id":173,"name":"Venk","steam_id":76561198251131422,"connected_time":1816000000000,"state":"active","ping":65},{"user_id":119,"name":"Ford Truck Gaming","steam_id":76561199042674833,"connected_time":6102000000000,"state":"active","ping":83},{"user_id":185,"name":"i pee nickels","steam_id":76561199391938046,"connected_time":178000000000,"state":"active","ping":118},{"user_id":131,"name":"Pierce","steam_id":76561198043747953,"connected_time":4211000000000,"state":"active","ping":62}]},{"server_id":36,"name":"Uncletopia | Chicago | 5 | All Maps","name_short":"chi-5","host":"chi-2.us.uncletopia.com","port":27015,"enabled":true,"region":"us-central","cc":"us","latitude":41.881832,"longitude":-87.62318,"reserved":0,"last_update":"0001-01-01T00:00:00Z","name_a2s":"Uncletopia | Chicago | 5 | All Maps","protocol":17,"map":"koth_cascade","folder":"tf","game":"Team Fortress","app_id":440,"player_count":0,"max_players":24,"Bots":0,"server_type":"Dedicated","server_os":"Linux","password":true,"vac":true,"version":"7708610","steam_id":85568392924866362,"keywords":["cp","nocrits","nodmgspread","uncletopia"],"game_id":440,"stv_port":27016,"stv_name":"Uncletopia | Chicago | 5 | All Maps | STV","players":null},{"server_id":37,"name":"Uncletopia | Chicago | 6 | All Maps","name_short":"chi-6","host":"chi-2.us.uncletopia.com","port":27025,"enabled":true,"region":"us-central","cc":"us","latitude":41.881832,"longitude":-87.62318,"reserved":0,"last_update":"0001-01-01T00:00:00Z","name_a2s":"Uncletopia | Chicago | 6 | All Maps","protocol":17,"map":"koth_cascade","folder":"tf","game":"Team Fortress","app_id":440,"player_count":1,"max_players":24,"Bots":0,"server_type":"Dedicated","server_os":"Linux","password":true,"vac":true,"version":"7708610","steam_id":85568392924866363,"keywords":["cp","nocrits","nodmgspread","uncletopia"],"game_id":440,"stv_port":0,"stv_name":"","players":[{"user_id":7,"name":"ShnowyFox","steam_id":76561199443069736,"connected_time":208000000000,"state":"active","ping":94}]},{"server_id":38,"name":"Uncletopia | Chicago | 7 | No Payload","name_short":"chi-7","host":"chi-2.us.uncletopia.com","port":27035,"enabled":true,"region":"us-central","cc":"us","latitude":41.881832,"longitude":-87.62318,"reserved":0,"last_update":"0001-01-01T00:00:00Z","name_a2s":"Uncletopia | Chicago | 7 | No Payload","protocol":17,"map":"cp_snakewater_final1","folder":"tf","game":"Team Fortress","app_id":440,"player_count":24,"max_players":24,"Bots":0,"server_type":"Dedicated","server_os":"Linux","password":true,"vac":true,"version":"7708610","steam_id":85568392924866364,"keywords":["cp","nocrits","nodmgspread","uncletopia"],"game_id":440,"stv_port":27036,"stv_name":"Uncletopia | Chicago | 7 | No Payload | STV","players":[{"user_id":88,"name":"OlympicChamp_12 | Trade.tf","steam_id":76561198830574526,"connected_time":1509000000000,"state":"active","ping":87},{"user_id":85,"name":"FX","steam_id":76561198096889040,"connected_time":1623000000000,"state":"active","ping":63},{"user_id":80,"name":"Predicta","steam_id":76561198017630616,"connected_time":1955000000000,"state":"active","ping":45},{"user_id":94,"name":"Shmlorp","steam_id":76561198422064701,"connected_time":1195000000000,"state":"active","ping":68},{"user_id":86,"name":"Cuttle's Fish","steam_id":76561198280483257,"connected_time":1595000000000,"state":"active","ping":55},{"user_id":87,"name":"Crunchy","steam_id":76561198060342804,"connected_time":1549000000000,"state":"active","ping":67},{"user_id":89,"name":"BIGGEST MAC","steam_id":76561198847517098,"connected_time":1420000000000,"state":"active","ping":80},{"user_id":90,"name":"ToeSniffer1992","steam_id":76561199134895220,"connected_time":1390000000000,"state":"active","ping":68},{"user_id":95,"name":"Kuyumiester","steam_id":76561198126835302,"connected_time":1192000000000,"state":"active","ping":62},{"user_id":113,"name":"High Cotton","steam_id":76561197998894854,"connected_time":417000000000,"state":"active","ping":152},{"user_id":109,"name":"Slashuur","steam_id":76561198157385316,"connected_time":870000000000,"state":"active","ping":75},{"user_id":93,"name":"Hans","steam_id":76561199389730972,"connected_time":1264000000000,"state":"active","ping":74},{"user_id":84,"name":"Artorias","steam_id":76561199251457584,"connected_time":1876000000000,"state":"active","ping":99},{"user_id":96,"name":"SkyBlueSlimes","steam_id":76561199165940442,"connected_time":1186000000000,"state":"active","ping":61},{"user_id":108,"name":"N0xferatu","steam_id":76561198013225832,"connected_time":891000000000,"state":"active","ping":81},{"user_id":98,"name":"orachs","steam_id":76561199129715164,"connected_time":1180000000000,"state":"active","ping":63},{"user_id":99,"name":"Brittle Struggler","steam_id":76561198131737800,"connected_time":1157000000000,"state":"active","ping":89},{"user_id":100,"name":"FashionableBloodfallen","steam_id":76561198179192994,"connected_time":1135000000000,"state":"active","ping":113},{"user_id":101,"name":"DeadHappy","steam_id":76561198378132188,"connected_time":1122000000000,"state":"active","ping":171},{"user_id":103,"name":"Aristotle Voulton","steam_id":76561198100174923,"connected_time":1062000000000,"state":"active","ping":86},{"user_id":104,"name":"matt thong","steam_id":76561198273714368,"connected_time":1057000000000,"state":"active","ping":91},{"user_id":106,"name":"Octobella Enthusiast","steam_id":76561198199266047,"connected_time":1004000000000,"state":"active","ping":59},{"user_id":115,"name":"Whyamidoingthisaaaa","steam_id":76561199168837342,"connected_time":22000000000,"state":"spawning","ping":68},{"user_id":112,"name":"ObiWonJacobi","steam_id":76561198041921071,"connected_time":687000000000,"state":"active","ping":60}]},{"server_id":39,"name":"Uncletopia | Chicago | 8 | Community","name_short":"chi-8","host":"chi-2.us.uncletopia.com","port":27045,"enabled":true,"region":"us-central","cc":"us","latitude":41.881832,"longitude":-87.62318,"reserved":0,"last_update":"0001-01-01T00:00:00Z","name_a2s":"Uncletopia | Chicago | 8 | Community","protocol":17,"map":"workshop/cp_reckoner_rc6.ugc674719999","folder":"tf","game":"Team Fortress","app_id":440,"player_count":0,"max_players":24,"Bots":0,"server_type":"Dedicated","server_os":"Linux","password":true,"vac":true,"version":"7708610","steam_id":85568392924866365,"keywords":["cp","nocrits","nodmgspread","uncletopia"],"game_id":440,"stv_port":27046,"stv_name":"Uncletopia | Chicago | 8 | Community | STV","players":null},{"server_id":8,"name":"Uncletopia | Dallas | 1 | All Maps","name_short":"dal-1","host":"dal-1.us.uncletopia.com","port":27015,"enabled":true,"region":"us-central","cc":"us","latitude":32.779167,"longitude":-96.80889,"reserved":0,"last_update":"0001-01-01T00:00:00Z","name_a2s":"Uncletopia | Dallas | 1 | All Maps","protocol":17,"map":"pl_swiftwater_final1","folder":"tf","game":"Team Fortress","app_id":440,"player_count":24,"max_players":24,"Bots":0,"server_type":"Dedicated","server_os":"Linux","password":true,"vac":true,"version":"7708610","steam_id":85568392924469986,"keywords":["nocrits","nodmgspread","payload","uncletopia"],"game_id":440,"stv_port":27016,"stv_name":"Uncletopia | Dallas | 1 | All Maps | STV","players":[{"user_id":496,"name":"CM32MAker","steam_id":76561199157487382,"connected_time":4322000000000,"state":"active","ping":59},{"user_id":550,"name":"The Krinkler","steam_id":76561198020308956,"connected_time":443000000000,"state":"active","ping":60},{"user_id":552,"name":"spunk pap","steam_id":76561198202278895,"connected_time":333000000000,"state":"active","ping":53},{"user_id":526,"name":"oct9ber f9rever","steam_id":76561198036283992,"connected_time":2433000000000,"state":"active","ping":75},{"user_id":538,"name":"‚ù§ Ashley ‚ù§","steam_id":76561198056428303,"connected_time":1700000000000,"state":"active","ping":75},{"user_id":525,"name":"Psych03","steam_id":76561198061753667,"connected_time":2602000000000,"state":"active","ping":74},{"user_id":344,"name":"Mr.Pan","steam_id":76561198069030613,"connected_time":14143000000000,"state":"active","ping":59},{"user_id":542,"name":"Slumpest Duckest","steam_id":76561198170170606,"connected_time":1467000000000,"state":"active","ping":73},{"user_id":498,"name":"Maranata","steam_id":76561198830158092,"connected_time":4277000000000,"state":"active","ping":74},{"user_id":548,"name":"Django","steam_id":76561197971158403,"connected_time":852000000000,"state":"active","ping":92},{"user_id":545,"name":"Wind Fucker","steam_id":76561198275362375,"connected_time":915000000000,"state":"active","ping":82},{"user_id":510,"name":"Hansom","steam_id":76561198063941220,"connected_time":4137000000000,"state":"active","ping":107},{"user_id":511,"name":"Doryu","steam_id":76561198094905747,"connected_time":4101000000000,"state":"active","ping":116},{"user_id":529,"name":"Derply","steam_id":76561198871211642,"connected_time":2130000000000,"state":"active","ping":65},{"user_id":546,"name":"HeroOfTime","steam_id":76561199096218001,"connected_time":912000000000,"state":"active","ping":82},{"user_id":537,"name":"Shotty Man","steam_id":76561198175255334,"connected_time":1855000000000,"state":"active","ping":52},{"user_id":547,"name":"NinjaMonkey","steam_id":76561199177516760,"connected_time":892000000000,"state":"active","ping":93},{"user_id":533,"name":"skipper","steam_id":76561198395965181,"connected_time":2078000000000,"state":"active","ping":85},{"user_id":540,"name":"Cipher","steam_id":76561198967772800,"connected_time":1690000000000,"state":"active","ping":80},{"user_id":544,"name":"remedu","steam_id":76561198005152587,"connected_time":1010000000000,"state":"active","ping":44},{"user_id":553,"name":"Pump","steam_id":76561198085846167,"connected_time":135000000000,"state":"active","ping":98},{"user_id":549,"name":"Yandere Caesar","steam_id":76561198446286913,"connected_time":850000000000,"state":"active","ping":71},{"user_id":535,"name":"Drakon","steam_id":76561198078210822,"connected_time":2072000000000,"state":"active","ping":87},{"user_id":539,"name":"Rude Dog","steam_id":76561197980385816,"connected_time":1700000000000,"state":"active","ping":99}]},{"server_id":108,"name":"Uncletopia | Dallas | 2 | All Maps","name_short":"dal-2","host":"dal-1.us.uncletopia.com","port":27025,"enabled":true,"region":"us-central","cc":"us","latitude":32.779167,"longitude":-96.80889,"reserved":0,"last_update":"0001-01-01T00:00:00Z","name_a2s":"Uncletopia | Dallas | 2 | All Maps","protocol":17,"map":"koth_lakeside_final","folder":"tf","game":"Team Fortress","app_id":440,"player_count":1,"max_players":24,"Bots":0,"server_type":"Dedicated","server_os":"Linux","password":true,"vac":true,"version":"7708610","steam_id":85568392924469988,"keywords":["cp","nocrits","nodmgspread","uncletopia"],"game_id":440,"stv_port":27026,"stv_name":"Uncletopia | Dallas | 2 | All Maps | STV","players":[{"user_id":35,"name":"tac","steam_id":76561198155113345,"connected_time":6000000000,"state":"spawning","ping":44}]},{"server_id":5,"name":"Uncletopia | Frankfurt | 1 | All Maps","name_short":"frk-1","host":"frk-1.de.uncletopia.com","port":27015,"enabled":true,"region":"eu","cc":"de","latitude":50.110924,"longitude":8.682127,"reserved":0,"last_update":"0001-01-01T00:00:00Z","name_a2s":"Uncletopia | Frankfurt | 1 | All Maps","protocol":17,"map":"koth_lakeside_final","folder":"tf","game":"Team Fortress","app_id":440,"player_count":0,"max_players":24,"Bots":0,"server_type":"Dedicated","server_os":"Linux","password":true,"vac":true,"version":"7708610","steam_id":85568392924469989,"keywords":["cp","nocrits","nodmgspread","uncletopia"],"game_id":440,"stv_port":27016,"stv_name":"Uncletopia | Frankfurt | 1 | All Maps | STV","players":null},{"server_id":110,"name":"Uncletopia | Frankfurt | 2 | All Maps","name_short":"frk-2","host":"frk-1.de.uncletopia.com","port":27025,"enabled":true,"region":"eu","cc":"de","latitude":50.110924,"longitude":8.682127,"reserved":0,"last_update":"0001-01-01T00:00:00Z","name_a2s":"Uncletopia | Frankfurt | 2 | All Maps","protocol":17,"map":"cp_dustbowl","folder":"tf","game":"Team Fortress","app_id":440,"player_count":10,"max_players":24,"Bots":0,"server_type":"Dedicated","server_os":"Linux","password":true,"vac":true,"version":"7708610","steam_id":85568392924469990,"keywords":["cp","nocrits","nodmgspread","uncletopia"],"game_id":440,"stv_port":27026,"stv_name":"Uncletopia | Frankfurt | 2 | All Maps | STV","players":[{"user_id":726,"name":"i am festive cancer","steam_id":76561198884458537,"connected_time":43000000000,"state":"active","ping":59},{"user_id":727,"name":"The Bletherin Scot","steam_id":76561198295515368,"connected_time":36000000000,"state":"active","ping":75},{"user_id":709,"name":"MaFFeNnas","steam_id":76561198218780229,"connected_time":1858000000000,"state":"active","ping":101},{"user_id":713,"name":"=OKB= P4NTH3R","steam_id":76561197999204603,"connected_time":1281000000000,"state":"active","ping":46},{"user_id":683,"name":"i eat sex","steam_id":76561198369335263,"connected_time":3974000000000,"state":"active","ping":44},{"user_id":715,"name":"carl","steam_id":76561199043827112,"connected_time":1081000000000,"state":"active","ping":152},{"user_id":701,"name":"Milca_11","steam_id":76561198848650365,"connected_time":3225000000000,"state":"active","ping":107},{"user_id":716,"name":"mimi","steam_id":76561198060648946,"connected_time":962000000000,"state":"active","ping":59},{"user_id":705,"name":"Guz","steam_id":76561198384689388,"connected_time":2167000000000,"state":"active","ping":57},{"user_id":673,"name":"Luo Lang","steam_id":76561197988802856,"connected_time":4715000000000,"state":"active","ping":54}]},{"server_id":308,"name":"Uncletopia | Frankfurt | 3 | All Maps","name_short":"frk-3","host":"frk-1.de.uncletopia.com","port":27035,"enabled":true,"region":"eu","cc":"de","latitude":50.110924,"longitude":8.682127,"reserved":0,"last_update":"0001-01-01T00:00:00Z","name_a2s":"Uncletopia | Frankfurt | 3 | All Maps","protocol":17,"map":"pl_borneo","folder":"tf","game":"Team Fortress","app_id":440,"player_count":23,"max_players":24,"Bots":0,"server_type":"Dedicated","server_os":"Linux","password":true,"vac":true,"version":"7708610","steam_id":85568392924504274,"keywords":["nocrits","nodmgspread","payload","uncletopia"],"game_id":440,"stv_port":27036,"stv_name":"Uncletopia | Frankfurt | 3 | All Maps | STV","players":[{"user_id":376,"name":"notchclaus","steam_id":76561198203152816,"connected_time":839000000000,"state":"active","ping":41},{"user_id":369,"name":"Infantile Pillock","steam_id":76561198283851362,"connected_time":1333000000000,"state":"active","ping":60},{"user_id":378,"name":"Tomamo","steam_id":76561198258031112,"connected_time":627000000000,"state":"active","ping":67},{"user_id":298,"name":"Proto-arc","steam_id":76561198012776747,"connected_time":6870000000000,"state":"active","ping":60},{"user_id":386,"name":"Insain Bolt!","steam_id":76561198025687726,"connected_time":22000000000,"state":"active","ping":52},{"user_id":371,"name":"antondi","steam_id":76561198123140065,"connected_time":1225000000000,"state":"active","ping":52},{"user_id":355,"name":"Mr. Huntsman","steam_id":76561197981910397,"connected_time":2206000000000,"state":"active","ping":61},{"user_id":363,"name":"budo.","steam_id":76561199064189789,"connected_time":1860000000000,"state":"active","ping":62},{"user_id":379,"name":"judas from the binding of isaac","steam_id":76561199068993168,"connected_time":626000000000,"state":"active","ping":138},{"user_id":381,"name":"Arnold Lovec","steam_id":76561198048763335,"connected_time":617000000000,"state":"active","ping":56},{"user_id":361,"name":"üÉî Nugg1t(sme/lly)","steam_id":76561198065652251,"connected_time":1891000000000,"state":"active","ping":39},{"user_id":305,"name":"hushhx","steam_id":76561198216200092,"connected_time":5772000000000,"state":"active","ping":60},{"user_id":373,"name":"BarrackOmaha","steam_id":76561198027922724,"connected_time":1167000000000,"state":"active","ping":61},{"user_id":324,"name":"mad Tsar","steam_id":76561199028105808,"connected_time":4682000000000,"state":"active","ping":112},{"user_id":387,"name":"dinger","steam_id":76561198038748489,"connected_time":16000000000,"state":"active","ping":60},{"user_id":345,"name":"F2P gameing","steam_id":76561198834713682,"connected_time":3240000000000,"state":"active","ping":65},{"user_id":315,"name":"tm`","steam_id":76561197993580412,"connected_time":4804000000000,"state":"active","ping":47},{"user_id":354,"name":"Tsuruko","steam_id":76561198063618114,"connected_time":2233000000000,"state":"active","ping":61},{"user_id":277,"name":"Zerfesh","steam_id":76561198117534358,"connected_time":9049000000000,"state":"spawning","ping":107},{"user_id":356,"name":"KingPotatoChips","steam_id":76561198035156465,"connected_time":2183000000000,"state":"active","ping":54},{"user_id":288,"name":"nedilya","steam_id":76561198039692077,"connected_time":8040000000000,"state":"active","ping":46},{"user_id":385,"name":"Jouppi","steam_id":76561198063725468,"connected_time":316000000000,"state":"active","ping":93},{"user_id":374,"name":"Bones","steam_id":76561198065081225,"connected_time":1160000000000,"state":"active","ping":49}]},{"server_id":309,"name":"Uncletopia | Frankfurt | 4 | All Maps","name_short":"frk-4","host":"frk-1.de.uncletopia.com","port":27045,"enabled":true,"region":"eu","cc":"de","latitude":50.110924,"longitude":8.682127,"reserved":0,"last_update":"0001-01-01T00:00:00Z","name_a2s":"Uncletopia | Frankfurt | 4 | All Maps","protocol":17,"map":"koth_cascade","folder":"tf","game":"Team Fortress","app_id":440,"player_count":0,"max_players":24,"Bots":0,"server_type":"Dedicated","server_os":"Linux","password":true,"vac":true,"version":"7708610","steam_id":85568392924504275,"keywords":["cp","nocrits","nodmgspread","uncletopia"],"game_id":440,"stv_port":27046,"stv_name":"Uncletopia | Frankfurt | 4 | All Maps | STV","players":null},{"server_id":310,"name":"Uncletopia | Frankfurt | 5 | All Maps","name_short":"frk-5","host":"frk-1.de.uncletopia.com","port":27055,"enabled":true,"region":"eu","cc":"de","latitude":50.110924,"longitude":8.682127,"reserved":0,"last_update":"0001-01-01T00:00:00Z","name_a2s":"Uncletopia | Frankfurt | 5 | All Maps","protocol":17,"map":"cp_process_final","folder":"tf","game":"Team Fortress","app_id":440,"player_count":0,"max_players":24,"Bots":0,"server_type":"Dedicated","server_os":"Linux","password":true,"vac":true,"version":"7708610","steam_id":85568392924504277,"keywords":["cp","nocrits","nodmgspread","uncletopia"],"game_id":440,"stv_port":27056,"stv_name":"Uncletopia | Frankfurt | 5 | All Maps | STV","players":null},{"server_id":311,"name":"Uncletopia | Frankfurt | 6 | All Maps","name_short":"frk-6","host":"frk-1.de.uncletopia.com","port":27065,"enabled":true,"region":"eu","cc":"de","latitude":50.110924,"longitude":8.682127,"reserved":0,"last_update":"0001-01-01T00:00:00Z","name_a2s":"Uncletopia | Frankfurt | 6 | All Maps","protocol":17,"map":"pl_frontier_final","folder":"tf","game":"Team Fortress","app_id":440,"player_count":0,"max_players":24,"Bots":0,"server_type":"Dedicated","server_os":"Linux","password":true,"vac":true,"version":"7708610","steam_id":85568392924504278,"keywords":["nocrits","nodmgspread","payload","uncletopia"],"game_id":440,"stv_port":27066,"stv_name":"Uncletopia | Frankfurt | 6 | All Maps | STV","players":null},{"server_id":23,"name":"Uncletopia | Frankfurt | 7 | No Payload","name_short":"frk-7","host":"frk-1.de.uncletopia.com","port":27075,"enabled":true,"region":"eu","cc":"de","latitude":50.110924,"longitude":8.682127,"reserved":0,"last_update":"0001-01-01T00:00:00Z","name_a2s":"Uncletopia | Frankfurt | 7 | No Payload","protocol":17,"map":"koth_cascade","folder":"tf","game":"Team Fortress","app_id":440,"player_count":0,"max_players":24,"Bots":0,"server_type":"Dedicated","server_os":"Linux","password":true,"vac":true,"version":"7708610","steam_id":85568392924742827,"keywords":["cp","nocrits","nodmgspread","uncletopia"],"game_id":440,"stv_port":27076,"stv_name":"Uncletopia | Frankfurt | 7 | No Payload | STV","players":null},{"server_id":24,"name":"Uncletopia | Frankfurt | 8 | Community","name_short":"frk-8","host":"frk-1.de.uncletopia.com","port":27085,"enabled":true,"region":"eu","cc":"de","latitude":50.110924,"longitude":8.682127,"reserved":0,"last_update":"0001-01-01T00:00:00Z","name_a2s":"Uncletopia | Frankfurt | 8 | Community","protocol":17,"map":"workshop/koth_ramjam_v2_b2.ugc2865676487","folder":"tf","game":"Team Fortress","app_id":440,"player_count":0,"max_players":24,"Bots":0,"server_type":"Dedicated","server_os":"Linux","password":true,"vac":true,"version":"7708610","steam_id":85568392924742828,"keywords":["cp","nocrits","nodmgspread","uncletopia"],"game_id":440,"stv_port":27086,"stv_name":"Uncletopia | Frankfurt | 8 | Community | STV","players":null},{"server_id":202,"name":"Uncletopia | Hong Kong | 1 | All Maps","name_short":"hgk-1","host":"hgk-1.hk.uncletopia.com","port":27015,"enabled":true,"region":"asia","cc":"hk","latitude":22.302711,"longitude":114.177216,"reserved":0,"last_update":"0001-01-01T00:00:00Z","name_a2s":"Uncletopia | Hong Kong | 1 | All Maps","protocol":17,"map":"koth_suijin","folder":"tf","game":"Team Fortress","app_id":440,"player_count":15,"max_players":24,"Bots":0,"server_type":"Dedicated","server_os":"Linux","password":true,"vac":true,"version":"7708610","steam_id":85568392924494504,"keywords":["cp","nocrits","nodmgspread","uncletopia"],"game_id":440,"stv_port":27016,"stv_name":"Uncletopia | Hong Kong | 1 | All Maps | STV","players":[{"user_id":35,"name":"S c u m p","steam_id":76561199172582978,"connected_time":3320000000000,"state":"active","ping":138},{"user_id":34,"name":"KillerKurt64(F2p)#SaveTf2","steam_id":76561199225224942,"connected_time":3337000000000,"state":"active","ping":88},{"user_id":61,"name":"ellz","steam_id":76561199216074568,"connected_time":315000000000,"state":"active","ping":63},{"user_id":67,"name":"Backchiller73","steam_id":76561198799253245,"connected_time":55000000000,"state":"active","ping":206},{"user_id":48,"name":"why wont my gun shoot?","steam_id":76561199249938987,"connected_time":1390000000000,"state":"active","ping":34},{"user_id":43,"name":":)","steam_id":76561198437941450,"connected_time":2191000000000,"state":"active","ping":76},{"user_id":44,"name":"no vc no c","steam_id":76561197989503095,"connected_time":2068000000000,"state":"active","ping":98},{"user_id":63,"name":"- K I N G -  KatamiVT","steam_id":76561199061052792,"connected_time":239000000000,"state":"active","ping":59},{"user_id":66,"name":"PADORU PADORU","steam_id":76561198051010163,"connected_time":156000000000,"state":"active","ping":75},{"user_id":52,"name":"Javariced","steam_id":76561198069402937,"connected_time":984000000000,"state":"active","ping":71},{"user_id":57,"name":"yuyu26071","steam_id":76561199363142727,"connected_time":865000000000,"state":"active","ping":89},{"user_id":64,"name":"Wx","steam_id":76561199217780897,"connected_time":221000000000,"state":"active","ping":72},{"user_id":60,"name":"SunShine","steam_id":76561198323642446,"connected_time":580000000000,"state":"active","ping":88},{"user_id":68,"name":"thebiggestboy","steam_id":76561199436461192,"connected_time":35000000000,"state":"active","ping":590},{"user_id":69,"name":"Boy with skill issue","steam_id":76561199214553235,"connected_time":10000000000,"state":"spawning","ping":96}]},{"server_id":1,"name":"Uncletopia | Los Angeles | 1 | All Maps","name_short":"lax-1","host":"lax-1.us.uncletopia.com","port":27015,"enabled":true,"region":"us-west","cc":"us","latitude":33.94279,"longitude":-118.41004,"reserved":0,"last_update":"0001-01-01T00:00:00Z","name_a2s":"Uncletopia | Los Angeles | 1 | All Maps","protocol":17,"map":"pl_frontier_final","folder":"tf","game":"Team Fortress","app_id":440,"player_count":0,"max_players":24,"Bots":0,"server_type":"Dedicated","server_os":"Linux","password":true,"vac":true,"version":"7708610","steam_id":85568392924469991,"keywords":["nocrits","nodmgspread","payload","uncletopia"],"game_id":440,"stv_port":27016,"stv_name":"Uncletopia | Los Angeles | 1 | All Maps | STV","players":null},{"server_id":112,"name":"Uncletopia | Los Angeles | 2 | All Maps","name_short":"lax-2","host":"lax-1.us.uncletopia.com","port":27025,"enabled":true,"region":"us-west","cc":"us","latitude":33.94279,"longitude":-118.41004,"reserved":0,"last_update":"0001-01-01T00:00:00Z","name_a2s":"Uncletopia | Los Angeles | 2 | All Maps","protocol":17,"map":"koth_viaduct","folder":"tf","game":"Team Fortress","app_id":440,"player_count":0,"max_players":24,"Bots":0,"server_type":"Dedicated","server_os":"Linux","password":true,"vac":true,"version":"7708610","steam_id":85568392924469992,"keywords":["cp","nocrits","nodmgspread","uncletopia"],"game_id":440,"stv_port":27026,"stv_name":"Uncletopia | Los Angeles | 2 | All Maps | STV","players":null},{"server_id":324,"name":"Uncletopia | Los Angeles | 3 | All Maps","name_short":"lax-3","host":"lax-1.us.uncletopia.com","port":27035,"enabled":true,"region":"us-west","cc":"us","latitude":33.94279,"longitude":-118.41004,"reserved":0,"last_update":"0001-01-01T00:00:00Z","name_a2s":"Uncletopia | Los Angeles | 3 | All Maps","protocol":17,"map":"koth_highpass","folder":"tf","game":"Team Fortress","app_id":440,"player_count":0,"max_players":24,"Bots":0,"server_type":"Dedicated","server_os":"Linux","password":true,"vac":true,"version":"7708610","steam_id":85568392924510198,"keywords":["cp","nocrits","nodmgspread","uncletopia"],"game_id":440,"stv_port":27036,"stv_name":"Uncletopia | Los Angeles | 3 | All Maps | STV","players":null},{"server_id":25,"name":"Uncletopia | Los Angeles | 4 | No Payload","name_short":"lax-4","host":"lax-1.us.uncletopia.com","port":27045,"enabled":true,"region":"us-west","cc":"us","latitude":33.94279,"longitude":-118.41004,"reserved":0,"last_update":"0001-01-01T00:00:00Z","name_a2s":"Uncletopia | Los Angeles | 4 | No Payload","protocol":17,"map":"koth_suijin","folder":"tf","game":"Team Fortress","app_id":440,"player_count":0,"max_players":24,"Bots":0,"server_type":"Dedicated","server_os":"Linux","password":true,"vac":true,"version":"7708610","steam_id":85568392924510199,"keywords":["cp","nocrits","nodmgspread","uncletopia"],"game_id":440,"stv_port":27046,"stv_name":"Uncletopia | Los Angeles | 4 | No Payload | STV","players":null},{"server_id":11,"name":"Uncletopia | London | 1 | All Maps","name_short":"lon-1","host":"lon-1.uk.uncletopia.com","port":27015,"enabled":true,"region":"eu","cc":"gb","latitude":51.509865,"longitude":-0.118092,"reserved":0,"last_update":"0001-01-01T00:00:00Z","name_a2s":"Uncletopia | London | 1 | All Maps","protocol":17,"map":"koth_harvest_final","folder":"tf","game":"Team Fortress","app_id":440,"player_count":0,"max_players":24,"Bots":0,"server_type":"Dedicated","server_os":"Linux","password":true,"vac":true,"version":"7708610","steam_id":85568392924367362,"keywords":["cp","nocrits","nodmgspread","uncletopia"],"game_id":440,"stv_port":27016,"stv_name":"Uncletopia | London | 1 | All Maps | STV","players":null},{"server_id":114,"name":"Uncletopia | London | 2 | All Maps","name_short":"lon-2","host":"lon-1.uk.uncletopia.com","port":27025,"enabled":true,"region":"eu","cc":"gb","latitude":51.509865,"longitude":-0.118092,"reserved":0,"last_update":"0001-01-01T00:00:00Z","name_a2s":"Uncletopia | London | 2 | All Maps","protocol":17,"map":"koth_lakeside_final","folder":"tf","game":"Team Fortress","app_id":440,"player_count":0,"max_players":24,"Bots":0,"server_type":"Dedicated","server_os":"Linux","password":true,"vac":true,"version":"7708610","steam_id":85568392924470941,"keywords":["cp","nocrits","nodmgspread","uncletopia"],"game_id":440,"stv_port":27026,"stv_name":"Uncletopia | London | 2 | All Maps | STV","players":null},{"server_id":320,"name":"Uncletopia | London | 3 | All Maps","name_short":"lon-3","host":"lon-1.uk.uncletopia.com","port":27035,"enabled":true,"region":"eu","cc":"gb","latitude":51.509865,"longitude":-0.118092,"reserved":0,"last_update":"0001-01-01T00:00:00Z","name_a2s":"Uncletopia | London | 3 | All Maps","protocol":17,"map":"pl_frontier_final","folder":"tf","game":"Team Fortress","app_id":440,"player_count":0,"max_players":24,"Bots":0,"server_type":"Dedicated","server_os":"Linux","password":true,"vac":true,"version":"7708610","steam_id":85568392924510192,"keywords":["nocrits","nodmgspread","payload","uncletopia"],"game_id":440,"stv_port":27036,"stv_name":"Uncletopia | London | 3 | All Maps | STV","players":null},{"server_id":321,"name":"Uncletopia | London | 4 | All Maps","name_short":"lon-4","host":"lon-1.uk.uncletopia.com","port":27045,"enabled":true,"region":"eu","cc":"gb","latitude":51.509865,"longitude":-0.118092,"reserved":0,"last_update":"0001-01-01T00:00:00Z","name_a2s":"Uncletopia | London | 4 | All Maps","protocol":17,"map":"pl_upward","folder":"tf","game":"Team Fortress","app_id":440,"player_count":24,"max_players":24,"Bots":0,"server_type":"Dedicated","server_os":"Linux","password":true,"vac":true,"version":"7708610","steam_id":85568392924510193,"keywords":["nocrits","nodmgspread","payload","uncletopia"],"game_id":440,"stv_port":27046,"stv_name":"Uncletopia | London | 4 | All Maps | STV","players":[{"user_id":374,"name":"SuperBob103","steam_id":76561199175360012,"connected_time":759000000000,"state":"active","ping":52},{"user_id":350,"name":"rat performance","steam_id":76561198065854668,"connected_time":2694000000000,"state":"active","ping":44},{"user_id":375,"name":"ulrickel","steam_id":76561199412178722,"connected_time":730000000000,"state":"active","ping":127},{"user_id":345,"name":"Abstruse","steam_id":76561198084806733,"connected_time":3227000000000,"state":"active","ping":62},{"user_id":378,"name":"Snoogs","steam_id":76561198444880931,"connected_time":645000000000,"state":"active","ping":125},{"user_id":349,"name":"outin","steam_id":76561198137734730,"connected_time":2701000000000,"state":"active","ping":66},{"user_id":376,"name":"Taco","steam_id":76561198024471874,"connected_time":708000000000,"state":"active","ping":177},{"user_id":258,"name":"r0la","steam_id":76561198128315340,"connected_time":9977000000000,"state":"active","ping":81},{"user_id":382,"name":"Stop The Violence","steam_id":76561198044876779,"connected_time":503000000000,"state":"active","ping":66},{"user_id":377,"name":"arcades","steam_id":76561198062075870,"connected_time":674000000000,"state":"active","ping":70},{"user_id":300,"name":"Zeemii","steam_id":76561198809299581,"connected_time":6763000000000,"state":"active","ping":111},{"user_id":372,"name":"Pluto","steam_id":76561198142221715,"connected_time":1065000000000,"state":"active","ping":43},{"user_id":329,"name":"festive jones","steam_id":76561198073975078,"connected_time":4287000000000,"state":"active","ping":47},{"user_id":330,"name":"Mango","steam_id":76561198139555709,"connected_time":4269000000000,"state":"active","ping":54},{"user_id":354,"name":"Fortezza","steam_id":76561198972539903,"connected_time":2538000000000,"state":"active","ping":65},{"user_id":389,"name":"Stitch","steam_id":76561198104613474,"connected_time":31000000000,"state":"active","ping":75},{"user_id":370,"name":"Fred Bomb","steam_id":76561198342481759,"connected_time":1377000000000,"state":"active","ping":153},{"user_id":320,"name":"Holo","steam_id":76561198066985194,"connected_time":4876000000000,"state":"active","ping":96},{"user_id":385,"name":"lupe.-","steam_id":76561198079813788,"connected_time":313000000000,"state":"active","ping":73},{"user_id":366,"name":"hananamanna","steam_id":76561198006570285,"connected_time":1819000000000,"state":"active","ping":117},{"user_id":364,"name":"worry about it","steam_id":76561199414716848,"connected_time":1963000000000,"state":"active","ping":76},{"user_id":367,"name":"CiVillain","steam_id":76561198059617732,"connected_time":1809000000000,"state":"active","ping":72},{"user_id":380,"name":"D D","steam_id":76561198257836694,"connected_time":627000000000,"state":"active","ping":44},{"user_id":381,"name":"?","steam_id":76561198267463398,"connected_time":627000000000,"state":"active","ping":62}]},{"server_id":21,"name":"Uncletopia | London | 5 | All Maps","name_short":"lon-5","host":"lon-1.uk.uncletopia.com","port":27055,"enabled":true,"region":"eu","cc":"gb","latitude":51.509865,"longitude":-0.118092,"reserved":0,"last_update":"0001-01-01T00:00:00Z","name_a2s":"Uncletopia | London | 5 | All Maps","protocol":17,"map":"koth_viaduct","folder":"tf","game":"Team Fortress","app_id":440,"player_count":0,"max_players":24,"Bots":0,"server_type":"Dedicated","server_os":"Linux","password":true,"vac":true,"version":"7708610","steam_id":85568392924742829,"keywords":["cp","nocrits","nodmgspread","uncletopia"],"game_id":440,"stv_port":27056,"stv_name":"Uncletopia | London | 5 | All Maps | STV","players":null},{"server_id":22,"name":"Uncletopia | London | 6 | All Maps","name_short":"lon-6","host":"lon-1.uk.uncletopia.com","port":27065,"enabled":true,"region":"eu","cc":"gb","latitude":51.509865,"longitude":-0.118092,"reserved":0,"last_update":"0001-01-01T00:00:00Z","name_a2s":"Uncletopia | London | 6 | All Maps","protocol":17,"map":"koth_highpass","folder":"tf","game":"Team Fortress","app_id":440,"player_count":0,"max_players":24,"Bots":0,"server_type":"Dedicated","server_os":"Linux","password":true,"vac":true,"version":"7708610","steam_id":85568392924742830,"keywords":["cp","nocrits","nodmgspread","uncletopia"],"game_id":440,"stv_port":27066,"stv_name":"Uncletopia | London | 6 | All Maps | STV","players":null},{"server_id":40,"name":"Uncletopia | London | 7 | No Payload","name_short":"lon-7","host":"lon-1.uk.uncletopia.com","port":27075,"enabled":true,"region":"eu","cc":"gb","latitude":51.509865,"longitude":-0.118092,"reserved":0,"last_update":"0001-01-01T00:00:00Z","name_a2s":"Uncletopia | London | 7 | No Payload","protocol":17,"map":"koth_brazil","folder":"tf","game":"Team Fortress","app_id":440,"player_count":0,"max_players":24,"Bots":0,"server_type":"Dedicated","server_os":"Linux","password":true,"vac":true,"version":"7708610","steam_id":85568392924964314,"keywords":["cp","nocrits","nodmgspread","uncletopia"],"game_id":440,"stv_port":27076,"stv_name":"Uncletopia | London | 7 | No Payload | STV","players":null},{"server_id":41,"name":"Uncletopia | London | 8 | Community","name_short":"lon-8","host":"lon-1.uk.uncletopia.com","port":27085,"enabled":true,"region":"eu","cc":"gb","latitude":51.509865,"longitude":-0.118092,"reserved":0,"last_update":"0001-01-01T00:00:00Z","name_a2s":"Uncletopia | London | 8 | Community","protocol":17,"map":"workshop/koth_product_final.ugc454272353","folder":"tf","game":"Team Fortress","app_id":440,"player_count":0,"max_players":24,"Bots":0,"server_type":"Dedicated","server_os":"Linux","password":true,"vac":true,"version":"7708610","steam_id":85568392924964315,"keywords":["cp","nocrits","nodmgspread","uncletopia"],"game_id":440,"stv_port":27086,"stv_name":"Uncletopia | London | 8 | Community | STV","players":null},{"server_id":300,"name":"Uncletopia | Montr√©al | 1 | All Maps","name_short":"mtl-1","host":"mtl-1.ca.uncletopia.com","port":27015,"enabled":true,"region":"us-east","cc":"ca","latitude":45.50889,"longitude":-73.56167,"reserved":0,"last_update":"0001-01-01T00:00:00Z","name_a2s":"Uncletopia | Montr√©al | 1 | All Maps","protocol":17,"map":"koth_cascade","folder":"tf","game":"Team Fortress","app_id":440,"player_count":0,"max_players":24,"Bots":0,"server_type":"Dedicated","server_os":"Linux","password":true,"vac":true,"version":"7708610","steam_id":85568392924500087,"keywords":["cp","nocrits","nodmgspread","uncletopia"],"game_id":440,"stv_port":27016,"stv_name":"Uncletopia | Montr√©al | 1 | All Maps | STV","players":null},{"server_id":301,"name":"Uncletopia | Montr√©al | 2 | All Maps","name_short":"mtl-2","host":"mtl-1.ca.uncletopia.com","port":27025,"enabled":true,"region":"us-east","cc":"ca","latitude":45.50889,"longitude":-73.56167,"reserved":0,"last_update":"0001-01-01T00:00:00Z","name_a2s":"Uncletopia | Montr√©al | 2 | All Maps","protocol":17,"map":"koth_viaduct","folder":"tf","game":"Team Fortress","app_id":440,"player_count":0,"max_players":24,"Bots":0,"server_type":"Dedicated","server_os":"Linux","password":true,"vac":true,"version":"7708610","steam_id":85568392924500088,"keywords":["cp","nocrits","nodmgspread","uncletopia"],"game_id":440,"stv_port":27026,"stv_name":"Uncletopia | Montr√©al | 2 | All Maps | STV","players":null},{"server_id":302,"name":"Uncletopia | Montr√©al | 3 | All Maps","name_short":"mtl-3","host":"mtl-1.ca.uncletopia.com","port":27035,"enabled":true,"region":"us-east","cc":"ca","latitude":45.50889,"longitude":-73.56167,"reserved":0,"last_update":"0001-01-01T00:00:00Z","name_a2s":"Uncletopia | Montr√©al | 3 | All Maps","protocol":17,"map":"koth_cascade","folder":"tf","game":"Team Fortress","app_id":440,"player_count":0,"max_players":24,"Bots":0,"server_type":"Dedicated","server_os":"Linux","password":true,"vac":true,"version":"7708610","steam_id":85568392924500089,"keywords":["cp","nocrits","nodmgspread","uncletopia"],"game_id":440,"stv_port":27036,"stv_name":"Uncletopia | Montr√©al | 3 | All Maps | STV","players":null},{"server_id":303,"name":"Uncletopia | Montr√©al | 4 | No Payload","name_short":"mtl-4","host":"mtl-1.ca.uncletopia.com","port":27045,"enabled":true,"region":"us-east","cc":"ca","latitude":45.50889,"longitude":-73.56167,"reserved":0,"last_update":"0001-01-01T00:00:00Z","name_a2s":"Uncletopia | Montr√©al | 4 | No Payload","protocol":17,"map":"pl_frontier_final","folder":"tf","game":"Team Fortress","app_id":440,"player_count":0,"max_players":24,"Bots":0,"server_type":"Dedicated","server_os":"Linux","password":true,"vac":true,"version":"7708610","steam_id":85568392924500090,"keywords":["nocrits","nodmgspread","payload","uncletopia"],"game_id":440,"stv_port":0,"stv_name":"","players":null},{"server_id":13,"name":"Uncletopia | New York City | 1 | All Maps","name_short":"nyc-1","host":"nyc-1.us.uncletopia.com","port":27015,"enabled":true,"region":"us-east","cc":"us","latitude":40.73061,"longitude":-73.93524,"reserved":0,"last_update":"0001-01-01T00:00:00Z","name_a2s":"Uncletopia | New York City | 1 | All Maps","protocol":17,"map":"pl_frontier_final","folder":"tf","game":"Team Fortress","app_id":440,"player_count":24,"max_players":24,"Bots":0,"server_type":"Dedicated","server_os":"Linux","password":true,"vac":true,"version":"7708610","steam_id":85568392924469993,"keywords":["nocrits","nodmgspread","payload","uncletopia"],"game_id":440,"stv_port":27016,"stv_name":"Uncletopia | New York City | 1 | All Maps | STV","players":[{"user_id":398,"name":"Rainbow Goblin","steam_id":76561199136498585,"connected_time":2973000000000,"state":"active","ping":47},{"user_id":382,"name":"MeKaso TropStar","steam_id":76561199109895840,"connected_time":4559000000000,"state":"active","ping":47},{"user_id":423,"name":"DJ Blazkowicz","steam_id":76561198010201227,"connected_time":886000000000,"state":"active","ping":83},{"user_id":432,"name":"vandeer","steam_id":76561198120124007,"connected_time":410000000000,"state":"active","ping":74},{"user_id":383,"name":"busting on dave","steam_id":76561198072789439,"connected_time":4141000000000,"state":"active","ping":100},{"user_id":409,"name":"mr dave busting","steam_id":76561198058890821,"connected_time":2308000000000,"state":"active","ping":76},{"user_id":436,"name":"fancy chef (not evil clown)","steam_id":76561198993641831,"connected_time":353000000000,"state":"active","ping":45},{"user_id":420,"name":"Spirit","steam_id":76561199069322627,"connected_time":1519000000000,"state":"active","ping":61},{"user_id":441,"name":"Grand","steam_id":76561198088796754,"connected_time":16000000000,"state":"spawning","ping":59},{"user_id":414,"name":"RuckiC","steam_id":76561198253391237,"connected_time":2198000000000,"state":"active","ping":127},{"user_id":359,"name":"kairOs.fk","steam_id":76561197972421260,"connected_time":6371000000000,"state":"active","ping":47},{"user_id":431,"name":"Zoombini16","steam_id":76561198324428992,"connected_time":445000000000,"state":"active","ping":66},{"user_id":440,"name":"Anya Forger's Peanuts","steam_id":76561198008577961,"connected_time":62000000000,"state":"active","ping":71},{"user_id":433,"name":"All 24 Pok√©mon movies at once","steam_id":76561198164738311,"connected_time":378000000000,"state":"active","ping":76},{"user_id":437,"name":"Korriu","steam_id":76561198246881314,"connected_time":344000000000,"state":"active","ping":60},{"user_id":408,"name":"{[F.H]} Hydroida","steam_id":76561197999797274,"connected_time":2599000000000,"state":"active","ping":69},{"user_id":364,"name":"you are loved","steam_id":76561198108524571,"connected_time":6111000000000,"state":"active","ping":62},{"user_id":434,"name":"money squared","steam_id":76561198046775352,"connected_time":372000000000,"state":"active","ping":115},{"user_id":435,"name":"Clay Pot","steam_id":76561199030644557,"connected_time":368000000000,"state":"active","ping":72},{"user_id":438,"name":"chuckie","steam_id":76561199039412700,"connected_time":344000000000,"state":"active","ping":79},{"user_id":439,"name":"ajplays28","steam_id":76561199023537026,"connected_time":339000000000,"state":"active","ping":43},{"user_id":427,"name":"IPlayGamez","steam_id":76561198041387508,"connected_time":820000000000,"state":"active","ping":54},{"user_id":417,"name":"teeniWEENY","steam_id":76561199060484540,"connected_time":2165000000000,"state":"active","ping":155},{"user_id":422,"name":"Vaporeon","steam_id":76561198107058140,"connected_time":900000000000,"state":"active","ping":59}]},{"server_id":14,"name":"Uncletopia | New York City | 2 | All Maps","name_short":"nyc-2","host":"nyc-1.us.uncletopia.com","port":27025,"enabled":true,"region":"us-east","cc":"us","latitude":40.73061,"longitude":-73.93524,"reserved":0,"last_update":"0001-01-01T00:00:00Z","name_a2s":"Uncletopia | New York City | 2 | All Maps","protocol":17,"map":"koth_highpass","folder":"tf","game":"Team Fortress","app_id":440,"player_count":2,"max_players":24,"Bots":0,"server_type":"Dedicated","server_os":"Linux","password":true,"vac":true,"version":"7708610","steam_id":85568392924469994,"keywords":["cp","nocrits","nodmgspread","uncletopia"],"game_id":440,"stv_port":27026,"stv_name":"Uncletopia | New York City | 2 | All Maps | STV","players":[{"user_id":313,"name":"Wocky Wizard","steam_id":76561198349209224,"connected_time":99000000000,"state":"active","ping":42},{"user_id":314,"name":"Mr.Cheerio","steam_id":76561198449907767,"connected_time":39000000000,"state":"active","ping":49}]},{"server_id":15,"name":"Uncletopia | New York City | 3 | All Maps","name_short":"nyc-3","host":"nyc-1.us.uncletopia.com","port":27035,"enabled":true,"region":"us-east","cc":"us","latitude":40.73061,"longitude":-73.93524,"reserved":0,"last_update":"0001-01-01T00:00:00Z","name_a2s":"Uncletopia | New York City | 3 | All Maps","protocol":17,"map":"pl_upward","folder":"tf","game":"Team Fortress","app_id":440,"player_count":24,"max_players":24,"Bots":0,"server_type":"Dedicated","server_os":"Linux","password":true,"vac":true,"version":"7708610","steam_id":85568392924742820,"keywords":["nocrits","nodmgspread","payload","uncletopia"],"game_id":440,"stv_port":27036,"stv_name":"Uncletopia | New York City | 3 | All Maps | STV","players":[{"user_id":80,"name":"Smuggs","steam_id":76561197999456003,"connected_time":1514000000000,"state":"active","ping":109},{"user_id":42,"name":"Hooty","steam_id":76561198347479416,"connected_time":3173000000000,"state":"active","ping":99},{"user_id":81,"name":"Kefta","steam_id":76561199071201347,"connected_time":1506000000000,"state":"active","ping":48},{"user_id":91,"name":"MILF Gaming","steam_id":76561198155378170,"connected_time":339000000000,"state":"active","ping":59},{"user_id":31,"name":"Halcyon","steam_id":76561197999409268,"connected_time":4680000000000,"state":"active","ping":66},{"user_id":76,"name":"Sim","steam_id":76561198119227922,"connected_time":1637000000000,"state":"active","ping":63},{"user_id":75,"name":"Fermenting Kiwi","steam_id":76561198253303497,"connected_time":1783000000000,"state":"active","ping":89},{"user_id":82,"name":"IRAcide","steam_id":76561198236149504,"connected_time":1505000000000,"state":"active","ping":95},{"user_id":89,"name":"Female Gamer","steam_id":76561199366482682,"connected_time":737000000000,"state":"active","ping":122},{"user_id":83,"name":"Murky the murloc","steam_id":76561198004343439,"connected_time":1474000000000,"state":"active","ping":89},{"user_id":88,"name":"Inevitable","steam_id":76561198210050169,"connected_time":829000000000,"state":"active","ping":45},{"user_id":92,"name":"Randy Butternubs","steam_id":76561197983738629,"connected_time":304000000000,"state":"active","ping":75},{"user_id":72,"name":"ChefBoiHardD","steam_id":76561198139949783,"connected_time":1929000000000,"state":"active","ping":63},{"user_id":90,"name":"Tomaash","steam_id":76561198115542042,"connected_time":503000000000,"state":"active","ping":114},{"user_id":86,"name":"Idle Villager","steam_id":76561198038607085,"connected_time":1300000000000,"state":"active","ping":60},{"user_id":52,"name":"Caoticaos","steam_id":76561198114800227,"connected_time":2752000000000,"state":"active","ping":136},{"user_id":63,"name":"Sully","steam_id":76561198310784589,"connected_time":2474000000000,"state":"active","ping":45},{"user_id":54,"name":"cognitiveAfflatus","steam_id":76561198295181426,"connected_time":2716000000000,"state":"active","ping":45},{"user_id":64,"name":"Pork Tenderloin","steam_id":76561198138663842,"connected_time":2446000000000,"state":"active","ping":60},{"user_id":57,"name":"holymoly1645 TWITCH","steam_id":76561198079009899,"connected_time":2605000000000,"state":"active","ping":87},{"user_id":65,"name":"saltypepper9100","steam_id":76561199155233318,"connected_time":2432000000000,"state":"active","ping":72},{"user_id":85,"name":"Level 1 Crook","steam_id":76561198441098132,"connected_time":1462000000000,"state":"active","ping":72},{"user_id":87,"name":"Skelitor ‚ú™","steam_id":76561198043885634,"connected_time":914000000000,"state":"active","ping":71},{"user_id":68,"name":"Wetman","steam_id":76561197998443325,"connected_time":2363000000000,"state":"active","ping":145}]},{"server_id":16,"name":"Uncletopia | New York City | 4 | Community","name_short":"nyc-4","host":"nyc-1.us.uncletopia.com","port":27045,"enabled":true,"region":"us-east","cc":"us","latitude":40.73061,"longitude":-73.93524,"reserved":0,"last_update":"0001-01-01T00:00:00Z","name_a2s":"Uncletopia | New York City | 4 | Community","protocol":17,"map":"workshop/koth_bagel_rc5.ugc2514036946","folder":"tf","game":"Team Fortress","app_id":440,"player_count":0,"max_players":24,"Bots":0,"server_type":"Dedicated","server_os":"Linux","password":true,"vac":true,"version":"7708610","steam_id":85568392924742821,"keywords":["cp","nocrits","nodmgspread","uncletopia"],"game_id":440,"stv_port":27046,"stv_name":"Uncletopia | New York City | 4 | Community | STV","players":null},{"server_id":142,"name":"Uncletopia | S√£o Paulo | 1 | All Maps","name_short":"sao-1","host":"sao-1.br.uncletopia.com","port":27015,"enabled":true,"region":"sa","cc":"br","latitude":-23.533773,"longitude":-46.62529,"reserved":0,"last_update":"0001-01-01T00:00:00Z","name_a2s":"Uncletopia | S√£o Paulo | 1 | All Maps","protocol":17,"map":"cp_process_final","folder":"tf","game":"Team Fortress","app_id":440,"player_count":24,"max_players":24,"Bots":0,"server_type":"Dedicated","server_os":"Linux","password":true,"vac":true,"version":"7708610","steam_id":85568392924469996,"keywords":["cp","nocrits","nodmgspread","uncletopia"],"game_id":440,"stv_port":27016,"stv_name":"Uncletopia | S√£o Paulo | 1 | All Maps | STV","players":[{"user_id":383,"name":"Cley the Engie Main","steam_id":76561198142839368,"connected_time":4742000000000,"state":"active","ping":57},{"user_id":300,"name":"Pathetic","steam_id":76561198051056987,"connected_time":9966000000000,"state":"active","ping":60},{"user_id":340,"name":"ebd_Failnaught","steam_id":76561198108041555,"connected_time":7428000000000,"state":"active","ping":64},{"user_id":430,"name":"ayumi","steam_id":76561197977365746,"connected_time":597000000000,"state":"active","ping":46},{"user_id":360,"name":"asdadsadasdasda","steam_id":76561198415484497,"connected_time":6315000000000,"state":"active","ping":59},{"user_id":413,"name":"ShinGojira[BR]","steam_id":76561199199037141,"connected_time":2343000000000,"state":"active","ping":91},{"user_id":391,"name":"Salsicha Perigosa","steam_id":76561198283642265,"connected_time":4070000000000,"state":"active","ping":58},{"user_id":437,"name":"p31x1nh0 \u003c*(((\u003e\u003c","steam_id":76561198049967350,"connected_time":101000000000,"state":"active","ping":51},{"user_id":336,"name":"Zoom!","steam_id":76561198289562649,"connected_time":7673000000000,"state":"active","ping":45},{"user_id":415,"name":"rafael","steam_id":76561198129125575,"connected_time":2226000000000,"state":"active","ping":72},{"user_id":438,"name":"terzo","steam_id":76561198044494120,"connected_time":56000000000,"state":"active","ping":47},{"user_id":408,"name":"Ôº•ÔΩéÔΩÑÔΩÖÔΩíÔºÆÔΩÖÔΩÉÔΩíÔΩè","steam_id":76561198044304293,"connected_time":3305000000000,"state":"active","ping":39},{"user_id":434,"name":"Yes","steam_id":76561198240191132,"connected_time":331000000000,"state":"active","ping":45},{"user_id":428,"name":"pipe consumer","steam_id":76561198388563806,"connected_time":929000000000,"state":"active","ping":43},{"user_id":343,"name":"leoextremo","steam_id":76561198867928520,"connected_time":7351000000000,"state":"active","ping":60},{"user_id":419,"name":"Pyrobro","steam_id":76561198155061020,"connected_time":1786000000000,"state":"active","ping":64},{"user_id":423,"name":"URINATE!!","steam_id":76561198380824431,"connected_time":1279000000000,"state":"active","ping":49},{"user_id":435,"name":"PYROCANTE #SAVETF2","steam_id":76561199152529988,"connected_time":215000000000,"state":"active","ping":54},{"user_id":425,"name":"admouse","steam_id":76561198251951784,"connected_time":1040000000000,"state":"active","ping":44},{"user_id":427,"name":"Mitke","steam_id":76561198156271334,"connected_time":978000000000,"state":"active","ping":59},{"user_id":429,"name":"jr_rusty","steam_id":76561198313937899,"connected_time":835000000000,"state":"active","ping":50},{"user_id":433,"name":"Cabeleira","steam_id":76561198323253534,"connected_time":469000000000,"state":"active","ping":45},{"user_id":385,"name":"Jeanh","steam_id":76561198052101498,"connected_time":4622000000000,"state":"active","ping":45},{"user_id":397,"name":"cocklarry 3","steam_id":76561198276113571,"connected_time":3823000000000,"state":"active","ping":42}]},{"server_id":143,"name":"Uncletopia | S√£o Paulo | 2 | All Maps","name_short":"sao-2","host":"sao-2.br.uncletopia.com","port":27015,"enabled":true,"region":"sa","cc":"br","latitude":-23.533773,"longitude":-46.62529,"reserved":0,"last_update":"0001-01-01T00:00:00Z","name_a2s":"Uncletopia | S√£o Paulo | 2 | All Maps","protocol":17,"map":"koth_viaduct","folder":"tf","game":"Team Fortress","app_id":440,"player_count":0,"max_players":24,"Bots":0,"server_type":"Dedicated","server_os":"Linux","password":true,"vac":true,"version":"7708610","steam_id":85568392924485349,"keywords":["cp","nocrits","nodmgspread","uncletopia"],"game_id":440,"stv_port":27016,"stv_name":"Uncletopia | S√£o Paulo | 2 | All Maps | STV","players":null},{"server_id":7,"name":"Uncletopia | Seattle | 1 | All Maps","name_short":"sea-1","host":"sea-1.us.uncletopia.com","port":27015,"enabled":true,"region":"us-west","cc":"us","latitude":47.608013,"longitude":-122.33517,"reserved":0,"last_update":"0001-01-01T00:00:00Z","name_a2s":"Uncletopia | Seattle | 1 | All Maps","protocol":17,"map":"pl_swiftwater_final1","folder":"tf","game":"Team Fortress","app_id":440,"player_count":24,"max_players":24,"Bots":0,"server_type":"Dedicated","server_os":"Linux","password":true,"vac":true,"version":"7708610","steam_id":85568392924469997,"keywords":["nocrits","nodmgspread","payload","uncletopia"],"game_id":440,"stv_port":27016,"stv_name":"Uncletopia | Seattle | 1 | All Maps | STV","players":[{"user_id":201,"name":"pandora da king","steam_id":76561198075490385,"connected_time":4365000000000,"state":"active","ping":75},{"user_id":235,"name":"[K.Y.L.L.]Drone #0432 (they/it)","steam_id":76561198027321950,"connected_time":1562000000000,"state":"active","ping":49},{"user_id":214,"name":"GameGuru the Green Gryphon","steam_id":76561198118495354,"connected_time":3882000000000,"state":"active","ping":60},{"user_id":234,"name":"Luca","steam_id":76561198125087140,"connected_time":1569000000000,"state":"active","ping":45},{"user_id":244,"name":"ThePriceIsRice","steam_id":76561198079069543,"connected_time":648000000000,"state":"active","ping":64},{"user_id":249,"name":"Salazar9","steam_id":76561198049903973,"connected_time":339000000000,"state":"active","ping":46},{"user_id":217,"name":"reiidaya","steam_id":76561198325306660,"connected_time":3475000000000,"state":"active","ping":53},{"user_id":236,"name":"A Can of Arizona Green Tea","steam_id":76561198062481133,"connected_time":1562000000000,"state":"active","ping":77},{"user_id":253,"name":"MirelurkWhisperer","steam_id":76561198145903749,"connected_time":76000000000,"state":"active","ping":110},{"user_id":256,"name":"Micah","steam_id":76561198006837982,"connected_time":52000000000,"state":"active","ping":136},{"user_id":198,"name":"the ice spice of tf2","steam_id":76561198131166135,"connected_time":4674000000000,"state":"active","ping":32},{"user_id":243,"name":"[TrC] Nosy","steam_id":76561197978859310,"connected_time":937000000000,"state":"active","ping":53},{"user_id":199,"name":"Bear264","steam_id":76561198038712485,"connected_time":4562000000000,"state":"active","ping":46},{"user_id":213,"name":"Stoopnagle","steam_id":76561198011942560,"connected_time":4011000000000,"state":"active","ping":35},{"user_id":255,"name":"chunkysquare","steam_id":76561199076468383,"connected_time":64000000000,"state":"active","ping":71},{"user_id":252,"name":"Maxx","steam_id":76561198045405304,"connected_time":277000000000,"state":"active","ping":51},{"user_id":224,"name":"Len","steam_id":76561199141913673,"connected_time":2894000000000,"state":"active","ping":68},{"user_id":248,"name":"Sweets","steam_id":76561198998446307,"connected_time":470000000000,"state":"active","ping":83},{"user_id":239,"name":"Be Gay, Do Crimes, Smoke Weed!","steam_id":76561198092419868,"connected_time":1538000000000,"state":"active","ping":45},{"user_id":254,"name":"sleepy","steam_id":76561198288663776,"connected_time":67000000000,"state":"active","ping":65},{"user_id":240,"name":"[TrC] Dackstrus","steam_id":76561197973518509,"connected_time":1536000000000,"state":"active","ping":61},{"user_id":246,"name":"rorytherednosedreindeer","steam_id":76561198065825165,"connected_time":566000000000,"state":"active","ping":74},{"user_id":238,"name":"mhmyeah_yeahmhm","steam_id":76561198341190679,"connected_time":1560000000000,"state":"active","ping":60},{"user_id":231,"name":"jello","steam_id":76561198094320477,"connected_time":1742000000000,"state":"active","ping":105}]},{"server_id":119,"name":"Uncletopia | Seattle | 2 | All Maps","name_short":"sea-2","host":"sea-1.us.uncletopia.com","port":27025,"enabled":true,"region":"us-west","cc":"us","latitude":47.608013,"longitude":-122.33517,"reserved":0,"last_update":"0001-01-01T00:00:00Z","name_a2s":"Uncletopia | Seattle | 2 | All Maps","protocol":17,"map":"cp_sunshine","folder":"tf","game":"Team Fortress","app_id":440,"player_count":7,"max_players":24,"Bots":0,"server_type":"Dedicated","server_os":"Linux","password":true,"vac":true,"version":"7708610","steam_id":85568392924469998,"keywords":["cp","nocrits","nodmgspread","uncletopia"],"game_id":440,"stv_port":27026,"stv_name":"Uncletopia | Seattle | 2 | All Maps | STV","players":[{"user_id":199,"name":"friend of the crow","steam_id":76561198146228439,"connected_time":1049000000000,"state":"active","ping":43},{"user_id":200,"name":"A UsedNom","steam_id":76561198402832756,"connected_time":922000000000,"state":"active","ping":46},{"user_id":208,"name":"Genius Meme","steam_id":76561198162911254,"connected_time":215000000000,"state":"active","ping":91},{"user_id":207,"name":"Schlame-O","steam_id":76561198042518365,"connected_time":353000000000,"state":"active","ping":61},{"user_id":209,"name":"Deno! Í∞ÑÎ∂Ä","steam_id":76561198041113335,"connected_time":86000000000,"state":"active","ping":52},{"user_id":204,"name":"Space bar ¬©","steam_id":76561199405318831,"connected_time":500000000000,"state":"active","ping":95},{"user_id":206,"name":"NRMN","steam_id":76561198086863106,"connected_time":364000000000,"state":"active","ping":52}]},{"server_id":17,"name":"Uncletopia | San Francisco | 1 | All Maps","name_short":"sfo-1","host":"sfo-1.us.uncletopia.com","port":27015,"enabled":true,"region":"us-west","cc":"us","latitude":37.77397,"longitude":-122.4313,"reserved":0,"last_update":"0001-01-01T00:00:00Z","name_a2s":"Uncletopia | San Francisco | 1 | All Maps","protocol":17,"map":"pl_badwater","folder":"tf","game":"Team Fortress","app_id":440,"player_count":16,"max_players":24,"Bots":0,"server_type":"Dedicated","server_os":"Linux","password":true,"vac":true,"version":"7708610","steam_id":85568392924469999,"keywords":["nocrits","nodmgspread","payload","uncletopia"],"game_id":440,"stv_port":27016,"stv_name":"Uncletopia | San Francisco | 1 | All Maps | STV","players":[{"user_id":14,"name":"soapboxracer360","steam_id":76561198316394688,"connected_time":4769000000000,"state":"active","ping":60},{"user_id":88,"name":"pathulhu","steam_id":76561198323941614,"connected_time":35000000000,"state":"active","ping":75},{"user_id":89,"name":"Magical.Puffin","steam_id":76561198129039275,"connected_time":25000000000,"state":"active","ping":45},{"user_id":90,"name":"PeeIsInMyBalls","steam_id":76561198246564994,"connected_time":2000000000,"state":"spawning","ping":105},{"user_id":82,"name":"jesus christ","steam_id":76561198315825042,"connected_time":698000000000,"state":"active","ping":36},{"user_id":71,"name":"DRI","steam_id":76561198157076858,"connected_time":1526000000000,"state":"active","ping":76},{"user_id":23,"name":"BoddhosDaughter","steam_id":76561198140202317,"connected_time":4103000000000,"state":"active","ping":93},{"user_id":85,"name":"[Bandit]","steam_id":76561197986919852,"connected_time":568000000000,"state":"active","ping":61},{"user_id":87,"name":"Madvillain","steam_id":76561198037734204,"connected_time":95000000000,"state":"active","ping":52},{"user_id":51,"name":"pt","steam_id":76561198143023330,"connected_time":3090000000000,"state":"active","ping":47},{"user_id":83,"name":"zaza2k","steam_id":76561198393760567,"connected_time":669000000000,"state":"active","ping":54},{"user_id":75,"name":"Pyrotek‚Å¥","steam_id":76561198072747672,"connected_time":1318000000000,"state":"active","ping":54},{"user_id":84,"name":"Sovietoblaster","steam_id":76561198142330800,"connected_time":666000000000,"state":"active","ping":68},{"user_id":67,"name":"DOOMSDAY","steam_id":76561198265633146,"connected_time":2293000000000,"state":"active","ping":75},{"user_id":73,"name":"GeneticTitan","steam_id":76561198842654995,"connected_time":1375000000000,"state":"active","ping":96},{"user_id":80,"name":"amagicowl","steam_id":76561199060487814,"connected_time":1132000000000,"state":"active","ping":77}]},{"server_id":18,"name":"Uncletopia | San Francisco | 2 | All Maps","name_short":"sfo-2","host":"sfo-1.us.uncletopia.com","port":27025,"enabled":true,"region":"us-west","cc":"us","latitude":37.77397,"longitude":-122.4313,"reserved":0,"last_update":"0001-01-01T00:00:00Z","name_a2s":"Uncletopia | San Francisco | 2 | All Maps","protocol":17,"map":"koth_cascade","folder":"tf","game":"Team Fortress","app_id":440,"player_count":0,"max_players":24,"Bots":0,"server_type":"Dedicated","server_os":"Linux","password":true,"vac":true,"version":"7708610","steam_id":85568392924470000,"keywords":["cp","nocrits","nodmgspread","uncletopia"],"game_id":440,"stv_port":0,"stv_name":"","players":null},{"server_id":19,"name":"Uncletopia | San Francisco | 3 | No Payload","name_short":"sfo-3","host":"sfo-1.us.uncletopia.com","port":27035,"enabled":true,"region":"us-west","cc":"us","latitude":37.77397,"longitude":-122.4313,"reserved":0,"last_update":"0001-01-01T00:00:00Z","name_a2s":"Uncletopia | San Francisco | 3 | No Payload","protocol":17,"map":"cp_yukon_final","folder":"tf","game":"Team Fortress","app_id":440,"player_count":0,"max_players":24,"Bots":0,"server_type":"Dedicated","server_os":"Linux","password":true,"vac":true,"version":"7708610","steam_id":85568392924742824,"keywords":["cp","nocrits","nodmgspread","uncletopia"],"game_id":440,"stv_port":27036,"stv_name":"Uncletopia | San Francisco | 3 | No Payload | STV","players":null},{"server_id":20,"name":"Uncletopia | San Francisco | 4 | Community","name_short":"sfo-4","host":"sfo-1.us.uncletopia.com","port":27045,"enabled":true,"region":"us-west","cc":"us","latitude":37.77397,"longitude":-122.4313,"reserved":0,"last_update":"0001-01-01T00:00:00Z","name_a2s":"Uncletopia | San Francisco | 4 | Community","protocol":17,"map":"workshop/koth_synthetic_rc6a.ugc1549817316","folder":"tf","game":"Team Fortress","app_id":440,"player_count":0,"max_players":24,"Bots":0,"server_type":"Dedicated","server_os":"Linux","password":true,"vac":true,"version":"7708610","steam_id":85568392924742826,"keywords":["cp","nocrits","nodmgspread","uncletopia"],"game_id":440,"stv_port":27046,"stv_name":"Uncletopia | San Francisco | 4 | Community | STV","players":null},{"server_id":141,"name":"Uncletopia | Sydney | 1 | All Maps","name_short":"syd-1","host":"syd-1.au.uncletopia.com","port":27015,"enabled":true,"region":"au","cc":"au","latitude":-33.865143,"longitude":151.2099,"reserved":0,"last_update":"0001-01-01T00:00:00Z","name_a2s":"Uncletopia | Sydney | 1 | All Maps","protocol":17,"map":"pl_barnblitz","folder":"tf","game":"Team Fortress","app_id":440,"player_count":24,"max_players":24,"Bots":0,"server_type":"Dedicated","server_os":"Linux","password":true,"vac":true,"version":"7708610","steam_id":85568392924470001,"keywords":["nocrits","nodmgspread","payload","uncletopia"],"game_id":440,"stv_port":27016,"stv_name":"Uncletopia | Sydney | 1 | All Maps | STV","players":[{"user_id":238,"name":"texastoetickler","steam_id":76561198215476604,"connected_time":586000000000,"state":"active","ping":93},{"user_id":228,"name":"Marzell","steam_id":76561198151276153,"connected_time":1736000000000,"state":"active","ping":80},{"user_id":185,"name":"D E T H","steam_id":76561198406959622,"connected_time":4203000000000,"state":"active","ping":51},{"user_id":200,"name":"Floppy","steam_id":76561198296769665,"connected_time":3415000000000,"state":"active","ping":160},{"user_id":226,"name":"ToadFungus","steam_id":76561199219667039,"connected_time":1847000000000,"state":"active","ping":102},{"user_id":214,"name":"Literally Jetstream Sam (Bea)","steam_id":76561198353495418,"connected_time":2114000000000,"state":"active","ping":44},{"user_id":239,"name":"Chingus The Chinese Bingus","steam_id":76561199442692649,"connected_time":549000000000,"state":"active","ping":169},{"user_id":240,"name":"-pandora","steam_id":76561198108851796,"connected_time":503000000000,"state":"active","ping":65},{"user_id":248,"name":"The Goodnight Kiwi","steam_id":76561198866433807,"connected_time":32000000000,"state":"active","ping":60},{"user_id":216,"name":"pokermaster22","steam_id":76561198042198744,"connected_time":2092000000000,"state":"active","ping":44},{"user_id":227,"name":"Moldy","steam_id":76561198824771774,"connected_time":1820000000000,"state":"active","ping":49},{"user_id":242,"name":"Aspendale Assassin","steam_id":76561198086794190,"connected_time":430000000000,"state":"active","ping":69},{"user_id":229,"name":"bweegus wagoogus glumbus","steam_id":76561198063481761,"connected_time":1485000000000,"state":"active","ping":45},{"user_id":247,"name":"CouldBeKarlos","steam_id":76561198956180767,"connected_time":109000000000,"state":"active","ping":56},{"user_id":220,"name":"Selling Anti-Matter for $543","steam_id":76561198070708382,"connected_time":2021000000000,"state":"active","ping":59},{"user_id":243,"name":"Kalcyte","steam_id":76561198101887702,"connected_time":410000000000,"state":"active","ping":51},{"user_id":236,"name":"Mad(enninglyFestive)mannsHat","steam_id":76561199063185304,"connected_time":628000000000,"state":"active","ping":70},{"user_id":222,"name":"Marleynator","steam_id":76561198042517985,"connected_time":1995000000000,"state":"active","ping":78},{"user_id":230,"name":"gaming","steam_id":76561198267552367,"connected_time":1306000000000,"state":"active","ping":55},{"user_id":156,"name":"jerry","steam_id":76561199046481213,"connected_time":7102000000000,"state":"active","ping":68},{"user_id":233,"name":"Gavin.","steam_id":76561198405783348,"connected_time":823000000000,"state":"active","ping":57},{"user_id":244,"name":"Kiwoo","steam_id":76561198097429186,"connected_time":389000000000,"state":"active","ping":94},{"user_id":245,"name":"krandlez` (Any/All)","steam_id":76561198044839726,"connected_time":383000000000,"state":"active","ping":41},{"user_id":246,"name":"Pookie","steam_id":76561198812306030,"connected_time":355000000000,"state":"active","ping":54}]},{"server_id":123,"name":"Uncletopia | Sydney | 2 | All Maps","name_short":"syd-2","host":"syd-1.au.uncletopia.com","port":27025,"enabled":true,"region":"au","cc":"au","latitude":-33.865143,"longitude":151.2099,"reserved":0,"last_update":"0001-01-01T00:00:00Z","name_a2s":"Uncletopia | Sydney | 2 | All Maps","protocol":17,"map":"koth_highpass","folder":"tf","game":"Team Fortress","app_id":440,"player_count":0,"max_players":24,"Bots":0,"server_type":"Dedicated","server_os":"Linux","password":true,"vac":true,"version":"7708610","steam_id":85568392924470002,"keywords":["cp","nocrits","nodmgspread","uncletopia"],"game_id":440,"stv_port":27026,"stv_name":"Uncletopia | Sydney | 2 | All Maps | STV","players":null},{"server_id":395,"name":"Uncletopia | Sydney | 3 | All Maps","name_short":"syd-3","host":"syd-1.au.uncletopia.com","port":27035,"enabled":true,"region":"au","cc":"au","latitude":-33.865143,"longitude":151.2099,"reserved":0,"last_update":"0001-01-01T00:00:00Z","name_a2s":"Uncletopia | Sydney | 3 | All Maps","protocol":17,"map":"koth_viaduct","folder":"tf","game":"Team Fortress","app_id":440,"player_count":0,"max_players":24,"Bots":0,"server_type":"Dedicated","server_os":"Linux","password":true,"vac":true,"version":"7708610","steam_id":85568392925194467,"keywords":["cp","nocrits","nodmgspread","uncletopia"],"game_id":440,"stv_port":27036,"stv_name":"Uncletopia | Sydney | 3 | All Maps | STV","players":null},{"server_id":396,"name":"Uncletopia | Sydney | 4 | All Maps","name_short":"syd-4","host":"syd-1.au.uncletopia.com","port":27045,"enabled":true,"region":"au","cc":"au","latitude":-33.865143,"longitude":151.2099,"reserved":0,"last_update":"0001-01-01T00:00:00Z","name_a2s":"Uncletopia | Sydney | 4 | All Maps","protocol":17,"map":"koth_lakeside_final","folder":"tf","game":"Team Fortress","app_id":440,"player_count":0,"max_players":24,"Bots":0,"server_type":"Dedicated","server_os":"Linux","password":true,"vac":true,"version":"7708610","steam_id":85568392925397958,"keywords":["cp","nocrits","nodmgspread","uncletopia"],"game_id":440,"stv_port":0,"stv_name":"","players":null},{"server_id":58,"name":"Uncletopia | Sydney | 5 | No Payload","name_short":"syd-5","host":"syd-1.au.uncletopia.com","port":27055,"enabled":true,"region":"au","cc":"au","latitude":-33.865143,"longitude":151.2099,"reserved":0,"last_update":"0001-01-01T00:00:00Z","name_a2s":"Uncletopia | Sydney | 5 | No Payload","protocol":17,"map":"koth_cascade","folder":"tf","game":"Team Fortress","app_id":440,"player_count":0,"max_players":24,"Bots":0,"server_type":"Dedicated","server_os":"Linux","password":true,"vac":true,"version":"7708610","steam_id":85568392925397959,"keywords":["cp","nocrits","nodmgspread","uncletopia"],"game_id":440,"stv_port":0,"stv_name":"","players":null},{"server_id":59,"name":"Uncletopia | Sydney | 6 | Community","name_short":"syd-6","host":"syd-1.au.uncletopia.com","port":27065,"enabled":true,"region":"au","cc":"au","latitude":-33.865143,"longitude":151.2099,"reserved":0,"last_update":"0001-01-01T00:00:00Z","name_a2s":"Uncletopia | Sydney | 6 | Community","protocol":17,"map":"workshop/koth_synthetic_rc6a.ugc1549817316","folder":"tf","game":"Team Fortress","app_id":440,"player_count":0,"max_players":24,"Bots":0,"server_type":"Dedicated","server_os":"Linux","password":true,"vac":true,"version":"7708610","steam_id":85568392925397960,"keywords":["cp","nocrits","nodmgspread","uncletopia"],"game_id":440,"stv_port":27066,"stv_name":"Uncletopia | Sydney | 6 | Community | STV","players":null},{"server_id":49,"name":"Uncletopia | Warsaw | 1 | All Maps","name_short":"waw-1","host":"waw-1.pl.uncletopia.com","port":27015,"enabled":true,"region":"eu","cc":"pl","latitude":52.2297,"longitude":21.017532,"reserved":0,"last_update":"0001-01-01T00:00:00Z","name_a2s":"Uncletopia | Warsaw | 1 | All Maps","protocol":17,"map":"koth_viaduct","folder":"tf","game":"Team Fortress","app_id":440,"player_count":0,"max_players":24,"Bots":0,"server_type":"Dedicated","server_os":"Linux","password":true,"vac":true,"version":"7708610","steam_id":85568392925397850,"keywords":["cp","nocrits","nodmgspread","uncletopia"],"game_id":440,"stv_port":27016,"stv_name":"Uncletopia | Warsaw | 1 | All Maps | STV","players":null},{"server_id":50,"name":"Uncletopia | Warsaw | 2 | All Maps","name_short":"waw-2","host":"waw-1.pl.uncletopia.com","port":27025,"enabled":true,"region":"eu","cc":"pl","latitude":52.2297,"longitude":21.017532,"reserved":0,"last_update":"0001-01-01T00:00:00Z","name_a2s":"Uncletopia | Warsaw | 2 | All Maps","protocol":17,"map":"koth_lakeside_final","folder":"tf","game":"Team Fortress","app_id":440,"player_count":0,"max_players":24,"Bots":0,"server_type":"Dedicated","server_os":"Linux","password":true,"vac":true,"version":"7708610","steam_id":85568392925397851,"keywords":["cp","nocrits","nodmgspread","uncletopia"],"game_id":440,"stv_port":27026,"stv_name":"Uncletopia | Warsaw | 2 | All Maps | STV","players":null},{"server_id":51,"name":"Uncletopia | Warsaw | 3 | All Maps","name_short":"waw-3","host":"waw-1.pl.uncletopia.com","port":27035,"enabled":true,"region":"eu","cc":"pl","latitude":52.2297,"longitude":21.017532,"reserved":0,"last_update":"0001-01-01T00:00:00Z","name_a2s":"Uncletopia | Warsaw | 3 | All Maps","protocol":17,"map":"koth_highpass","folder":"tf","game":"Team Fortress","app_id":440,"player_count":0,"max_players":24,"Bots":0,"server_type":"Dedicated","server_os":"Linux","password":true,"vac":true,"version":"7708610","steam_id":85568392925397852,"keywords":["cp","nocrits","nodmgspread","uncletopia"],"game_id":440,"stv_port":27036,"stv_name":"Uncletopia | Warsaw | 3 | All Maps | STV","players":null},{"server_id":52,"name":"Uncletopia | Warsaw | 4 | All Maps","name_short":"waw-4","host":"waw-1.pl.uncletopia.com","port":27045,"enabled":true,"region":"eu","cc":"pl","latitude":52.2297,"longitude":21.017532,"reserved":0,"last_update":"0001-01-01T00:00:00Z","name_a2s":"Uncletopia | Warsaw | 4 | All Maps","protocol":17,"map":"cp_process_final","folder":"tf","game":"Team Fortress","app_id":440,"player_count":0,"max_players":24,"Bots":0,"server_type":"Dedicated","server_os":"Linux","password":true,"vac":true,"version":"7708610","steam_id":85568392925397853,"keywords":["cp","nocrits","nodmgspread","uncletopia"],"game_id":440,"stv_port":27046,"stv_name":"Uncletopia | Warsaw | 4 | All Maps | STV","players":null},{"server_id":53,"name":"Uncletopia | Warsaw | 5 | No Payload","name_short":"waw-5","host":"waw-1.pl.uncletopia.com","port":27055,"enabled":true,"region":"eu","cc":"pl","latitude":52.2297,"longitude":21.017532,"reserved":0,"last_update":"0001-01-01T00:00:00Z","name_a2s":"Uncletopia | Warsaw | 5 | No Payload","protocol":17,"map":"plr_pipeline","folder":"tf","game":"Team Fortress","app_id":440,"player_count":0,"max_players":24,"Bots":0,"server_type":"Dedicated","server_os":"Linux","password":true,"vac":true,"version":"7708610","steam_id":85568392925397854,"keywords":["nocrits","nodmgspread","payload","uncletopia"],"game_id":440,"stv_port":27056,"stv_name":"Uncletopia | Warsaw | 5 | No Payload | STV","players":null},{"server_id":54,"name":"Uncletopia | Warsaw | 6 | Community","name_short":"waw-6","host":"waw-1.pl.uncletopia.com","port":27065,"enabled":true,"region":"eu","cc":"pl","latitude":52.2297,"longitude":21.017532,"reserved":0,"last_update":"0001-01-01T00:00:00Z","name_a2s":"Uncletopia | Warsaw | 6 | Community","protocol":17,"map":"koth_highpass","folder":"tf","game":"Team Fortress","app_id":440,"player_count":0,"max_players":24,"Bots":0,"server_type":"Dedicated","server_os":"Linux","password":true,"vac":true,"version":"7708610","steam_id":85568392925397856,"keywords":["cp","nocrits","nodmgspread","uncletopia"],"game_id":440,"stv_port":0,"stv_name":"","players":null}]}