{"status":true,"message":"","result":[{"server_id":9,"name":"Uncletopia | Atlanta | 1 | All Maps","name_short":"atl-1","host":"atl-1.us.uncletopia.com","port":27015,"enabled":true,"region":"us-east","cc":"us","latitude":33.753746,"longitude":-84.38633,"reserved":0,"last_update":"0001-01-01T00:00:00Z","name_a2s":"Uncletopia | Atlanta | 1 | All Maps","protocol":17,"map":"koth_lakeside_final","folder":"tf","game":"Team Fortress","app_id":440,"player_count":0,"max_players":24,"Bots":0,"server_type":"Dedicated","server_os":"Linux","password":true,"vac":true,"version":"7932396","steam_id":85568392924469982,"keywords":["cp","nocrits","nodmgspread","uncletopia"],"game_id":440,"stv_port":27016,"stv_name":"Uncletopia | Atlanta | 1 | All Maps | STV","players":null},{"server_id":104,"name":"Uncletopia | Atlanta | 2 | All Maps","name_short":"atl-2","host":"atl-1.us.uncletopia.com","port":27025,"enabled":true,"region":"us-east","cc":"us","latitude":33.753746,"longitude":-84.38633,"reserved":0,"last_update":"0001-01-01T00:00:00Z","name_a2s":"Uncletopia | Atlanta | 2 | All Maps","protocol":17,"map":"pl_badwater","folder":"tf","game":"Team Fortress","app_id":440,"player_count":22,"max_players":24,"Bots":0,"server_type":"Dedicated","server_os":"Linux","password":true,"vac":true,"version":"7932396","steam_id":85568392924469983,"keywords":["nocrits","nodmgspread","payload","uncletopia"],"game_id":440,"stv_port":27026,"stv_name":"Uncletopia | Atlanta | 2 | All Maps | STV","players":[{"user_id":315,"name":"popfulmail","steam_id":76561198865971290,"connected_time":5000000000,"state":"spawning","ping":121},{"user_id":239,"name":"[SAW] Lost Darkrai","steam_id":76561198021034873,"connected_time":1968000000000,"state":"active","ping":101},{"user_id":314,"name":"Grify","steam_id":76561198012292317,"connected_time":59000000000,"state":"active","ping":107},{"user_id":316,"name":"MrRobbins","steam_id":76561199171169987,"connected_time":2000000000,"state":"spawning","ping":131},{"user_id":312,"name":"Spy on cart","steam_id":76561198025466913,"connected_time":84000000000,"state":"active","ping":131},{"user_id":310,"name":"Praxis","steam_id":76561197960794303,"connected_time":201000000000,"state":"active","ping":147},{"user_id":179,"name":"Lumi","steam_id":76561198089978036,"connected_time":3755000000000,"state":"active","ping":87},{"user_id":252,"name":"cake-mix","steam_id":76561199475394535,"connected_time":1664000000000,"state":"active","ping":133},{"user_id":165,"name":"Charlotte","steam_id":76561199084344266,"connected_time":4210000000000,"state":"active","ping":105},{"user_id":271,"name":"Cretin32","steam_id":76561198986265728,"connected_time":1330000000000,"state":"active","ping":120},{"user_id":166,"name":"Necrohexen kitten69","steam_id":76561199152270059,"connected_time":4109000000000,"state":"active","ping":110},{"user_id":237,"name":"FamishedNinja","steam_id":76561198310786497,"connected_time":2125000000000,"state":"active","ping":140},{"user_id":246,"name":"Mighty","steam_id":76561198096569755,"connected_time":1872000000000,"state":"active","ping":137},{"user_id":257,"name":"listerine","steam_id":76561198041104084,"connected_time":1542000000000,"state":"active","ping":87},{"user_id":289,"name":"Carpetspill","steam_id":76561198240023406,"connected_time":851000000000,"state":"active","ping":98},{"user_id":308,"name":"ADRIEN BRODY","steam_id":76561198009299473,"connected_time":252000000000,"state":"active","ping":94},{"user_id":212,"name":"PyroTechno","steam_id":76561198060929872,"connected_time":2766000000000,"state":"active","ping":75},{"user_id":313,"name":"CBTGaeming","steam_id":76561199089290128,"connected_time":83000000000,"state":"active","ping":163},{"user_id":242,"name":"kikor8454","steam_id":76561199229716536,"connected_time":1940000000000,"state":"active","ping":103},{"user_id":286,"name":"D(b) Hell","steam_id":76561198067869016,"connected_time":895000000000,"state":"active","ping":95},{"user_id":305,"name":"Feed Me 20 lb Bag Of Ice","steam_id":76561198014238912,"connected_time":393000000000,"state":"active","ping":99},{"user_id":250,"name":"Loaf","steam_id":76561198446378419,"connected_time":1780000000000,"state":"active","ping":99}]},{"server_id":400,"name":"Uncletopia | Atlanta | 3 | Community","name_short":"atl-3","host":"atl-1.us.uncletopia.com","port":27035,"enabled":true,"region":"us-east","cc":"us","latitude":33.753746,"longitude":-84.38633,"reserved":0,"last_update":"0001-01-01T00:00:00Z","name_a2s":"Uncletopia | Atlanta | 3 | Community","protocol":17,"map":"workshop/cp_logjam_rc12.ugc454812035","folder":"tf","game":"Team Fortress","app_id":440,"player_count":0,"max_players":24,"Bots":0,"server_type":"Dedicated","server_os":"Linux","password":true,"vac":true,"version":"7932396","steam_id":85568392924515187,"keywords":["cp","nocrits","nodmgspread","uncletopia"],"game_id":440,"stv_port":27036,"stv_name":"Uncletopia | Atlanta | 3 | Community | STV","players":null},{"server_id":401,"name":"Uncletopia | Atlanta | 4 | No Payload","name_short":"atl-4","host":"atl-1.us.uncletopia.com","port":27045,"enabled":true,"region":"us-east","cc":"us","latitude":33.753746,"longitude":-84.38633,"reserved":0,"last_update":"0001-01-01T00:00:00Z","name_a2s":"","protocol":0,"map":"","folder":"","game":"","app_id":0,"player_count":0,"max_players":0,"Bots":0,"server_type":"","server_os":"","password":false,"vac":false,"version":"","steam_id":0,"keywords":null,"game_id":0,"stv_port":0,"stv_name":"","players":null},{"server_id":2,"name":"Uncletopia | Chicago | 1 | All Maps","name_short":"chi-1","host":"chi-1.us.uncletopia.com","port":27015,"enabled":true,"region":"us-central","cc":"us","latitude":41.881832,"longitude":-87.62318,"reserved":0,"last_update":"0001-01-01T00:00:00Z","name_a2s":"Uncletopia | Chicago | 1 | All Maps","protocol":17,"map":"pl_pier","folder":"tf","game":"Team Fortress","app_id":440,"player_count":24,"max_players":24,"Bots":0,"server_type":"Dedicated","server_os":"Linux","password":true,"vac":true,"version":"7932396","steam_id":85568392924469984,"keywords":["nocrits","nodmgspread","payload","uncletopia"],"game_id":440,"stv_port":27016,"stv_name":"Uncletopia | Chicago | 1 | All Maps | STV","players":[{"user_id":166,"name":"Zixzs","steam_id":76561198055504126,"connected_time":7026000000000,"state":"active","ping":66},{"user_id":252,"name":"Kiphus","steam_id":76561198025289407,"connected_time":201000000000,"state":"active","ping":72},{"user_id":250,"name":"Drapph","steam_id":76561199384213314,"connected_time":504000000000,"state":"active","ping":60},{"user_id":234,"name":"trollgenier","steam_id":76561198882404753,"connected_time":1699000000000,"state":"active","ping":81},{"user_id":249,"name":"crayonnipple","steam_id":76561198070253331,"connected_time":824000000000,"state":"active","ping":69},{"user_id":242,"name":"qt pa 2t","steam_id":76561198066867150,"connected_time":1143000000000,"state":"active","ping":63},{"user_id":244,"name":"Captain Buggy","steam_id":76561198024444448,"connected_time":1080000000000,"state":"active","ping":101},{"user_id":224,"name":"Liquid Oxycodone","steam_id":76561198154162664,"connected_time":2149000000000,"state":"active","ping":78},{"user_id":245,"name":"Yam Jazzy Jim","steam_id":76561198000788950,"connected_time":1063000000000,"state":"active","ping":65},{"user_id":240,"name":"Maverick","steam_id":76561198322829814,"connected_time":1160000000000,"state":"active","ping":82},{"user_id":248,"name":"Ojen","steam_id":76561197998414482,"connected_time":895000000000,"state":"active","ping":70},{"user_id":226,"name":"JimmyNeutron","steam_id":76561197993353322,"connected_time":2130000000000,"state":"active","ping":60},{"user_id":227,"name":"Too silly for Billy","steam_id":76561198352111365,"connected_time":2111000000000,"state":"active","ping":79},{"user_id":201,"name":"Cheesi","steam_id":76561199417190840,"connected_time":4346000000000,"state":"active","ping":63},{"user_id":198,"name":"Mel","steam_id":76561198156351516,"connected_time":4678000000000,"state":"active","ping":58},{"user_id":231,"name":"DragonFalcon™","steam_id":76561198044559930,"connected_time":1825000000000,"state":"active","ping":86},{"user_id":237,"name":"brains","steam_id":76561198197388678,"connected_time":1417000000000,"state":"active","ping":90},{"user_id":190,"name":"kite","steam_id":76561198346516392,"connected_time":5714000000000,"state":"active","ping":70},{"user_id":253,"name":"Tito","steam_id":76561198041702529,"connected_time":41000000000,"state":"active","ping":271},{"user_id":229,"name":"i miss fauna","steam_id":76561198062566670,"connected_time":2093000000000,"state":"active","ping":61},{"user_id":197,"name":"The Poop Dealer","steam_id":76561198141198352,"connected_time":4708000000000,"state":"active","ping":46},{"user_id":222,"name":"Kero","steam_id":76561198343231436,"connected_time":2188000000000,"state":"active","ping":63},{"user_id":235,"name":"Squiliam","steam_id":76561198025278006,"connected_time":1692000000000,"state":"active","ping":73},{"user_id":251,"name":"Lia_Rein","steam_id":76561198151569597,"connected_time":325000000000,"state":"active","ping":158}]},{"server_id":106,"name":"Uncletopia | Chicago | 2 | All Maps","name_short":"chi-2","host":"chi-1.us.uncletopia.com","port":27025,"enabled":true,"region":"us-central","cc":"us","latitude":41.881832,"longitude":-87.62318,"reserved":0,"last_update":"0001-01-01T00:00:00Z","name_a2s":"Uncletopia | Chicago | 2 | All Maps","protocol":17,"map":"pl_badwater","folder":"tf","game":"Team Fortress","app_id":440,"player_count":24,"max_players":24,"Bots":0,"server_type":"Dedicated","server_os":"Linux","password":true,"vac":true,"version":"7932396","steam_id":85568392924469985,"keywords":["nocrits","nodmgspread","payload","uncletopia"],"game_id":440,"stv_port":27026,"stv_name":"Uncletopia | Chicago | 2 | All Maps | STV","players":[{"user_id":332,"name":"Fred II (2011)","steam_id":76561199240694966,"connected_time":5949000000000,"state":"active","ping":72},{"user_id":343,"name":"Jeong Jeong","steam_id":76561198125063586,"connected_time":4992000000000,"state":"active","ping":43},{"user_id":382,"name":"the engineer","steam_id":76561199467412609,"connected_time":2104000000000,"state":"active","ping":62},{"user_id":345,"name":"ExtremeDucks","steam_id":76561198351756464,"connected_time":4959000000000,"state":"active","ping":91},{"user_id":386,"name":"HOTA","steam_id":76561199002778841,"connected_time":1612000000000,"state":"active","ping":77},{"user_id":326,"name":"C Papi","steam_id":76561198027779564,"connected_time":6951000000000,"state":"active","ping":53},{"user_id":354,"name":"Zen","steam_id":76561199008362890,"connected_time":4227000000000,"state":"active","ping":60},{"user_id":320,"name":"I.C. Weiner","steam_id":76561199483183459,"connected_time":7147000000000,"state":"active","ping":98},{"user_id":373,"name":"Dr. Doofenshmirtz","steam_id":76561198898154614,"connected_time":3034000000000,"state":"active","ping":54},{"user_id":393,"name":"53differentmen","steam_id":76561198982477860,"connected_time":1317000000000,"state":"active","ping":67},{"user_id":390,"name":"hmls","steam_id":76561198073742411,"connected_time":1581000000000,"state":"active","ping":60},{"user_id":371,"name":"Captain Demytri","steam_id":76561198097998607,"connected_time":3066000000000,"state":"active","ping":47},{"user_id":385,"name":"TravelerFinis","steam_id":76561199181244690,"connected_time":1863000000000,"state":"active","ping":118},{"user_id":378,"name":"Waddlehi","steam_id":76561198072553840,"connected_time":2423000000000,"state":"active","ping":64},{"user_id":368,"name":"Dead_Stranger","steam_id":76561198120804563,"connected_time":3672000000000,"state":"active","ping":108},{"user_id":384,"name":"the grink","steam_id":76561198172454407,"connected_time":1920000000000,"state":"active","ping":75},{"user_id":374,"name":"Taco","steam_id":76561198158621392,"connected_time":3032000000000,"state":"active","ping":60},{"user_id":338,"name":"Miner2495","steam_id":76561198445904523,"connected_time":5870000000000,"state":"active","ping":68},{"user_id":375,"name":"hido","steam_id":76561199190501445,"connected_time":3007000000000,"state":"active","ping":95},{"user_id":388,"name":"Spooks","steam_id":76561198295582418,"connected_time":1598000000000,"state":"active","ping":70},{"user_id":394,"name":"Smile from God","steam_id":76561198032663494,"connected_time":568000000000,"state":"active","ping":78},{"user_id":387,"name":"SharkBearGator","steam_id":76561198071233739,"connected_time":1611000000000,"state":"active","ping":60},{"user_id":119,"name":"daemon","steam_id":76561198001541433,"connected_time":24024000000000,"state":"active","ping":52},{"user_id":392,"name":"Rukh","steam_id":76561197999361315,"connected_time":1557000000000,"state":"active","ping":100}]},{"server_id":402,"name":"Uncletopia | Chicago | 3 | All Maps","name_short":"chi-3","host":"chi-1.us.uncletopia.com","port":27035,"enabled":true,"region":"us-central","cc":"us","latitude":41.881832,"longitude":-87.62318,"reserved":0,"last_update":"0001-01-01T00:00:00Z","name_a2s":"Uncletopia | Chicago | 3 | All Maps","protocol":17,"map":"pl_barnblitz","folder":"tf","game":"Team Fortress","app_id":440,"player_count":23,"max_players":24,"Bots":0,"server_type":"Dedicated","server_os":"Linux","password":true,"vac":true,"version":"7932396","steam_id":85568392924515191,"keywords":["nocrits","nodmgspread","payload","uncletopia"],"game_id":440,"stv_port":27036,"stv_name":"Uncletopia | Chicago | 3 | All Maps | STV","players":[{"user_id":175,"name":"Duke Nuking","steam_id":76561198177607334,"connected_time":212000000000,"state":"active","ping":102},{"user_id":127,"name":"Broadsword","steam_id":76561198011160411,"connected_time":5457000000000,"state":"active","ping":86},{"user_id":172,"name":"Barlon","steam_id":76561198023717515,"connected_time":263000000000,"state":"active","ping":74},{"user_id":119,"name":"richarven","steam_id":76561198189429665,"connected_time":6547000000000,"state":"active","ping":74},{"user_id":182,"name":"[chef] iron","steam_id":76561197970888616,"connected_time":21000000000,"state":"active","ping":45},{"user_id":174,"name":"L + Ratio","steam_id":76561198263786953,"connected_time":218000000000,"state":"active","ping":85},{"user_id":154,"name":"Allahgator","steam_id":76561198280659041,"connected_time":2725000000000,"state":"active","ping":72},{"user_id":169,"name":"sex (real)","steam_id":76561198396414319,"connected_time":978000000000,"state":"active","ping":102},{"user_id":176,"name":"normal","steam_id":76561198133712839,"connected_time":171000000000,"state":"active","ping":74},{"user_id":158,"name":"›› SpyMaster","steam_id":76561198218719943,"connected_time":1825000000000,"state":"active","ping":93},{"user_id":160,"name":"-͜ -","steam_id":76561198082295223,"connected_time":1804000000000,"state":"active","ping":77},{"user_id":155,"name":"Eins","steam_id":76561199030343810,"connected_time":2561000000000,"state":"active","ping":61},{"user_id":161,"name":"Tanna Tuver","steam_id":76561198382485444,"connected_time":1803000000000,"state":"active","ping":63},{"user_id":173,"name":"Pete","steam_id":76561198070499160,"connected_time":241000000000,"state":"active","ping":53},{"user_id":183,"name":"AlcoholicKitty","steam_id":76561198084763130,"connected_time":10000000000,"state":"spawning","ping":56},{"user_id":157,"name":"GaiBerd","steam_id":76561198177100634,"connected_time":2506000000000,"state":"active","ping":58},{"user_id":164,"name":"TheGuyWhoPlays","steam_id":76561198277363002,"connected_time":1169000000000,"state":"active","ping":61},{"user_id":184,"name":"the grundle fondler","steam_id":76561198095452955,"connected_time":4000000000,"state":"spawning","ping":61},{"user_id":171,"name":"Momazos","steam_id":76561198346410032,"connected_time":965000000000,"state":"active","ping":113},{"user_id":128,"name":":)","steam_id":76561198093921290,"connected_time":5314000000000,"state":"active","ping":46},{"user_id":178,"name":"Lowvast","steam_id":76561198068455981,"connected_time":125000000000,"state":"active","ping":73},{"user_id":61,"name":"J The Jounin","steam_id":76561198034583622,"connected_time":10568000000000,"state":"active","ping":78},{"user_id":145,"name":"MILKY","steam_id":76561198073114061,"connected_time":3252000000000,"state":"active","ping":68}]},{"server_id":403,"name":"Uncletopia | Chicago | 4 | All Maps","name_short":"chi-4","host":"chi-1.us.uncletopia.com","port":27045,"enabled":true,"region":"us-central","cc":"us","latitude":41.881832,"longitude":-87.62318,"reserved":0,"last_update":"0001-01-01T00:00:00Z","name_a2s":"Uncletopia | Chicago | 4 | All Maps","protocol":17,"map":"pl_borneo","folder":"tf","game":"Team Fortress","app_id":440,"player_count":24,"max_players":24,"Bots":0,"server_type":"Dedicated","server_os":"Linux","password":true,"vac":true,"version":"7932396","steam_id":85568392924515193,"keywords":["nocrits","nodmgspread","payload","uncletopia"],"game_id":440,"stv_port":27046,"stv_name":"Uncletopia | Chicago | 4 | All Maps | STV","players":[{"user_id":184,"name":"Ohio Survivor","steam_id":76561198031675881,"connected_time":6154000000000,"state":"active","ping":40},{"user_id":271,"name":"Hob-Goblin Jim The IV","steam_id":76561199046650666,"connected_time":114000000000,"state":"active","ping":54},{"user_id":228,"name":"Noahthecrazy1","steam_id":76561199152995909,"connected_time":3107000000000,"state":"active","ping":81},{"user_id":253,"name":"CardPenguin","steam_id":76561198153669555,"connected_time":1401000000000,"state":"active","ping":84},{"user_id":272,"name":"M","steam_id":76561198286792807,"connected_time":111000000000,"state":"active","ping":73},{"user_id":256,"name":"Trogdor","steam_id":76561198121353181,"connected_time":1090000000000,"state":"active","ping":84},{"user_id":269,"name":"Petrivus","steam_id":76561198202152453,"connected_time":548000000000,"state":"active","ping":102},{"user_id":238,"name":"Preacher","steam_id":76561198022215764,"connected_time":2555000000000,"state":"active","ping":76},{"user_id":232,"name":"violent monkey porn","steam_id":76561199285074344,"connected_time":2861000000000,"state":"active","ping":69},{"user_id":270,"name":"Steve Buscemi's Left Nut","steam_id":76561198047845399,"connected_time":400000000000,"state":"active","ping":73},{"user_id":259,"name":"goose","steam_id":76561198367551668,"connected_time":1045000000000,"state":"active","ping":50},{"user_id":246,"name":"Bluedemon","steam_id":76561199212058684,"connected_time":1831000000000,"state":"active","ping":105},{"user_id":261,"name":"ArcWorld Tour Nerf Bat","steam_id":76561198257691881,"connected_time":977000000000,"state":"active","ping":86},{"user_id":211,"name":"Matchstick","steam_id":76561198399856863,"connected_time":4812000000000,"state":"active","ping":96},{"user_id":263,"name":"fifteen22","steam_id":76561198138781868,"connected_time":943000000000,"state":"active","ping":69},{"user_id":237,"name":"RiverEgg","steam_id":76561198888913405,"connected_time":2619000000000,"state":"active","ping":56},{"user_id":249,"name":"god's drunkest driver","steam_id":76561198069407799,"connected_time":1669000000000,"state":"active","ping":77},{"user_id":268,"name":"Toast","steam_id":76561199207957224,"connected_time":557000000000,"state":"active","ping":95},{"user_id":266,"name":"Cerabond","steam_id":76561199230915333,"connected_time":708000000000,"state":"active","ping":79},{"user_id":255,"name":"Ultra","steam_id":76561198204547111,"connected_time":1327000000000,"state":"active","ping":61},{"user_id":273,"name":"P.C. Baby","steam_id":76561198067011379,"connected_time":106000000000,"state":"active","ping":116},{"user_id":205,"name":"Vortigon23","steam_id":76561198116361805,"connected_time":5321000000000,"state":"active","ping":83},{"user_id":274,"name":"Rune","steam_id":76561198098778453,"connected_time":59000000000,"state":"active","ping":72},{"user_id":115,"name":"Warfarin","steam_id":76561198348354629,"connected_time":13503000000000,"state":"active","ping":103}]},{"server_id":36,"name":"Uncletopia | Chicago | 5 | All Maps","name_short":"chi-5","host":"chi-2.us.uncletopia.com","port":27015,"enabled":true,"region":"us-central","cc":"us","latitude":41.881832,"longitude":-87.62318,"reserved":0,"last_update":"0001-01-01T00:00:00Z","name_a2s":"Uncletopia | Chicago | 5 | All Maps","protocol":17,"map":"koth_nucleus","folder":"tf","game":"Team Fortress","app_id":440,"player_count":24,"max_players":24,"Bots":0,"server_type":"Dedicated","server_os":"Linux","password":true,"vac":true,"version":"7932396","steam_id":85568392924866362,"keywords":["cp","nocrits","nodmgspread","uncletopia"],"game_id":440,"stv_port":27016,"stv_name":"Uncletopia | Chicago | 5 | All Maps | STV","players":[{"user_id":471,"name":"Not Giga Chad","steam_id":76561198059785363,"connected_time":153000000000,"state":"active","ping":71},{"user_id":462,"name":"Farmer From The Barnyard","steam_id":76561198138054595,"connected_time":607000000000,"state":"active","ping":59},{"user_id":469,"name":"fresco","steam_id":76561199101199477,"connected_time":316000000000,"state":"active","ping":62},{"user_id":454,"name":"berezet","steam_id":76561198799204433,"connected_time":1072000000000,"state":"active","ping":110},{"user_id":468,"name":"BiggsyBoy","steam_id":76561198119656147,"connected_time":435000000000,"state":"active","ping":60},{"user_id":455,"name":"sir jayden","steam_id":76561198077866090,"connected_time":1068000000000,"state":"active","ping":97},{"user_id":281,"name":"Snake Handler","steam_id":76561198027198306,"connected_time":13511000000000,"state":"active","ping":50},{"user_id":421,"name":"beans","steam_id":76561199240291695,"connected_time":3326000000000,"state":"active","ping":93},{"user_id":422,"name":"OrangeSodaMachine","steam_id":76561198079230156,"connected_time":3279000000000,"state":"active","ping":86},{"user_id":448,"name":"Duck","steam_id":76561198045287701,"connected_time":1858000000000,"state":"active","ping":83},{"user_id":472,"name":"Tywhip","steam_id":76561199207545191,"connected_time":129000000000,"state":"active","ping":158},{"user_id":470,"name":"Farm3rJh0nson","steam_id":76561199166153873,"connected_time":235000000000,"state":"active","ping":76},{"user_id":450,"name":"Squid1562","steam_id":76561198090861689,"connected_time":1792000000000,"state":"active","ping":65},{"user_id":429,"name":"Mr. Fluffy Penguins","steam_id":76561198172538149,"connected_time":3186000000000,"state":"active","ping":98},{"user_id":473,"name":"Peri","steam_id":76561198255311543,"connected_time":101000000000,"state":"active","ping":87},{"user_id":446,"name":"Viktir","steam_id":76561198127898517,"connected_time":2011000000000,"state":"active","ping":77},{"user_id":381,"name":"Periculosum PhD in Funny","steam_id":76561198123370914,"connected_time":6137000000000,"state":"active","ping":75},{"user_id":467,"name":"The Wise Guy","steam_id":76561198031080216,"connected_time":481000000000,"state":"active","ping":74},{"user_id":403,"name":"alset333","steam_id":76561198405345260,"connected_time":5344000000000,"state":"active","ping":60},{"user_id":444,"name":"AltrA","steam_id":76561198117148323,"connected_time":2199000000000,"state":"active","ping":59},{"user_id":441,"name":"WalrusIncarnate","steam_id":76561198059867060,"connected_time":2575000000000,"state":"active","ping":117},{"user_id":405,"name":"Tskuno","steam_id":76561198129291597,"connected_time":5085000000000,"state":"active","ping":60},{"user_id":474,"name":"Goofball","steam_id":76561198061211537,"connected_time":55000000000,"state":"active","ping":59},{"user_id":451,"name":"i feel sleepy","steam_id":76561198135559825,"connected_time":1787000000000,"state":"active","ping":64}]},{"server_id":37,"name":"Uncletopia | Chicago | 6 | All Maps","name_short":"chi-6","host":"chi-2.us.uncletopia.com","port":27025,"enabled":true,"region":"us-central","cc":"us","latitude":41.881832,"longitude":-87.62318,"reserved":0,"last_update":"0001-01-01T00:00:00Z","name_a2s":"Uncletopia | Chicago | 6 | All Maps","protocol":17,"map":"pl_pier","folder":"tf","game":"Team Fortress","app_id":440,"player_count":22,"max_players":24,"Bots":0,"server_type":"Dedicated","server_os":"Linux","password":true,"vac":true,"version":"7932396","steam_id":85568392924866363,"keywords":["nocrits","nodmgspread","payload","uncletopia"],"game_id":440,"stv_port":27026,"stv_name":"Uncletopia | Chicago | 6 | All Maps | STV","players":[{"user_id":516,"name":"fornite fredy21","steam_id":76561199446471680,"connected_time":1314000000000,"state":"active","ping":81},{"user_id":514,"name":"DistantJragon","steam_id":76561198117563641,"connected_time":1424000000000,"state":"active","ping":59},{"user_id":539,"name":"super clickteam fusion","steam_id":76561198275101482,"connected_time":59000000000,"state":"active","ping":137},{"user_id":515,"name":"LeadHickory","steam_id":76561198219756521,"connected_time":1423000000000,"state":"active","ping":90},{"user_id":517,"name":"mu","steam_id":76561197997530228,"connected_time":1231000000000,"state":"active","ping":106},{"user_id":508,"name":"sam","steam_id":76561198217362968,"connected_time":1599000000000,"state":"active","ping":60},{"user_id":525,"name":"Fresh0c0","steam_id":76561198271933283,"connected_time":975000000000,"state":"active","ping":55},{"user_id":529,"name":"Verschlimmbesserung","steam_id":76561198024991137,"connected_time":883000000000,"state":"active","ping":76},{"user_id":520,"name":"Not so local trans hottie","steam_id":76561198085813708,"connected_time":1148000000000,"state":"active","ping":70},{"user_id":395,"name":"Xavibite","steam_id":76561198209380493,"connected_time":9314000000000,"state":"active","ping":60},{"user_id":538,"name":"Crayons","steam_id":76561198860276948,"connected_time":284000000000,"state":"active","ping":91},{"user_id":510,"name":"Mr. Durian","steam_id":76561198093813212,"connected_time":1575000000000,"state":"active","ping":79},{"user_id":472,"name":"Sorbet Shark Cookie","steam_id":76561198133082665,"connected_time":5144000000000,"state":"active","ping":62},{"user_id":521,"name":"tulpa","steam_id":76561198013253513,"connected_time":1024000000000,"state":"active","ping":70},{"user_id":522,"name":"FBIShotMyDog:(","steam_id":76561198115699456,"connected_time":1006000000000,"state":"active","ping":119},{"user_id":523,"name":"bear","steam_id":76561198909415646,"connected_time":989000000000,"state":"active","ping":78},{"user_id":524,"name":"Apetometrist","steam_id":76561198045391635,"connected_time":989000000000,"state":"active","ping":69},{"user_id":536,"name":"sapphrodite","steam_id":76561198279341789,"connected_time":343000000000,"state":"active","ping":89},{"user_id":527,"name":"giant_dork","steam_id":76561199105606956,"connected_time":943000000000,"state":"active","ping":71},{"user_id":537,"name":"BenEnderBen","steam_id":76561198839934440,"connected_time":305000000000,"state":"active","ping":79},{"user_id":535,"name":"Pingle","steam_id":76561198096221632,"connected_time":410000000000,"state":"active","ping":60},{"user_id":531,"name":"NerdyEnforcement","steam_id":76561198437710820,"connected_time":849000000000,"state":"active","ping":69}]},{"server_id":38,"name":"Uncletopia | Chicago | 7 | Stopwatch Beta","name_short":"chi-7","host":"chi-2.us.uncletopia.com","port":27035,"enabled":true,"region":"us-central","cc":"us","latitude":41.881832,"longitude":-87.62318,"reserved":0,"last_update":"0001-01-01T00:00:00Z","name_a2s":"Uncletopia | Chicago | 7 | Stopwatch Beta","protocol":17,"map":"koth_highpass","folder":"tf","game":"Team Fortress","app_id":440,"player_count":0,"max_players":24,"Bots":0,"server_type":"Dedicated","server_os":"Linux","password":true,"vac":true,"version":"7932396","steam_id":85568392924866364,"keywords":["cp","nocrits","nodmgspread","uncletopia"],"game_id":440,"stv_port":27036,"stv_name":"Uncletopia | Chicago | 7 | Stopwatch Beta | STV","players":null},{"server_id":39,"name":"Uncletopia | Chicago | 8 | Community","name_short":"chi-8","host":"chi-2.us.uncletopia.com","port":27045,"enabled":true,"region":"us-central","cc":"us","latitude":41.881832,"longitude":-87.62318,"reserved":0,"last_update":"0001-01-01T00:00:00Z","name_a2s":"Uncletopia | Chicago | 8 | Community","protocol":17,"map":"pl_frontier_final","folder":"tf","game":"Team Fortress","app_id":440,"player_count":0,"max_players":24,"Bots":0,"server_type":"Dedicated","server_os":"Linux","password":true,"vac":true,"version":"7932396","steam_id":85568392924866365,"keywords":["nocrits","nodmgspread","payload","uncletopia"],"game_id":440,"stv_port":27046,"stv_name":"Uncletopia | Chicago | 8 | Community | STV","players":null},{"server_id":8,"name":"Uncletopia | Dallas | 1 | All Maps","name_short":"dal-1","host":"dal-1.us.uncletopia.com","port":27015,"enabled":true,"region":"us-central","cc":"us","latitude":32.779167,"longitude":-96.80889,"reserved":0,"last_update":"0001-01-01T00:00:00Z","name_a2s":"Uncletopia | Dallas | 1 | All Maps","protocol":17,"map":"cp_freight_final1","folder":"tf","game":"Team Fortress","app_id":440,"player_count":24,"max_players":24,"Bots":0,"server_type":"Dedicated","server_os":"Linux","password":true,"vac":true,"version":"7932396","steam_id":85568392924469986,"keywords":["cp","nocrits","nodmgspread","uncletopia"],"game_id":440,"stv_port":27016,"stv_name":"Uncletopia | Dallas | 1 | All Maps | STV","players":[{"user_id":148,"name":"BENIS  BOI","steam_id":76561198813112341,"connected_time":2897000000000,"state":"active","ping":59},{"user_id":180,"name":"Ashe","steam_id":76561198865094818,"connected_time":102000000000,"state":"active","ping":103},{"user_id":104,"name":"Holly she/her","steam_id":76561198982631429,"connected_time":6408000000000,"state":"active","ping":50},{"user_id":141,"name":"Evangelion","steam_id":76561198059690074,"connected_time":3153000000000,"state":"active","ping":49},{"user_id":181,"name":"Wolverine Fingerblaster","steam_id":76561198095394582,"connected_time":54000000000,"state":"active","ping":63},{"user_id":152,"name":"Trace","steam_id":76561198184414075,"connected_time":2416000000000,"state":"active","ping":64},{"user_id":182,"name":"SadChicken λ","steam_id":76561198082458968,"connected_time":33000000000,"state":"active","ping":72},{"user_id":183,"name":"errant","steam_id":76561197961758410,"connected_time":31000000000,"state":"active","ping":32},{"user_id":154,"name":"Monkey Boy","steam_id":76561198151452304,"connected_time":2205000000000,"state":"active","ping":70},{"user_id":174,"name":"SPAAAAAAAAACE!","steam_id":76561199068981957,"connected_time":258000000000,"state":"active","ping":55},{"user_id":161,"name":"Sorry","steam_id":76561198040722720,"connected_time":1122000000000,"state":"active","ping":100},{"user_id":168,"name":"IlTrashPanda","steam_id":76561198447864095,"connected_time":708000000000,"state":"active","ping":55},{"user_id":177,"name":"GamerMan","steam_id":76561199058616824,"connected_time":157000000000,"state":"active","ping":75},{"user_id":146,"name":"David De Bergerac","steam_id":76561198010306294,"connected_time":3084000000000,"state":"active","ping":88},{"user_id":166,"name":"BlancaLamb","steam_id":76561198025646073,"connected_time":962000000000,"state":"active","ping":75},{"user_id":185,"name":"DJThunderHeart","steam_id":76561198274197575,"connected_time":12000000000,"state":"active","ping":276},{"user_id":36,"name":"Hindmost","steam_id":76561199081837220,"connected_time":12909000000000,"state":"active","ping":65},{"user_id":144,"name":"TheFriendlyPybro","steam_id":76561198119425604,"connected_time":3129000000000,"state":"active","ping":98},{"user_id":178,"name":"Baked Beans","steam_id":76561198090419068,"connected_time":129000000000,"state":"active","ping":132},{"user_id":116,"name":"ToxicShock","steam_id":76561198018657799,"connected_time":5698000000000,"state":"active","ping":52},{"user_id":156,"name":"Crimson","steam_id":76561198129326627,"connected_time":2111000000000,"state":"active","ping":67},{"user_id":179,"name":"aintnowaiyboi","steam_id":76561198301372369,"connected_time":129000000000,"state":"active","ping":42}]},{"server_id":108,"name":"Uncletopia | Dallas | 2 | All Maps","name_short":"dal-2","host":"dal-1.us.uncletopia.com","port":27025,"enabled":true,"region":"us-central","cc":"us","latitude":32.779167,"longitude":-96.80889,"reserved":0,"last_update":"0001-01-01T00:00:00Z","name_a2s":"Uncletopia | Dallas | 2 | All Maps","protocol":17,"map":"pl_pier","folder":"tf","game":"Team Fortress","app_id":440,"player_count":24,"max_players":24,"Bots":0,"server_type":"Dedicated","server_os":"Linux","password":true,"vac":true,"version":"7932396","steam_id":85568392924469988,"keywords":["nocrits","nodmgspread","payload","uncletopia"],"game_id":440,"stv_port":27026,"stv_name":"Uncletopia | Dallas | 2 | All Maps | STV","players":[{"user_id":16,"name":"BigPimpin","steam_id":76561198119549348,"connected_time":4453000000000,"state":"active","ping":49},{"user_id":17,"name":"Panda Loser","steam_id":76561198828745176,"connected_time":4428000000000,"state":"active","ping":97},{"user_id":94,"name":"Cosmic Torgue","steam_id":76561198828724945,"connected_time":713000000000,"state":"active","ping":101},{"user_id":100,"name":"Willem Dafoe","steam_id":76561198037453253,"connected_time":340000000000,"state":"active","ping":83},{"user_id":39,"name":"Sugary","steam_id":76561198088267265,"connected_time":3812000000000,"state":"active","ping":91},{"user_id":89,"name":"0x01FE","steam_id":76561198838881917,"connected_time":1264000000000,"state":"active","ping":57},{"user_id":101,"name":"Darakrish","steam_id":76561198133126686,"connected_time":270000000000,"state":"active","ping":83},{"user_id":50,"name":"Magma","steam_id":76561198108261173,"connected_time":3609000000000,"state":"active","ping":75},{"user_id":84,"name":"Apricot","steam_id":76561198355699935,"connected_time":1465000000000,"state":"active","ping":82},{"user_id":99,"name":"mini vegas stan","steam_id":76561198126029630,"connected_time":463000000000,"state":"active","ping":102},{"user_id":92,"name":"♥ thedittofemboy ♥","steam_id":76561199013129784,"connected_time":803000000000,"state":"active","ping":59},{"user_id":88,"name":"BrightOrangeMango","steam_id":76561198023144607,"connected_time":1271000000000,"state":"active","ping":81},{"user_id":30,"name":"✿ corecore² Matador","steam_id":76561198106938500,"connected_time":3979000000000,"state":"active","ping":77},{"user_id":31,"name":"Shush","steam_id":76561198123902813,"connected_time":3959000000000,"state":"active","ping":93},{"user_id":97,"name":"Pubby Do","steam_id":76561198072066185,"connected_time":644000000000,"state":"active","ping":93},{"user_id":98,"name":"Simply_Komeiji","steam_id":76561198354177703,"connected_time":592000000000,"state":"active","ping":58},{"user_id":102,"name":"yaldabaoth","steam_id":76561198084606869,"connected_time":250000000000,"state":"active","ping":84},{"user_id":43,"name":"Lemonade Juice","steam_id":76561198402892608,"connected_time":3702000000000,"state":"active","ping":75},{"user_id":59,"name":"Versuski","steam_id":76561198085193084,"connected_time":3311000000000,"state":"active","ping":87},{"user_id":45,"name":"Mickie Doandl","steam_id":76561199183704008,"connected_time":3651000000000,"state":"active","ping":109},{"user_id":86,"name":"good soup guy","steam_id":76561199210237835,"connected_time":1381000000000,"state":"active","ping":103},{"user_id":96,"name":"jimmyfnaf172198yay","steam_id":76561198311446636,"connected_time":656000000000,"state":"active","ping":75},{"user_id":54,"name":"HeinzRichter","steam_id":76561198854966161,"connected_time":3569000000000,"state":"active","ping":95},{"user_id":65,"name":"basil du bois","steam_id":76561198119590214,"connected_time":2814000000000,"state":"active","ping":67}]},{"server_id":5,"name":"Uncletopia | Frankfurt | 1 | All Maps","name_short":"frk-1","host":"frk-1.de.uncletopia.com","port":27015,"enabled":true,"region":"eu","cc":"de","latitude":50.110924,"longitude":8.682127,"reserved":0,"last_update":"0001-01-01T00:00:00Z","name_a2s":"Uncletopia | Frankfurt | 1 | All Maps","protocol":17,"map":"cp_steel","folder":"tf","game":"Team Fortress","app_id":440,"player_count":24,"max_players":24,"Bots":0,"server_type":"Dedicated","server_os":"Linux","password":true,"vac":true,"version":"7932396","steam_id":85568392924469989,"keywords":["cp","nocrits","nodmgspread","uncletopia"],"game_id":440,"stv_port":27016,"stv_name":"Uncletopia | Frankfurt | 1 | All Maps | STV","players":[{"user_id":598,"name":"dab-dab","steam_id":76561198088930298,"connected_time":3362000000000,"state":"active","ping":84},{"user_id":610,"name":"Mangal_","steam_id":76561198076089589,"connected_time":2622000000000,"state":"active","ping":98},{"user_id":640,"name":"Kriv","steam_id":76561198344276348,"connected_time":1328000000000,"state":"active","ping":74},{"user_id":582,"name":"Kira","steam_id":76561198204168909,"connected_time":4080000000000,"state":"active","ping":102},{"user_id":658,"name":"takumi fujara","steam_id":76561198078928120,"connected_time":153000000000,"state":"active","ping":74},{"user_id":652,"name":"why rum gone","steam_id":76561198158484784,"connected_time":830000000000,"state":"active","ping":60},{"user_id":648,"name":"FakeElfy","steam_id":76561198863496036,"connected_time":1099000000000,"state":"active","ping":80},{"user_id":637,"name":"Mr. Watch","steam_id":76561198276103501,"connected_time":1481000000000,"state":"active","ping":76},{"user_id":642,"name":"Ječmen","steam_id":76561198051617968,"connected_time":1266000000000,"state":"active","ping":68},{"user_id":643,"name":"does if when?","steam_id":76561198179392402,"connected_time":1263000000000,"state":"active","ping":47},{"user_id":644,"name":"Lempii","steam_id":76561198433507634,"connected_time":1260000000000,"state":"active","ping":80},{"user_id":614,"name":"Nobody","steam_id":76561198151116796,"connected_time":2481000000000,"state":"active","ping":88},{"user_id":645,"name":"Diaper Changing Station","steam_id":76561198189553021,"connected_time":1252000000000,"state":"active","ping":71},{"user_id":646,"name":"Renolox","steam_id":76561198036590182,"connected_time":1251000000000,"state":"active","ping":72},{"user_id":609,"name":"Seail_M","steam_id":76561198002405605,"connected_time":2678000000000,"state":"active","ping":55},{"user_id":635,"name":"the least schizo med main","steam_id":76561198048530109,"connected_time":1844000000000,"state":"active","ping":62},{"user_id":615,"name":"fewry","steam_id":76561198045330758,"connected_time":2478000000000,"state":"active","ping":125},{"user_id":647,"name":"cuddles \u003c3","steam_id":76561198805181599,"connected_time":1206000000000,"state":"active","ping":64},{"user_id":655,"name":"[O\u0026O]YaboiDucki","steam_id":76561198195976589,"connected_time":717000000000,"state":"active","ping":91},{"user_id":649,"name":"JonArb #SAVETF2","steam_id":76561199007020830,"connected_time":1099000000000,"state":"active","ping":80},{"user_id":602,"name":"bread","steam_id":76561198074336591,"connected_time":3066000000000,"state":"active","ping":90},{"user_id":656,"name":"Talvy","steam_id":76561198009083535,"connected_time":584000000000,"state":"active","ping":78},{"user_id":657,"name":"AnalBypass1989","steam_id":76561198052356557,"connected_time":184000000000,"state":"active","ping":80},{"user_id":626,"name":"vadr","steam_id":76561198334528186,"connected_time":2320000000000,"state":"active","ping":58}]},{"server_id":110,"name":"Uncletopia | Frankfurt | 2 | All Maps","name_short":"frk-2","host":"frk-1.de.uncletopia.com","port":27025,"enabled":true,"region":"eu","cc":"de","latitude":50.110924,"longitude":8.682127,"reserved":0,"last_update":"0001-01-01T00:00:00Z","name_a2s":"Uncletopia | Frankfurt | 2 | All Maps","protocol":17,"map":"cp_sunshine","folder":"tf","game":"Team Fortress","app_id":440,"player_count":24,"max_players":24,"Bots":0,"server_type":"Dedicated","server_os":"Linux","password":true,"vac":true,"version":"7932396","steam_id":85568392924469990,"keywords":["cp","nocrits","nodmgspread","uncletopia"],"game_id":440,"stv_port":27026,"stv_name":"Uncletopia | Frankfurt | 2 | All Maps | STV","players":[{"user_id":624,"name":"MMMonkey | trade.tf","steam_id":76561198118917458,"connected_time":1287000000000,"state":"active","ping":114},{"user_id":618,"name":"Malai","steam_id":76561198062537014,"connected_time":2065000000000,"state":"active","ping":55},{"user_id":625,"name":"Bad Guy [⇄] #SaveTF2","steam_id":76561199039772329,"connected_time":1284000000000,"state":"active","ping":130},{"user_id":626,"name":"Teathling.ttv","steam_id":76561198061580505,"connected_time":1239000000000,"state":"active","ping":52},{"user_id":602,"name":"TheSiike","steam_id":76561198104872968,"connected_time":3166000000000,"state":"active","ping":68},{"user_id":613,"name":"Tin","steam_id":76561198022201818,"connected_time":2716000000000,"state":"active","ping":52},{"user_id":592,"name":"eredyn lft rgb","steam_id":76561198868116439,"connected_time":4013000000000,"state":"active","ping":169},{"user_id":634,"name":"Peppino Spaghetti","steam_id":76561198334067811,"connected_time":1000000000000,"state":"active","ping":65},{"user_id":593,"name":"Mr.O #deletesniper","steam_id":76561198039567498,"connected_time":3821000000000,"state":"active","ping":62},{"user_id":628,"name":"bAdmon","steam_id":76561197961785793,"connected_time":1201000000000,"state":"active","ping":59},{"user_id":639,"name":"creature","steam_id":76561198311044984,"connected_time":41000000000,"state":"active","ping":65},{"user_id":635,"name":"Brallerin","steam_id":76561198060026189,"connected_time":899000000000,"state":"active","ping":69},{"user_id":638,"name":"void","steam_id":76561198035831433,"connected_time":383000000000,"state":"active","ping":69},{"user_id":633,"name":"fénix","steam_id":76561198083199151,"connected_time":1033000000000,"state":"active","ping":61},{"user_id":611,"name":"etc","steam_id":76561197998394797,"connected_time":2824000000000,"state":"active","ping":57},{"user_id":612,"name":"screenshot2020-25-09","steam_id":76561198255275650,"connected_time":2820000000000,"state":"active","ping":46},{"user_id":631,"name":"csg.condawg","steam_id":76561198067051953,"connected_time":1146000000000,"state":"active","ping":59},{"user_id":522,"name":"Nika","steam_id":76561198355965587,"connected_time":10250000000000,"state":"active","ping":56},{"user_id":564,"name":"Puppet867","steam_id":76561198971183519,"connected_time":6641000000000,"state":"active","ping":120},{"user_id":576,"name":"sunshine (he/him)","steam_id":76561198084597975,"connected_time":5904000000000,"state":"active","ping":66},{"user_id":637,"name":"Senka1","steam_id":76561198848670931,"connected_time":484000000000,"state":"active","ping":107},{"user_id":609,"name":"glyph #deletesniper","steam_id":76561197980736364,"connected_time":2994000000000,"state":"active","ping":77},{"user_id":619,"name":"Lux","steam_id":76561198060417740,"connected_time":2045000000000,"state":"active","ping":50},{"user_id":632,"name":"Fiurius","steam_id":76561198151910950,"connected_time":1101000000000,"state":"active","ping":71}]},{"server_id":308,"name":"Uncletopia | Frankfurt | 3 | All Maps","name_short":"frk-3","host":"frk-1.de.uncletopia.com","port":27035,"enabled":true,"region":"eu","cc":"de","latitude":50.110924,"longitude":8.682127,"reserved":0,"last_update":"0001-01-01T00:00:00Z","name_a2s":"Uncletopia | Frankfurt | 3 | All Maps","protocol":17,"map":"cp_fastlane","folder":"tf","game":"Team Fortress","app_id":440,"player_count":24,"max_players":24,"Bots":0,"server_type":"Dedicated","server_os":"Linux","password":true,"vac":true,"version":"7932396","steam_id":85568392924504274,"keywords":["cp","nocrits","nodmgspread","uncletopia"],"game_id":440,"stv_port":27036,"stv_name":"Uncletopia | Frankfurt | 3 | All Maps | STV","players":[{"user_id":526,"name":"Pestdoktor","steam_id":76561198058159271,"connected_time":2425000000000,"state":"active","ping":64},{"user_id":530,"name":"Spoony","steam_id":76561198144204860,"connected_time":2349000000000,"state":"active","ping":68},{"user_id":531,"name":"Elsuedi","steam_id":76561198074722832,"connected_time":2327000000000,"state":"active","ping":47},{"user_id":527,"name":"LarsInABox","steam_id":76561198028329262,"connected_time":2372000000000,"state":"active","ping":75},{"user_id":457,"name":"Envy","steam_id":76561198132723219,"connected_time":9139000000000,"state":"active","ping":99},{"user_id":528,"name":"Kleiner Engel","steam_id":76561198009922500,"connected_time":2365000000000,"state":"active","ping":58},{"user_id":523,"name":"B4R10N","steam_id":76561198047167954,"connected_time":2770000000000,"state":"active","ping":60},{"user_id":532,"name":"Udinese Dion","steam_id":76561198067931573,"connected_time":2311000000000,"state":"active","ping":50},{"user_id":540,"name":"cinny","steam_id":76561198832112629,"connected_time":747000000000,"state":"active","ping":69},{"user_id":525,"name":"ghost","steam_id":76561198189940229,"connected_time":2527000000000,"state":"active","ping":61},{"user_id":546,"name":"Fairy Of Nature","steam_id":76561198274159048,"connected_time":405000000000,"state":"active","ping":66},{"user_id":501,"name":"Miss Bari","steam_id":76561198365286092,"connected_time":5050000000000,"state":"active","ping":50},{"user_id":476,"name":"Veltek","steam_id":76561198112681438,"connected_time":7678000000000,"state":"active","ping":77},{"user_id":533,"name":"frosty","steam_id":76561198094560834,"connected_time":2301000000000,"state":"active","ping":60},{"user_id":543,"name":"Dr.Sees [F2P]","steam_id":76561199219233587,"connected_time":689000000000,"state":"active","ping":89},{"user_id":542,"name":"KnugenIV","steam_id":76561198127091993,"connected_time":698000000000,"state":"active","ping":52},{"user_id":518,"name":"Darfsterman #rustclash","steam_id":76561199004139305,"connected_time":3399000000000,"state":"active","ping":58},{"user_id":488,"name":"LemonLeCitron","steam_id":76561198215545267,"connected_time":5736000000000,"state":"active","ping":69},{"user_id":537,"name":"speedy_vespa","steam_id":76561199092013231,"connected_time":1897000000000,"state":"active","ping":90},{"user_id":491,"name":"Merca #savetf2","steam_id":76561198088782472,"connected_time":5619000000000,"state":"active","ping":53},{"user_id":417,"name":"pizza [ITA]","steam_id":76561199380849468,"connected_time":11543000000000,"state":"active","ping":59},{"user_id":419,"name":"Spurt","steam_id":76561198078523852,"connected_time":11239000000000,"state":"active","ping":45},{"user_id":539,"name":"Tegnerud","steam_id":76561198214185612,"connected_time":1453000000000,"state":"active","ping":68}]},{"server_id":309,"name":"Uncletopia | Frankfurt | 4 | All Maps","name_short":"frk-4","host":"frk-1.de.uncletopia.com","port":27045,"enabled":true,"region":"eu","cc":"de","latitude":50.110924,"longitude":8.682127,"reserved":0,"last_update":"0001-01-01T00:00:00Z","name_a2s":"Uncletopia | Frankfurt | 4 | All Maps","protocol":17,"map":"pl_frontier_final","folder":"tf","game":"Team Fortress","app_id":440,"player_count":24,"max_players":24,"Bots":0,"server_type":"Dedicated","server_os":"Linux","password":true,"vac":true,"version":"7932396","steam_id":85568392924504275,"keywords":["nocrits","nodmgspread","payload","uncletopia"],"game_id":440,"stv_port":27046,"stv_name":"Uncletopia | Frankfurt | 4 | All Maps | STV","players":[{"user_id":335,"name":"Mr. K2-Crabs","steam_id":76561199069296392,"connected_time":147000000000,"state":"active","ping":72},{"user_id":237,"name":"Carrot Arc","steam_id":76561198164957006,"connected_time":5170000000000,"state":"active","ping":84},{"user_id":223,"name":"Dewotter","steam_id":76561198007653168,"connected_time":6271000000000,"state":"active","ping":75},{"user_id":333,"name":"Have A Blessed Day","steam_id":76561198030956814,"connected_time":445000000000,"state":"active","ping":79},{"user_id":330,"name":"Frampoid","steam_id":76561197997137121,"connected_time":684000000000,"state":"active","ping":73},{"user_id":310,"name":"muZ","steam_id":76561198060145190,"connected_time":1307000000000,"state":"active","ping":51},{"user_id":304,"name":"Everness","steam_id":76561197994803883,"connected_time":1393000000000,"state":"active","ping":75},{"user_id":243,"name":"Труп Володя","steam_id":76561198035718457,"connected_time":5009000000000,"state":"active","ping":92},{"user_id":328,"name":"Zina Tv","steam_id":76561198116530769,"connected_time":760000000000,"state":"active","ping":88},{"user_id":329,"name":"The Lady","steam_id":76561198029895809,"connected_time":758000000000,"state":"active","ping":82},{"user_id":334,"name":"H-say","steam_id":76561198177400362,"connected_time":348000000000,"state":"active","ping":84},{"user_id":280,"name":"Engine 1-1 | Iceman","steam_id":76561198968353726,"connected_time":3227000000000,"state":"active","ping":156},{"user_id":258,"name":"K.O.wal","steam_id":76561198317737261,"connected_time":4082000000000,"state":"active","ping":58},{"user_id":314,"name":"ashen","steam_id":76561198274631806,"connected_time":1190000000000,"state":"active","ping":61},{"user_id":327,"name":"syms","steam_id":76561198066679812,"connected_time":882000000000,"state":"active","ping":73},{"user_id":317,"name":"Grease Huffer","steam_id":76561198982674420,"connected_time":1121000000000,"state":"active","ping":54},{"user_id":318,"name":"phatman","steam_id":76561198381231171,"connected_time":1114000000000,"state":"active","ping":80},{"user_id":319,"name":"Simoh The Swoob","steam_id":76561198058078322,"connected_time":1077000000000,"state":"active","ping":88},{"user_id":320,"name":"Miku","steam_id":76561198041717890,"connected_time":1049000000000,"state":"active","ping":75},{"user_id":321,"name":"Worm","steam_id":76561198296497176,"connected_time":1045000000000,"state":"active","ping":65},{"user_id":322,"name":"I Don't Know","steam_id":76561198841011430,"connected_time":1023000000000,"state":"active","ping":72},{"user_id":323,"name":"The Skeleton","steam_id":76561198173218318,"connected_time":1004000000000,"state":"active","ping":49},{"user_id":324,"name":"Jackie Chan","steam_id":76561199378865926,"connected_time":973000000000,"state":"active","ping":87},{"user_id":289,"name":"PiN hEaD","steam_id":76561198834713682,"connected_time":2804000000000,"state":"active","ping":76}]},{"server_id":310,"name":"Uncletopia | Frankfurt | 5 | All Maps","name_short":"frk-5","host":"frk-1.de.uncletopia.com","port":27055,"enabled":true,"region":"eu","cc":"de","latitude":50.110924,"longitude":8.682127,"reserved":0,"last_update":"0001-01-01T00:00:00Z","name_a2s":"Uncletopia | Frankfurt | 5 | All Maps","protocol":17,"map":"pl_badwater","folder":"tf","game":"Team Fortress","app_id":440,"player_count":24,"max_players":24,"Bots":0,"server_type":"Dedicated","server_os":"Linux","password":true,"vac":true,"version":"7932396","steam_id":85568392924504277,"keywords":["nocrits","nodmgspread","payload","uncletopia"],"game_id":440,"stv_port":27056,"stv_name":"Uncletopia | Frankfurt | 5 | All Maps | STV","players":[{"user_id":444,"name":"siarczan (VI) miedzi (II)","steam_id":76561198327848460,"connected_time":1063000000000,"state":"active","ping":65},{"user_id":416,"name":"Donny","steam_id":76561198317950036,"connected_time":2781000000000,"state":"active","ping":85},{"user_id":443,"name":"Monkey","steam_id":76561199008411791,"connected_time":1242000000000,"state":"active","ping":58},{"user_id":434,"name":"Wonkglorg","steam_id":76561198302060474,"connected_time":1501000000000,"state":"active","ping":62},{"user_id":455,"name":"Herorisk","steam_id":76561198850763749,"connected_time":627000000000,"state":"active","ping":60},{"user_id":410,"name":"mohemmedmokhter2005","steam_id":76561199197650506,"connected_time":3088000000000,"state":"active","ping":111},{"user_id":454,"name":"Pyr0s_Fx","steam_id":76561198057201503,"connected_time":682000000000,"state":"active","ping":55},{"user_id":421,"name":"Sand","steam_id":76561198103761268,"connected_time":2447000000000,"state":"active","ping":49},{"user_id":458,"name":"congo","steam_id":76561198236836866,"connected_time":429000000000,"state":"active","ping":75},{"user_id":366,"name":"Teacup","steam_id":76561198190654091,"connected_time":6444000000000,"state":"active","ping":61},{"user_id":447,"name":"Sarah Obama Michella","steam_id":76561198078996559,"connected_time":1032000000000,"state":"active","ping":79},{"user_id":449,"name":"Zoppox","steam_id":76561198033930332,"connected_time":962000000000,"state":"active","ping":63},{"user_id":395,"name":"Flostro","steam_id":76561198259793697,"connected_time":4226000000000,"state":"active","ping":65},{"user_id":440,"name":"sz(k)","steam_id":76561198118500940,"connected_time":1394000000000,"state":"active","ping":66},{"user_id":459,"name":"Jams","steam_id":76561198118316970,"connected_time":379000000000,"state":"active","ping":83},{"user_id":437,"name":"Not A Fake Uncletopia Server","steam_id":76561198152871288,"connected_time":1436000000000,"state":"active","ping":69},{"user_id":412,"name":"Deacon Dracul","steam_id":76561198046880663,"connected_time":3049000000000,"state":"active","ping":94},{"user_id":450,"name":"hawkblob","steam_id":76561198803720565,"connected_time":890000000000,"state":"active","ping":75},{"user_id":426,"name":"Cosmetic brain","steam_id":76561198055936410,"connected_time":2222000000000,"state":"active","ping":83},{"user_id":438,"name":"Oki (Bon)","steam_id":76561199047748534,"connected_time":1433000000000,"state":"active","ping":68},{"user_id":457,"name":"GuSkand","steam_id":76561198043775605,"connected_time":469000000000,"state":"active","ping":82},{"user_id":461,"name":"CiVillain","steam_id":76561198059617732,"connected_time":272000000000,"state":"active","ping":60},{"user_id":408,"name":"Carrotcracker","steam_id":76561198034862396,"connected_time":3361000000000,"state":"active","ping":68},{"user_id":433,"name":"Bat Georgi","steam_id":76561198361144342,"connected_time":1733000000000,"state":"active","ping":80}]},{"server_id":311,"name":"Uncletopia | Frankfurt | 6 | All Maps","name_short":"frk-6","host":"frk-1.de.uncletopia.com","port":27065,"enabled":true,"region":"eu","cc":"de","latitude":50.110924,"longitude":8.682127,"reserved":0,"last_update":"0001-01-01T00:00:00Z","name_a2s":"Uncletopia | Frankfurt | 6 | All Maps","protocol":17,"map":"cp_gravelpit","folder":"tf","game":"Team Fortress","app_id":440,"player_count":16,"max_players":24,"Bots":0,"server_type":"Dedicated","server_os":"Linux","password":true,"vac":true,"version":"7932396","steam_id":85568392924504278,"keywords":["cp","nocrits","nodmgspread","uncletopia"],"game_id":440,"stv_port":27066,"stv_name":"Uncletopia | Frankfurt | 6 | All Maps | STV","players":[{"user_id":127,"name":"pyro gaming","steam_id":76561198087970118,"connected_time":4086000000000,"state":"active","ping":61},{"user_id":185,"name":"void.2016","steam_id":76561198259439568,"connected_time":92000000000,"state":"active","ping":94},{"user_id":179,"name":"ja","steam_id":76561199228540618,"connected_time":284000000000,"state":"active","ping":69},{"user_id":167,"name":"Zob","steam_id":76561198051498391,"connected_time":1808000000000,"state":"active","ping":47},{"user_id":182,"name":"tïger","steam_id":76561198260483157,"connected_time":237000000000,"state":"active","ping":77},{"user_id":183,"name":"Burgoo_King","steam_id":76561198133572225,"connected_time":229000000000,"state":"active","ping":67},{"user_id":181,"name":"Rook","steam_id":76561197995204779,"connected_time":275000000000,"state":"active","ping":50},{"user_id":169,"name":"0230 wake up 0300 jog 25 miles","steam_id":76561198054870921,"connected_time":1395000000000,"state":"active","ping":54},{"user_id":186,"name":"mcjabba","steam_id":76561198019267806,"connected_time":80000000000,"state":"active","ping":71},{"user_id":187,"name":"Simonwii","steam_id":76561198276706663,"connected_time":43000000000,"state":"active","ping":59},{"user_id":188,"name":"COE FO SPLELING","steam_id":76561198093656701,"connected_time":37000000000,"state":"active","ping":72},{"user_id":151,"name":"Edling","steam_id":76561199111565357,"connected_time":2693000000000,"state":"active","ping":86},{"user_id":189,"name":"Pucho","steam_id":76561198134617262,"connected_time":11000000000,"state":"spawning","ping":61},{"user_id":165,"name":"chris","steam_id":76561198069723264,"connected_time":1954000000000,"state":"active","ping":63},{"user_id":152,"name":"rummy","steam_id":76561197997573379,"connected_time":2688000000000,"state":"active","ping":58},{"user_id":75,"name":"Doctor Medic","steam_id":76561198100957443,"connected_time":8261000000000,"state":"active","ping":62}]},{"server_id":23,"name":"Uncletopia | Frankfurt | 7 | Stopwatch Beta","name_short":"frk-7","host":"frk-1.de.uncletopia.com","port":27075,"enabled":true,"region":"eu","cc":"de","latitude":50.110924,"longitude":8.682127,"reserved":0,"last_update":"0001-01-01T00:00:00Z","name_a2s":"Uncletopia | Frankfurt | 7 | Stopwatch Beta","protocol":17,"map":"workshop/koth_product_final.ugc454272353","folder":"tf","game":"Team Fortress","app_id":440,"player_count":0,"max_players":24,"Bots":0,"server_type":"Dedicated","server_os":"Linux","password":true,"vac":true,"version":"7932396","steam_id":85568392924742827,"keywords":["cp","nocrits","nodmgspread","uncletopia"],"game_id":440,"stv_port":27076,"stv_name":"Uncletopia | Frankfurt | 7 | Stopwatch Beta | STV","players":null},{"server_id":24,"name":"Uncletopia | Frankfurt | 8 | Community","name_short":"frk-8","host":"frk-1.de.uncletopia.com","port":27085,"enabled":true,"region":"eu","cc":"de","latitude":50.110924,"longitude":8.682127,"reserved":0,"last_update":"0001-01-01T00:00:00Z","name_a2s":"Uncletopia | Frankfurt | 8 | Community","protocol":17,"map":"workshop/koth_slaughter_rc1.ugc1712845210","folder":"tf","game":"Team Fortress","app_id":440,"player_count":0,"max_players":24,"Bots":0,"server_type":"Dedicated","server_os":"Linux","password":true,"vac":true,"version":"7932396","steam_id":85568392924742828,"keywords":["cp","nocrits","nodmgspread","uncletopia"],"game_id":440,"stv_port":27086,"stv_name":"Uncletopia | Frankfurt | 8 | Community | STV","players":null},{"server_id":202,"name":"Uncletopia | Hong Kong | 1 | All Maps","name_short":"hgk-1","host":"hgk-1.hk.uncletopia.com","port":27015,"enabled":true,"region":"asia","cc":"hk","latitude":22.302711,"longitude":114.177216,"reserved":0,"last_update":"0001-01-01T00:00:00Z","name_a2s":"Uncletopia | Hong Kong | 1 | All Maps","protocol":17,"map":"plr_hightower","folder":"tf","game":"Team Fortress","app_id":440,"player_count":0,"max_players":24,"Bots":0,"server_type":"Dedicated","server_os":"Linux","password":true,"vac":true,"version":"7932396","steam_id":85568392924494504,"keywords":["nocrits","nodmgspread","payload","uncletopia"],"game_id":440,"stv_port":27016,"stv_name":"Uncletopia | Hong Kong | 1 | All Maps | STV","players":null},{"server_id":1,"name":"Uncletopia | Los Angeles | 1 | All Maps","name_short":"lax-1","host":"lax-1.us.uncletopia.com","port":27015,"enabled":true,"region":"us-west","cc":"us","latitude":33.94279,"longitude":-118.41004,"reserved":0,"last_update":"0001-01-01T00:00:00Z","name_a2s":"Uncletopia | Los Angeles | 1 | All Maps","protocol":17,"map":"pl_swiftwater_final1","folder":"tf","game":"Team Fortress","app_id":440,"player_count":24,"max_players":24,"Bots":0,"server_type":"Dedicated","server_os":"Linux","password":true,"vac":true,"version":"7932396","steam_id":85568392924469991,"keywords":["nocrits","nodmgspread","payload","uncletopia"],"game_id":440,"stv_port":27016,"stv_name":"Uncletopia | Los Angeles | 1 | All Maps | STV","players":[{"user_id":180,"name":"riSygneD","steam_id":76561198331618687,"connected_time":1169000000000,"state":"active","ping":35},{"user_id":146,"name":"Mr. Carfox","steam_id":76561198041664428,"connected_time":3563000000000,"state":"active","ping":53},{"user_id":163,"name":"imby","steam_id":76561198103642134,"connected_time":2481000000000,"state":"active","ping":80},{"user_id":103,"name":"Ice cream sandwich","steam_id":76561198172748357,"connected_time":5610000000000,"state":"active","ping":49},{"user_id":166,"name":"Rick Astley Is A F2P?","steam_id":76561199258805660,"connected_time":2143000000000,"state":"active","ping":103},{"user_id":174,"name":"Tofu","steam_id":76561198083778611,"connected_time":1391000000000,"state":"active","ping":45},{"user_id":169,"name":"Kazakami","steam_id":76561198074578849,"connected_time":1510000000000,"state":"active","ping":60},{"user_id":186,"name":"zinnk","steam_id":76561198092081825,"connected_time":375000000000,"state":"active","ping":55},{"user_id":109,"name":"el wokismo","steam_id":76561198058617608,"connected_time":4818000000000,"state":"active","ping":52},{"user_id":188,"name":"Lysander Crow","steam_id":76561198214659356,"connected_time":298000000000,"state":"active","ping":61},{"user_id":137,"name":"Cinical","steam_id":76561198353955322,"connected_time":3859000000000,"state":"active","ping":49},{"user_id":184,"name":"SneekiCheekiQbone","steam_id":76561198045077980,"connected_time":721000000000,"state":"active","ping":42},{"user_id":189,"name":"JohnnyGitGud","steam_id":76561198401455467,"connected_time":281000000000,"state":"active","ping":56},{"user_id":178,"name":"Nice","steam_id":76561199180653046,"connected_time":1296000000000,"state":"active","ping":165},{"user_id":171,"name":"Mico (Mico)","steam_id":76561198125462953,"connected_time":1438000000000,"state":"active","ping":60},{"user_id":190,"name":"BrowniesCake","steam_id":76561198164081149,"connected_time":268000000000,"state":"active","ping":51},{"user_id":152,"name":"this","steam_id":76561198170195505,"connected_time":2993000000000,"state":"active","ping":47},{"user_id":167,"name":"Frank [LIVE ON TWITCH]","steam_id":76561198126681511,"connected_time":1978000000000,"state":"active","ping":74},{"user_id":185,"name":"Raian","steam_id":76561199138048671,"connected_time":387000000000,"state":"active","ping":45},{"user_id":181,"name":"flo rida","steam_id":76561198226169704,"connected_time":990000000000,"state":"active","ping":54},{"user_id":191,"name":"fart","steam_id":76561198206922028,"connected_time":258000000000,"state":"active","ping":95},{"user_id":182,"name":"Mr.Nostalgic","steam_id":76561198083240822,"connected_time":909000000000,"state":"active","ping":69},{"user_id":161,"name":"Brain damage squirrel","steam_id":76561198846344452,"connected_time":2515000000000,"state":"active","ping":51},{"user_id":183,"name":"Oktayey","steam_id":76561198143213426,"connected_time":909000000000,"state":"active","ping":56}]},{"server_id":112,"name":"Uncletopia | Los Angeles | 2 | All Maps","name_short":"lax-2","host":"lax-1.us.uncletopia.com","port":27025,"enabled":true,"region":"us-west","cc":"us","latitude":33.94279,"longitude":-118.41004,"reserved":0,"last_update":"0001-01-01T00:00:00Z","name_a2s":"Uncletopia | Los Angeles | 2 | All Maps","protocol":17,"map":"plr_bananabay","folder":"tf","game":"Team Fortress","app_id":440,"player_count":1,"max_players":24,"Bots":0,"server_type":"Dedicated","server_os":"Linux","password":true,"vac":true,"version":"7932396","steam_id":85568392924469992,"keywords":["nocrits","nodmgspread","payload","uncletopia"],"game_id":440,"stv_port":27026,"stv_name":"Uncletopia | Los Angeles | 2 | All Maps | STV","players":[{"user_id":14,"name":"DarkMewMew","steam_id":76561199471715552,"connected_time":743000000000,"state":"active","ping":63}]},{"server_id":324,"name":"Uncletopia | Los Angeles | 3 | All Maps","name_short":"lax-3","host":"lax-1.us.uncletopia.com","port":27035,"enabled":true,"region":"us-west","cc":"us","latitude":33.94279,"longitude":-118.41004,"reserved":0,"last_update":"0001-01-01T00:00:00Z","name_a2s":"Uncletopia | Los Angeles | 3 | All Maps","protocol":17,"map":"koth_cascade","folder":"tf","game":"Team Fortress","app_id":440,"player_count":0,"max_players":24,"Bots":0,"server_type":"Dedicated","server_os":"Linux","password":true,"vac":true,"version":"7932396","steam_id":85568392924510198,"keywords":["cp","nocrits","nodmgspread","uncletopia"],"game_id":440,"stv_port":27036,"stv_name":"Uncletopia | Los Angeles | 3 | All Maps | STV","players":null},{"server_id":25,"name":"Uncletopia | Los Angeles | 4 | Stopwatch Beta","name_short":"lax-4","host":"lax-1.us.uncletopia.com","port":27045,"enabled":true,"region":"us-west","cc":"us","latitude":33.94279,"longitude":-118.41004,"reserved":0,"last_update":"0001-01-01T00:00:00Z","name_a2s":"Uncletopia | Los Angeles | 4 | Stopwatch Beta","protocol":17,"map":"koth_viaduct","folder":"tf","game":"Team Fortress","app_id":440,"player_count":0,"max_players":24,"Bots":0,"server_type":"Dedicated","server_os":"Linux","password":true,"vac":true,"version":"7932396","steam_id":85568392924510199,"keywords":["cp","nocrits","nodmgspread","uncletopia"],"game_id":440,"stv_port":27046,"stv_name":"Uncletopia | Los Angeles | 4 | Stopwatch Beta | STV","players":null},{"server_id":11,"name":"Uncletopia | London | 1 | All Maps","name_short":"lon-1","host":"lon-1.uk.uncletopia.com","port":27015,"enabled":true,"region":"eu","cc":"gb","latitude":51.509865,"longitude":-0.118092,"reserved":0,"last_update":"0001-01-01T00:00:00Z","name_a2s":"Uncletopia | London | 1 | All Maps","protocol":17,"map":"pl_badwater","folder":"tf","game":"Team Fortress","app_id":440,"player_count":24,"max_players":24,"Bots":0,"server_type":"Dedicated","server_os":"Linux","password":true,"vac":true,"version":"7932396","steam_id":85568392924367362,"keywords":["nocrits","nodmgspread","payload","uncletopia"],"game_id":440,"stv_port":27016,"stv_name":"Uncletopia | London | 1 | All Maps | STV","players":[{"user_id":571,"name":"MrBigStu234","steam_id":76561198211599767,"connected_time":2689000000000,"state":"active","ping":50},{"user_id":602,"name":"goff","steam_id":76561198118989010,"connected_time":724000000000,"state":"active","ping":52},{"user_id":607,"name":"Seri","steam_id":76561198017135441,"connected_time":345000000000,"state":"active","ping":54},{"user_id":596,"name":"NANI?!?!?!","steam_id":76561198172078559,"connected_time":999000000000,"state":"active","ping":75},{"user_id":570,"name":"martin","steam_id":76561198107039012,"connected_time":2759000000000,"state":"active","ping":38},{"user_id":555,"name":"Donky29","steam_id":76561199135732081,"connected_time":4155000000000,"state":"active","ping":58},{"user_id":605,"name":"gibb (official)","steam_id":76561198074097655,"connected_time":637000000000,"state":"active","ping":40},{"user_id":579,"name":"REN","steam_id":76561198000596385,"connected_time":2346000000000,"state":"active","ping":80},{"user_id":606,"name":"yeah","steam_id":76561198188642265,"connected_time":613000000000,"state":"active","ping":53},{"user_id":598,"name":"Garoiop","steam_id":76561198082326459,"connected_time":980000000000,"state":"active","ping":43},{"user_id":573,"name":"W","steam_id":76561198273623211,"connected_time":2650000000000,"state":"active","ping":90},{"user_id":599,"name":"sethlington14","steam_id":76561199438357690,"connected_time":975000000000,"state":"active","ping":54},{"user_id":575,"name":"NotChloe","steam_id":76561198080658092,"connected_time":2610000000000,"state":"active","ping":53},{"user_id":567,"name":"dec","steam_id":76561198009660168,"connected_time":3616000000000,"state":"active","ping":60},{"user_id":600,"name":"Pepsi_Man","steam_id":76561198394288806,"connected_time":923000000000,"state":"active","ping":84},{"user_id":486,"name":"gnarly business","steam_id":76561198832688767,"connected_time":8972000000000,"state":"active","ping":51},{"user_id":581,"name":"Maybe_Stunner","steam_id":76561199085822219,"connected_time":2169000000000,"state":"active","ping":84},{"user_id":576,"name":" usual cosmic jazz","steam_id":76561198124253959,"connected_time":2596000000000,"state":"active","ping":91},{"user_id":578,"name":"randompixel","steam_id":76561198003941207,"connected_time":2398000000000,"state":"active","ping":58},{"user_id":583,"name":"1 toke 4 mars bars","steam_id":76561198056460000,"connected_time":2001000000000,"state":"active","ping":47},{"user_id":588,"name":"jovi_","steam_id":76561198449280552,"connected_time":1608000000000,"state":"active","ping":56},{"user_id":595,"name":"Dr. Funkenstein","steam_id":76561197977816210,"connected_time":1164000000000,"state":"active","ping":52},{"user_id":565,"name":"Talonair","steam_id":76561198043630003,"connected_time":4013000000000,"state":"active","ping":58},{"user_id":591,"name":"deFaulty","steam_id":76561198106394179,"connected_time":1569000000000,"state":"active","ping":87}]},{"server_id":114,"name":"Uncletopia | London | 2 | All Maps","name_short":"lon-2","host":"lon-1.uk.uncletopia.com","port":27025,"enabled":true,"region":"eu","cc":"gb","latitude":51.509865,"longitude":-0.118092,"reserved":0,"last_update":"0001-01-01T00:00:00Z","name_a2s":"Uncletopia | London | 2 | All Maps","protocol":17,"map":"pl_pier","folder":"tf","game":"Team Fortress","app_id":440,"player_count":24,"max_players":24,"Bots":0,"server_type":"Dedicated","server_os":"Linux","password":true,"vac":true,"version":"7932396","steam_id":85568392924470941,"keywords":["nocrits","nodmgspread","payload","uncletopia"],"game_id":440,"stv_port":27026,"stv_name":"Uncletopia | London | 2 | All Maps | STV","players":[{"user_id":201,"name":"♥aura♥","steam_id":76561198066258544,"connected_time":8078000000000,"state":"active","ping":60},{"user_id":261,"name":"äplä","steam_id":76561198245495152,"connected_time":2032000000000,"state":"active","ping":63},{"user_id":271,"name":"trite","steam_id":76561197983765323,"connected_time":954000000000,"state":"active","ping":53},{"user_id":276,"name":"Just Navlis","steam_id":76561198090479609,"connected_time":492000000000,"state":"active","ping":59},{"user_id":200,"name":"Hrrr","steam_id":76561198106920678,"connected_time":8250000000000,"state":"active","ping":44},{"user_id":263,"name":"Voks_","steam_id":76561198159687785,"connected_time":1940000000000,"state":"active","ping":67},{"user_id":239,"name":"WICKED BARSIK","steam_id":76561198120927230,"connected_time":3752000000000,"state":"active","ping":119},{"user_id":247,"name":"thesentientdildo","steam_id":76561198000735878,"connected_time":3142000000000,"state":"active","ping":60},{"user_id":264,"name":"B.batt","steam_id":76561198998684199,"connected_time":1925000000000,"state":"active","ping":125},{"user_id":223,"name":"Pantroglodytestherapy","steam_id":76561198236015392,"connected_time":4317000000000,"state":"active","ping":121},{"user_id":273,"name":"す LightFlight し","steam_id":76561198079007530,"connected_time":678000000000,"state":"active","ping":53},{"user_id":282,"name":"Jahusi!*","steam_id":76561197992445165,"connected_time":233000000000,"state":"active","ping":60},{"user_id":278,"name":"Mannequin","steam_id":76561198128833974,"connected_time":485000000000,"state":"active","ping":54},{"user_id":250,"name":"ｄｅｓｋｒａｙ","steam_id":76561198805536170,"connected_time":2977000000000,"state":"active","ping":81},{"user_id":262,"name":"3x BACK-TO-BACK CHAMP ARENTRIR","steam_id":76561198334126785,"connected_time":1954000000000,"state":"active","ping":75},{"user_id":260,"name":"VeliIlves","steam_id":76561198038731353,"connected_time":2149000000000,"state":"active","ping":102},{"user_id":224,"name":"Son Goku","steam_id":76561199383437138,"connected_time":4086000000000,"state":"active","ping":122},{"user_id":253,"name":"I am on the TF2 Scoreboard...","steam_id":76561198043850884,"connected_time":2909000000000,"state":"active","ping":59},{"user_id":237,"name":"Isuurn","steam_id":76561198150201094,"connected_time":3782000000000,"state":"active","ping":68},{"user_id":257,"name":"Mircoxi","steam_id":76561199407632710,"connected_time":2464000000000,"state":"active","ping":66},{"user_id":280,"name":"Sylvanas","steam_id":76561198154904165,"connected_time":471000000000,"state":"active","ping":112},{"user_id":281,"name":"CalzoneCarl456","steam_id":76561198846982793,"connected_time":453000000000,"state":"active","ping":44},{"user_id":267,"name":"dochris.2","steam_id":76561198026478625,"connected_time":1845000000000,"state":"active","ping":55},{"user_id":268,"name":"sareena","steam_id":76561198810194062,"connected_time":1827000000000,"state":"active","ping":70}]},{"server_id":320,"name":"Uncletopia | London | 3 | All Maps","name_short":"lon-3","host":"lon-1.uk.uncletopia.com","port":27035,"enabled":true,"region":"eu","cc":"gb","latitude":51.509865,"longitude":-0.118092,"reserved":0,"last_update":"0001-01-01T00:00:00Z","name_a2s":"Uncletopia | London | 3 | All Maps","protocol":17,"map":"cp_mountainlab","folder":"tf","game":"Team Fortress","app_id":440,"player_count":0,"max_players":24,"Bots":0,"server_type":"Dedicated","server_os":"Linux","password":true,"vac":true,"version":"7932396","steam_id":85568392924510192,"keywords":["cp","nocrits","nodmgspread","uncletopia"],"game_id":440,"stv_port":27036,"stv_name":"Uncletopia | London | 3 | All Maps | STV","players":null},{"server_id":321,"name":"Uncletopia | London | 4 | All Maps","name_short":"lon-4","host":"lon-1.uk.uncletopia.com","port":27045,"enabled":true,"region":"eu","cc":"gb","latitude":51.509865,"longitude":-0.118092,"reserved":0,"last_update":"0001-01-01T00:00:00Z","name_a2s":"Uncletopia | London | 4 | All Maps","protocol":17,"map":"koth_harvest_final","folder":"tf","game":"Team Fortress","app_id":440,"player_count":24,"max_players":24,"Bots":0,"server_type":"Dedicated","server_os":"Linux","password":true,"vac":true,"version":"7932396","steam_id":85568392924510193,"keywords":["cp","nocrits","nodmgspread","uncletopia"],"game_id":440,"stv_port":27046,"stv_name":"Uncletopia | London | 4 | All Maps | STV","players":[{"user_id":285,"name":"gabagool","steam_id":76561198307111838,"connected_time":269000000000,"state":"active","ping":43},{"user_id":251,"name":"bowchika wowa #SlavaUkraine","steam_id":76561198159564550,"connected_time":2675000000000,"state":"active","ping":70},{"user_id":273,"name":"iokoieon","steam_id":76561198065009070,"connected_time":1230000000000,"state":"active","ping":96},{"user_id":274,"name":"Eidolon","steam_id":76561198043919565,"connected_time":863000000000,"state":"active","ping":70},{"user_id":217,"name":"Xenometan","steam_id":76561198208408392,"connected_time":3610000000000,"state":"active","ping":117},{"user_id":268,"name":"Anttech","steam_id":76561198065184022,"connected_time":1905000000000,"state":"active","ping":66},{"user_id":271,"name":"irritable vowel syndrome","steam_id":76561198117033273,"connected_time":1665000000000,"state":"active","ping":52},{"user_id":284,"name":"Big Al","steam_id":76561198079585198,"connected_time":282000000000,"state":"active","ping":54},{"user_id":287,"name":"UNRL","steam_id":76561198167986695,"connected_time":110000000000,"state":"active","ping":52},{"user_id":275,"name":"TekuSP","steam_id":76561198072367754,"connected_time":854000000000,"state":"active","ping":56},{"user_id":269,"name":"GoblinGaming","steam_id":76561198360395476,"connected_time":1836000000000,"state":"active","ping":40},{"user_id":262,"name":"Filin_Fill","steam_id":76561198044037139,"connected_time":2140000000000,"state":"active","ping":93},{"user_id":276,"name":"Star in a pond","steam_id":76561198205501279,"connected_time":844000000000,"state":"active","ping":101},{"user_id":206,"name":"Krefa12","steam_id":76561198268375393,"connected_time":4360000000000,"state":"active","ping":93},{"user_id":288,"name":"Claw","steam_id":76561198060985181,"connected_time":6000000000,"state":"active","ping":131},{"user_id":278,"name":"TheFox.tf","steam_id":76561197996851702,"connected_time":835000000000,"state":"active","ping":70},{"user_id":237,"name":"sHIFTINGvORTEX","steam_id":76561198231648332,"connected_time":3154000000000,"state":"active","ping":70},{"user_id":281,"name":"Moonkey","steam_id":76561199013741389,"connected_time":701000000000,"state":"active","ping":107},{"user_id":257,"name":"G/3","steam_id":76561198234844188,"connected_time":2496000000000,"state":"active","ping":55},{"user_id":282,"name":"Spliffendor","steam_id":76561198144020209,"connected_time":701000000000,"state":"active","ping":53},{"user_id":258,"name":"cherry coal","steam_id":76561198822725169,"connected_time":2469000000000,"state":"active","ping":58},{"user_id":280,"name":"Traylie","steam_id":76561198050797796,"connected_time":825000000000,"state":"active","ping":68},{"user_id":239,"name":"quickfast","steam_id":76561199438900919,"connected_time":3150000000000,"state":"active","ping":43},{"user_id":283,"name":"gerg","steam_id":76561198041663219,"connected_time":671000000000,"state":"active","ping":55}]},{"server_id":21,"name":"Uncletopia | London | 5 | All Maps","name_short":"lon-5","host":"lon-1.uk.uncletopia.com","port":27055,"enabled":true,"region":"eu","cc":"gb","latitude":51.509865,"longitude":-0.118092,"reserved":0,"last_update":"0001-01-01T00:00:00Z","name_a2s":"Uncletopia | London | 5 | All Maps","protocol":17,"map":"cp_sunshine","folder":"tf","game":"Team Fortress","app_id":440,"player_count":23,"max_players":24,"Bots":0,"server_type":"Dedicated","server_os":"Linux","password":true,"vac":true,"version":"7932396","steam_id":85568392924742829,"keywords":["cp","nocrits","nodmgspread","uncletopia"],"game_id":440,"stv_port":27056,"stv_name":"Uncletopia | London | 5 | All Maps | STV","players":[{"user_id":339,"name":"POZO chachiply","steam_id":76561198316355509,"connected_time":586000000000,"state":"active","ping":69},{"user_id":334,"name":"Lukas","steam_id":76561198009118452,"connected_time":1321000000000,"state":"active","ping":69},{"user_id":335,"name":"Majestic Sausage","steam_id":76561197967265726,"connected_time":995000000000,"state":"active","ping":58},{"user_id":333,"name":"Watermelon","steam_id":76561198078349914,"connected_time":1492000000000,"state":"active","ping":45},{"user_id":316,"name":"marvs","steam_id":76561198851777617,"connected_time":2457000000000,"state":"active","ping":46},{"user_id":350,"name":"Teecho","steam_id":76561197995269610,"connected_time":80000000000,"state":"active","ping":53},{"user_id":349,"name":"cori","steam_id":76561198170980343,"connected_time":254000000000,"state":"active","ping":56},{"user_id":351,"name":"Luuk","steam_id":76561198088266026,"connected_time":37000000000,"state":"active","ping":44},{"user_id":319,"name":"Arche","steam_id":76561198000866089,"connected_time":2372000000000,"state":"active","ping":59},{"user_id":348,"name":"Baron","steam_id":76561198021901783,"connected_time":336000000000,"state":"active","ping":60},{"user_id":320,"name":"Astrya","steam_id":76561198091242337,"connected_time":2361000000000,"state":"active","ping":43},{"user_id":314,"name":"Petight","steam_id":76561197999438798,"connected_time":2686000000000,"state":"active","ping":29},{"user_id":290,"name":"M2rtRa","steam_id":76561198111036466,"connected_time":4563000000000,"state":"active","ping":75},{"user_id":305,"name":"disc0rd","steam_id":76561197985965776,"connected_time":3159000000000,"state":"active","ping":56},{"user_id":321,"name":"Azsofe","steam_id":76561198064288490,"connected_time":2353000000000,"state":"active","ping":85},{"user_id":272,"name":"N . E . ㊉ . N","steam_id":76561198074131777,"connected_time":5943000000000,"state":"active","ping":61},{"user_id":322,"name":"Joes","steam_id":76561198068293330,"connected_time":2349000000000,"state":"active","ping":53},{"user_id":323,"name":"Nightmenia","steam_id":76561198010430569,"connected_time":2346000000000,"state":"active","ping":50},{"user_id":346,"name":"Femboy Melooni","steam_id":76561199035732179,"connected_time":400000000000,"state":"active","ping":76},{"user_id":324,"name":"Nitro_Kill","steam_id":76561198232098540,"connected_time":2345000000000,"state":"active","ping":89},{"user_id":343,"name":"mr","steam_id":76561199037541925,"connected_time":556000000000,"state":"active","ping":70},{"user_id":336,"name":"Xanthippos","steam_id":76561198379266612,"connected_time":874000000000,"state":"active","ping":52},{"user_id":270,"name":"Cataleptic","steam_id":76561197997966949,"connected_time":6221000000000,"state":"active","ping":60}]},{"server_id":22,"name":"Uncletopia | London | 6 | All Maps","name_short":"lon-6","host":"lon-1.uk.uncletopia.com","port":27065,"enabled":true,"region":"eu","cc":"gb","latitude":51.509865,"longitude":-0.118092,"reserved":0,"last_update":"0001-01-01T00:00:00Z","name_a2s":"Uncletopia | London | 6 | All Maps","protocol":17,"map":"pl_badwater","folder":"tf","game":"Team Fortress","app_id":440,"player_count":24,"max_players":24,"Bots":0,"server_type":"Dedicated","server_os":"Linux","password":true,"vac":true,"version":"7932396","steam_id":85568392924742830,"keywords":["nocrits","nodmgspread","payload","uncletopia"],"game_id":440,"stv_port":27066,"stv_name":"Uncletopia | London | 6 | All Maps | STV","players":[{"user_id":65,"name":"tone","steam_id":76561197975301462,"connected_time":565000000000,"state":"active","ping":76},{"user_id":75,"name":"furniture centaur","steam_id":76561198057868438,"connected_time":51000000000,"state":"active","ping":74},{"user_id":35,"name":"BloodFuel","steam_id":76561198146340825,"connected_time":1813000000000,"state":"active","ping":105},{"user_id":26,"name":"StringyOak","steam_id":76561198258636208,"connected_time":3109000000000,"state":"active","ping":55},{"user_id":39,"name":"Hayds Gaming [TER]","steam_id":76561199461851882,"connected_time":1719000000000,"state":"active","ping":55},{"user_id":68,"name":"Boris Bepis","steam_id":76561198256852059,"connected_time":515000000000,"state":"active","ping":99},{"user_id":63,"name":"Juiceydough","steam_id":76561197997323419,"connected_time":725000000000,"state":"active","ping":87},{"user_id":34,"name":"dools18","steam_id":76561198880768062,"connected_time":1874000000000,"state":"active","ping":58},{"user_id":62,"name":"Joe mama","steam_id":76561198806718750,"connected_time":880000000000,"state":"active","ping":69},{"user_id":40,"name":"DelaNo","steam_id":76561199125086655,"connected_time":1718000000000,"state":"active","ping":39},{"user_id":70,"name":"Raingnome Noir","steam_id":76561198007394958,"connected_time":469000000000,"state":"active","ping":59},{"user_id":49,"name":"Piellino","steam_id":76561198156873276,"connected_time":1525000000000,"state":"active","ping":106},{"user_id":53,"name":"Jeffrey Harpen","steam_id":76561199073314677,"connected_time":1446000000000,"state":"active","ping":79},{"user_id":64,"name":"Techsgame","steam_id":76561198263371813,"connected_time":669000000000,"state":"active","ping":60},{"user_id":46,"name":"ricky pee pee","steam_id":76561198152620745,"connected_time":1574000000000,"state":"active","ping":55},{"user_id":47,"name":"Proto-arc","steam_id":76561198012776747,"connected_time":1535000000000,"state":"active","ping":48},{"user_id":48,"name":"Infineable","steam_id":76561198358100698,"connected_time":1532000000000,"state":"active","ping":148},{"user_id":50,"name":"padillacampos","steam_id":76561198161923970,"connected_time":1511000000000,"state":"active","ping":70},{"user_id":74,"name":"SteelTuff","steam_id":76561198279969439,"connected_time":322000000000,"state":"active","ping":48},{"user_id":71,"name":"hopefullythisnameisnttaken","steam_id":76561198979277765,"connected_time":461000000000,"state":"active","ping":42},{"user_id":55,"name":"hud_saytext_time 0","steam_id":76561198010327228,"connected_time":1427000000000,"state":"active","ping":63},{"user_id":72,"name":"Osmo","steam_id":76561199286764992,"connected_time":453000000000,"state":"active","ping":80},{"user_id":73,"name":"flr","steam_id":76561198249327786,"connected_time":437000000000,"state":"active","ping":65},{"user_id":58,"name":"fshfkr","steam_id":76561198095979282,"connected_time":1380000000000,"state":"active","ping":34}]},{"server_id":40,"name":"Uncletopia | London | 7 | No Payload","name_short":"lon-7","host":"lon-1.uk.uncletopia.com","port":27075,"enabled":true,"region":"eu","cc":"gb","latitude":51.509865,"longitude":-0.118092,"reserved":0,"last_update":"0001-01-01T00:00:00Z","name_a2s":"Uncletopia | London | 7 | No Payload","protocol":17,"map":"cp_gravelpit","folder":"tf","game":"Team Fortress","app_id":440,"player_count":24,"max_players":24,"Bots":0,"server_type":"Dedicated","server_os":"Linux","password":true,"vac":true,"version":"7932396","steam_id":85568392924964314,"keywords":["cp","nocrits","nodmgspread","uncletopia"],"game_id":440,"stv_port":27076,"stv_name":"Uncletopia | London | 7 | No Payload | STV","players":[{"user_id":85,"name":"Government Hooker","steam_id":76561198005361358,"connected_time":2190000000000,"state":"active","ping":45},{"user_id":86,"name":"Davey","steam_id":76561198256879107,"connected_time":2133000000000,"state":"active","ping":69},{"user_id":113,"name":"JugoTopia","steam_id":76561197996067209,"connected_time":668000000000,"state":"active","ping":151},{"user_id":98,"name":"Meki","steam_id":76561198108279631,"connected_time":1726000000000,"state":"active","ping":108},{"user_id":121,"name":"Twisted Logic ∞","steam_id":76561198002245428,"connected_time":182000000000,"state":"active","ping":39},{"user_id":104,"name":"Daan77","steam_id":76561198129940468,"connected_time":1283000000000,"state":"active","ping":69},{"user_id":108,"name":"Mr. Knitler","steam_id":76561198377297901,"connected_time":1093000000000,"state":"active","ping":79},{"user_id":80,"name":"L4gman","steam_id":76561198048227040,"connected_time":2477000000000,"state":"active","ping":68},{"user_id":103,"name":"PlushtrapDev","steam_id":76561199109026519,"connected_time":1346000000000,"state":"active","ping":98},{"user_id":120,"name":"compus","steam_id":76561199134152606,"connected_time":254000000000,"state":"active","ping":69},{"user_id":74,"name":"Floppa-z","steam_id":76561199385382550,"connected_time":2612000000000,"state":"active","ping":120},{"user_id":92,"name":"Aleyway","steam_id":76561198799137475,"connected_time":2034000000000,"state":"active","ping":52},{"user_id":114,"name":"Explosive Poptart","steam_id":76561198023918830,"connected_time":652000000000,"state":"active","ping":44},{"user_id":122,"name":"Fart Goblin","steam_id":76561198072147068,"connected_time":164000000000,"state":"active","ping":81},{"user_id":93,"name":"Grundle Cruncher","steam_id":76561199234858261,"connected_time":2009000000000,"state":"active","ping":94},{"user_id":116,"name":"Janneke Maan","steam_id":76561198069290924,"connected_time":646000000000,"state":"active","ping":61},{"user_id":105,"name":"Crazy Cane","steam_id":76561198993941174,"connected_time":1271000000000,"state":"active","ping":123},{"user_id":99,"name":"𝐌𝐚𝐫𝐤","steam_id":76561199115131315,"connected_time":1683000000000,"state":"active","ping":67},{"user_id":43,"name":"BobKnob","steam_id":76561198327333965,"connected_time":5221000000000,"state":"active","ping":54},{"user_id":117,"name":"midlpsyzl47","steam_id":76561199475972637,"connected_time":610000000000,"state":"active","ping":64},{"user_id":109,"name":"FatAssHaver55","steam_id":76561199142022395,"connected_time":1078000000000,"state":"active","ping":80},{"user_id":97,"name":"[L3MW]мΔŁΔяҜ¥","steam_id":76561198047235032,"connected_time":1893000000000,"state":"active","ping":70},{"user_id":82,"name":"DJPNK","steam_id":76561197989948420,"connected_time":2438000000000,"state":"active","ping":53},{"user_id":118,"name":"arcSolver","steam_id":76561198212013944,"connected_time":549000000000,"state":"active","ping":48}]},{"server_id":41,"name":"Uncletopia | London | 8 | Community","name_short":"lon-8","host":"lon-1.uk.uncletopia.com","port":27085,"enabled":true,"region":"eu","cc":"gb","latitude":51.509865,"longitude":-0.118092,"reserved":0,"last_update":"0001-01-01T00:00:00Z","name_a2s":"Uncletopia | London | 8 | Community","protocol":17,"map":"workshop/pl_eruption_b9a.ugc2807898013","folder":"tf","game":"Team Fortress","app_id":440,"player_count":0,"max_players":24,"Bots":0,"server_type":"Dedicated","server_os":"Linux","password":true,"vac":true,"version":"7932396","steam_id":85568392924964315,"keywords":["nocrits","nodmgspread","payload","uncletopia"],"game_id":440,"stv_port":27086,"stv_name":"Uncletopia | London | 8 | Community | STV","players":null},{"server_id":300,"name":"Uncletopia | Montréal | 1 | All Maps","name_short":"mtl-1","host":"mtl-1.ca.uncletopia.com","port":27015,"enabled":true,"region":"us-east","cc":"ca","latitude":45.50889,"longitude":-73.56167,"reserved":0,"last_update":"0001-01-01T00:00:00Z","name_a2s":"Uncletopia | Montréal | 1 | All Maps","protocol":17,"map":"pl_frontier_final","folder":"tf","game":"Team Fortress","app_id":440,"player_count":0,"max_players":24,"Bots":0,"server_type":"Dedicated","server_os":"Linux","password":true,"vac":true,"version":"7932396","steam_id":85568392924500087,"keywords":["nocrits","nodmgspread","payload","uncletopia"],"game_id":440,"stv_port":27016,"stv_name":"Uncletopia | Montréal | 1 | All Maps | STV","players":null},{"server_id":301,"name":"Uncletopia | Montréal | 2 | All Maps","name_short":"mtl-2","host":"mtl-1.ca.uncletopia.com","port":27025,"enabled":true,"region":"us-east","cc":"ca","latitude":45.50889,"longitude":-73.56167,"reserved":0,"last_update":"0001-01-01T00:00:00Z","name_a2s":"Uncletopia | Montréal | 2 | All Maps","protocol":17,"map":"pl_upward","folder":"tf","game":"Team Fortress","app_id":440,"player_count":0,"max_players":24,"Bots":0,"server_type":"Dedicated","server_os":"Linux","password":true,"vac":true,"version":"7932396","steam_id":85568392924500088,"keywords":["nocrits","nodmgspread","payload","uncletopia"],"game_id":440,"stv_port":27026,"stv_name":"Uncletopia | Montréal | 2 | All Maps | STV","players":null},{"server_id":302,"name":"Uncletopia | Montréal | 3 | All Maps","name_short":"mtl-3","host":"mtl-1.ca.uncletopia.com","port":27035,"enabled":true,"region":"us-east","cc":"ca","latitude":45.50889,"longitude":-73.56167,"reserved":0,"last_update":"0001-01-01T00:00:00Z","name_a2s":"Uncletopia | Montréal | 3 | All Maps","protocol":17,"map":"pl_badwater","folder":"tf","game":"Team Fortress","app_id":440,"player_count":0,"max_players":24,"Bots":0,"server_type":"Dedicated","server_os":"Linux","password":true,"vac":true,"version":"7932396","steam_id":85568392924500089,"keywords":["nocrits","nodmgspread","payload","uncletopia"],"game_id":440,"stv_port":27036,"stv_name":"Uncletopia | Montréal | 3 | All Maps | STV","players":null},{"server_id":303,"name":"Uncletopia | Montréal | 4 | No Payload","name_short":"mtl-4","host":"mtl-1.ca.uncletopia.com","port":27045,"enabled":true,"region":"us-east","cc":"ca","latitude":45.50889,"longitude":-73.56167,"reserved":0,"last_update":"0001-01-01T00:00:00Z","name_a2s":"Uncletopia | Montréal | 4 | No Payload","protocol":17,"map":"cp_sunshine","folder":"tf","game":"Team Fortress","app_id":440,"player_count":0,"max_players":24,"Bots":0,"server_type":"Dedicated","server_os":"Linux","password":true,"vac":true,"version":"7932396","steam_id":85568392924500090,"keywords":["cp","nocrits","nodmgspread","uncletopia"],"game_id":440,"stv_port":27046,"stv_name":"Uncletopia | Montréal | 4 | No Payload | STV","players":null},{"server_id":13,"name":"Uncletopia | New York City | 1 | All Maps","name_short":"nyc-1","host":"nyc-1.us.uncletopia.com","port":27015,"enabled":true,"region":"us-east","cc":"us","latitude":40.73061,"longitude":-73.93524,"reserved":0,"last_update":"0001-01-01T00:00:00Z","name_a2s":"Uncletopia | New York City | 1 | All Maps","protocol":17,"map":"cp_dustbowl","folder":"tf","game":"Team Fortress","app_id":440,"player_count":24,"max_players":24,"Bots":0,"server_type":"Dedicated","server_os":"Linux","password":true,"vac":true,"version":"7932396","steam_id":85568392924469993,"keywords":["cp","nocrits","nodmgspread","uncletopia"],"game_id":440,"stv_port":27016,"stv_name":"Uncletopia | New York City | 1 | All Maps | STV","players":[{"user_id":24,"name":"Cooldog","steam_id":76561198080548713,"connected_time":3421000000000,"state":"active","ping":58},{"user_id":48,"name":"Capn' Crunk","steam_id":76561198848399887,"connected_time":2235000000000,"state":"active","ping":67},{"user_id":33,"name":"OneMisguidedSlyGuy","steam_id":76561198372243261,"connected_time":2635000000000,"state":"active","ping":106},{"user_id":26,"name":"BrainCell-Hazard","steam_id":76561199038566105,"connected_time":3008000000000,"state":"active","ping":109},{"user_id":49,"name":"former billionaire","steam_id":76561198070380404,"connected_time":2217000000000,"state":"active","ping":41},{"user_id":65,"name":"Flaxks","steam_id":76561198410260447,"connected_time":545000000000,"state":"active","ping":90},{"user_id":68,"name":"β","steam_id":76561198163535075,"connected_time":502000000000,"state":"active","ping":57},{"user_id":29,"name":"TonOfAshMan","steam_id":76561198083991114,"connected_time":2833000000000,"state":"active","ping":87},{"user_id":66,"name":"THE HUMAN MISSILE","steam_id":76561198381199862,"connected_time":536000000000,"state":"active","ping":61},{"user_id":31,"name":"bitch im coolin","steam_id":76561198203732449,"connected_time":2707000000000,"state":"active","ping":63},{"user_id":75,"name":"Cristanc99","steam_id":76561198114715810,"connected_time":211000000000,"state":"active","ping":75},{"user_id":78,"name":"Griffin","steam_id":76561198159339442,"connected_time":78000000000,"state":"active","ping":76},{"user_id":59,"name":"Primal","steam_id":76561197983118203,"connected_time":1060000000000,"state":"active","ping":78},{"user_id":73,"name":"ThreatLvl 9 (she/her)","steam_id":76561198079410533,"connected_time":301000000000,"state":"active","ping":56},{"user_id":70,"name":"carrot cake","steam_id":76561198055174915,"connected_time":463000000000,"state":"active","ping":62},{"user_id":39,"name":"Chezaus","steam_id":76561198317397837,"connected_time":2491000000000,"state":"active","ping":70},{"user_id":57,"name":"J-Booty Rasengan","steam_id":76561198088854411,"connected_time":1160000000000,"state":"active","ping":54},{"user_id":51,"name":"Kirbs","steam_id":76561198970654800,"connected_time":2078000000000,"state":"active","ping":48},{"user_id":77,"name":"Eat It Up Worms Hero","steam_id":76561198259956719,"connected_time":169000000000,"state":"active","ping":77},{"user_id":50,"name":"Jackleg Joel","steam_id":76561198271636476,"connected_time":2216000000000,"state":"active","ping":134},{"user_id":63,"name":"Plutia","steam_id":76561197996787193,"connected_time":844000000000,"state":"active","ping":70},{"user_id":79,"name":"Blue⛧Melon","steam_id":76561197970926435,"connected_time":73000000000,"state":"active","ping":59},{"user_id":80,"name":"Arcware","steam_id":76561199111430920,"connected_time":58000000000,"state":"active","ping":153},{"user_id":81,"name":"Pyro she/her","steam_id":76561198214080773,"connected_time":28000000000,"state":"spawning","ping":125}]},{"server_id":14,"name":"Uncletopia | New York City | 2 | All Maps","name_short":"nyc-2","host":"nyc-1.us.uncletopia.com","port":27025,"enabled":true,"region":"us-east","cc":"us","latitude":40.73061,"longitude":-73.93524,"reserved":0,"last_update":"0001-01-01T00:00:00Z","name_a2s":"Uncletopia | New York City | 2 | All Maps","protocol":17,"map":"koth_cascade","folder":"tf","game":"Team Fortress","app_id":440,"player_count":11,"max_players":24,"Bots":0,"server_type":"Dedicated","server_os":"Linux","password":true,"vac":true,"version":"7932396","steam_id":85568392924469994,"keywords":["cp","nocrits","nodmgspread","uncletopia"],"game_id":440,"stv_port":27026,"stv_name":"Uncletopia | New York City | 2 | All Maps | STV","players":[{"user_id":7,"name":"ricebox","steam_id":76561197998059533,"connected_time":1620000000000,"state":"active","ping":33},{"user_id":8,"name":"le batteur","steam_id":76561199078138661,"connected_time":1577000000000,"state":"active","ping":83},{"user_id":21,"name":"SirKnight5067","steam_id":76561198377306047,"connected_time":505000000000,"state":"active","ping":82},{"user_id":12,"name":"artichoke","steam_id":76561198980994364,"connected_time":1136000000000,"state":"active","ping":83},{"user_id":13,"name":"StuartBell511","steam_id":76561198060931721,"connected_time":904000000000,"state":"active","ping":67},{"user_id":14,"name":"dark souls boss","steam_id":76561198316610724,"connected_time":816000000000,"state":"active","ping":105},{"user_id":16,"name":"Just_Kiwi","steam_id":76561199118637942,"connected_time":717000000000,"state":"active","ping":63},{"user_id":20,"name":"badasscoolboy57","steam_id":76561198795412055,"connected_time":525000000000,"state":"active","ping":56},{"user_id":18,"name":"Kravixx","steam_id":76561197995777255,"connected_time":599000000000,"state":"active","ping":78},{"user_id":22,"name":"Captian Wobbs","steam_id":76561198142884936,"connected_time":415000000000,"state":"active","ping":115},{"user_id":24,"name":"Minus 8","steam_id":76561198812090491,"connected_time":126000000000,"state":"active","ping":123}]},{"server_id":15,"name":"Uncletopia | New York City | 3 | Stopwatch Beta","name_short":"nyc-3","host":"nyc-1.us.uncletopia.com","port":27035,"enabled":true,"region":"us-east","cc":"us","latitude":40.73061,"longitude":-73.93524,"reserved":0,"last_update":"0001-01-01T00:00:00Z","name_a2s":"Uncletopia | New York City | 3 | Stopwatch Beta","protocol":17,"map":"pl_frontier_final","folder":"tf","game":"Team Fortress","app_id":440,"player_count":0,"max_players":24,"Bots":0,"server_type":"Dedicated","server_os":"Linux","password":true,"vac":true,"version":"7932396","steam_id":85568392924742820,"keywords":["nocrits","nodmgspread","payload","uncletopia"],"game_id":440,"stv_port":27036,"stv_name":"Uncletopia | New York City | 3 | Stopwatch Beta | STV","players":null},{"server_id":16,"name":"Uncletopia | New York City | 4 | Community","name_short":"nyc-4","host":"nyc-1.us.uncletopia.com","port":27045,"enabled":true,"region":"us-east","cc":"us","latitude":40.73061,"longitude":-73.93524,"reserved":0,"last_update":"0001-01-01T00:00:00Z","name_a2s":"Uncletopia | New York City | 4 | Community","protocol":17,"map":"workshop/koth_ramjam_rc1.ugc459778887","folder":"tf","game":"Team Fortress","app_id":440,"player_count":0,"max_players":24,"Bots":0,"server_type":"Dedicated","server_os":"Linux","password":true,"vac":true,"version":"7932396","steam_id":85568392924742821,"keywords":["cp","nocrits","nodmgspread","uncletopia"],"game_id":440,"stv_port":27046,"stv_name":"Uncletopia | New York City | 4 | Community | STV","players":null},{"server_id":142,"name":"Uncletopia | São Paulo | 1 | All Maps","name_short":"sao-1","host":"sao-1.br.uncletopia.com","port":27015,"enabled":true,"region":"sa","cc":"br","latitude":-23.533773,"longitude":-46.62529,"reserved":0,"last_update":"0001-01-01T00:00:00Z","name_a2s":"Uncletopia | São Paulo | 1 | All Maps","protocol":17,"map":"koth_highpass","folder":"tf","game":"Team Fortress","app_id":440,"player_count":0,"max_players":24,"Bots":0,"server_type":"Dedicated","server_os":"Linux","password":true,"vac":true,"version":"7932396","steam_id":85568392924469996,"keywords":["cp","nocrits","nodmgspread","uncletopia"],"game_id":440,"stv_port":27016,"stv_name":"Uncletopia | São Paulo | 1 | All Maps | STV","players":null},{"server_id":143,"name":"Uncletopia | São Paulo | 2 | All Maps","name_short":"sao-2","host":"sao-2.br.uncletopia.com","port":27015,"enabled":true,"region":"sa","cc":"br","latitude":-23.533773,"longitude":-46.62529,"reserved":0,"last_update":"0001-01-01T00:00:00Z","name_a2s":"Uncletopia | São Paulo | 2 | All Maps","protocol":17,"map":"koth_lakeside_final","folder":"tf","game":"Team Fortress","app_id":440,"player_count":2,"max_players":24,"Bots":0,"server_type":"Dedicated","server_os":"Linux","password":true,"vac":true,"version":"7932396","steam_id":85568392924485349,"keywords":["cp","nocrits","nodmgspread","uncletopia"],"game_id":440,"stv_port":27016,"stv_name":"Uncletopia | São Paulo | 2 | All Maps | STV","players":[{"user_id":13,"name":"AgustinGaming F2P","steam_id":76561199091667262,"connected_time":1111000000000,"state":"active","ping":119},{"user_id":12,"name":"in-game","steam_id":76561198309404084,"connected_time":1380000000000,"state":"active","ping":53}]},{"server_id":7,"name":"Uncletopia | Seattle | 1 | All Maps","name_short":"sea-1","host":"sea-1.us.uncletopia.com","port":27015,"enabled":true,"region":"us-west","cc":"us","latitude":47.608013,"longitude":-122.33517,"reserved":0,"last_update":"0001-01-01T00:00:00Z","name_a2s":"Uncletopia | Seattle | 1 | All Maps","protocol":17,"map":"cp_dustbowl","folder":"tf","game":"Team Fortress","app_id":440,"player_count":23,"max_players":24,"Bots":0,"server_type":"Dedicated","server_os":"Linux","password":true,"vac":true,"version":"7932396","steam_id":85568392924469997,"keywords":["cp","nocrits","nodmgspread","uncletopia"],"game_id":440,"stv_port":27016,"stv_name":"Uncletopia | Seattle | 1 | All Maps | STV","players":[{"user_id":247,"name":"BlazedBunny","steam_id":76561198243610560,"connected_time":809000000000,"state":"active","ping":75},{"user_id":255,"name":"kab789","steam_id":76561198069842202,"connected_time":385000000000,"state":"active","ping":101},{"user_id":151,"name":"Kalmaro","steam_id":76561198097425350,"connected_time":9424000000000,"state":"active","ping":116},{"user_id":252,"name":"craftylongsword","steam_id":76561198340102940,"connected_time":443000000000,"state":"active","ping":69},{"user_id":251,"name":"array","steam_id":76561198280409646,"connected_time":446000000000,"state":"active","ping":76},{"user_id":235,"name":"drain bamaged","steam_id":76561198164460801,"connected_time":2004000000000,"state":"active","ping":44},{"user_id":253,"name":"fish","steam_id":76561198194508197,"connected_time":405000000000,"state":"active","ping":74},{"user_id":239,"name":"evilOlive","steam_id":76561198106222025,"connected_time":1741000000000,"state":"active","ping":83},{"user_id":207,"name":"lili","steam_id":76561199391478575,"connected_time":5403000000000,"state":"active","ping":70},{"user_id":256,"name":"Mignyanne :3","steam_id":76561198048754056,"connected_time":242000000000,"state":"active","ping":69},{"user_id":205,"name":"Radio","steam_id":76561198194821053,"connected_time":5429000000000,"state":"active","ping":47},{"user_id":259,"name":"oil","steam_id":76561198099980149,"connected_time":58000000000,"state":"active","ping":77},{"user_id":208,"name":"Gundam Kyle","steam_id":76561198088750661,"connected_time":5391000000000,"state":"active","ping":74},{"user_id":228,"name":"YahYeeterson","steam_id":76561198120480906,"connected_time":2622000000000,"state":"active","ping":61},{"user_id":257,"name":"skullkid498","steam_id":76561198428301218,"connected_time":227000000000,"state":"active","ping":70},{"user_id":233,"name":"SchmitySchmit","steam_id":76561198127024448,"connected_time":2103000000000,"state":"active","ping":104},{"user_id":172,"name":"exephur","steam_id":76561198135763234,"connected_time":7500000000000,"state":"active","ping":59},{"user_id":221,"name":"SibilantSerpent","steam_id":76561198154488754,"connected_time":3443000000000,"state":"active","ping":60},{"user_id":260,"name":"PheebsyDeebsy","steam_id":76561198101509436,"connected_time":32000000000,"state":"active","ping":62},{"user_id":248,"name":"Coowil","steam_id":76561198070985437,"connected_time":808000000000,"state":"active","ping":44},{"user_id":194,"name":"dust | she/it","steam_id":76561198045218909,"connected_time":5965000000000,"state":"active","ping":44},{"user_id":223,"name":"jayeskae","steam_id":76561198144220801,"connected_time":3299000000000,"state":"active","ping":45},{"user_id":244,"name":"Laxoloni","steam_id":76561199197045700,"connected_time":1235000000000,"state":"active","ping":85}]},{"server_id":119,"name":"Uncletopia | Seattle | 2 | All Maps","name_short":"sea-2","host":"sea-1.us.uncletopia.com","port":27025,"enabled":true,"region":"us-west","cc":"us","latitude":47.608013,"longitude":-122.33517,"reserved":0,"last_update":"0001-01-01T00:00:00Z","name_a2s":"Uncletopia | Seattle | 2 | All Maps","protocol":17,"map":"pl_swiftwater_final1","folder":"tf","game":"Team Fortress","app_id":440,"player_count":1,"max_players":24,"Bots":0,"server_type":"Dedicated","server_os":"Linux","password":true,"vac":true,"version":"7932396","steam_id":85568392924469998,"keywords":["nocrits","nodmgspread","payload","uncletopia"],"game_id":440,"stv_port":27026,"stv_name":"Uncletopia | Seattle | 2 | All Maps | STV","players":[{"user_id":28,"name":"t2h","steam_id":76561198057944303,"connected_time":8000000000,"state":"spawning","ping":73}]},{"server_id":406,"name":"Uncletopia | Seattle | 3 | Stopwatch Beta","name_short":"sea-3","host":"sea-1.us.uncletopia.com","port":27035,"enabled":true,"region":"us-west","cc":"us","latitude":47.608013,"longitude":-122.33517,"reserved":0,"last_update":"0001-01-01T00:00:00Z","name_a2s":"Uncletopia | Seattle | 3 | Stopwatch Beta","protocol":17,"map":"workshop/koth_bagel_rc6.ugc2514036946","folder":"tf","game":"Team Fortress","app_id":440,"player_count":0,"max_players":24,"Bots":0,"server_type":"Dedicated","server_os":"Linux","password":true,"vac":true,"version":"7932396","steam_id":85568392924515217,"keywords":["cp","nocrits","nodmgspread","uncletopia"],"game_id":440,"stv_port":27036,"stv_name":"Uncletopia | Seattle | 3 | Stopwatch Beta | STV","players":null},{"server_id":17,"name":"Uncletopia | San Francisco | 1 | All Maps","name_short":"sfo-1","host":"sfo-1.us.uncletopia.com","port":27015,"enabled":true,"region":"us-west","cc":"us","latitude":37.77397,"longitude":-122.4313,"reserved":0,"last_update":"0001-01-01T00:00:00Z","name_a2s":"Uncletopia | San Francisco | 1 | All Maps","protocol":17,"map":"pl_barnblitz","folder":"tf","game":"Team Fortress","app_id":440,"player_count":0,"max_players":24,"Bots":0,"server_type":"Dedicated","server_os":"Linux","password":true,"vac":true,"version":"7932396","steam_id":85568392924469999,"keywords":["nocrits","nodmgspread","payload","uncletopia"],"game_id":440,"stv_port":27016,"stv_name":"Uncletopia | San Francisco | 1 | All Maps | STV","players":null},{"server_id":18,"name":"Uncletopia | San Francisco | 2 | All Maps","name_short":"sfo-2","host":"sfo-1.us.uncletopia.com","port":27025,"enabled":true,"region":"us-west","cc":"us","latitude":37.77397,"longitude":-122.4313,"reserved":0,"last_update":"0001-01-01T00:00:00Z","name_a2s":"Uncletopia | San Francisco | 2 | All Maps","protocol":17,"map":"cp_mountainlab","folder":"tf","game":"Team Fortress","app_id":440,"player_count":0,"max_players":24,"Bots":0,"server_type":"Dedicated","server_os":"Linux","password":true,"vac":true,"version":"7932396","steam_id":85568392924470000,"keywords":["cp","nocrits","nodmgspread","uncletopia"],"game_id":440,"stv_port":27026,"stv_name":"Uncletopia | San Francisco | 2 | All Maps | STV","players":null},{"server_id":19,"name":"Uncletopia | San Francisco | 3 | Stopwatch Beta","name_short":"sfo-3","host":"sfo-1.us.uncletopia.com","port":27035,"enabled":true,"region":"us-west","cc":"us","latitude":37.77397,"longitude":-122.4313,"reserved":0,"last_update":"0001-01-01T00:00:00Z","name_a2s":"Uncletopia | San Francisco | 3 | Stopwatch Beta","protocol":17,"map":"cp_dustbowl","folder":"tf","game":"Team Fortress","app_id":440,"player_count":0,"max_players":24,"Bots":0,"server_type":"Dedicated","server_os":"Linux","password":true,"vac":true,"version":"7932396","steam_id":85568392924742824,"keywords":["cp","nocrits","nodmgspread","uncletopia"],"game_id":440,"stv_port":27036,"stv_name":"Uncletopia | San Francisco | 3 | Stopwatch Beta | STV","players":null},{"server_id":20,"name":"Uncletopia | San Francisco | 4 | Community","name_short":"sfo-4","host":"sfo-1.us.uncletopia.com","port":27045,"enabled":true,"region":"us-west","cc":"us","latitude":37.77397,"longitude":-122.4313,"reserved":0,"last_update":"0001-01-01T00:00:00Z","name_a2s":"Uncletopia | San Francisco | 4 | Community","protocol":17,"map":"workshop/koth_ashville_final.ugc2130459942","folder":"tf","game":"Team Fortress","app_id":440,"player_count":0,"max_players":24,"Bots":0,"server_type":"Dedicated","server_os":"Linux","password":true,"vac":true,"version":"7932396","steam_id":85568392924742826,"keywords":["cp","nocrits","nodmgspread","uncletopia"],"game_id":440,"stv_port":27046,"stv_name":"Uncletopia | San Francisco | 4 | Community | STV","players":null},{"server_id":141,"name":"Uncletopia | Sydney | 1 | All Maps","name_short":"syd-1","host":"syd-1.au.uncletopia.com","port":27015,"enabled":true,"region":"au","cc":"au","latitude":-33.865143,"longitude":151.2099,"reserved":0,"last_update":"0001-01-01T00:00:00Z","name_a2s":"Uncletopia | Sydney | 1 | All Maps","protocol":17,"map":"cp_dustbowl","folder":"tf","game":"Team Fortress","app_id":440,"player_count":0,"max_players":24,"Bots":0,"server_type":"Dedicated","server_os":"Linux","password":true,"vac":true,"version":"7932396","steam_id":85568392924470001,"keywords":["cp","nocrits","nodmgspread","uncletopia"],"game_id":440,"stv_port":27016,"stv_name":"Uncletopia | Sydney | 1 | All Maps | STV","players":null},{"server_id":123,"name":"Uncletopia | Sydney | 2 | All Maps","name_short":"syd-2","host":"syd-1.au.uncletopia.com","port":27025,"enabled":true,"region":"au","cc":"au","latitude":-33.865143,"longitude":151.2099,"reserved":0,"last_update":"0001-01-01T00:00:00Z","name_a2s":"Uncletopia | Sydney | 2 | All Maps","protocol":17,"map":"cp_dustbowl","folder":"tf","game":"Team Fortress","app_id":440,"player_count":0,"max_players":24,"Bots":0,"server_type":"Dedicated","server_os":"Linux","password":true,"vac":true,"version":"7932396","steam_id":85568392924470002,"keywords":["cp","nocrits","nodmgspread","uncletopia"],"game_id":440,"stv_port":27026,"stv_name":"Uncletopia | Sydney | 2 | All Maps | STV","players":null},{"server_id":395,"name":"Uncletopia | Sydney | 3 | All Maps","name_short":"syd-3","host":"syd-1.au.uncletopia.com","port":27035,"enabled":true,"region":"au","cc":"au","latitude":-33.865143,"longitude":151.2099,"reserved":0,"last_update":"0001-01-01T00:00:00Z","name_a2s":"Uncletopia | Sydney | 3 | All Maps","protocol":17,"map":"cp_mountainlab","folder":"tf","game":"Team Fortress","app_id":440,"player_count":0,"max_players":24,"Bots":0,"server_type":"Dedicated","server_os":"Linux","password":true,"vac":true,"version":"7932396","steam_id":85568392925194467,"keywords":["cp","nocrits","nodmgspread","uncletopia"],"game_id":440,"stv_port":27036,"stv_name":"Uncletopia | Sydney | 3 | All Maps | STV","players":null},{"server_id":396,"name":"Uncletopia | Sydney | 4 | All Maps","name_short":"syd-4","host":"syd-1.au.uncletopia.com","port":27045,"enabled":true,"region":"au","cc":"au","latitude":-33.865143,"longitude":151.2099,"reserved":0,"last_update":"0001-01-01T00:00:00Z","name_a2s":"Uncletopia | Sydney | 4 | All Maps","protocol":17,"map":"pl_badwater","folder":"tf","game":"Team Fortress","app_id":440,"player_count":0,"max_players":24,"Bots":0,"server_type":"Dedicated","server_os":"Linux","password":true,"vac":true,"version":"7932396","steam_id":85568392925397958,"keywords":["nocrits","nodmgspread","payload","uncletopia"],"game_id":440,"stv_port":27046,"stv_name":"Uncletopia | Sydney | 4 | All Maps | STV","players":null},{"server_id":58,"name":"Uncletopia | Sydney | 5 | Stopwatch Beta","name_short":"syd-5","host":"syd-1.au.uncletopia.com","port":27055,"enabled":true,"region":"au","cc":"au","latitude":-33.865143,"longitude":151.2099,"reserved":0,"last_update":"0001-01-01T00:00:00Z","name_a2s":"Uncletopia | Sydney | 5 | Stopwatch Beta","protocol":17,"map":"workshop/pl_vigil_rc9.ugc1266210012","folder":"tf","game":"Team Fortress","app_id":440,"player_count":0,"max_players":24,"Bots":0,"server_type":"Dedicated","server_os":"Linux","password":true,"vac":true,"version":"7932396","steam_id":85568392925397959,"keywords":["nocrits","nodmgspread","payload","uncletopia"],"game_id":440,"stv_port":27056,"stv_name":"Uncletopia | Sydney | 5 | Stopwatch Beta | STV","players":null},{"server_id":59,"name":"Uncletopia | Sydney | 6 | Community","name_short":"syd-6","host":"syd-1.au.uncletopia.com","port":27065,"enabled":true,"region":"au","cc":"au","latitude":-33.865143,"longitude":151.2099,"reserved":0,"last_update":"0001-01-01T00:00:00Z","name_a2s":"Uncletopia | Sydney | 6 | Community","protocol":17,"map":"cp_altitude","folder":"tf","game":"Team Fortress","app_id":440,"player_count":0,"max_players":24,"Bots":0,"server_type":"Dedicated","server_os":"Linux","password":true,"vac":true,"version":"7932396","steam_id":85568392925397960,"keywords":["cp","nocrits","nodmgspread","uncletopia"],"game_id":440,"stv_port":27066,"stv_name":"Uncletopia | Sydney | 6 | Community | STV","players":null},{"server_id":49,"name":"Uncletopia | Warsaw | 1 | All Maps","name_short":"waw-1","host":"waw-1.pl.uncletopia.com","port":27015,"enabled":true,"region":"eu","cc":"pl","latitude":52.2297,"longitude":21.017532,"reserved":0,"last_update":"0001-01-01T00:00:00Z","name_a2s":"","protocol":0,"map":"","folder":"","game":"","app_id":0,"player_count":0,"max_players":0,"Bots":0,"server_type":"","server_os":"","password":false,"vac":false,"version":"","steam_id":0,"keywords":null,"game_id":0,"stv_port":0,"stv_name":"","players":null},{"server_id":50,"name":"Uncletopia | Warsaw | 2 | All Maps","name_short":"waw-2","host":"waw-1.pl.uncletopia.com","port":27025,"enabled":true,"region":"eu","cc":"pl","latitude":52.2297,"longitude":21.017532,"reserved":0,"last_update":"0001-01-01T00:00:00Z","name_a2s":"Uncletopia | Warsaw | 2 | All Maps","protocol":17,"map":"cp_dustbowl","folder":"tf","game":"Team Fortress","app_id":440,"player_count":5,"max_players":24,"Bots":0,"server_type":"Dedicated","server_os":"Linux","password":true,"vac":true,"version":"7932396","steam_id":85568392925397851,"keywords":["cp","nocrits","nodmgspread","uncletopia"],"game_id":440,"stv_port":27026,"stv_name":"Uncletopia | Warsaw | 2 | All Maps | STV","players":[{"user_id":19,"name":"Ursyn","steam_id":76561198287800213,"connected_time":895000000000,"state":"active","ping":66},{"user_id":10,"name":"Laryssa","steam_id":76561198271084076,"connected_time":4003000000000,"state":"active","ping":56},{"user_id":11,"name":"Guthlaf","steam_id":76561198153564078,"connected_time":3998000000000,"state":"active","ping":67},{"user_id":12,"name":"Hrabia","steam_id":76561198164608139,"connected_time":3986000000000,"state":"active","ping":53},{"user_id":13,"name":"Sertilbage","steam_id":76561198087850568,"connected_time":3978000000000,"state":"active","ping":78}]},{"server_id":51,"name":"Uncletopia | Warsaw | 3 | All Maps","name_short":"waw-3","host":"waw-1.pl.uncletopia.com","port":27035,"enabled":true,"region":"eu","cc":"pl","latitude":52.2297,"longitude":21.017532,"reserved":0,"last_update":"0001-01-01T00:00:00Z","name_a2s":"Uncletopia | Warsaw | 3 | All Maps","protocol":17,"map":"pl_frontier_final","folder":"tf","game":"Team Fortress","app_id":440,"player_count":0,"max_players":24,"Bots":0,"server_type":"Dedicated","server_os":"Linux","password":true,"vac":true,"version":"7932396","steam_id":85568392925397852,"keywords":["nocrits","nodmgspread","payload","uncletopia"],"game_id":440,"stv_port":27036,"stv_name":"Uncletopia | Warsaw | 3 | All Maps | STV","players":null},{"server_id":52,"name":"Uncletopia | Warsaw | 4 | All Maps","name_short":"waw-4","host":"waw-1.pl.uncletopia.com","port":27045,"enabled":true,"region":"eu","cc":"pl","latitude":52.2297,"longitude":21.017532,"reserved":0,"last_update":"0001-01-01T00:00:00Z","name_a2s":"Uncletopia | Warsaw | 4 | All Maps","protocol":17,"map":"koth_lakeside_final","folder":"tf","game":"Team Fortress","app_id":440,"player_count":0,"max_players":24,"Bots":0,"server_type":"Dedicated","server_os":"Linux","password":true,"vac":true,"version":"7932396","steam_id":85568392925397853,"keywords":["cp","nocrits","nodmgspread","uncletopia"],"game_id":440,"stv_port":27046,"stv_name":"Uncletopia | Warsaw | 4 | All Maps | STV","players":null},{"server_id":53,"name":"Uncletopia | Warsaw | 5 | Stopwatch Beta","name_short":"waw-5","host":"waw-1.pl.uncletopia.com","port":27055,"enabled":true,"region":"eu","cc":"pl","latitude":52.2297,"longitude":21.017532,"reserved":0,"last_update":"0001-01-01T00:00:00Z","name_a2s":"Uncletopia | Warsaw | 5 | Stopwatch Beta","protocol":17,"map":"koth_cascade","folder":"tf","game":"Team Fortress","app_id":440,"player_count":0,"max_players":24,"Bots":0,"server_type":"Dedicated","server_os":"Linux","password":true,"vac":true,"version":"7932396","steam_id":85568392925397854,"keywords":["cp","nocrits","nodmgspread","uncletopia"],"game_id":440,"stv_port":27056,"stv_name":"Uncletopia | Warsaw | 5 | Stopwatch Beta | STV","players":null},{"server_id":54,"name":"Uncletopia | Warsaw | 6 | Community","name_short":"waw-6","host":"waw-1.pl.uncletopia.com","port":27065,"enabled":true,"region":"eu","cc":"pl","latitude":52.2297,"longitude":21.017532,"reserved":0,"last_update":"0001-01-01T00:00:00Z","name_a2s":"Uncletopia | Warsaw | 6 | Community","protocol":17,"map":"workshop/cp_propaganda_b18.ugc1603743849","folder":"tf","game":"Team Fortress","app_id":440,"player_count":0,"max_players":24,"Bots":0,"server_type":"Dedicated","server_os":"Linux","password":true,"vac":true,"version":"7932396","steam_id":85568392925397856,"keywords":["cp","nocrits","nodmgspread","uncletopia"],"game_id":440,"stv_port":27066,"stv_name":"Uncletopia | Warsaw | 6 | Community | STV","players":null}]}