{"status":true,"message":"","result":[{"server_id":9,"name":"Uncletopia | Atlanta | 1 | All Maps","name_short":"atl-1","host":"atl-1.us.uncletopia.com","port":27015,"enabled":true,"region":"us-east","cc":"us","latitude":33.753746,"longitude":-84.38633,"reserved":0,"last_update":"0001-01-01T00:00:00Z","name_a2s":"Uncletopia | Atlanta | 1 | All Maps","protocol":17,"map":"pl_badwater","folder":"tf","game":"Team Fortress","app_id":440,"player_count":0,"max_players":24,"Bots":0,"server_type":"Dedicated","server_os":"Linux","password":true,"vac":true,"version":"7961495","steam_id":85568392924469982,"keywords":["nocrits","nodmgspread","payload","uncletopia"],"game_id":440,"stv_port":27016,"stv_name":"Uncletopia | Atlanta | 1 | All Maps | STV","players":null},{"server_id":104,"name":"Uncletopia | Atlanta | 2 | All Maps","name_short":"atl-2","host":"atl-1.us.uncletopia.com","port":27025,"enabled":true,"region":"us-east","cc":"us","latitude":33.753746,"longitude":-84.38633,"reserved":0,"last_update":"0001-01-01T00:00:00Z","name_a2s":"Uncletopia | Atlanta | 2 | All Maps","protocol":17,"map":"koth_cascade","folder":"tf","game":"Team Fortress","app_id":440,"player_count":0,"max_players":24,"Bots":0,"server_type":"Dedicated","server_os":"Linux","password":true,"vac":true,"version":"7961495","steam_id":85568392924469983,"keywords":["cp","nocrits","nodmgspread","uncletopia"],"game_id":440,"stv_port":27026,"stv_name":"Uncletopia | Atlanta | 2 | All Maps | STV","players":null},{"server_id":400,"name":"Uncletopia | Atlanta | 3 | Stopwatch","name_short":"atl-3","host":"atl-1.us.uncletopia.com","port":27035,"enabled":true,"region":"us-east","cc":"us","latitude":33.753746,"longitude":-84.38633,"reserved":0,"last_update":"0001-01-01T00:00:00Z","name_a2s":"Uncletopia | Atlanta | 3 | Stopwatch","protocol":17,"map":"cp_metalworks","folder":"tf","game":"Team Fortress","app_id":440,"player_count":0,"max_players":24,"Bots":0,"server_type":"Dedicated","server_os":"Linux","password":true,"vac":true,"version":"7961495","steam_id":85568392924515187,"keywords":["cp","nocrits","nodmgspread","uncletopia"],"game_id":440,"stv_port":27036,"stv_name":"Uncletopia | Atlanta | 3 | Stopwatch | STV","players":null},{"server_id":401,"name":"Uncletopia | Atlanta | 4 | Community","name_short":"atl-4","host":"atl-1.us.uncletopia.com","port":27045,"enabled":true,"region":"us-east","cc":"us","latitude":33.753746,"longitude":-84.38633,"reserved":0,"last_update":"0001-01-01T00:00:00Z","name_a2s":"Uncletopia | Atlanta | 4 | Community","protocol":17,"map":"workshop/pl_boundary_final1.ugc456799153","folder":"tf","game":"Team Fortress","app_id":440,"player_count":0,"max_players":24,"Bots":0,"server_type":"Dedicated","server_os":"Linux","password":true,"vac":true,"version":"7961495","steam_id":85568392924515188,"keywords":["nocrits","nodmgspread","payload","uncletopia"],"game_id":440,"stv_port":27046,"stv_name":"Uncletopia | Atlanta | 4 | Community | STV","players":null},{"server_id":2,"name":"Uncletopia | Chicago | 1 | All Maps","name_short":"chi-1","host":"chi-1.us.uncletopia.com","port":27015,"enabled":true,"region":"us-central","cc":"us","latitude":41.881832,"longitude":-87.62318,"reserved":0,"last_update":"0001-01-01T00:00:00Z","name_a2s":"Uncletopia | Chicago | 1 | All Maps","protocol":17,"map":"pl_upward","folder":"tf","game":"Team Fortress","app_id":440,"player_count":24,"max_players":24,"Bots":0,"server_type":"Dedicated","server_os":"Linux","password":true,"vac":true,"version":"7961495","steam_id":85568392924469984,"keywords":["nocrits","nodmgspread","payload","uncletopia"],"game_id":440,"stv_port":27016,"stv_name":"Uncletopia | Chicago | 1 | All Maps | STV","players":[{"user_id":822,"name":"Businessman","steam_id":76561198194912765,"connected_time":1588000000000,"state":"active","ping":87},{"user_id":835,"name":"mu","steam_id":76561197997530228,"connected_time":1020000000000,"state":"active","ping":96},{"user_id":787,"name":"Shabooyaroll-call","steam_id":76561198112306237,"connected_time":3787000000000,"state":"active","ping":113},{"user_id":718,"name":"Hipster_Giraffe","steam_id":76561198069701092,"connected_time":7851000000000,"state":"active","ping":95},{"user_id":788,"name":"Help!","steam_id":76561198270926835,"connected_time":3671000000000,"state":"active","ping":114},{"user_id":834,"name":"Pastor Johnson","steam_id":76561198256774959,"connected_time":1057000000000,"state":"active","ping":133},{"user_id":832,"name":"gallowsCalibrator","steam_id":76561198404707578,"connected_time":1227000000000,"state":"active","ping":114},{"user_id":809,"name":"Greg (Real)","steam_id":76561198257241062,"connected_time":2681000000000,"state":"active","ping":100},{"user_id":836,"name":"Hour_Before","steam_id":76561198090433209,"connected_time":1017000000000,"state":"active","ping":87},{"user_id":841,"name":"Zippy","steam_id":76561198279229422,"connected_time":331000000000,"state":"active","ping":60},{"user_id":794,"name":"cofi","steam_id":76561198077504898,"connected_time":3414000000000,"state":"active","ping":64},{"user_id":807,"name":"Lemon Soda","steam_id":76561198140208761,"connected_time":2824000000000,"state":"active","ping":70},{"user_id":842,"name":"werecat","steam_id":76561198005091213,"connected_time":199000000000,"state":"active","ping":57},{"user_id":837,"name":"Pablo","steam_id":76561198072168938,"connected_time":1007000000000,"state":"active","ping":76},{"user_id":816,"name":"✪ BigWillyMann","steam_id":76561198328072861,"connected_time":2162000000000,"state":"active","ping":77},{"user_id":840,"name":"frank","steam_id":76561198137777483,"connected_time":374000000000,"state":"active","ping":71},{"user_id":796,"name":"Kantamoe","steam_id":76561198046661611,"connected_time":3376000000000,"state":"active","ping":82},{"user_id":782,"name":"That Canadian Dude","steam_id":76561198024985831,"connected_time":4635000000000,"state":"active","ping":62},{"user_id":797,"name":"Luna","steam_id":76561198023352750,"connected_time":3361000000000,"state":"active","ping":83},{"user_id":838,"name":"나무 먹은사람","steam_id":76561198167893972,"connected_time":763000000000,"state":"active","ping":84},{"user_id":824,"name":"EliminateSingleFamilyZoning","steam_id":76561198276653985,"connected_time":1534000000000,"state":"active","ping":80},{"user_id":817,"name":"HazerLazer","steam_id":76561198043945871,"connected_time":2131000000000,"state":"active","ping":70},{"user_id":811,"name":"TTv 2008_Economic_Recession","steam_id":76561198286124157,"connected_time":2538000000000,"state":"active","ping":72},{"user_id":831,"name":"bubba","steam_id":76561198142629517,"connected_time":1309000000000,"state":"active","ping":72}]},{"server_id":106,"name":"Uncletopia | Chicago | 2 | All Maps","name_short":"chi-2","host":"chi-1.us.uncletopia.com","port":27025,"enabled":true,"region":"us-central","cc":"us","latitude":41.881832,"longitude":-87.62318,"reserved":0,"last_update":"0001-01-01T00:00:00Z","name_a2s":"Uncletopia | Chicago | 2 | All Maps","protocol":17,"map":"pl_pier","folder":"tf","game":"Team Fortress","app_id":440,"player_count":17,"max_players":24,"Bots":0,"server_type":"Dedicated","server_os":"Linux","password":true,"vac":true,"version":"7961495","steam_id":85568392924469985,"keywords":["nocrits","nodmgspread","payload","uncletopia"],"game_id":440,"stv_port":27026,"stv_name":"Uncletopia | Chicago | 2 | All Maps | STV","players":[{"user_id":580,"name":"ms. capgras [troutsupply.net]","steam_id":76561199080209996,"connected_time":1305000000000,"state":"active","ping":47},{"user_id":595,"name":"kaputon","steam_id":76561198146299782,"connected_time":99000000000,"state":"active","ping":59},{"user_id":575,"name":"gwen","steam_id":76561198046815360,"connected_time":1950000000000,"state":"active","ping":90},{"user_id":573,"name":"phantom","steam_id":76561197963860777,"connected_time":1962000000000,"state":"active","ping":60},{"user_id":571,"name":"Pissless Pissmass Pissman","steam_id":76561198409907417,"connected_time":2868000000000,"state":"active","ping":104},{"user_id":565,"name":"gerg","steam_id":76561197997127387,"connected_time":3143000000000,"state":"active","ping":101},{"user_id":566,"name":"Under an Unquiet Skull","steam_id":76561198164782653,"connected_time":3139000000000,"state":"active","ping":61},{"user_id":581,"name":"puzzlemaster","steam_id":76561198095997869,"connected_time":1296000000000,"state":"active","ping":71},{"user_id":567,"name":"social distance warrior","steam_id":76561198128992994,"connected_time":3132000000000,"state":"active","ping":75},{"user_id":503,"name":"Toasty","steam_id":76561198081819853,"connected_time":8427000000000,"state":"active","ping":76},{"user_id":588,"name":"He rolls his own","steam_id":76561198058162684,"connected_time":1065000000000,"state":"active","ping":71},{"user_id":578,"name":"ly_dee","steam_id":76561198074956732,"connected_time":1335000000000,"state":"active","ping":135},{"user_id":547,"name":"K","steam_id":76561198171446177,"connected_time":4962000000000,"state":"active","ping":91},{"user_id":591,"name":"Scoops M'Gooch","steam_id":76561198048423812,"connected_time":458000000000,"state":"active","ping":114},{"user_id":584,"name":"BIGMACDINNER","steam_id":76561198035678747,"connected_time":1207000000000,"state":"active","ping":69},{"user_id":586,"name":"Sweater-Fan","steam_id":76561199389567214,"connected_time":1187000000000,"state":"active","ping":66},{"user_id":594,"name":"n","steam_id":76561199061380038,"connected_time":131000000000,"state":"active","ping":62}]},{"server_id":402,"name":"Uncletopia | Chicago | 3 | All Maps","name_short":"chi-3","host":"chi-1.us.uncletopia.com","port":27035,"enabled":true,"region":"us-central","cc":"us","latitude":41.881832,"longitude":-87.62318,"reserved":0,"last_update":"0001-01-01T00:00:00Z","name_a2s":"Uncletopia | Chicago | 3 | All Maps","protocol":17,"map":"koth_viaduct","folder":"tf","game":"Team Fortress","app_id":440,"player_count":0,"max_players":24,"Bots":0,"server_type":"Dedicated","server_os":"Linux","password":true,"vac":true,"version":"7961495","steam_id":85568392924515191,"keywords":["cp","nocrits","nodmgspread","uncletopia"],"game_id":440,"stv_port":27036,"stv_name":"Uncletopia | Chicago | 3 | All Maps | STV","players":null},{"server_id":403,"name":"Uncletopia | Chicago | 4 | All Maps","name_short":"chi-4","host":"chi-1.us.uncletopia.com","port":27045,"enabled":true,"region":"us-central","cc":"us","latitude":41.881832,"longitude":-87.62318,"reserved":0,"last_update":"0001-01-01T00:00:00Z","name_a2s":"Uncletopia | Chicago | 4 | All Maps","protocol":17,"map":"pl_barnblitz","folder":"tf","game":"Team Fortress","app_id":440,"player_count":16,"max_players":24,"Bots":0,"server_type":"Dedicated","server_os":"Linux","password":true,"vac":true,"version":"7961495","steam_id":85568392924515193,"keywords":["nocrits","nodmgspread","payload","uncletopia"],"game_id":440,"stv_port":27046,"stv_name":"Uncletopia | Chicago | 4 | All Maps | STV","players":[{"user_id":1061,"name":"Nari","steam_id":76561199220038535,"connected_time":1797000000000,"state":"active","ping":65},{"user_id":1054,"name":"Pyro she/her","steam_id":76561198214080773,"connected_time":2639000000000,"state":"active","ping":84},{"user_id":1056,"name":"nick.burnside29","steam_id":76561199502565889,"connected_time":2236000000000,"state":"active","ping":76},{"user_id":1065,"name":"neptune","steam_id":76561198383404869,"connected_time":923000000000,"state":"active","ping":115},{"user_id":1076,"name":"Gummy","steam_id":76561199200969139,"connected_time":157000000000,"state":"active","ping":97},{"user_id":1048,"name":"Steak","steam_id":76561198214754864,"connected_time":2846000000000,"state":"active","ping":82},{"user_id":1049,"name":"eepy kitty uwu","steam_id":76561198106313563,"connected_time":2810000000000,"state":"active","ping":56},{"user_id":1067,"name":"TTV/YT hunter","steam_id":76561198115812405,"connected_time":800000000000,"state":"active","ping":73},{"user_id":1075,"name":"pavandev","steam_id":76561198123346839,"connected_time":191000000000,"state":"active","ping":190},{"user_id":1069,"name":"Lord_Manship","steam_id":76561198045168765,"connected_time":526000000000,"state":"active","ping":75},{"user_id":1052,"name":"femboy on hrt","steam_id":76561198204075083,"connected_time":2701000000000,"state":"active","ping":77},{"user_id":1071,"name":"Hopdon The Magic Bunny","steam_id":76561198051616613,"connected_time":367000000000,"state":"active","ping":82},{"user_id":1072,"name":"snive","steam_id":76561198086748674,"connected_time":350000000000,"state":"active","ping":85},{"user_id":1077,"name":"Sleggie","steam_id":76561198027878872,"connected_time":109000000000,"state":"active","ping":64},{"user_id":1057,"name":"cajun thotsauce","steam_id":76561198101636066,"connected_time":2078000000000,"state":"active","ping":103},{"user_id":1079,"name":"Kaypo","steam_id":76561198262420097,"connected_time":23000000000,"state":"spawning","ping":49}]},{"server_id":36,"name":"Uncletopia | Chicago | 5 | All Maps","name_short":"chi-5","host":"chi-2.us.uncletopia.com","port":27015,"enabled":true,"region":"us-central","cc":"us","latitude":41.881832,"longitude":-87.62318,"reserved":0,"last_update":"0001-01-01T00:00:00Z","name_a2s":"Uncletopia | Chicago | 5 | All Maps","protocol":17,"map":"koth_cascade","folder":"tf","game":"Team Fortress","app_id":440,"player_count":0,"max_players":24,"Bots":0,"server_type":"Dedicated","server_os":"Linux","password":true,"vac":true,"version":"7961495","steam_id":85568392924866362,"keywords":["cp","nocrits","nodmgspread","uncletopia"],"game_id":440,"stv_port":27016,"stv_name":"Uncletopia | Chicago | 5 | All Maps | STV","players":null},{"server_id":37,"name":"Uncletopia | Chicago | 6 | All Maps","name_short":"chi-6","host":"chi-2.us.uncletopia.com","port":27025,"enabled":true,"region":"us-central","cc":"us","latitude":41.881832,"longitude":-87.62318,"reserved":0,"last_update":"0001-01-01T00:00:00Z","name_a2s":"Uncletopia | Chicago | 6 | All Maps","protocol":17,"map":"pl_frontier_final","folder":"tf","game":"Team Fortress","app_id":440,"player_count":0,"max_players":24,"Bots":0,"server_type":"Dedicated","server_os":"Linux","password":true,"vac":true,"version":"7961495","steam_id":85568392924866363,"keywords":["nocrits","nodmgspread","payload","uncletopia"],"game_id":440,"stv_port":27026,"stv_name":"Uncletopia | Chicago | 6 | All Maps | STV","players":null},{"server_id":38,"name":"Uncletopia | Chicago | 7 | Stopwatch","name_short":"chi-7","host":"chi-2.us.uncletopia.com","port":27035,"enabled":true,"region":"us-central","cc":"us","latitude":41.881832,"longitude":-87.62318,"reserved":0,"last_update":"0001-01-01T00:00:00Z","name_a2s":"Uncletopia | Chicago | 7 | Stopwatch","protocol":17,"map":"workshop/koth_ashville_final.ugc2130459942","folder":"tf","game":"Team Fortress","app_id":440,"player_count":0,"max_players":24,"Bots":0,"server_type":"Dedicated","server_os":"Linux","password":true,"vac":true,"version":"7961495","steam_id":85568392924866364,"keywords":["cp","nocrits","nodmgspread","uncletopia"],"game_id":440,"stv_port":27036,"stv_name":"Uncletopia | Chicago | 7 | Stopwatch | STV","players":null},{"server_id":39,"name":"Uncletopia | Chicago | 8 | Community","name_short":"chi-8","host":"chi-2.us.uncletopia.com","port":27045,"enabled":true,"region":"us-central","cc":"us","latitude":41.881832,"longitude":-87.62318,"reserved":0,"last_update":"0001-01-01T00:00:00Z","name_a2s":"Uncletopia | Chicago | 8 | Community","protocol":17,"map":"workshop/koth_ashville_final.ugc2130459942","folder":"tf","game":"Team Fortress","app_id":440,"player_count":0,"max_players":24,"Bots":0,"server_type":"Dedicated","server_os":"Linux","password":true,"vac":true,"version":"7961495","steam_id":85568392924866365,"keywords":["cp","nocrits","nodmgspread","uncletopia"],"game_id":440,"stv_port":27046,"stv_name":"Uncletopia | Chicago | 8 | Community | STV","players":null},{"server_id":8,"name":"Uncletopia | Dallas | 1 | All Maps","name_short":"dal-1","host":"dal-1.us.uncletopia.com","port":27015,"enabled":true,"region":"us-central","cc":"us","latitude":32.779167,"longitude":-96.80889,"reserved":0,"last_update":"0001-01-01T00:00:00Z","name_a2s":"Uncletopia | Dallas | 1 | All Maps","protocol":17,"map":"pl_pier","folder":"tf","game":"Team Fortress","app_id":440,"player_count":0,"max_players":24,"Bots":0,"server_type":"Dedicated","server_os":"Linux","password":true,"vac":true,"version":"7961495","steam_id":85568392924469986,"keywords":["nocrits","nodmgspread","payload","uncletopia"],"game_id":440,"stv_port":27016,"stv_name":"Uncletopia | Dallas | 1 | All Maps | STV","players":null},{"server_id":108,"name":"Uncletopia | Dallas | 2 | All Maps","name_short":"dal-2","host":"dal-1.us.uncletopia.com","port":27025,"enabled":true,"region":"us-central","cc":"us","latitude":32.779167,"longitude":-96.80889,"reserved":0,"last_update":"0001-01-01T00:00:00Z","name_a2s":"Uncletopia | Dallas | 2 | All Maps","protocol":17,"map":"pl_borneo","folder":"tf","game":"Team Fortress","app_id":440,"player_count":22,"max_players":24,"Bots":0,"server_type":"Dedicated","server_os":"Linux","password":true,"vac":true,"version":"7961495","steam_id":85568392924469988,"keywords":["nocrits","nodmgspread","payload","uncletopia"],"game_id":440,"stv_port":27026,"stv_name":"Uncletopia | Dallas | 2 | All Maps | STV","players":[{"user_id":489,"name":"gamig","steam_id":76561198452046317,"connected_time":2261000000000,"state":"active","ping":74},{"user_id":492,"name":"Artic_Ryuu","steam_id":76561198182194918,"connected_time":1715000000000,"state":"active","ping":72},{"user_id":515,"name":"An Unhappy Clown","steam_id":76561198175516514,"connected_time":324000000000,"state":"active","ping":45},{"user_id":491,"name":"Cave Dweller","steam_id":76561198374825685,"connected_time":1891000000000,"state":"active","ping":94},{"user_id":511,"name":"Slug Warrior","steam_id":76561197996052704,"connected_time":1051000000000,"state":"active","ping":88},{"user_id":431,"name":"Cast Iron Crusader","steam_id":76561198066384337,"connected_time":7568000000000,"state":"active","ping":85},{"user_id":494,"name":"don","steam_id":76561198204410892,"connected_time":1482000000000,"state":"active","ping":69},{"user_id":469,"name":"{ST} Oxythemoron","steam_id":76561198060089965,"connected_time":3110000000000,"state":"active","ping":52},{"user_id":516,"name":"SuperNovaFox","steam_id":76561198052172564,"connected_time":220000000000,"state":"active","ping":75},{"user_id":462,"name":"Potato Lord Gaben","steam_id":76561198238661676,"connected_time":4370000000000,"state":"active","ping":64},{"user_id":512,"name":"Cat","steam_id":76561198132362099,"connected_time":1043000000000,"state":"active","ping":107},{"user_id":514,"name":"Captain Sonic","steam_id":76561198274564062,"connected_time":347000000000,"state":"active","ping":91},{"user_id":517,"name":"U ω U","steam_id":76561198118802562,"connected_time":214000000000,"state":"active","ping":85},{"user_id":450,"name":"tsz","steam_id":76561199246231090,"connected_time":5104000000000,"state":"active","ping":82},{"user_id":513,"name":"Kirbothebrony","steam_id":76561198971911330,"connected_time":667000000000,"state":"active","ping":62},{"user_id":518,"name":"Trigger","steam_id":76561198220120368,"connected_time":208000000000,"state":"active","ping":42},{"user_id":477,"name":"Squiliam","steam_id":76561198025278006,"connected_time":2884000000000,"state":"active","ping":45},{"user_id":519,"name":"MINI CRIT!999","steam_id":76561198027649268,"connected_time":175000000000,"state":"active","ping":73},{"user_id":488,"name":"[Karma]Destroyer","steam_id":76561198086977640,"connected_time":2326000000000,"state":"active","ping":95},{"user_id":480,"name":"NexFrost","steam_id":76561197985774837,"connected_time":2856000000000,"state":"active","ping":44},{"user_id":481,"name":"Densten","steam_id":76561198026091923,"connected_time":2763000000000,"state":"active","ping":97},{"user_id":501,"name":"Sturm","steam_id":76561198340079559,"connected_time":1389000000000,"state":"active","ping":87}]},{"server_id":404,"name":"Uncletopia | Dallas | 3 | All Maps","name_short":"dal-3","host":"dal-1.us.uncletopia.com","port":27035,"enabled":true,"region":"us-central","cc":"us","latitude":32.779167,"longitude":-96.80889,"reserved":0,"last_update":"0001-01-01T00:00:00Z","name_a2s":"Uncletopia | Dallas | 3 | All Maps","protocol":17,"map":"cp_altitude","folder":"tf","game":"Team Fortress","app_id":440,"player_count":0,"max_players":24,"Bots":0,"server_type":"Dedicated","server_os":"Linux","password":true,"vac":true,"version":"7961495","steam_id":85568392924515219,"keywords":["cp","nocrits","nodmgspread","uncletopia"],"game_id":440,"stv_port":27036,"stv_name":"Uncletopia | Dallas | 3 | All Maps | STV","players":null},{"server_id":405,"name":"Uncletopia | Dallas | 4 | Community","name_short":"dal-4","host":"dal-1.us.uncletopia.com","port":27045,"enabled":true,"region":"us-central","cc":"us","latitude":32.779167,"longitude":-96.80889,"reserved":0,"last_update":"0001-01-01T00:00:00Z","name_a2s":"Uncletopia | Dallas | 4 | Community","protocol":17,"map":"workshop/koth_synthetic_rc6a.ugc1549817316","folder":"tf","game":"Team Fortress","app_id":440,"player_count":0,"max_players":24,"Bots":0,"server_type":"Dedicated","server_os":"Linux","password":true,"vac":true,"version":"7961495","steam_id":85568392924515220,"keywords":["cp","nocrits","nodmgspread","uncletopia"],"game_id":440,"stv_port":27046,"stv_name":"Uncletopia | Dallas | 4 | Community | STV","players":null},{"server_id":5,"name":"Uncletopia | Frankfurt | 1 | All Maps","name_short":"frk-1","host":"frk-1.de.uncletopia.com","port":27015,"enabled":true,"region":"eu","cc":"de","latitude":50.110924,"longitude":8.682127,"reserved":0,"last_update":"0001-01-01T00:00:00Z","name_a2s":"Uncletopia | Frankfurt | 1 | All Maps","protocol":17,"map":"koth_highpass","folder":"tf","game":"Team Fortress","app_id":440,"player_count":0,"max_players":24,"Bots":0,"server_type":"Dedicated","server_os":"Linux","password":true,"vac":true,"version":"7961495","steam_id":85568392924469989,"keywords":["cp","nocrits","nodmgspread","uncletopia"],"game_id":440,"stv_port":27016,"stv_name":"Uncletopia | Frankfurt | 1 | All Maps | STV","players":null},{"server_id":110,"name":"Uncletopia | Frankfurt | 2 | All Maps","name_short":"frk-2","host":"frk-1.de.uncletopia.com","port":27025,"enabled":true,"region":"eu","cc":"de","latitude":50.110924,"longitude":8.682127,"reserved":0,"last_update":"0001-01-01T00:00:00Z","name_a2s":"Uncletopia | Frankfurt | 2 | All Maps","protocol":17,"map":"pl_borneo","folder":"tf","game":"Team Fortress","app_id":440,"player_count":0,"max_players":24,"Bots":0,"server_type":"Dedicated","server_os":"Linux","password":true,"vac":true,"version":"7961495","steam_id":85568392924469990,"keywords":["nocrits","nodmgspread","payload","uncletopia"],"game_id":440,"stv_port":27026,"stv_name":"Uncletopia | Frankfurt | 2 | All Maps | STV","players":null},{"server_id":308,"name":"Uncletopia | Frankfurt | 3 | All Maps","name_short":"frk-3","host":"frk-1.de.uncletopia.com","port":27035,"enabled":true,"region":"eu","cc":"de","latitude":50.110924,"longitude":8.682127,"reserved":0,"last_update":"0001-01-01T00:00:00Z","name_a2s":"Uncletopia | Frankfurt | 3 | All Maps","protocol":17,"map":"pl_barnblitz","folder":"tf","game":"Team Fortress","app_id":440,"player_count":0,"max_players":24,"Bots":0,"server_type":"Dedicated","server_os":"Linux","password":true,"vac":true,"version":"7961495","steam_id":85568392924504274,"keywords":["nocrits","nodmgspread","payload","uncletopia"],"game_id":440,"stv_port":27036,"stv_name":"Uncletopia | Frankfurt | 3 | All Maps | STV","players":null},{"server_id":309,"name":"Uncletopia | Frankfurt | 4 | All Maps","name_short":"frk-4","host":"frk-1.de.uncletopia.com","port":27045,"enabled":true,"region":"eu","cc":"de","latitude":50.110924,"longitude":8.682127,"reserved":0,"last_update":"0001-01-01T00:00:00Z","name_a2s":"Uncletopia | Frankfurt | 4 | All Maps","protocol":17,"map":"koth_highpass","folder":"tf","game":"Team Fortress","app_id":440,"player_count":0,"max_players":24,"Bots":0,"server_type":"Dedicated","server_os":"Linux","password":true,"vac":true,"version":"7961495","steam_id":85568392924504275,"keywords":["cp","nocrits","nodmgspread","uncletopia"],"game_id":440,"stv_port":27046,"stv_name":"Uncletopia | Frankfurt | 4 | All Maps | STV","players":null},{"server_id":310,"name":"Uncletopia | Frankfurt | 5 | All Maps","name_short":"frk-5","host":"frk-1.de.uncletopia.com","port":27055,"enabled":true,"region":"eu","cc":"de","latitude":50.110924,"longitude":8.682127,"reserved":0,"last_update":"0001-01-01T00:00:00Z","name_a2s":"Uncletopia | Frankfurt | 5 | All Maps","protocol":17,"map":"pl_badwater","folder":"tf","game":"Team Fortress","app_id":440,"player_count":0,"max_players":24,"Bots":0,"server_type":"Dedicated","server_os":"Linux","password":true,"vac":true,"version":"7961495","steam_id":85568392924504277,"keywords":["nocrits","nodmgspread","payload","uncletopia"],"game_id":440,"stv_port":27056,"stv_name":"Uncletopia | Frankfurt | 5 | All Maps | STV","players":null},{"server_id":311,"name":"Uncletopia | Frankfurt | 6 | All Maps","name_short":"frk-6","host":"frk-1.de.uncletopia.com","port":27065,"enabled":true,"region":"eu","cc":"de","latitude":50.110924,"longitude":8.682127,"reserved":0,"last_update":"0001-01-01T00:00:00Z","name_a2s":"Uncletopia | Frankfurt | 6 | All Maps","protocol":17,"map":"cp_altitude","folder":"tf","game":"Team Fortress","app_id":440,"player_count":0,"max_players":24,"Bots":0,"server_type":"Dedicated","server_os":"Linux","password":true,"vac":true,"version":"7961495","steam_id":85568392924504278,"keywords":["cp","nocrits","nodmgspread","uncletopia"],"game_id":440,"stv_port":27066,"stv_name":"Uncletopia | Frankfurt | 6 | All Maps | STV","players":null},{"server_id":23,"name":"Uncletopia | Frankfurt | 7 | Stopwatch","name_short":"frk-7","host":"frk-1.de.uncletopia.com","port":27075,"enabled":true,"region":"eu","cc":"de","latitude":50.110924,"longitude":8.682127,"reserved":0,"last_update":"0001-01-01T00:00:00Z","name_a2s":"Uncletopia | Frankfurt | 7 | Stopwatch","protocol":17,"map":"pl_frontier_final","folder":"tf","game":"Team Fortress","app_id":440,"player_count":0,"max_players":24,"Bots":0,"server_type":"Dedicated","server_os":"Linux","password":true,"vac":true,"version":"7961495","steam_id":85568392924742827,"keywords":["nocrits","nodmgspread","payload","uncletopia"],"game_id":440,"stv_port":27076,"stv_name":"Uncletopia | Frankfurt | 7 | Stopwatch | STV","players":null},{"server_id":24,"name":"Uncletopia | Frankfurt | 8 | Community","name_short":"frk-8","host":"frk-1.de.uncletopia.com","port":27085,"enabled":true,"region":"eu","cc":"de","latitude":50.110924,"longitude":8.682127,"reserved":0,"last_update":"0001-01-01T00:00:00Z","name_a2s":"Uncletopia | Frankfurt | 8 | Community","protocol":17,"map":"cp_mountainlab","folder":"tf","game":"Team Fortress","app_id":440,"player_count":0,"max_players":24,"Bots":0,"server_type":"Dedicated","server_os":"Linux","password":true,"vac":true,"version":"7961495","steam_id":85568392924742828,"keywords":["cp","nocrits","nodmgspread","uncletopia"],"game_id":440,"stv_port":27086,"stv_name":"Uncletopia | Frankfurt | 8 | Community | STV","players":null},{"server_id":202,"name":"Uncletopia | Hong Kong | 1 | All Maps","name_short":"hgk-1","host":"hgk-1.hk.uncletopia.com","port":27015,"enabled":true,"region":"asia","cc":"hk","latitude":22.302711,"longitude":114.177216,"reserved":0,"last_update":"0001-01-01T00:00:00Z","name_a2s":"Uncletopia | Hong Kong | 1 | All Maps","protocol":17,"map":"koth_lakeside_final","folder":"tf","game":"Team Fortress","app_id":440,"player_count":0,"max_players":24,"Bots":0,"server_type":"Dedicated","server_os":"Linux","password":true,"vac":true,"version":"7961495","steam_id":85568392924494504,"keywords":["cp","nocrits","nodmgspread","uncletopia"],"game_id":440,"stv_port":27016,"stv_name":"Uncletopia | Hong Kong | 1 | All Maps | STV","players":null},{"server_id":1,"name":"Uncletopia | Los Angeles | 1 | All Maps","name_short":"lax-1","host":"lax-1.us.uncletopia.com","port":27015,"enabled":true,"region":"us-west","cc":"us","latitude":33.94279,"longitude":-118.41004,"reserved":0,"last_update":"0001-01-01T00:00:00Z","name_a2s":"Uncletopia | Los Angeles | 1 | All Maps","protocol":17,"map":"pl_pier","folder":"tf","game":"Team Fortress","app_id":440,"player_count":23,"max_players":24,"Bots":0,"server_type":"Dedicated","server_os":"Linux","password":true,"vac":true,"version":"7961495","steam_id":85568392924469991,"keywords":["nocrits","nodmgspread","payload","uncletopia"],"game_id":440,"stv_port":27016,"stv_name":"Uncletopia | Los Angeles | 1 | All Maps | STV","players":[{"user_id":576,"name":"Local man that screams at cloud","steam_id":76561198260031998,"connected_time":512000000000,"state":"active","ping":66},{"user_id":574,"name":"ChoccyMiltank","steam_id":76561198981474284,"connected_time":932000000000,"state":"active","ping":46},{"user_id":578,"name":"☁Chaoscist","steam_id":76561198133707355,"connected_time":305000000000,"state":"active","ping":35},{"user_id":561,"name":"azureglxy","steam_id":76561198861388315,"connected_time":2263000000000,"state":"active","ping":37},{"user_id":573,"name":"SuperRPGgamer","steam_id":76561198288017834,"connected_time":1268000000000,"state":"active","ping":66},{"user_id":581,"name":"gwiddy hitter","steam_id":76561198126546221,"connected_time":127000000000,"state":"active","ping":34},{"user_id":508,"name":"who","steam_id":76561198066091050,"connected_time":5620000000000,"state":"active","ping":90},{"user_id":582,"name":"gary ashby","steam_id":76561198240217520,"connected_time":104000000000,"state":"active","ping":71},{"user_id":575,"name":"yomommasabitch","steam_id":76561198323217150,"connected_time":584000000000,"state":"active","ping":69},{"user_id":555,"name":"BurritoCat","steam_id":76561198059822805,"connected_time":2638000000000,"state":"active","ping":120},{"user_id":480,"name":"johnny","steam_id":76561198050225055,"connected_time":7358000000000,"state":"active","ping":45},{"user_id":492,"name":"EGADS! I'M PINNED!","steam_id":76561198145669711,"connected_time":6309000000000,"state":"active","ping":44},{"user_id":565,"name":"shakoiwa","steam_id":76561199059441773,"connected_time":2092000000000,"state":"active","ping":54},{"user_id":566,"name":"Emma","steam_id":76561198206177593,"connected_time":1768000000000,"state":"active","ping":45},{"user_id":567,"name":"roach :3","steam_id":76561198354811369,"connected_time":1729000000000,"state":"active","ping":52},{"user_id":546,"name":"Ando","steam_id":76561198434314265,"connected_time":3495000000000,"state":"active","ping":49},{"user_id":568,"name":"Nimrod","steam_id":76561198133286622,"connected_time":1679000000000,"state":"active","ping":105},{"user_id":569,"name":"I_ARE_PABLO","steam_id":76561198882269003,"connected_time":1589000000000,"state":"active","ping":114},{"user_id":500,"name":"lol","steam_id":76561198026491738,"connected_time":6124000000000,"state":"active","ping":70},{"user_id":579,"name":"Taree","steam_id":76561198059906615,"connected_time":300000000000,"state":"active","ping":51},{"user_id":570,"name":"Emperor Entropy","steam_id":76561198113723324,"connected_time":1583000000000,"state":"active","ping":93},{"user_id":571,"name":"Uncle Smelly","steam_id":76561198833616175,"connected_time":1582000000000,"state":"active","ping":92},{"user_id":572,"name":"yeah, I got a small dick, so wh","steam_id":76561198357132470,"connected_time":1566000000000,"state":"active","ping":64}]},{"server_id":112,"name":"Uncletopia | Los Angeles | 2 | All Maps","name_short":"lax-2","host":"lax-1.us.uncletopia.com","port":27025,"enabled":true,"region":"us-west","cc":"us","latitude":33.94279,"longitude":-118.41004,"reserved":0,"last_update":"0001-01-01T00:00:00Z","name_a2s":"Uncletopia | Los Angeles | 2 | All Maps","protocol":17,"map":"cp_mountainlab","folder":"tf","game":"Team Fortress","app_id":440,"player_count":0,"max_players":24,"Bots":0,"server_type":"Dedicated","server_os":"Linux","password":true,"vac":true,"version":"7961495","steam_id":85568392924469992,"keywords":["cp","nocrits","nodmgspread","uncletopia"],"game_id":440,"stv_port":27026,"stv_name":"Uncletopia | Los Angeles | 2 | All Maps | STV","players":null},{"server_id":324,"name":"Uncletopia | Los Angeles | 3 | All Maps","name_short":"lax-3","host":"lax-1.us.uncletopia.com","port":27035,"enabled":true,"region":"us-west","cc":"us","latitude":33.94279,"longitude":-118.41004,"reserved":0,"last_update":"0001-01-01T00:00:00Z","name_a2s":"Uncletopia | Los Angeles | 3 | All Maps","protocol":17,"map":"cp_sunshine","folder":"tf","game":"Team Fortress","app_id":440,"player_count":24,"max_players":24,"Bots":0,"server_type":"Dedicated","server_os":"Linux","password":true,"vac":true,"version":"7961495","steam_id":85568392924510198,"keywords":["cp","nocrits","nodmgspread","uncletopia"],"game_id":440,"stv_port":27036,"stv_name":"Uncletopia | Los Angeles | 3 | All Maps | STV","players":[{"user_id":176,"name":"EAT SPIT!","steam_id":76561198096836451,"connected_time":2329000000000,"state":"active","ping":55},{"user_id":190,"name":"doopu","steam_id":76561199199520060,"connected_time":1392000000000,"state":"active","ping":71},{"user_id":149,"name":"basil","steam_id":76561198075758026,"connected_time":4257000000000,"state":"active","ping":112},{"user_id":197,"name":"Beef Wellington","steam_id":76561197995635241,"connected_time":686000000000,"state":"active","ping":157},{"user_id":159,"name":"mrselfdestruct13","steam_id":76561197992054553,"connected_time":3955000000000,"state":"active","ping":83},{"user_id":194,"name":"Ide","steam_id":76561198936116083,"connected_time":975000000000,"state":"active","ping":107},{"user_id":198,"name":"Mk","steam_id":76561198139790822,"connected_time":509000000000,"state":"active","ping":103},{"user_id":206,"name":"Imitation Caucasian","steam_id":76561198320536166,"connected_time":253000000000,"state":"active","ping":69},{"user_id":187,"name":"jams","steam_id":76561198131701290,"connected_time":1562000000000,"state":"active","ping":48},{"user_id":207,"name":"otwtomarsoffdabars(spacecore)","steam_id":76561199085974120,"connected_time":252000000000,"state":"active","ping":106},{"user_id":193,"name":"inoricaM","steam_id":76561199199257149,"connected_time":1168000000000,"state":"active","ping":175},{"user_id":151,"name":"Optimore","steam_id":76561198047662990,"connected_time":4183000000000,"state":"active","ping":45},{"user_id":201,"name":"burgerboy","steam_id":76561198191561291,"connected_time":475000000000,"state":"active","ping":45},{"user_id":180,"name":"BLØRG","steam_id":76561198036126673,"connected_time":2162000000000,"state":"active","ping":84},{"user_id":173,"name":"weed lesbian","steam_id":76561198042263805,"connected_time":3035000000000,"state":"active","ping":85},{"user_id":181,"name":"tRiCkStAb","steam_id":76561197984716005,"connected_time":2137000000000,"state":"active","ping":57},{"user_id":191,"name":"hello","steam_id":76561198080256936,"connected_time":1310000000000,"state":"active","ping":47},{"user_id":202,"name":"Sky","steam_id":76561198853245153,"connected_time":452000000000,"state":"active","ping":73},{"user_id":203,"name":"bocchi the kobold","steam_id":76561198259650356,"connected_time":435000000000,"state":"active","ping":67},{"user_id":196,"name":"your bitch uncrustable","steam_id":76561198059921781,"connected_time":792000000000,"state":"active","ping":72},{"user_id":204,"name":"Villenova","steam_id":76561198073606416,"connected_time":389000000000,"state":"active","ping":52},{"user_id":205,"name":"Bcuz","steam_id":76561197981318027,"connected_time":378000000000,"state":"active","ping":72},{"user_id":188,"name":"gorefriend","steam_id":76561198049258493,"connected_time":1553000000000,"state":"active","ping":86},{"user_id":195,"name":"Charlie Sheen","steam_id":76561198263105663,"connected_time":953000000000,"state":"active","ping":77}]},{"server_id":25,"name":"Uncletopia | Los Angeles | 4 | Stopwatch","name_short":"lax-4","host":"lax-1.us.uncletopia.com","port":27045,"enabled":true,"region":"us-west","cc":"us","latitude":33.94279,"longitude":-118.41004,"reserved":0,"last_update":"0001-01-01T00:00:00Z","name_a2s":"Uncletopia | Los Angeles | 4 | Stopwatch","protocol":17,"map":"workshop/pl_barnblitz_pro7.ugc582280235","folder":"tf","game":"Team Fortress","app_id":440,"player_count":0,"max_players":24,"Bots":0,"server_type":"Dedicated","server_os":"Linux","password":true,"vac":true,"version":"7961495","steam_id":85568392924510199,"keywords":["nocrits","nodmgspread","payload","uncletopia"],"game_id":440,"stv_port":27046,"stv_name":"Uncletopia | Los Angeles | 4 | Stopwatch | STV","players":null},{"server_id":11,"name":"Uncletopia | London | 1 | All Maps","name_short":"lon-1","host":"lon-1.uk.uncletopia.com","port":27015,"enabled":true,"region":"eu","cc":"gb","latitude":51.509865,"longitude":-0.118092,"reserved":0,"last_update":"0001-01-01T00:00:00Z","name_a2s":"Uncletopia | London | 1 | All Maps","protocol":17,"map":"pl_borneo","folder":"tf","game":"Team Fortress","app_id":440,"player_count":23,"max_players":24,"Bots":0,"server_type":"Dedicated","server_os":"Linux","password":true,"vac":true,"version":"7961495","steam_id":85568392924367362,"keywords":["nocrits","nodmgspread","payload","uncletopia"],"game_id":440,"stv_port":27016,"stv_name":"Uncletopia | London | 1 | All Maps | STV","players":[{"user_id":82,"name":"WeskerTea","steam_id":76561198803536180,"connected_time":1500000000000,"state":"active","ping":103},{"user_id":90,"name":"sleeping souls","steam_id":76561198205464653,"connected_time":958000000000,"state":"active","ping":56},{"user_id":13,"name":"Alice","steam_id":76561198052410860,"connected_time":8607000000000,"state":"active","ping":138},{"user_id":109,"name":"scarybeast","steam_id":76561198927694734,"connected_time":151000000000,"state":"active","ping":77},{"user_id":80,"name":"Zegi","steam_id":76561198036256545,"connected_time":1648000000000,"state":"active","ping":60},{"user_id":106,"name":"Richard nixon roleplayer","steam_id":76561198236015392,"connected_time":375000000000,"state":"active","ping":120},{"user_id":83,"name":"Sex Man TF2","steam_id":76561198798657045,"connected_time":1357000000000,"state":"active","ping":71},{"user_id":64,"name":"SeaCine","steam_id":76561198085122171,"connected_time":3983000000000,"state":"active","ping":71},{"user_id":76,"name":"marvs","steam_id":76561198851777617,"connected_time":2194000000000,"state":"active","ping":56},{"user_id":77,"name":"Sparrose","steam_id":76561199050235461,"connected_time":2091000000000,"state":"active","ping":85},{"user_id":79,"name":"Born to kill, forced to heal","steam_id":76561199226591345,"connected_time":1699000000000,"state":"active","ping":102},{"user_id":81,"name":"else1","steam_id":76561197996558319,"connected_time":1534000000000,"state":"active","ping":87},{"user_id":85,"name":"Neimon","steam_id":76561198343485710,"connected_time":1306000000000,"state":"active","ping":135},{"user_id":107,"name":"Jake","steam_id":76561198059559158,"connected_time":328000000000,"state":"active","ping":92},{"user_id":50,"name":"Marcel","steam_id":76561198348686648,"connected_time":5581000000000,"state":"active","ping":44},{"user_id":95,"name":"laza's","steam_id":76561199074095198,"connected_time":762000000000,"state":"active","ping":106},{"user_id":92,"name":"mohemmedmokhter2005","steam_id":76561199197650506,"connected_time":896000000000,"state":"active","ping":112},{"user_id":93,"name":"I'm bored","steam_id":76561198380504471,"connected_time":878000000000,"state":"active","ping":59},{"user_id":110,"name":"K","steam_id":76561198144604444,"connected_time":111000000000,"state":"active","ping":59},{"user_id":96,"name":"FoXTroD","steam_id":76561198006365019,"connected_time":732000000000,"state":"active","ping":84},{"user_id":108,"name":"Falcon","steam_id":76561198211463916,"connected_time":172000000000,"state":"active","ping":89},{"user_id":111,"name":"Dani","steam_id":76561198211627920,"connected_time":92000000000,"state":"active","ping":75},{"user_id":99,"name":"John0309","steam_id":76561198447428162,"connected_time":677000000000,"state":"active","ping":77}]},{"server_id":114,"name":"Uncletopia | London | 2 | All Maps","name_short":"lon-2","host":"lon-1.uk.uncletopia.com","port":27025,"enabled":true,"region":"eu","cc":"gb","latitude":51.509865,"longitude":-0.118092,"reserved":0,"last_update":"0001-01-01T00:00:00Z","name_a2s":"Uncletopia | London | 2 | All Maps","protocol":17,"map":"koth_lakeside_final","folder":"tf","game":"Team Fortress","app_id":440,"player_count":0,"max_players":24,"Bots":0,"server_type":"Dedicated","server_os":"Linux","password":true,"vac":true,"version":"7961495","steam_id":85568392924470941,"keywords":["cp","nocrits","nodmgspread","uncletopia"],"game_id":440,"stv_port":27026,"stv_name":"Uncletopia | London | 2 | All Maps | STV","players":null},{"server_id":320,"name":"Uncletopia | London | 3 | All Maps","name_short":"lon-3","host":"lon-1.uk.uncletopia.com","port":27035,"enabled":true,"region":"eu","cc":"gb","latitude":51.509865,"longitude":-0.118092,"reserved":0,"last_update":"0001-01-01T00:00:00Z","name_a2s":"Uncletopia | London | 3 | All Maps","protocol":17,"map":"cp_process_final","folder":"tf","game":"Team Fortress","app_id":440,"player_count":0,"max_players":24,"Bots":0,"server_type":"Dedicated","server_os":"Linux","password":true,"vac":true,"version":"7961495","steam_id":85568392924510192,"keywords":["cp","nocrits","nodmgspread","uncletopia"],"game_id":440,"stv_port":27036,"stv_name":"Uncletopia | London | 3 | All Maps | STV","players":null},{"server_id":321,"name":"Uncletopia | London | 4 | All Maps","name_short":"lon-4","host":"lon-1.uk.uncletopia.com","port":27045,"enabled":true,"region":"eu","cc":"gb","latitude":51.509865,"longitude":-0.118092,"reserved":0,"last_update":"0001-01-01T00:00:00Z","name_a2s":"Uncletopia | London | 4 | All Maps","protocol":17,"map":"koth_cascade","folder":"tf","game":"Team Fortress","app_id":440,"player_count":0,"max_players":24,"Bots":0,"server_type":"Dedicated","server_os":"Linux","password":true,"vac":true,"version":"7961495","steam_id":85568392924510193,"keywords":["cp","nocrits","nodmgspread","uncletopia"],"game_id":440,"stv_port":27046,"stv_name":"Uncletopia | London | 4 | All Maps | STV","players":null},{"server_id":21,"name":"Uncletopia | London | 5 | All Maps","name_short":"lon-5","host":"lon-1.uk.uncletopia.com","port":27055,"enabled":true,"region":"eu","cc":"gb","latitude":51.509865,"longitude":-0.118092,"reserved":0,"last_update":"0001-01-01T00:00:00Z","name_a2s":"Uncletopia | London | 5 | All Maps","protocol":17,"map":"koth_lakeside_final","folder":"tf","game":"Team Fortress","app_id":440,"player_count":0,"max_players":24,"Bots":0,"server_type":"Dedicated","server_os":"Linux","password":true,"vac":true,"version":"7961495","steam_id":85568392924742829,"keywords":["cp","nocrits","nodmgspread","uncletopia"],"game_id":440,"stv_port":27056,"stv_name":"Uncletopia | London | 5 | All Maps | STV","players":null},{"server_id":22,"name":"Uncletopia | London | 6 | All Maps","name_short":"lon-6","host":"lon-1.uk.uncletopia.com","port":27065,"enabled":true,"region":"eu","cc":"gb","latitude":51.509865,"longitude":-0.118092,"reserved":0,"last_update":"0001-01-01T00:00:00Z","name_a2s":"Uncletopia | London | 6 | All Maps","protocol":17,"map":"cp_dustbowl","folder":"tf","game":"Team Fortress","app_id":440,"player_count":0,"max_players":24,"Bots":0,"server_type":"Dedicated","server_os":"Linux","password":true,"vac":true,"version":"7961495","steam_id":85568392924742830,"keywords":["cp","nocrits","nodmgspread","uncletopia"],"game_id":440,"stv_port":27066,"stv_name":"Uncletopia | London | 6 | All Maps | STV","players":null},{"server_id":40,"name":"Uncletopia | London | 7 | Stopwatch","name_short":"lon-7","host":"lon-1.uk.uncletopia.com","port":27075,"enabled":true,"region":"eu","cc":"gb","latitude":51.509865,"longitude":-0.118092,"reserved":0,"last_update":"0001-01-01T00:00:00Z","name_a2s":"Uncletopia | London | 7 | Stopwatch","protocol":17,"map":"koth_lakeside_final","folder":"tf","game":"Team Fortress","app_id":440,"player_count":0,"max_players":24,"Bots":0,"server_type":"Dedicated","server_os":"Linux","password":true,"vac":true,"version":"7961495","steam_id":85568392924964314,"keywords":["cp","nocrits","nodmgspread","uncletopia"],"game_id":440,"stv_port":27076,"stv_name":"Uncletopia | London | 7 | Stopwatch | STV","players":null},{"server_id":41,"name":"Uncletopia | London | 8 | Community","name_short":"lon-8","host":"lon-1.uk.uncletopia.com","port":27085,"enabled":true,"region":"eu","cc":"gb","latitude":51.509865,"longitude":-0.118092,"reserved":0,"last_update":"0001-01-01T00:00:00Z","name_a2s":"Uncletopia | London | 8 | Community","protocol":17,"map":"cp_snakewater_final1","folder":"tf","game":"Team Fortress","app_id":440,"player_count":0,"max_players":24,"Bots":0,"server_type":"Dedicated","server_os":"Linux","password":true,"vac":true,"version":"7961495","steam_id":85568392924964315,"keywords":["cp","nocrits","nodmgspread","uncletopia"],"game_id":440,"stv_port":27086,"stv_name":"Uncletopia | London | 8 | Community | STV","players":null},{"server_id":300,"name":"Uncletopia | Montréal | 1 | One Thousand Uncles","name_short":"mtl-1","host":"mtl-1.ca.uncletopia.com","port":27015,"enabled":true,"region":"us-east","cc":"ca","latitude":45.50889,"longitude":-73.56167,"reserved":0,"last_update":"0001-01-01T00:00:00Z","name_a2s":"","protocol":0,"map":"","folder":"","game":"","app_id":0,"player_count":0,"max_players":0,"Bots":0,"server_type":"","server_os":"","password":false,"vac":false,"version":"","steam_id":0,"keywords":null,"game_id":0,"stv_port":0,"stv_name":"","players":null},{"server_id":301,"name":"Uncletopia | Montréal | 2 | One Thousand Uncles","name_short":"mtl-2","host":"mtl-1.ca.uncletopia.com","port":27025,"enabled":true,"region":"us-east","cc":"ca","latitude":45.50889,"longitude":-73.56167,"reserved":0,"last_update":"0001-01-01T00:00:00Z","name_a2s":"","protocol":0,"map":"","folder":"","game":"","app_id":0,"player_count":0,"max_players":0,"Bots":0,"server_type":"","server_os":"","password":false,"vac":false,"version":"","steam_id":0,"keywords":null,"game_id":0,"stv_port":0,"stv_name":"","players":null},{"server_id":302,"name":"Uncletopia | Montréal | 3 | One Thousand Uncles","name_short":"mtl-3","host":"mtl-1.ca.uncletopia.com","port":27035,"enabled":true,"region":"us-east","cc":"ca","latitude":45.50889,"longitude":-73.56167,"reserved":0,"last_update":"0001-01-01T00:00:00Z","name_a2s":"","protocol":0,"map":"","folder":"","game":"","app_id":0,"player_count":0,"max_players":0,"Bots":0,"server_type":"","server_os":"","password":false,"vac":false,"version":"","steam_id":0,"keywords":null,"game_id":0,"stv_port":0,"stv_name":"","players":null},{"server_id":13,"name":"Uncletopia | New York City | 1 | All Maps","name_short":"nyc-1","host":"nyc-1.us.uncletopia.com","port":27015,"enabled":true,"region":"us-east","cc":"us","latitude":40.73061,"longitude":-73.93524,"reserved":0,"last_update":"0001-01-01T00:00:00Z","name_a2s":"Uncletopia | New York City | 1 | All Maps","protocol":17,"map":"pl_enclosure_final","folder":"tf","game":"Team Fortress","app_id":440,"player_count":0,"max_players":24,"Bots":0,"server_type":"Dedicated","server_os":"Linux","password":true,"vac":true,"version":"7961495","steam_id":85568392924469993,"keywords":["nocrits","nodmgspread","payload","uncletopia"],"game_id":440,"stv_port":27016,"stv_name":"Uncletopia | New York City | 1 | All Maps | STV","players":null},{"server_id":14,"name":"Uncletopia | New York City | 2 | All Maps","name_short":"nyc-2","host":"nyc-1.us.uncletopia.com","port":27025,"enabled":true,"region":"us-east","cc":"us","latitude":40.73061,"longitude":-73.93524,"reserved":0,"last_update":"0001-01-01T00:00:00Z","name_a2s":"Uncletopia | New York City | 2 | All Maps","protocol":17,"map":"pl_frontier_final","folder":"tf","game":"Team Fortress","app_id":440,"player_count":0,"max_players":24,"Bots":0,"server_type":"Dedicated","server_os":"Linux","password":true,"vac":true,"version":"7961495","steam_id":85568392924469994,"keywords":["nocrits","nodmgspread","payload","uncletopia"],"game_id":440,"stv_port":27026,"stv_name":"Uncletopia | New York City | 2 | All Maps | STV","players":null},{"server_id":15,"name":"Uncletopia | New York City | 3 | Stopwatch","name_short":"nyc-3","host":"nyc-1.us.uncletopia.com","port":27035,"enabled":true,"region":"us-east","cc":"us","latitude":40.73061,"longitude":-73.93524,"reserved":0,"last_update":"0001-01-01T00:00:00Z","name_a2s":"Uncletopia | New York City | 3 | Stopwatch","protocol":17,"map":"workshop/koth_ashville_final.ugc2130459942","folder":"tf","game":"Team Fortress","app_id":440,"player_count":0,"max_players":24,"Bots":0,"server_type":"Dedicated","server_os":"Linux","password":true,"vac":true,"version":"7961495","steam_id":85568392924742820,"keywords":["cp","nocrits","nodmgspread","uncletopia"],"game_id":440,"stv_port":27036,"stv_name":"Uncletopia | New York City | 3 | Stopwatch | STV","players":null},{"server_id":16,"name":"Uncletopia | New York City | 4 | Community","name_short":"nyc-4","host":"nyc-1.us.uncletopia.com","port":27045,"enabled":true,"region":"us-east","cc":"us","latitude":40.73061,"longitude":-73.93524,"reserved":0,"last_update":"0001-01-01T00:00:00Z","name_a2s":"Uncletopia | New York City | 4 | Community","protocol":17,"map":"workshop/koth_slaughter_rc1.ugc1712845210","folder":"tf","game":"Team Fortress","app_id":440,"player_count":0,"max_players":24,"Bots":0,"server_type":"Dedicated","server_os":"Linux","password":true,"vac":true,"version":"7961495","steam_id":85568392924742821,"keywords":["cp","nocrits","nodmgspread","uncletopia"],"game_id":440,"stv_port":27046,"stv_name":"Uncletopia | New York City | 4 | Community | STV","players":null},{"server_id":142,"name":"Uncletopia | São Paulo | 1 | All Maps","name_short":"sao-1","host":"sao-1.br.uncletopia.com","port":27015,"enabled":true,"region":"sa","cc":"br","latitude":-23.533773,"longitude":-46.62529,"reserved":0,"last_update":"0001-01-01T00:00:00Z","name_a2s":"Uncletopia | São Paulo | 1 | All Maps","protocol":17,"map":"koth_cascade","folder":"tf","game":"Team Fortress","app_id":440,"player_count":0,"max_players":24,"Bots":0,"server_type":"Dedicated","server_os":"Linux","password":true,"vac":true,"version":"7961495","steam_id":85568392924469996,"keywords":["cp","nocrits","nodmgspread","uncletopia"],"game_id":440,"stv_port":27016,"stv_name":"Uncletopia | São Paulo | 1 | All Maps | STV","players":null},{"server_id":143,"name":"Uncletopia | São Paulo | 2 | Community","name_short":"sao-2","host":"sao-2.br.uncletopia.com","port":27015,"enabled":true,"region":"sa","cc":"br","latitude":-23.533773,"longitude":-46.62529,"reserved":0,"last_update":"0001-01-01T00:00:00Z","name_a2s":"Uncletopia | São Paulo | 2 | Community","protocol":17,"map":"pl_badwater","folder":"tf","game":"Team Fortress","app_id":440,"player_count":0,"max_players":24,"Bots":0,"server_type":"Dedicated","server_os":"Linux","password":true,"vac":true,"version":"7961495","steam_id":85568392924485349,"keywords":["nocrits","nodmgspread","payload","uncletopia"],"game_id":440,"stv_port":27016,"stv_name":"Uncletopia | São Paulo | 2 | Community | STV","players":null},{"server_id":7,"name":"Uncletopia | Seattle | 1 | All Maps","name_short":"sea-1","host":"sea-1.us.uncletopia.com","port":27015,"enabled":true,"region":"us-west","cc":"us","latitude":47.608013,"longitude":-122.33517,"reserved":0,"last_update":"0001-01-01T00:00:00Z","name_a2s":"Uncletopia | Seattle | 1 | All Maps","protocol":17,"map":"pl_pier","folder":"tf","game":"Team Fortress","app_id":440,"player_count":24,"max_players":24,"Bots":0,"server_type":"Dedicated","server_os":"Linux","password":true,"vac":true,"version":"7961495","steam_id":85568392924469997,"keywords":["nocrits","nodmgspread","payload","uncletopia"],"game_id":440,"stv_port":27016,"stv_name":"Uncletopia | Seattle | 1 | All Maps | STV","players":[{"user_id":913,"name":"skittle ducks jr.","steam_id":76561198309823950,"connected_time":1744000000000,"state":"active","ping":33},{"user_id":925,"name":"frankie calories","steam_id":76561198071525893,"connected_time":348000000000,"state":"active","ping":80},{"user_id":899,"name":"John Calibur","steam_id":76561197999986606,"connected_time":3468000000000,"state":"active","ping":73},{"user_id":924,"name":"poundcake","steam_id":76561198796548083,"connected_time":443000000000,"state":"active","ping":46},{"user_id":904,"name":"Sheep","steam_id":76561198161218914,"connected_time":2710000000000,"state":"active","ping":69},{"user_id":743,"name":"Havi","steam_id":76561198197832829,"connected_time":16742000000000,"state":"active","ping":46},{"user_id":900,"name":"My Tomato Computer","steam_id":76561198121360293,"connected_time":3365000000000,"state":"active","ping":47},{"user_id":918,"name":"ed","steam_id":76561198080475712,"connected_time":1088000000000,"state":"active","ping":70},{"user_id":923,"name":"Nom Skirrett","steam_id":76561198014600788,"connected_time":452000000000,"state":"active","ping":62},{"user_id":922,"name":"delight","steam_id":76561197980280272,"connected_time":702000000000,"state":"active","ping":47},{"user_id":863,"name":"Username","steam_id":76561199033122306,"connected_time":5383000000000,"state":"active","ping":128},{"user_id":914,"name":"dodger doo","steam_id":76561198986534519,"connected_time":1706000000000,"state":"active","ping":43},{"user_id":897,"name":"Keamy","steam_id":76561199471434875,"connected_time":3662000000000,"state":"active","ping":47},{"user_id":920,"name":"type \"bad med\" to kick","steam_id":76561198076402476,"connected_time":914000000000,"state":"active","ping":84},{"user_id":865,"name":"Sniff","steam_id":76561198010270922,"connected_time":5368000000000,"state":"active","ping":75},{"user_id":917,"name":"kill me","steam_id":76561198032625036,"connected_time":1114000000000,"state":"active","ping":58},{"user_id":893,"name":"exephur","steam_id":76561198135763234,"connected_time":3889000000000,"state":"active","ping":60},{"user_id":901,"name":"flame","steam_id":76561198079321914,"connected_time":3102000000000,"state":"active","ping":50},{"user_id":857,"name":"PvZ Enthusiast","steam_id":76561199089562026,"connected_time":6272000000000,"state":"active","ping":44},{"user_id":884,"name":"Lord Hater","steam_id":76561199158148782,"connected_time":4501000000000,"state":"active","ping":60},{"user_id":895,"name":"Sweets the bday girl","steam_id":76561198998446307,"connected_time":3682000000000,"state":"active","ping":89},{"user_id":921,"name":"ImaCactus","steam_id":76561198036131290,"connected_time":869000000000,"state":"active","ping":106},{"user_id":815,"name":"Daz","steam_id":76561198041431938,"connected_time":9829000000000,"state":"active","ping":52},{"user_id":889,"name":"raspy","steam_id":76561198027298961,"connected_time":4219000000000,"state":"active","ping":116}]},{"server_id":119,"name":"Uncletopia | Seattle | 2 | All Maps","name_short":"sea-2","host":"sea-1.us.uncletopia.com","port":27025,"enabled":true,"region":"us-west","cc":"us","latitude":47.608013,"longitude":-122.33517,"reserved":0,"last_update":"0001-01-01T00:00:00Z","name_a2s":"Uncletopia | Seattle | 2 | All Maps","protocol":17,"map":"cp_egypt_final","folder":"tf","game":"Team Fortress","app_id":440,"player_count":17,"max_players":24,"Bots":0,"server_type":"Dedicated","server_os":"Linux","password":true,"vac":true,"version":"7961495","steam_id":85568392924469998,"keywords":["cp","nocrits","nodmgspread","uncletopia"],"game_id":440,"stv_port":27026,"stv_name":"Uncletopia | Seattle | 2 | All Maps | STV","players":[{"user_id":416,"name":"Mr8bittripper","steam_id":76561198133894229,"connected_time":5571000000000,"state":"active","ping":44},{"user_id":476,"name":"StoicalSynz","steam_id":76561198355290984,"connected_time":616000000000,"state":"active","ping":68},{"user_id":477,"name":"Puskinti","steam_id":76561198032120688,"connected_time":518000000000,"state":"active","ping":47},{"user_id":475,"name":"Future Tusk","steam_id":76561198199635217,"connected_time":1483000000000,"state":"active","ping":75},{"user_id":417,"name":"Shazzy","steam_id":76561198145460523,"connected_time":5567000000000,"state":"active","ping":45},{"user_id":473,"name":"Spam The Alien","steam_id":76561199122290968,"connected_time":1665000000000,"state":"active","ping":60},{"user_id":462,"name":"Set","steam_id":76561198063949642,"connected_time":2411000000000,"state":"active","ping":41},{"user_id":478,"name":"HeadshotSpy","steam_id":76561198051191953,"connected_time":389000000000,"state":"active","ping":34},{"user_id":418,"name":"Noah","steam_id":76561198059048749,"connected_time":5549000000000,"state":"active","ping":53},{"user_id":481,"name":"Antwan","steam_id":76561198246200638,"connected_time":17000000000,"state":"active","ping":95},{"user_id":370,"name":"Bullahorns","steam_id":76561197997138052,"connected_time":9009000000000,"state":"active","ping":93},{"user_id":453,"name":"DEMO PAN TF2","steam_id":76561199152778243,"connected_time":3629000000000,"state":"active","ping":33},{"user_id":467,"name":"Daikaiju15","steam_id":76561198383955066,"connected_time":1995000000000,"state":"active","ping":45},{"user_id":464,"name":"Luckylit","steam_id":76561198271979612,"connected_time":2229000000000,"state":"active","ping":48},{"user_id":434,"name":"Woah","steam_id":76561197973558812,"connected_time":5268000000000,"state":"active","ping":40},{"user_id":466,"name":"Hawksgamer","steam_id":76561198152405941,"connected_time":2124000000000,"state":"active","ping":38},{"user_id":469,"name":"DevourerofGlass","steam_id":76561199443647976,"connected_time":1983000000000,"state":"active","ping":102}]},{"server_id":406,"name":"Uncletopia | Seattle | 3 | Stopwatch","name_short":"sea-3","host":"sea-1.us.uncletopia.com","port":27035,"enabled":true,"region":"us-west","cc":"us","latitude":47.608013,"longitude":-122.33517,"reserved":0,"last_update":"0001-01-01T00:00:00Z","name_a2s":"Uncletopia | Seattle | 3 | Stopwatch","protocol":17,"map":"workshop/koth_clearcut_b15.ugc2107050255","folder":"tf","game":"Team Fortress","app_id":440,"player_count":0,"max_players":24,"Bots":0,"server_type":"Dedicated","server_os":"Linux","password":true,"vac":true,"version":"7961495","steam_id":85568392924515217,"keywords":["cp","nocrits","nodmgspread","uncletopia"],"game_id":440,"stv_port":27036,"stv_name":"Uncletopia | Seattle | 3 | Stopwatch | STV","players":null},{"server_id":17,"name":"Uncletopia | San Francisco | 1 | All Maps","name_short":"sfo-1","host":"sfo-1.us.uncletopia.com","port":27015,"enabled":true,"region":"us-west","cc":"us","latitude":37.77397,"longitude":-122.4313,"reserved":0,"last_update":"0001-01-01T00:00:00Z","name_a2s":"Uncletopia | San Francisco | 1 | All Maps","protocol":17,"map":"koth_cascade","folder":"tf","game":"Team Fortress","app_id":440,"player_count":0,"max_players":24,"Bots":0,"server_type":"Dedicated","server_os":"Linux","password":true,"vac":true,"version":"7961495","steam_id":85568392924469999,"keywords":["cp","nocrits","nodmgspread","uncletopia"],"game_id":440,"stv_port":27016,"stv_name":"Uncletopia | San Francisco | 1 | All Maps | STV","players":null},{"server_id":18,"name":"Uncletopia | San Francisco | 2 | All Maps","name_short":"sfo-2","host":"sfo-1.us.uncletopia.com","port":27025,"enabled":true,"region":"us-west","cc":"us","latitude":37.77397,"longitude":-122.4313,"reserved":0,"last_update":"0001-01-01T00:00:00Z","name_a2s":"Uncletopia | San Francisco | 2 | All Maps","protocol":17,"map":"koth_cascade","folder":"tf","game":"Team Fortress","app_id":440,"player_count":0,"max_players":24,"Bots":0,"server_type":"Dedicated","server_os":"Linux","password":true,"vac":true,"version":"7961495","steam_id":85568392924470000,"keywords":["cp","nocrits","nodmgspread","uncletopia"],"game_id":440,"stv_port":27026,"stv_name":"Uncletopia | San Francisco | 2 | All Maps | STV","players":null},{"server_id":19,"name":"Uncletopia | San Francisco | 3 | Stopwatch","name_short":"sfo-3","host":"sfo-1.us.uncletopia.com","port":27035,"enabled":true,"region":"us-west","cc":"us","latitude":37.77397,"longitude":-122.4313,"reserved":0,"last_update":"0001-01-01T00:00:00Z","name_a2s":"Uncletopia | San Francisco | 3 | Stopwatch","protocol":17,"map":"workshop/koth_ramjam_rc1.ugc459778887","folder":"tf","game":"Team Fortress","app_id":440,"player_count":0,"max_players":24,"Bots":0,"server_type":"Dedicated","server_os":"Linux","password":true,"vac":true,"version":"7961495","steam_id":85568392924742824,"keywords":["cp","nocrits","nodmgspread","uncletopia"],"game_id":440,"stv_port":27036,"stv_name":"Uncletopia | San Francisco | 3 | Stopwatch | STV","players":null},{"server_id":20,"name":"Uncletopia | San Francisco | 4 | Community","name_short":"sfo-4","host":"sfo-1.us.uncletopia.com","port":27045,"enabled":true,"region":"us-west","cc":"us","latitude":37.77397,"longitude":-122.4313,"reserved":0,"last_update":"0001-01-01T00:00:00Z","name_a2s":"Uncletopia | San Francisco | 4 | Community","protocol":17,"map":"workshop/koth_trenchfoot_ab1.ugc731436616","folder":"tf","game":"Team Fortress","app_id":440,"player_count":0,"max_players":24,"Bots":0,"server_type":"Dedicated","server_os":"Linux","password":true,"vac":true,"version":"7961495","steam_id":85568392924742826,"keywords":["cp","nocrits","nodmgspread","uncletopia"],"game_id":440,"stv_port":27046,"stv_name":"Uncletopia | San Francisco | 4 | Community | STV","players":null},{"server_id":141,"name":"Uncletopia | Sydney | 1 | All Maps","name_short":"syd-1","host":"syd-1.au.uncletopia.com","port":27015,"enabled":true,"region":"au","cc":"au","latitude":-33.865143,"longitude":151.2099,"reserved":0,"last_update":"0001-01-01T00:00:00Z","name_a2s":"Uncletopia | Sydney | 1 | All Maps","protocol":17,"map":"pl_badwater","folder":"tf","game":"Team Fortress","app_id":440,"player_count":3,"max_players":24,"Bots":0,"server_type":"Dedicated","server_os":"Linux","password":true,"vac":true,"version":"7961495","steam_id":85568392924470001,"keywords":["nocrits","nodmgspread","payload","uncletopia"],"game_id":440,"stv_port":27016,"stv_name":"Uncletopia | Sydney | 1 | All Maps | STV","players":[{"user_id":17,"name":"monkey (with spoon)","steam_id":76561198301254663,"connected_time":721000000000,"state":"active","ping":88},{"user_id":16,"name":"scoot010","steam_id":76561198821606563,"connected_time":828000000000,"state":"active","ping":46},{"user_id":18,"name":"FascismSalad","steam_id":76561198262410973,"connected_time":503000000000,"state":"active","ping":54}]},{"server_id":123,"name":"Uncletopia | Sydney | 2 | All Maps","name_short":"syd-2","host":"syd-1.au.uncletopia.com","port":27025,"enabled":true,"region":"au","cc":"au","latitude":-33.865143,"longitude":151.2099,"reserved":0,"last_update":"0001-01-01T00:00:00Z","name_a2s":"Uncletopia | Sydney | 2 | All Maps","protocol":17,"map":"koth_lakeside_final","folder":"tf","game":"Team Fortress","app_id":440,"player_count":0,"max_players":24,"Bots":0,"server_type":"Dedicated","server_os":"Linux","password":true,"vac":true,"version":"7961495","steam_id":85568392924470002,"keywords":["cp","nocrits","nodmgspread","uncletopia"],"game_id":440,"stv_port":27026,"stv_name":"Uncletopia | Sydney | 2 | All Maps | STV","players":null},{"server_id":395,"name":"Uncletopia | Sydney | 3 | All Maps","name_short":"syd-3","host":"syd-1.au.uncletopia.com","port":27035,"enabled":true,"region":"au","cc":"au","latitude":-33.865143,"longitude":151.2099,"reserved":0,"last_update":"0001-01-01T00:00:00Z","name_a2s":"Uncletopia | Sydney | 3 | All Maps","protocol":17,"map":"koth_highpass","folder":"tf","game":"Team Fortress","app_id":440,"player_count":0,"max_players":24,"Bots":0,"server_type":"Dedicated","server_os":"Linux","password":true,"vac":true,"version":"7961495","steam_id":85568392925194467,"keywords":["cp","nocrits","nodmgspread","uncletopia"],"game_id":440,"stv_port":27036,"stv_name":"Uncletopia | Sydney | 3 | All Maps | STV","players":null},{"server_id":396,"name":"Uncletopia | Sydney | 4 | All Maps","name_short":"syd-4","host":"syd-1.au.uncletopia.com","port":27045,"enabled":true,"region":"au","cc":"au","latitude":-33.865143,"longitude":151.2099,"reserved":0,"last_update":"0001-01-01T00:00:00Z","name_a2s":"Uncletopia | Sydney | 4 | All Maps","protocol":17,"map":"cp_snakewater_final1","folder":"tf","game":"Team Fortress","app_id":440,"player_count":1,"max_players":24,"Bots":0,"server_type":"Dedicated","server_os":"Linux","password":true,"vac":true,"version":"7961495","steam_id":85568392925397958,"keywords":["cp","nocrits","nodmgspread","uncletopia"],"game_id":440,"stv_port":27046,"stv_name":"Uncletopia | Sydney | 4 | All Maps | STV","players":[{"user_id":13,"name":"AceOS","steam_id":76561199473362832,"connected_time":1613000000000,"state":"active","ping":105}]},{"server_id":58,"name":"Uncletopia | Sydney | 5 | Stopwatch","name_short":"syd-5","host":"syd-1.au.uncletopia.com","port":27055,"enabled":true,"region":"au","cc":"au","latitude":-33.865143,"longitude":151.2099,"reserved":0,"last_update":"0001-01-01T00:00:00Z","name_a2s":"Uncletopia | Sydney | 5 | Stopwatch","protocol":17,"map":"workshop/koth_product_final.ugc454272353","folder":"tf","game":"Team Fortress","app_id":440,"player_count":23,"max_players":24,"Bots":0,"server_type":"Dedicated","server_os":"Linux","password":true,"vac":true,"version":"7961495","steam_id":85568392925397959,"keywords":["cp","nocrits","nodmgspread","uncletopia"],"game_id":440,"stv_port":27056,"stv_name":"Uncletopia | Sydney | 5 | Stopwatch | STV","players":[{"user_id":73,"name":"Mole Cricket Romancer","steam_id":76561198004276062,"connected_time":1149000000000,"state":"active","ping":69},{"user_id":79,"name":"bread head","steam_id":76561198384097770,"connected_time":805000000000,"state":"active","ping":66},{"user_id":66,"name":"you can lead a Horace to water","steam_id":76561198301282416,"connected_time":1460000000000,"state":"active","ping":53},{"user_id":86,"name":"no teles 4 u","steam_id":76561198018478297,"connected_time":96000000000,"state":"spawning","ping":151},{"user_id":62,"name":"cas ganister + water","steam_id":76561198879023728,"connected_time":2050000000000,"state":"active","ping":50},{"user_id":30,"name":"Marzell","steam_id":76561198151276153,"connected_time":4525000000000,"state":"active","ping":86},{"user_id":54,"name":"soupy","steam_id":76561198073734936,"connected_time":2673000000000,"state":"active","ping":92},{"user_id":15,"name":"JunkKnight","steam_id":76561198050917553,"connected_time":5739000000000,"state":"active","ping":58},{"user_id":77,"name":"webbadon, the horrid ᘛ⁐̤\ufffd\ufffd","steam_id":76561198061998379,"connected_time":861000000000,"state":"active","ping":50},{"user_id":57,"name":"lavender","steam_id":76561198081681647,"connected_time":2335000000000,"state":"active","ping":75},{"user_id":83,"name":"Crazybean","steam_id":76561198042181980,"connected_time":462000000000,"state":"active","ping":59},{"user_id":20,"name":"4LOW","steam_id":76561199156942316,"connected_time":5369000000000,"state":"active","ping":78},{"user_id":22,"name":"El","steam_id":76561198095659550,"connected_time":5359000000000,"state":"active","ping":94},{"user_id":61,"name":"I suspect... worms","steam_id":76561198060024585,"connected_time":2130000000000,"state":"active","ping":43},{"user_id":76,"name":"1opal","steam_id":76561198078646194,"connected_time":919000000000,"state":"active","ping":69},{"user_id":81,"name":"76561199365669004","steam_id":76561199365669004,"connected_time":771000000000,"state":"active","ping":58},{"user_id":87,"name":"sav","steam_id":76561198058760041,"connected_time":84000000000,"state":"active","ping":81},{"user_id":59,"name":"Noble Chernobyl","steam_id":76561198011803825,"connected_time":2307000000000,"state":"active","ping":52},{"user_id":44,"name":"BADLET","steam_id":76561198149006195,"connected_time":3364000000000,"state":"active","ping":41},{"user_id":84,"name":"CypressFluff (she/her)","steam_id":76561198174667818,"connected_time":437000000000,"state":"active","ping":53},{"user_id":72,"name":"Glassy-Eyed Automaton Exploitin","steam_id":76561198072845816,"connected_time":1275000000000,"state":"active","ping":49},{"user_id":47,"name":"sober tony","steam_id":76561198046239819,"connected_time":3318000000000,"state":"active","ping":83},{"user_id":82,"name":"coggo","steam_id":76561198079351541,"connected_time":761000000000,"state":"active","ping":55}]},{"server_id":59,"name":"Uncletopia | Sydney | 6 | Community","name_short":"syd-6","host":"syd-1.au.uncletopia.com","port":27065,"enabled":true,"region":"au","cc":"au","latitude":-33.865143,"longitude":151.2099,"reserved":0,"last_update":"0001-01-01T00:00:00Z","name_a2s":"Uncletopia | Sydney | 6 | Community","protocol":17,"map":"cp_sunshine","folder":"tf","game":"Team Fortress","app_id":440,"player_count":0,"max_players":24,"Bots":0,"server_type":"Dedicated","server_os":"Linux","password":true,"vac":true,"version":"7961495","steam_id":85568392925397960,"keywords":["cp","nocrits","nodmgspread","uncletopia"],"game_id":440,"stv_port":27066,"stv_name":"Uncletopia | Sydney | 6 | Community | STV","players":null},{"server_id":49,"name":"Uncletopia | Warsaw | 1 | One Thousand Uncles","name_short":"waw-1","host":"waw-1.pl.uncletopia.com","port":27015,"enabled":true,"region":"eu","cc":"pl","latitude":52.2297,"longitude":21.017532,"reserved":0,"last_update":"0001-01-01T00:00:00Z","name_a2s":"Uncletopia | Warsaw | 1 | One Thousand Uncles","protocol":17,"map":"koth_highpass","folder":"tf","game":"Team Fortress","app_id":440,"player_count":0,"max_players":32,"Bots":0,"server_type":"Dedicated","server_os":"Linux","password":true,"vac":true,"version":"7961495","steam_id":85568392925397850,"keywords":["alltalk","cp","danepve","increased_maxplayers","nocrits","norespawntime","uncletopia"],"game_id":440,"stv_port":0,"stv_name":"","players":null},{"server_id":50,"name":"Uncletopia | Warsaw | 2 | One Thousand Uncles","name_short":"waw-2","host":"waw-1.pl.uncletopia.com","port":27025,"enabled":true,"region":"eu","cc":"pl","latitude":52.2297,"longitude":21.017532,"reserved":0,"last_update":"0001-01-01T00:00:00Z","name_a2s":"Uncletopia | Warsaw | 2 | One Thousand Uncles","protocol":17,"map":"pl_goldrush","folder":"tf","game":"Team Fortress","app_id":440,"player_count":0,"max_players":32,"Bots":0,"server_type":"Dedicated","server_os":"Linux","password":true,"vac":true,"version":"7961495","steam_id":85568392925397851,"keywords":["alltalk","danepve","increased_maxplayers","nocrits","norespawntime","payload","uncletopia"],"game_id":440,"stv_port":0,"stv_name":"","players":null},{"server_id":51,"name":"Uncletopia | Warsaw | 3 | All Maps","name_short":"waw-3","host":"waw-1.pl.uncletopia.com","port":27035,"enabled":true,"region":"eu","cc":"pl","latitude":52.2297,"longitude":21.017532,"reserved":0,"last_update":"0001-01-01T00:00:00Z","name_a2s":"Uncletopia | Warsaw | 3 | All Maps","protocol":17,"map":"plr_pipeline","folder":"tf","game":"Team Fortress","app_id":440,"player_count":0,"max_players":24,"Bots":0,"server_type":"Dedicated","server_os":"Linux","password":true,"vac":true,"version":"7961495","steam_id":85568392925397852,"keywords":["nocrits","nodmgspread","payload","uncletopia"],"game_id":440,"stv_port":27036,"stv_name":"Uncletopia | Warsaw | 3 | All Maps | STV","players":null},{"server_id":52,"name":"Uncletopia | Warsaw | 4 | All Maps","name_short":"waw-4","host":"waw-1.pl.uncletopia.com","port":27045,"enabled":true,"region":"eu","cc":"pl","latitude":52.2297,"longitude":21.017532,"reserved":0,"last_update":"0001-01-01T00:00:00Z","name_a2s":"Uncletopia | Warsaw | 4 | All Maps","protocol":17,"map":"cp_coldfront","folder":"tf","game":"Team Fortress","app_id":440,"player_count":0,"max_players":24,"Bots":0,"server_type":"Dedicated","server_os":"Linux","password":true,"vac":true,"version":"7961495","steam_id":85568392925397853,"keywords":["cp","nocrits","nodmgspread","uncletopia"],"game_id":440,"stv_port":27046,"stv_name":"Uncletopia | Warsaw | 4 | All Maps | STV","players":null},{"server_id":53,"name":"Uncletopia | Warsaw | 5 | Stopwatch","name_short":"waw-5","host":"waw-1.pl.uncletopia.com","port":27055,"enabled":true,"region":"eu","cc":"pl","latitude":52.2297,"longitude":21.017532,"reserved":0,"last_update":"0001-01-01T00:00:00Z","name_a2s":"Uncletopia | Warsaw | 5 | Stopwatch","protocol":17,"map":"workshop/koth_bagel_rc6.ugc2514036946","folder":"tf","game":"Team Fortress","app_id":440,"player_count":0,"max_players":24,"Bots":0,"server_type":"Dedicated","server_os":"Linux","password":true,"vac":true,"version":"7961495","steam_id":85568392925397854,"keywords":["cp","nocrits","nodmgspread","uncletopia"],"game_id":440,"stv_port":27056,"stv_name":"Uncletopia | Warsaw | 5 | Stopwatch | STV","players":null},{"server_id":54,"name":"Uncletopia | Warsaw | 6 | Community","name_short":"waw-6","host":"waw-1.pl.uncletopia.com","port":27065,"enabled":true,"region":"eu","cc":"pl","latitude":52.2297,"longitude":21.017532,"reserved":0,"last_update":"0001-01-01T00:00:00Z","name_a2s":"Uncletopia | Warsaw | 6 | Community","protocol":17,"map":"workshop/pl_badwater_pro_v12.ugc2142942074","folder":"tf","game":"Team Fortress","app_id":440,"player_count":0,"max_players":24,"Bots":0,"server_type":"Dedicated","server_os":"Linux","password":true,"vac":true,"version":"7961495","steam_id":85568392925397856,"keywords":["nocrits","nodmgspread","payload","uncletopia"],"game_id":440,"stv_port":27066,"stv_name":"Uncletopia | Warsaw | 6 | Community | STV","players":null}]}