{"status":true,"message":"","result":[{"server_id":9,"name":"Uncletopia | Atlanta | 1 | All Maps","name_short":"atl-1","host":"atl-1.us.uncletopia.com","port":27015,"enabled":true,"region":"us-east","cc":"us","latitude":33.753746,"longitude":-84.38633,"reserved":0,"last_update":"0001-01-01T00:00:00Z","name_a2s":"Uncletopia | Atlanta | 1 | All Maps","protocol":17,"map":"pl_pier","folder":"tf","game":"Team Fortress","app_id":440,"player_count":24,"max_players":24,"Bots":0,"server_type":"Dedicated","server_os":"Linux","password":true,"vac":true,"version":"7961495","steam_id":85568392924469982,"keywords":["nocrits","nodmgspread","payload","uncletopia"],"game_id":440,"stv_port":27016,"stv_name":"Uncletopia | Atlanta | 1 | All Maps | STV","players":[{"user_id":109,"name":"cactus eater","steam_id":76561199107499844,"connected_time":1656000000000,"state":"active","ping":115},{"user_id":120,"name":"Boneless Blithen","steam_id":76561197989955619,"connected_time":542000000000,"state":"active","ping":125},{"user_id":18,"name":"BLOW UP NEW JERSEY","steam_id":76561198364439575,"connected_time":6653000000000,"state":"active","ping":68},{"user_id":99,"name":"Heathcliff","steam_id":76561198044288534,"connected_time":2909000000000,"state":"active","ping":80},{"user_id":121,"name":"Pango","steam_id":76561198069811545,"connected_time":481000000000,"state":"active","ping":45},{"user_id":64,"name":"[F2P] Chionophile Princess","steam_id":76561198082693090,"connected_time":4962000000000,"state":"active","ping":69},{"user_id":103,"name":"Crazzy Gur","steam_id":76561198046225297,"connected_time":2659000000000,"state":"active","ping":51},{"user_id":116,"name":"‚áå Strœüker ‚áã","steam_id":76561199389089862,"connected_time":564000000000,"state":"active","ping":146},{"user_id":88,"name":"non_ai","steam_id":76561198270951938,"connected_time":4212000000000,"state":"active","ping":63},{"user_id":84,"name":"freyja","steam_id":76561198249206656,"connected_time":4520000000000,"state":"active","ping":88},{"user_id":115,"name":"plushie","steam_id":76561198088103572,"connected_time":1046000000000,"state":"active","ping":121},{"user_id":86,"name":"Typh","steam_id":76561198315344079,"connected_time":4266000000000,"state":"active","ping":61},{"user_id":108,"name":"y'all hear sumthin'?","steam_id":76561199012662729,"connected_time":1671000000000,"state":"active","ping":76},{"user_id":110,"name":"Kos, or some say Kosm","steam_id":76561197998833309,"connected_time":1636000000000,"state":"active","ping":60},{"user_id":111,"name":"Cosmic Torgue","steam_id":76561198828724945,"connected_time":1616000000000,"state":"active","ping":98},{"user_id":97,"name":"Okpar","steam_id":76561199221067945,"connected_time":3444000000000,"state":"active","ping":84},{"user_id":98,"name":"HarryjusttHarry","steam_id":76561198982810452,"connected_time":3200000000000,"state":"active","ping":118},{"user_id":100,"name":"theannoyingorang213","steam_id":76561198079416036,"connected_time":2798000000000,"state":"active","ping":67},{"user_id":118,"name":"kite","steam_id":76561198346516392,"connected_time":558000000000,"state":"active","ping":87},{"user_id":112,"name":"tghalepeno","steam_id":76561198858018027,"connected_time":1612000000000,"state":"active","ping":90},{"user_id":113,"name":"mild mannered mystery man","steam_id":76561198072095399,"connected_time":1603000000000,"state":"active","ping":58},{"user_id":114,"name":"the man","steam_id":76561199103120314,"connected_time":1574000000000,"state":"active","ping":105},{"user_id":106,"name":"mio","steam_id":76561198239286750,"connected_time":1844000000000,"state":"active","ping":88},{"user_id":119,"name":"Shame","steam_id":76561198100490994,"connected_time":557000000000,"state":"active","ping":62}]},{"server_id":104,"name":"Uncletopia | Atlanta | 2 | All Maps","name_short":"atl-2","host":"atl-1.us.uncletopia.com","port":27025,"enabled":true,"region":"us-east","cc":"us","latitude":33.753746,"longitude":-84.38633,"reserved":0,"last_update":"0001-01-01T00:00:00Z","name_a2s":"Uncletopia | Atlanta | 2 | All Maps","protocol":17,"map":"koth_cascade","folder":"tf","game":"Team Fortress","app_id":440,"player_count":0,"max_players":24,"Bots":0,"server_type":"Dedicated","server_os":"Linux","password":true,"vac":true,"version":"7961495","steam_id":85568392924469983,"keywords":["cp","nocrits","nodmgspread","uncletopia"],"game_id":440,"stv_port":27026,"stv_name":"Uncletopia | Atlanta | 2 | All Maps | STV","players":null},{"server_id":400,"name":"Uncletopia | Atlanta | 3 | Stopwatch","name_short":"atl-3","host":"atl-1.us.uncletopia.com","port":27035,"enabled":true,"region":"us-east","cc":"us","latitude":33.753746,"longitude":-84.38633,"reserved":0,"last_update":"0001-01-01T00:00:00Z","name_a2s":"Uncletopia | Atlanta | 3 | Stopwatch","protocol":17,"map":"pl_badwater","folder":"tf","game":"Team Fortress","app_id":440,"player_count":0,"max_players":24,"Bots":0,"server_type":"Dedicated","server_os":"Linux","password":true,"vac":true,"version":"7961495","steam_id":85568392924515187,"keywords":["nocrits","nodmgspread","payload","uncletopia"],"game_id":440,"stv_port":27036,"stv_name":"Uncletopia | Atlanta | 3 | Stopwatch | STV","players":null},{"server_id":401,"name":"Uncletopia | Atlanta | 4 | Community","name_short":"atl-4","host":"atl-1.us.uncletopia.com","port":27045,"enabled":true,"region":"us-east","cc":"us","latitude":33.753746,"longitude":-84.38633,"reserved":0,"last_update":"0001-01-01T00:00:00Z","name_a2s":"Uncletopia | Atlanta | 4 | Community","protocol":17,"map":"cp_sunshine","folder":"tf","game":"Team Fortress","app_id":440,"player_count":0,"max_players":24,"Bots":0,"server_type":"Dedicated","server_os":"Linux","password":true,"vac":true,"version":"7961495","steam_id":85568392924515188,"keywords":["cp","nocrits","nodmgspread","uncletopia"],"game_id":440,"stv_port":27046,"stv_name":"Uncletopia | Atlanta | 4 | Community | STV","players":null},{"server_id":2,"name":"Uncletopia | Chicago | 1 | All Maps","name_short":"chi-1","host":"chi-1.us.uncletopia.com","port":27015,"enabled":true,"region":"us-central","cc":"us","latitude":41.881832,"longitude":-87.62318,"reserved":0,"last_update":"0001-01-01T00:00:00Z","name_a2s":"Uncletopia | Chicago | 1 | All Maps","protocol":17,"map":"pl_thundermountain","folder":"tf","game":"Team Fortress","app_id":440,"player_count":23,"max_players":24,"Bots":0,"server_type":"Dedicated","server_os":"Linux","password":true,"vac":true,"version":"7961495","steam_id":85568392924469984,"keywords":["nocrits","nodmgspread","payload","uncletopia"],"game_id":440,"stv_port":27016,"stv_name":"Uncletopia | Chicago | 1 | All Maps | STV","players":[{"user_id":206,"name":"boykisser","steam_id":76561198375866407,"connected_time":7000000000,"state":"spawning","ping":61},{"user_id":164,"name":"yes","steam_id":76561199094011002,"connected_time":1387000000000,"state":"active","ping":54},{"user_id":172,"name":"-W3E- grim10465","steam_id":76561198045698581,"connected_time":1099000000000,"state":"active","ping":45},{"user_id":198,"name":"Willy","steam_id":76561199240618325,"connected_time":65000000000,"state":"active","ping":61},{"user_id":200,"name":"Dreszerg","steam_id":76561198838757422,"connected_time":43000000000,"state":"spawning","ping":72},{"user_id":170,"name":"Icybullets","steam_id":76561198950782310,"connected_time":1135000000000,"state":"active","ping":58},{"user_id":197,"name":"Big Phonius","steam_id":76561199092395311,"connected_time":84000000000,"state":"active","ping":65},{"user_id":196,"name":"Oviraptor Supreme","steam_id":76561198044262534,"connected_time":92000000000,"state":"active","ping":70},{"user_id":201,"name":"Wilma","steam_id":76561198138420251,"connected_time":42000000000,"state":"active","ping":60},{"user_id":174,"name":"BriggyDowntown","steam_id":76561198281924036,"connected_time":1060000000000,"state":"active","ping":80},{"user_id":192,"name":"quandavious dinglebottom","steam_id":76561199078842978,"connected_time":462000000000,"state":"active","ping":56},{"user_id":202,"name":"b etween d","steam_id":76561198802099686,"connected_time":36000000000,"state":"active","ping":135},{"user_id":203,"name":"Sack Stomper","steam_id":76561198154616010,"connected_time":35000000000,"state":"active","ping":98},{"user_id":167,"name":"Frodo Synthesis","steam_id":76561198985023647,"connected_time":1191000000000,"state":"active","ping":87},{"user_id":147,"name":"PurplePond","steam_id":76561199062421006,"connected_time":2506000000000,"state":"active","ping":54},{"user_id":166,"name":"Forevershooting","steam_id":76561198124213574,"connected_time":1246000000000,"state":"active","ping":52},{"user_id":186,"name":"Bullshell","steam_id":76561198154430083,"connected_time":566000000000,"state":"active","ping":79},{"user_id":189,"name":"msay","steam_id":76561198170888029,"connected_time":531000000000,"state":"active","ping":94},{"user_id":204,"name":"üúèSnowstoneüúè","steam_id":76561198373692962,"connected_time":19000000000,"state":"spawning","ping":74},{"user_id":86,"name":"Horrowes","steam_id":76561198318446417,"connected_time":7804000000000,"state":"active","ping":86},{"user_id":163,"name":"opossum","steam_id":76561198148905570,"connected_time":1721000000000,"state":"active","ping":66},{"user_id":87,"name":"Hexadecatrack","steam_id":76561198044480181,"connected_time":7804000000000,"state":"active","ping":47},{"user_id":194,"name":"Waffle","steam_id":76561199000034608,"connected_time":311000000000,"state":"active","ping":58}]},{"server_id":106,"name":"Uncletopia | Chicago | 2 | All Maps","name_short":"chi-2","host":"chi-1.us.uncletopia.com","port":27025,"enabled":true,"region":"us-central","cc":"us","latitude":41.881832,"longitude":-87.62318,"reserved":0,"last_update":"0001-01-01T00:00:00Z","name_a2s":"Uncletopia | Chicago | 2 | All Maps","protocol":17,"map":"pl_pier","folder":"tf","game":"Team Fortress","app_id":440,"player_count":24,"max_players":24,"Bots":0,"server_type":"Dedicated","server_os":"Linux","password":true,"vac":true,"version":"7961495","steam_id":85568392924469985,"keywords":["nocrits","nodmgspread","payload","uncletopia"],"game_id":440,"stv_port":27026,"stv_name":"Uncletopia | Chicago | 2 | All Maps | STV","players":[{"user_id":139,"name":"Fresh Lychee","steam_id":76561198045399559,"connected_time":1088000000000,"state":"active","ping":55},{"user_id":143,"name":"Snugboo","steam_id":76561198147970327,"connected_time":780000000000,"state":"active","ping":52},{"user_id":75,"name":"johncena99","steam_id":76561198063099828,"connected_time":5010000000000,"state":"active","ping":50},{"user_id":129,"name":"elephantofdoom","steam_id":76561198062436835,"connected_time":1485000000000,"state":"active","ping":62},{"user_id":144,"name":"captain come on","steam_id":76561199090438928,"connected_time":731000000000,"state":"active","ping":59},{"user_id":80,"name":"mrappledumb","steam_id":76561199133590774,"connected_time":4771000000000,"state":"active","ping":64},{"user_id":126,"name":"The World's Softest Sandwich","steam_id":76561198015577707,"connected_time":1525000000000,"state":"active","ping":81},{"user_id":120,"name":"Ya viene...ü•µ","steam_id":76561198298364415,"connected_time":1574000000000,"state":"active","ping":120},{"user_id":95,"name":"Unfancy","steam_id":76561198367663877,"connected_time":3300000000000,"state":"active","ping":84},{"user_id":147,"name":"yourlocalforecast","steam_id":76561198042243083,"connected_time":517000000000,"state":"active","ping":61},{"user_id":113,"name":"fresco","steam_id":76561199101199477,"connected_time":2806000000000,"state":"active","ping":61},{"user_id":55,"name":"Jerk Tryhard (roleplay)","steam_id":76561199470538309,"connected_time":7689000000000,"state":"active","ping":56},{"user_id":142,"name":"Gr8alex #KILLTF2","steam_id":76561198227675960,"connected_time":891000000000,"state":"active","ping":111},{"user_id":145,"name":"Raizen","steam_id":76561199092445367,"connected_time":669000000000,"state":"active","ping":56},{"user_id":82,"name":"[GU1Z] Palamute Jho","steam_id":76561199219936729,"connected_time":4279000000000,"state":"active","ping":88},{"user_id":130,"name":"katryna","steam_id":76561198023440304,"connected_time":1484000000000,"state":"active","ping":64},{"user_id":152,"name":"Sky","steam_id":76561198853245153,"connected_time":11000000000,"state":"spawning","ping":91},{"user_id":151,"name":"Freddy fatbear","steam_id":76561199077997794,"connected_time":39000000000,"state":"active","ping":87},{"user_id":148,"name":"Sparse","steam_id":76561198865084441,"connected_time":474000000000,"state":"active","ping":70},{"user_id":111,"name":"Furious George","steam_id":76561198405111646,"connected_time":2888000000000,"state":"active","ping":96},{"user_id":133,"name":"tony","steam_id":76561198120387104,"connected_time":1405000000000,"state":"active","ping":68},{"user_id":141,"name":"Yoshikage Kira","steam_id":76561198848930696,"connected_time":897000000000,"state":"active","ping":49},{"user_id":98,"name":"general.b","steam_id":76561198162480519,"connected_time":3265000000000,"state":"active","ping":53},{"user_id":60,"name":"dog","steam_id":76561198263873491,"connected_time":6928000000000,"state":"active","ping":46}]},{"server_id":402,"name":"Uncletopia | Chicago | 3 | All Maps","name_short":"chi-3","host":"chi-1.us.uncletopia.com","port":27035,"enabled":true,"region":"us-central","cc":"us","latitude":41.881832,"longitude":-87.62318,"reserved":0,"last_update":"0001-01-01T00:00:00Z","name_a2s":"Uncletopia | Chicago | 3 | All Maps","protocol":17,"map":"pl_swiftwater_final1","folder":"tf","game":"Team Fortress","app_id":440,"player_count":24,"max_players":24,"Bots":0,"server_type":"Dedicated","server_os":"Linux","password":true,"vac":true,"version":"7961495","steam_id":85568392924515191,"keywords":["nocrits","nodmgspread","payload","uncletopia"],"game_id":440,"stv_port":27036,"stv_name":"Uncletopia | Chicago | 3 | All Maps | STV","players":[{"user_id":51,"name":"garfield","steam_id":76561198114119308,"connected_time":96000000000,"state":"active","ping":61},{"user_id":13,"name":"maxtea084","steam_id":76561199333951195,"connected_time":1101000000000,"state":"active","ping":85},{"user_id":10,"name":"ùìïùìÆùì∂ùì´ùì∏ùîÇùì©\ufffd\ufffd\ufffd","steam_id":76561198220055885,"connected_time":1633000000000,"state":"active","ping":59},{"user_id":42,"name":"hennessy","steam_id":76561198317669617,"connected_time":456000000000,"state":"active","ping":76},{"user_id":14,"name":"Th3T1ng","steam_id":76561198106281206,"connected_time":1068000000000,"state":"active","ping":186},{"user_id":15,"name":"MOUSE4LOCK","steam_id":76561198930221211,"connected_time":1030000000000,"state":"active","ping":124},{"user_id":20,"name":"comicconcarne","steam_id":76561198005309469,"connected_time":887000000000,"state":"active","ping":73},{"user_id":18,"name":"Functional Progaming","steam_id":76561198032310210,"connected_time":970000000000,"state":"active","ping":73},{"user_id":33,"name":"|MT|","steam_id":76561199052865451,"connected_time":683000000000,"state":"active","ping":58},{"user_id":22,"name":"Loud Cello Noises","steam_id":76561198036958299,"connected_time":850000000000,"state":"active","ping":112},{"user_id":43,"name":"Boner Boy","steam_id":76561198296857414,"connected_time":442000000000,"state":"active","ping":99},{"user_id":52,"name":"The Heart","steam_id":76561198271979288,"connected_time":57000000000,"state":"active","ping":48},{"user_id":45,"name":"Jaflampe","steam_id":76561198175827647,"connected_time":418000000000,"state":"active","ping":66},{"user_id":26,"name":"War","steam_id":76561198093632727,"connected_time":811000000000,"state":"active","ping":45},{"user_id":46,"name":"Ddonut gamer","steam_id":76561198858852245,"connected_time":416000000000,"state":"active","ping":114},{"user_id":47,"name":"Artificial Taco Intelligence","steam_id":76561199431280503,"connected_time":399000000000,"state":"active","ping":86},{"user_id":29,"name":"Panda","steam_id":76561198320424853,"connected_time":768000000000,"state":"active","ping":64},{"user_id":30,"name":"AlcoholicKitty","steam_id":76561198084763130,"connected_time":767000000000,"state":"active","ping":70},{"user_id":48,"name":"Kalhoun","steam_id":76561197999648122,"connected_time":392000000000,"state":"active","ping":68},{"user_id":36,"name":"Kurama_Wolf","steam_id":76561198211474724,"connected_time":658000000000,"state":"active","ping":86},{"user_id":34,"name":"Jurassicsteel24","steam_id":76561199019369817,"connected_time":676000000000,"state":"active","ping":95},{"user_id":49,"name":"·≤º·≤º·≤º","steam_id":76561198845246815,"connected_time":384000000000,"state":"active","ping":108},{"user_id":50,"name":"HanakoToast","steam_id":76561198045233131,"connected_time":283000000000,"state":"active","ping":106},{"user_id":41,"name":"Megatronn","steam_id":76561198796716496,"connected_time":488000000000,"state":"active","ping":71}]},{"server_id":403,"name":"Uncletopia | Chicago | 4 | All Maps","name_short":"chi-4","host":"chi-1.us.uncletopia.com","port":27045,"enabled":true,"region":"us-central","cc":"us","latitude":41.881832,"longitude":-87.62318,"reserved":0,"last_update":"0001-01-01T00:00:00Z","name_a2s":"Uncletopia | Chicago | 4 | All Maps","protocol":17,"map":"koth_lakeside_final","folder":"tf","game":"Team Fortress","app_id":440,"player_count":24,"max_players":24,"Bots":0,"server_type":"Dedicated","server_os":"Linux","password":true,"vac":true,"version":"7961495","steam_id":85568392924515193,"keywords":["cp","nocrits","nodmgspread","uncletopia"],"game_id":440,"stv_port":27046,"stv_name":"Uncletopia | Chicago | 4 | All Maps | STV","players":[{"user_id":139,"name":"Bucket","steam_id":76561198816448398,"connected_time":565000000000,"state":"active","ping":72},{"user_id":98,"name":"rattlin' bog","steam_id":76561198224551028,"connected_time":2906000000000,"state":"active","ping":72},{"user_id":120,"name":"NUt","steam_id":76561198031007966,"connected_time":1813000000000,"state":"active","ping":62},{"user_id":128,"name":"gibbe guy","steam_id":76561199273891607,"connected_time":1326000000000,"state":"active","ping":68},{"user_id":136,"name":"penishaha","steam_id":76561198262856703,"connected_time":1048000000000,"state":"active","ping":52},{"user_id":126,"name":"Glad","steam_id":76561198422896000,"connected_time":1386000000000,"state":"active","ping":60},{"user_id":129,"name":"malarkeyman","steam_id":76561198844473584,"connected_time":1309000000000,"state":"active","ping":57},{"user_id":124,"name":"TheFallenAngel","steam_id":76561198162437125,"connected_time":1554000000000,"state":"active","ping":63},{"user_id":135,"name":"KarmaStar","steam_id":76561197971945357,"connected_time":1121000000000,"state":"active","ping":95},{"user_id":140,"name":"Sum0","steam_id":76561198260451626,"connected_time":545000000000,"state":"active","ping":66},{"user_id":141,"name":"MrLeftTurn","steam_id":76561198856743969,"connected_time":536000000000,"state":"active","ping":133},{"user_id":106,"name":"ChaoticAngel","steam_id":76561198293528217,"connected_time":2757000000000,"state":"active","ping":64},{"user_id":144,"name":"Beanos85","steam_id":76561199103337508,"connected_time":263000000000,"state":"active","ping":84},{"user_id":87,"name":"green bean","steam_id":76561198113099204,"connected_time":3619000000000,"state":"active","ping":79},{"user_id":142,"name":"Kritzburgh","steam_id":76561198149466938,"connected_time":521000000000,"state":"active","ping":60},{"user_id":108,"name":"listening to doja cat rn","steam_id":76561198326083509,"connected_time":2724000000000,"state":"active","ping":85},{"user_id":138,"name":"AmazingPlasma","steam_id":76561199005527586,"connected_time":701000000000,"state":"active","ping":78},{"user_id":143,"name":"Strange Child","steam_id":76561198082523009,"connected_time":483000000000,"state":"active","ping":71},{"user_id":133,"name":"og biden pack cart","steam_id":76561198253731826,"connected_time":1229000000000,"state":"active","ping":60},{"user_id":110,"name":"3ggsalad3","steam_id":76561199386969191,"connected_time":2667000000000,"state":"active","ping":55},{"user_id":93,"name":"ThatGamingKiwi","steam_id":76561199170522237,"connected_time":3000000000000,"state":"active","ping":80},{"user_id":119,"name":"Rumble","steam_id":76561199170926322,"connected_time":2030000000000,"state":"active","ping":66},{"user_id":117,"name":"‚ô• „Çπ„Éä„ÉÉ„Éï„Ç°„Éº ‚ô•","steam_id":76561198158822845,"connected_time":2198000000000,"state":"active","ping":56},{"user_id":114,"name":"Kirby.exe","steam_id":76561198242714582,"connected_time":2596000000000,"state":"active","ping":65}]},{"server_id":36,"name":"Uncletopia | Chicago | 5 | All Maps","name_short":"chi-5","host":"chi-2.us.uncletopia.com","port":27015,"enabled":true,"region":"us-central","cc":"us","latitude":41.881832,"longitude":-87.62318,"reserved":0,"last_update":"0001-01-01T00:00:00Z","name_a2s":"Uncletopia | Chicago | 5 | All Maps","protocol":17,"map":"koth_viaduct","folder":"tf","game":"Team Fortress","app_id":440,"player_count":4,"max_players":24,"Bots":0,"server_type":"Dedicated","server_os":"Linux","password":true,"vac":true,"version":"7961495","steam_id":85568392924866362,"keywords":["cp","nocrits","nodmgspread","uncletopia"],"game_id":440,"stv_port":27016,"stv_name":"Uncletopia | Chicago | 5 | All Maps | STV","players":[{"user_id":6,"name":"Shaper Loks","steam_id":76561198207958144,"connected_time":439000000000,"state":"active","ping":91},{"user_id":7,"name":"King De","steam_id":76561198194427422,"connected_time":321000000000,"state":"active","ping":53},{"user_id":8,"name":"Carton","steam_id":76561198989473391,"connected_time":215000000000,"state":"active","ping":61},{"user_id":9,"name":"A_Malebolgia","steam_id":76561198097722818,"connected_time":30000000000,"state":"active","ping":85}]},{"server_id":37,"name":"Uncletopia | Chicago | 6 | All Maps","name_short":"chi-6","host":"chi-2.us.uncletopia.com","port":27025,"enabled":true,"region":"us-central","cc":"us","latitude":41.881832,"longitude":-87.62318,"reserved":0,"last_update":"0001-01-01T00:00:00Z","name_a2s":"Uncletopia | Chicago | 6 | All Maps","protocol":17,"map":"koth_cascade","folder":"tf","game":"Team Fortress","app_id":440,"player_count":0,"max_players":24,"Bots":0,"server_type":"Dedicated","server_os":"Linux","password":true,"vac":true,"version":"7961495","steam_id":85568392924866363,"keywords":["cp","nocrits","nodmgspread","uncletopia"],"game_id":440,"stv_port":27026,"stv_name":"Uncletopia | Chicago | 6 | All Maps | STV","players":null},{"server_id":38,"name":"Uncletopia | Chicago | 7 | Stopwatch","name_short":"chi-7","host":"chi-2.us.uncletopia.com","port":27035,"enabled":true,"region":"us-central","cc":"us","latitude":41.881832,"longitude":-87.62318,"reserved":0,"last_update":"0001-01-01T00:00:00Z","name_a2s":"Uncletopia | Chicago | 7 | Stopwatch","protocol":17,"map":"pl_badwater","folder":"tf","game":"Team Fortress","app_id":440,"player_count":0,"max_players":24,"Bots":0,"server_type":"Dedicated","server_os":"Linux","password":true,"vac":true,"version":"7961495","steam_id":85568392924866364,"keywords":["nocrits","nodmgspread","payload","uncletopia"],"game_id":440,"stv_port":27036,"stv_name":"Uncletopia | Chicago | 7 | Stopwatch | STV","players":null},{"server_id":39,"name":"Uncletopia | Chicago | 8 | Community","name_short":"chi-8","host":"chi-2.us.uncletopia.com","port":27045,"enabled":true,"region":"us-central","cc":"us","latitude":41.881832,"longitude":-87.62318,"reserved":0,"last_update":"0001-01-01T00:00:00Z","name_a2s":"Uncletopia | Chicago | 8 | Community","protocol":17,"map":"pl_pier","folder":"tf","game":"Team Fortress","app_id":440,"player_count":0,"max_players":24,"Bots":0,"server_type":"Dedicated","server_os":"Linux","password":true,"vac":true,"version":"7961495","steam_id":85568392924866365,"keywords":["nocrits","nodmgspread","payload","uncletopia"],"game_id":440,"stv_port":27046,"stv_name":"Uncletopia | Chicago | 8 | Community | STV","players":null},{"server_id":8,"name":"Uncletopia | Dallas | 1 | All Maps","name_short":"dal-1","host":"dal-1.us.uncletopia.com","port":27015,"enabled":true,"region":"us-central","cc":"us","latitude":32.779167,"longitude":-96.80889,"reserved":0,"last_update":"0001-01-01T00:00:00Z","name_a2s":"Uncletopia | Dallas | 1 | All Maps","protocol":17,"map":"pl_barnblitz","folder":"tf","game":"Team Fortress","app_id":440,"player_count":24,"max_players":24,"Bots":0,"server_type":"Dedicated","server_os":"Linux","password":true,"vac":true,"version":"7961495","steam_id":85568392924469986,"keywords":["nocrits","nodmgspread","payload","uncletopia"],"game_id":440,"stv_port":27016,"stv_name":"Uncletopia | Dallas | 1 | All Maps | STV","players":[{"user_id":111,"name":"THRONGLER","steam_id":76561198198563466,"connected_time":229000000000,"state":"active","ping":42},{"user_id":102,"name":"FanaticSalt","steam_id":76561199380123059,"connected_time":1072000000000,"state":"active","ping":42},{"user_id":91,"name":"Gailus","steam_id":76561198319509387,"connected_time":1732000000000,"state":"active","ping":63},{"user_id":116,"name":"Spider_god","steam_id":76561199097791017,"connected_time":144000000000,"state":"active","ping":112},{"user_id":107,"name":"Darling","steam_id":76561198127525888,"connected_time":483000000000,"state":"active","ping":46},{"user_id":57,"name":"Wumbo","steam_id":76561198122392357,"connected_time":4952000000000,"state":"active","ping":54},{"user_id":110,"name":"BoxOfStaples","steam_id":76561198834773017,"connected_time":330000000000,"state":"active","ping":96},{"user_id":29,"name":"Season Leaf","steam_id":76561198133121805,"connected_time":6257000000000,"state":"active","ping":91},{"user_id":94,"name":"catfish from toontown","steam_id":76561198060070002,"connected_time":1293000000000,"state":"active","ping":63},{"user_id":104,"name":"Gary Busey","steam_id":76561197970096950,"connected_time":738000000000,"state":"active","ping":33},{"user_id":68,"name":"jailbreak","steam_id":76561198802085218,"connected_time":3989000000000,"state":"active","ping":57},{"user_id":70,"name":"Prsm","steam_id":76561198053344995,"connected_time":3934000000000,"state":"active","ping":76},{"user_id":117,"name":"Shmovin","steam_id":76561198165355021,"connected_time":13000000000,"state":"spawning","ping":45},{"user_id":103,"name":"Horizons","steam_id":76561198106417594,"connected_time":899000000000,"state":"active","ping":50},{"user_id":113,"name":"cakes","steam_id":76561197961277967,"connected_time":183000000000,"state":"active","ping":48},{"user_id":89,"name":"Natsuki the Scunt","steam_id":76561199175922684,"connected_time":1877000000000,"state":"active","ping":99},{"user_id":93,"name":"ShapedSilver","steam_id":76561199073305310,"connected_time":1305000000000,"state":"active","ping":69},{"user_id":109,"name":"A Suspiciously Moist Carpet","steam_id":76561198056666757,"connected_time":406000000000,"state":"active","ping":67},{"user_id":100,"name":"milk then cereal","steam_id":76561198047168548,"connected_time":1224000000000,"state":"active","ping":79},{"user_id":62,"name":"weakest S.O.A.D enjoyer","steam_id":76561199098253679,"connected_time":4837000000000,"state":"active","ping":122},{"user_id":85,"name":"D(b) Hell","steam_id":76561198067869016,"connected_time":2657000000000,"state":"active","ping":76},{"user_id":114,"name":"ballsniffer985","steam_id":76561199077027954,"connected_time":183000000000,"state":"active","ping":63},{"user_id":106,"name":"Dqzz","steam_id":76561199440761155,"connected_time":688000000000,"state":"active","ping":114}]},{"server_id":108,"name":"Uncletopia | Dallas | 2 | All Maps","name_short":"dal-2","host":"dal-1.us.uncletopia.com","port":27025,"enabled":true,"region":"us-central","cc":"us","latitude":32.779167,"longitude":-96.80889,"reserved":0,"last_update":"0001-01-01T00:00:00Z","name_a2s":"Uncletopia | Dallas | 2 | All Maps","protocol":17,"map":"pl_barnblitz","folder":"tf","game":"Team Fortress","app_id":440,"player_count":24,"max_players":24,"Bots":0,"server_type":"Dedicated","server_os":"Linux","password":true,"vac":true,"version":"7961495","steam_id":85568392924469988,"keywords":["nocrits","nodmgspread","payload","uncletopia"],"game_id":440,"stv_port":27026,"stv_name":"Uncletopia | Dallas | 2 | All Maps | STV","players":[{"user_id":58,"name":"squarg","steam_id":76561198857911015,"connected_time":687000000000,"state":"active","ping":79},{"user_id":62,"name":"Just a Random Dood","steam_id":76561198101538371,"connected_time":417000000000,"state":"active","ping":116},{"user_id":41,"name":"BatMatt","steam_id":76561198045910433,"connected_time":1917000000000,"state":"active","ping":58},{"user_id":56,"name":"CeLeb144","steam_id":76561199089907740,"connected_time":713000000000,"state":"active","ping":59},{"user_id":57,"name":"Bad medic girlfriend","steam_id":76561198294054569,"connected_time":713000000000,"state":"active","ping":97},{"user_id":10,"name":"Dogvan","steam_id":76561198176708643,"connected_time":4378000000000,"state":"active","ping":68},{"user_id":51,"name":"Hel1oHiBye","steam_id":76561199101173899,"connected_time":728000000000,"state":"active","ping":91},{"user_id":19,"name":"mountain goat","steam_id":76561198326628884,"connected_time":3991000000000,"state":"active","ping":93},{"user_id":45,"name":"black tar estrogen","steam_id":76561198043911582,"connected_time":1583000000000,"state":"active","ping":85},{"user_id":15,"name":"sadako","steam_id":76561198170642407,"connected_time":4068000000000,"state":"active","ping":106},{"user_id":59,"name":"BubbyBoy27","steam_id":76561199102009679,"connected_time":681000000000,"state":"active","ping":100},{"user_id":64,"name":"rice white","steam_id":76561198320732910,"connected_time":352000000000,"state":"active","ping":95},{"user_id":18,"name":"‚òº money sittin tall yao ming","steam_id":76561198074180953,"connected_time":4005000000000,"state":"active","ping":78},{"user_id":53,"name":"Silverman_Cam","steam_id":76561198936168937,"connected_time":726000000000,"state":"active","ping":96},{"user_id":22,"name":"Timmy The Tyrant","steam_id":76561199156409732,"connected_time":3910000000000,"state":"active","ping":39},{"user_id":54,"name":"tres","steam_id":76561198067500833,"connected_time":725000000000,"state":"active","ping":46},{"user_id":63,"name":"mr poop","steam_id":76561199195196632,"connected_time":371000000000,"state":"active","ping":56},{"user_id":25,"name":"jimmy carter rookie card","steam_id":76561198132803810,"connected_time":3850000000000,"state":"active","ping":64},{"user_id":26,"name":"Persona_Random","steam_id":76561198922937588,"connected_time":3846000000000,"state":"active","ping":143},{"user_id":28,"name":"hammythegreat #SaveTF2","steam_id":76561198079526946,"connected_time":3653000000000,"state":"active","ping":102},{"user_id":60,"name":"Walmus","steam_id":76561198111416393,"connected_time":666000000000,"state":"active","ping":73},{"user_id":48,"name":"SoundKitKiller","steam_id":76561198053535873,"connected_time":1142000000000,"state":"active","ping":109},{"user_id":38,"name":"femboy =Ôºæ‚óè ‚ãè ‚óèÔºæ=","steam_id":76561199052450127,"connected_time":2195000000000,"state":"active","ping":84},{"user_id":65,"name":"Cowboyfos","steam_id":76561199055740230,"connected_time":230000000000,"state":"active","ping":78}]},{"server_id":404,"name":"Uncletopia | Dallas | 3 | All Maps","name_short":"dal-3","host":"dal-1.us.uncletopia.com","port":27035,"enabled":true,"region":"us-central","cc":"us","latitude":32.779167,"longitude":-96.80889,"reserved":0,"last_update":"0001-01-01T00:00:00Z","name_a2s":"Uncletopia | Dallas | 3 | All Maps","protocol":17,"map":"pl_badwater","folder":"tf","game":"Team Fortress","app_id":440,"player_count":1,"max_players":24,"Bots":0,"server_type":"Dedicated","server_os":"Linux","password":true,"vac":true,"version":"7961495","steam_id":85568392924515219,"keywords":["nocrits","nodmgspread","payload","uncletopia"],"game_id":440,"stv_port":27036,"stv_name":"Uncletopia | Dallas | 3 | All Maps | STV","players":[{"user_id":13,"name":"Yords","steam_id":76561198027925729,"connected_time":16000000000,"state":"active","ping":51}]},{"server_id":405,"name":"Uncletopia | Dallas | 4 | Community","name_short":"dal-4","host":"dal-1.us.uncletopia.com","port":27045,"enabled":true,"region":"us-central","cc":"us","latitude":32.779167,"longitude":-96.80889,"reserved":0,"last_update":"0001-01-01T00:00:00Z","name_a2s":"Uncletopia | Dallas | 4 | Community","protocol":17,"map":"pl_pier","folder":"tf","game":"Team Fortress","app_id":440,"player_count":0,"max_players":24,"Bots":0,"server_type":"Dedicated","server_os":"Linux","password":true,"vac":true,"version":"7961495","steam_id":85568392924515220,"keywords":["nocrits","nodmgspread","payload","uncletopia"],"game_id":440,"stv_port":27046,"stv_name":"Uncletopia | Dallas | 4 | Community | STV","players":null},{"server_id":5,"name":"Uncletopia | Frankfurt | 1 | All Maps","name_short":"frk-1","host":"frk-1.de.uncletopia.com","port":27015,"enabled":true,"region":"eu","cc":"de","latitude":50.110924,"longitude":8.682127,"reserved":0,"last_update":"0001-01-01T00:00:00Z","name_a2s":"Uncletopia | Frankfurt | 1 | All Maps","protocol":17,"map":"pl_badwater","folder":"tf","game":"Team Fortress","app_id":440,"player_count":24,"max_players":24,"Bots":0,"server_type":"Dedicated","server_os":"Linux","password":true,"vac":true,"version":"7961495","steam_id":85568392924469989,"keywords":["nocrits","nodmgspread","payload","uncletopia"],"game_id":440,"stv_port":27016,"stv_name":"Uncletopia | Frankfurt | 1 | All Maps | STV","players":[{"user_id":456,"name":"Tsar bomb","steam_id":76561198118733049,"connected_time":739000000000,"state":"active","ping":84},{"user_id":425,"name":"Dot","steam_id":76561198047299145,"connected_time":3917000000000,"state":"active","ping":77},{"user_id":453,"name":"Mr.Schnittlauch","steam_id":76561198295868113,"connected_time":987000000000,"state":"active","ping":46},{"user_id":457,"name":"skippy","steam_id":76561198171958773,"connected_time":466000000000,"state":"active","ping":56},{"user_id":446,"name":"Croissant","steam_id":76561198070941763,"connected_time":1605000000000,"state":"active","ping":68},{"user_id":449,"name":"Hegyi tah√≥ F2P","steam_id":76561199219150356,"connected_time":1420000000000,"state":"active","ping":70},{"user_id":458,"name":"manure merchant","steam_id":76561198010109316,"connected_time":452000000000,"state":"active","ping":52},{"user_id":431,"name":"NALA","steam_id":76561198039806469,"connected_time":3059000000000,"state":"active","ping":69},{"user_id":381,"name":"nozzo","steam_id":76561198012367783,"connected_time":5493000000000,"state":"active","ping":66},{"user_id":423,"name":"Techm32","steam_id":76561198317134994,"connected_time":3932000000000,"state":"active","ping":55},{"user_id":405,"name":"VIN WEASEL","steam_id":76561198014387066,"connected_time":4179000000000,"state":"active","ping":47},{"user_id":436,"name":"fish","steam_id":76561198092096689,"connected_time":2632000000000,"state":"active","ping":46},{"user_id":369,"name":"CzechMate #SaveTF2","steam_id":76561198012687703,"connected_time":5810000000000,"state":"active","ping":44},{"user_id":399,"name":"Lux","steam_id":76561198060417740,"connected_time":4564000000000,"state":"active","ping":44},{"user_id":451,"name":"NBlast","steam_id":76561197994904389,"connected_time":1389000000000,"state":"active","ping":68},{"user_id":444,"name":"DirtyFred","steam_id":76561198031814950,"connected_time":1936000000000,"state":"active","ping":70},{"user_id":459,"name":"ThatTFguy","steam_id":76561198056794321,"connected_time":249000000000,"state":"active","ping":72},{"user_id":448,"name":"obi","steam_id":76561198040154461,"connected_time":1581000000000,"state":"active","ping":63},{"user_id":447,"name":"=OKB= P4NTH3R","steam_id":76561197999204603,"connected_time":1601000000000,"state":"active","ping":64},{"user_id":400,"name":"Fran","steam_id":76561199070516960,"connected_time":4489000000000,"state":"active","ping":60},{"user_id":455,"name":"MateuszRTS","steam_id":76561198014491925,"connected_time":986000000000,"state":"active","ping":74},{"user_id":420,"name":"decriminalise goblins","steam_id":76561198048257605,"connected_time":3943000000000,"state":"active","ping":71},{"user_id":367,"name":"frey`","steam_id":76561197971548290,"connected_time":6022000000000,"state":"active","ping":59},{"user_id":427,"name":"Rambi","steam_id":76561199058078505,"connected_time":3908000000000,"state":"active","ping":137}]},{"server_id":110,"name":"Uncletopia | Frankfurt | 2 | All Maps","name_short":"frk-2","host":"frk-1.de.uncletopia.com","port":27025,"enabled":true,"region":"eu","cc":"de","latitude":50.110924,"longitude":8.682127,"reserved":0,"last_update":"0001-01-01T00:00:00Z","name_a2s":"Uncletopia | Frankfurt | 2 | All Maps","protocol":17,"map":"pl_badwater","folder":"tf","game":"Team Fortress","app_id":440,"player_count":24,"max_players":24,"Bots":0,"server_type":"Dedicated","server_os":"Linux","password":true,"vac":true,"version":"7961495","steam_id":85568392924469990,"keywords":["nocrits","nodmgspread","payload","uncletopia"],"game_id":440,"stv_port":27026,"stv_name":"Uncletopia | Frankfurt | 2 | All Maps | STV","players":[{"user_id":372,"name":"Yrj√∂ Koskinen Yrj√∂-Koskinen","steam_id":76561198368181145,"connected_time":746000000000,"state":"active","ping":75},{"user_id":357,"name":"‚ú™ m_br3","steam_id":76561198044981990,"connected_time":2256000000000,"state":"active","ping":61},{"user_id":225,"name":"The","steam_id":76561199378865926,"connected_time":11368000000000,"state":"active","ping":125},{"user_id":373,"name":"ImABush","steam_id":76561198304471896,"connected_time":731000000000,"state":"active","ping":46},{"user_id":374,"name":"vgiamp10","steam_id":76561198396069529,"connected_time":700000000000,"state":"active","ping":67},{"user_id":371,"name":"Krabs","steam_id":76561198161679477,"connected_time":781000000000,"state":"active","ping":57},{"user_id":368,"name":"Hanni","steam_id":76561198374117962,"connected_time":841000000000,"state":"active","ping":69},{"user_id":331,"name":"The real Baguette","steam_id":76561198873855165,"connected_time":3983000000000,"state":"active","ping":82},{"user_id":358,"name":"Efeca","steam_id":76561198018923829,"connected_time":2231000000000,"state":"active","ping":64},{"user_id":375,"name":"Cuntosaurus Rex","steam_id":76561199072448875,"connected_time":689000000000,"state":"active","ping":81},{"user_id":369,"name":"kingdead4","steam_id":76561198079576655,"connected_time":815000000000,"state":"active","ping":66},{"user_id":270,"name":"[UM-monster","steam_id":76561198085098243,"connected_time":7875000000000,"state":"active","ping":108},{"user_id":355,"name":"Arsonist","steam_id":76561199087953833,"connected_time":2370000000000,"state":"active","ping":109},{"user_id":370,"name":"Bob Sacamano","steam_id":76561198085610701,"connected_time":810000000000,"state":"active","ping":86},{"user_id":338,"name":"Finnish Farmer","steam_id":76561198205366043,"connected_time":3415000000000,"state":"active","ping":86},{"user_id":376,"name":"‚ô° Cursed ‚ô°","steam_id":76561199161458959,"connected_time":687000000000,"state":"active","ping":187},{"user_id":377,"name":"megalx","steam_id":76561198195994883,"connected_time":683000000000,"state":"active","ping":81},{"user_id":382,"name":"Apollo","steam_id":76561198866054007,"connected_time":497000000000,"state":"active","ping":97},{"user_id":379,"name":"tafelpoot","steam_id":76561198080036024,"connected_time":661000000000,"state":"active","ping":55},{"user_id":380,"name":"Vytuzas","steam_id":76561198012868436,"connected_time":658000000000,"state":"active","ping":79},{"user_id":367,"name":"Û†Ä°Û†Ä°","steam_id":76561198399390201,"connected_time":936000000000,"state":"active","ping":90},{"user_id":383,"name":"lonely","steam_id":76561198814828218,"connected_time":168000000000,"state":"active","ping":83},{"user_id":364,"name":"ÍßÅ‡ºíXenon‡ºíÍßÇ","steam_id":76561198120502313,"connected_time":1149000000000,"state":"active","ping":56},{"user_id":333,"name":"Odin","steam_id":76561198087800030,"connected_time":3958000000000,"state":"active","ping":45}]},{"server_id":308,"name":"Uncletopia | Frankfurt | 3 | All Maps","name_short":"frk-3","host":"frk-1.de.uncletopia.com","port":27035,"enabled":true,"region":"eu","cc":"de","latitude":50.110924,"longitude":8.682127,"reserved":0,"last_update":"0001-01-01T00:00:00Z","name_a2s":"Uncletopia | Frankfurt | 3 | All Maps","protocol":17,"map":"koth_highpass","folder":"tf","game":"Team Fortress","app_id":440,"player_count":24,"max_players":24,"Bots":0,"server_type":"Dedicated","server_os":"Linux","password":true,"vac":true,"version":"7961495","steam_id":85568392924504274,"keywords":["cp","nocrits","nodmgspread","uncletopia"],"game_id":440,"stv_port":27036,"stv_name":"Uncletopia | Frankfurt | 3 | All Maps | STV","players":[{"user_id":477,"name":"MrSoy","steam_id":76561197988085026,"connected_time":226000000000,"state":"active","ping":61},{"user_id":463,"name":"xavier","steam_id":76561198076494034,"connected_time":1331000000000,"state":"active","ping":56},{"user_id":415,"name":"denismaidanov","steam_id":76561198338601367,"connected_time":4268000000000,"state":"active","ping":101},{"user_id":416,"name":"MR BUBBLES","steam_id":76561198019005259,"connected_time":4268000000000,"state":"active","ping":107},{"user_id":435,"name":"Bajas","steam_id":76561198179339326,"connected_time":3096000000000,"state":"active","ping":77},{"user_id":445,"name":"MpJens","steam_id":76561198000347669,"connected_time":2068000000000,"state":"active","ping":46},{"user_id":454,"name":"burritoeater","steam_id":76561199124197813,"connected_time":1683000000000,"state":"active","ping":82},{"user_id":473,"name":"melon man","steam_id":76561198834046987,"connected_time":506000000000,"state":"active","ping":117},{"user_id":456,"name":"XDDAMMSON","steam_id":76561199049684775,"connected_time":1656000000000,"state":"active","ping":81},{"user_id":475,"name":"Cheshireycat","steam_id":76561198067204908,"connected_time":371000000000,"state":"active","ping":61},{"user_id":464,"name":"emer","steam_id":76561198001420975,"connected_time":1273000000000,"state":"active","ping":111},{"user_id":472,"name":"ass und tiddies","steam_id":76561198170609049,"connected_time":578000000000,"state":"active","ping":65},{"user_id":467,"name":"Gator","steam_id":76561198065624683,"connected_time":900000000000,"state":"active","ping":95},{"user_id":468,"name":"shitty shit mcshit","steam_id":76561198097507847,"connected_time":900000000000,"state":"active","ping":75},{"user_id":418,"name":"Vershal Smershal","steam_id":76561198116223995,"connected_time":4251000000000,"state":"active","ping":61},{"user_id":476,"name":"Sergeant Pepper","steam_id":76561198259943381,"connected_time":256000000000,"state":"active","ping":77},{"user_id":444,"name":"‚òÅ Lou1smeister ‚òÅ","steam_id":76561198004032968,"connected_time":2083000000000,"state":"active","ping":75},{"user_id":465,"name":"Strix","steam_id":76561198015322735,"connected_time":1192000000000,"state":"active","ping":84},{"user_id":447,"name":"Skipper","steam_id":76561198156847466,"connected_time":2036000000000,"state":"active","ping":58},{"user_id":479,"name":"Lessoz","steam_id":76561199211572036,"connected_time":162000000000,"state":"active","ping":89},{"user_id":325,"name":"_3tHeR_","steam_id":76561199109870743,"connected_time":11177000000000,"state":"active","ping":60},{"user_id":460,"name":"–¢—è–∂–µ–ª—ã–π","steam_id":76561198860424456,"connected_time":1629000000000,"state":"active","ping":61},{"user_id":437,"name":"antlionguard","steam_id":76561198072747143,"connected_time":2751000000000,"state":"active","ping":112},{"user_id":469,"name":"Flight of the Blonde Giraffes","steam_id":76561198451585571,"connected_time":899000000000,"state":"active","ping":71}]},{"server_id":309,"name":"Uncletopia | Frankfurt | 4 | All Maps","name_short":"frk-4","host":"frk-1.de.uncletopia.com","port":27045,"enabled":true,"region":"eu","cc":"de","latitude":50.110924,"longitude":8.682127,"reserved":0,"last_update":"0001-01-01T00:00:00Z","name_a2s":"Uncletopia | Frankfurt | 4 | All Maps","protocol":17,"map":"cp_mountainlab","folder":"tf","game":"Team Fortress","app_id":440,"player_count":25,"max_players":24,"Bots":0,"server_type":"Dedicated","server_os":"Linux","password":true,"vac":true,"version":"7961495","steam_id":85568392924504275,"keywords":["cp","nocrits","nodmgspread","uncletopia"],"game_id":440,"stv_port":27046,"stv_name":"Uncletopia | Frankfurt | 4 | All Maps | STV","players":[{"user_id":330,"name":"123","steam_id":76561198113733477,"connected_time":310000000000,"state":"active","ping":61},{"user_id":320,"name":"Mr.Nannoldo","steam_id":76561198107373653,"connected_time":1471000000000,"state":"active","ping":85},{"user_id":327,"name":"Pudlich","steam_id":76561198300089671,"connected_time":530000000000,"state":"active","ping":60},{"user_id":325,"name":"miloiloloo","steam_id":76561198010807374,"connected_time":1135000000000,"state":"active","ping":143},{"user_id":312,"name":"FoxyTheFish","steam_id":76561199074190919,"connected_time":2194000000000,"state":"active","ping":49},{"user_id":324,"name":"(‚âñ·¥ó‚âñ‚úø)","steam_id":76561198095560087,"connected_time":1413000000000,"state":"active","ping":75},{"user_id":318,"name":"Camptyuyu","steam_id":76561198810134666,"connected_time":1526000000000,"state":"active","ping":63},{"user_id":335,"name":"EricToGo","steam_id":76561198068019642,"connected_time":16000000000,"state":"active","ping":283},{"user_id":332,"name":"kwayeh","steam_id":76561197960546492,"connected_time":220000000000,"state":"active","ping":45},{"user_id":333,"name":"3L","steam_id":76561198007208996,"connected_time":206000000000,"state":"active","ping":44},{"user_id":311,"name":"–ù–∏–∫–∏—Ç–∞ –ü–æ–ª—É—ç–∫—Ç–æ–≤","steam_id":76561198413275515,"connected_time":2259000000000,"state":"active","ping":83},{"user_id":303,"name":"rolling_tim","steam_id":76561198373668332,"connected_time":2427000000000,"state":"active","ping":55},{"user_id":315,"name":"Hoff","steam_id":76561198138540938,"connected_time":1659000000000,"state":"active","ping":78},{"user_id":316,"name":"dekrzz","steam_id":76561198157285449,"connected_time":1584000000000,"state":"active","ping":81},{"user_id":279,"name":"jj","steam_id":76561198010586391,"connected_time":2976000000000,"state":"active","ping":62},{"user_id":334,"name":"Isak","steam_id":76561198085959762,"connected_time":201000000000,"state":"active","ping":80},{"user_id":205,"name":"Duktigafred","steam_id":76561199211222396,"connected_time":5589000000000,"state":"active","ping":67},{"user_id":329,"name":"Jojczak","steam_id":76561198134750964,"connected_time":476000000000,"state":"active","ping":71},{"user_id":313,"name":"im tired","steam_id":76561198812159557,"connected_time":2072000000000,"state":"active","ping":70},{"user_id":323,"name":"Rocket Queen's consort","steam_id":76561198092995429,"connected_time":1422000000000,"state":"active","ping":146},{"user_id":322,"name":"YunikkoN","steam_id":76561198211962412,"connected_time":1453000000000,"state":"active","ping":91},{"user_id":300,"name":"bigeon","steam_id":76561198078601337,"connected_time":2630000000000,"state":"active","ping":88},{"user_id":282,"name":"monocle chicken","steam_id":76561199020106029,"connected_time":2939000000000,"state":"active","ping":85},{"user_id":310,"name":"void monad","steam_id":76561198117012334,"connected_time":2358000000000,"state":"active","ping":89},{"user_id":336,"name":"dj magdogrozen","steam_id":76561198984131011,"connected_time":15000000000,"state":"spawning","ping":181}]},{"server_id":310,"name":"Uncletopia | Frankfurt | 5 | All Maps","name_short":"frk-5","host":"frk-1.de.uncletopia.com","port":27055,"enabled":true,"region":"eu","cc":"de","latitude":50.110924,"longitude":8.682127,"reserved":0,"last_update":"0001-01-01T00:00:00Z","name_a2s":"Uncletopia | Frankfurt | 5 | All Maps","protocol":17,"map":"pl_pier","folder":"tf","game":"Team Fortress","app_id":440,"player_count":24,"max_players":24,"Bots":0,"server_type":"Dedicated","server_os":"Linux","password":true,"vac":true,"version":"7961495","steam_id":85568392924504277,"keywords":["nocrits","nodmgspread","payload","uncletopia"],"game_id":440,"stv_port":27056,"stv_name":"Uncletopia | Frankfurt | 5 | All Maps | STV","players":[{"user_id":600,"name":"SnipeZz","steam_id":76561198027962736,"connected_time":595000000000,"state":"active","ping":58},{"user_id":581,"name":"Zirif","steam_id":76561198116200959,"connected_time":1886000000000,"state":"active","ping":69},{"user_id":586,"name":"Malinok","steam_id":76561198025681131,"connected_time":835000000000,"state":"active","ping":178},{"user_id":588,"name":"[HOL] Solringen","steam_id":76561198003584681,"connected_time":756000000000,"state":"active","ping":68},{"user_id":603,"name":"Germanium_Ge","steam_id":76561198130561775,"connected_time":471000000000,"state":"active","ping":53},{"user_id":593,"name":"fandom","steam_id":76561198260285179,"connected_time":713000000000,"state":"active","ping":104},{"user_id":604,"name":"Caliban","steam_id":76561197999696839,"connected_time":457000000000,"state":"active","ping":102},{"user_id":587,"name":"Belemonguin","steam_id":76561198084706411,"connected_time":788000000000,"state":"active","ping":76},{"user_id":589,"name":"Sha","steam_id":76561198339126384,"connected_time":756000000000,"state":"active","ping":77},{"user_id":472,"name":"‚òÖLily","steam_id":76561198014774371,"connected_time":5252000000000,"state":"active","ping":52},{"user_id":605,"name":"Goldermor","steam_id":76561198334406934,"connected_time":399000000000,"state":"active","ping":86},{"user_id":585,"name":"Tupac alive in serbia","steam_id":76561198010978989,"connected_time":836000000000,"state":"active","ping":63},{"user_id":606,"name":":)","steam_id":76561198039964082,"connected_time":395000000000,"state":"active","ping":58},{"user_id":580,"name":"Przemomalin","steam_id":76561197987528170,"connected_time":2012000000000,"state":"active","ping":107},{"user_id":592,"name":"Goldblade","steam_id":76561198382997614,"connected_time":718000000000,"state":"active","ping":78},{"user_id":608,"name":"Twik","steam_id":76561198023835056,"connected_time":40000000000,"state":"active","ping":49},{"user_id":607,"name":"Ujin","steam_id":76561197995386642,"connected_time":190000000000,"state":"active","ping":78},{"user_id":597,"name":"BLINKY","steam_id":76561198990110546,"connected_time":687000000000,"state":"active","ping":82},{"user_id":579,"name":"Laura ‚ù§","steam_id":76561198975652501,"connected_time":2065000000000,"state":"active","ping":99},{"user_id":532,"name":"dash.","steam_id":76561198084796149,"connected_time":3592000000000,"state":"active","ping":50},{"user_id":400,"name":"[P-roc] BadJacKS","steam_id":76561197972666377,"connected_time":9634000000000,"state":"active","ping":53},{"user_id":598,"name":"Oghuaha","steam_id":76561198181087086,"connected_time":675000000000,"state":"active","ping":106},{"user_id":584,"name":"MR.BOYKISSER","steam_id":76561198241894636,"connected_time":922000000000,"state":"active","ping":52},{"user_id":599,"name":"The Muffin Man","steam_id":76561198131063481,"connected_time":654000000000,"state":"active","ping":100}]},{"server_id":311,"name":"Uncletopia | Frankfurt | 6 | All Maps","name_short":"frk-6","host":"frk-1.de.uncletopia.com","port":27065,"enabled":true,"region":"eu","cc":"de","latitude":50.110924,"longitude":8.682127,"reserved":0,"last_update":"0001-01-01T00:00:00Z","name_a2s":"Uncletopia | Frankfurt | 6 | All Maps","protocol":17,"map":"pl_snowycoast","folder":"tf","game":"Team Fortress","app_id":440,"player_count":24,"max_players":24,"Bots":0,"server_type":"Dedicated","server_os":"Linux","password":true,"vac":true,"version":"7961495","steam_id":85568392924504278,"keywords":["nocrits","nodmgspread","payload","uncletopia"],"game_id":440,"stv_port":27066,"stv_name":"Uncletopia | Frankfurt | 6 | All Maps | STV","players":[{"user_id":409,"name":"Lerio","steam_id":76561199114134104,"connected_time":2517000000000,"state":"active","ping":75},{"user_id":434,"name":"zoom employee","steam_id":76561198970737500,"connected_time":1777000000000,"state":"active","ping":62},{"user_id":418,"name":"Deirun","steam_id":76561198020114970,"connected_time":2334000000000,"state":"active","ping":61},{"user_id":429,"name":"Axter","steam_id":76561198118747192,"connected_time":1973000000000,"state":"active","ping":81},{"user_id":441,"name":"Tellas","steam_id":76561198192290586,"connected_time":848000000000,"state":"active","ping":56},{"user_id":455,"name":"monikka","steam_id":76561198297003397,"connected_time":181000000000,"state":"active","ping":65},{"user_id":457,"name":"vurtun","steam_id":76561198857395274,"connected_time":94000000000,"state":"active","ping":51},{"user_id":453,"name":"Maybe","steam_id":76561198274455278,"connected_time":242000000000,"state":"active","ping":76},{"user_id":436,"name":"N00BCSF","steam_id":76561198035530934,"connected_time":1251000000000,"state":"active","ping":74},{"user_id":402,"name":"Adams","steam_id":76561198338852551,"connected_time":3329000000000,"state":"active","ping":71},{"user_id":449,"name":"Kili","steam_id":76561198138456346,"connected_time":435000000000,"state":"active","ping":56},{"user_id":448,"name":"FurFox","steam_id":76561198807347164,"connected_time":498000000000,"state":"active","ping":84},{"user_id":456,"name":"Bobo","steam_id":76561198052308399,"connected_time":170000000000,"state":"active","ping":59},{"user_id":439,"name":"Skullzy","steam_id":76561198206384481,"connected_time":921000000000,"state":"active","ping":66},{"user_id":417,"name":"Diddy","steam_id":76561198043840095,"connected_time":2362000000000,"state":"active","ping":73},{"user_id":419,"name":"Streikey","steam_id":76561198850626398,"connected_time":2320000000000,"state":"active","ping":58},{"user_id":440,"name":"Tynnyri","steam_id":76561198075516541,"connected_time":920000000000,"state":"active","ping":112},{"user_id":445,"name":"Alexandra","steam_id":76561199161701914,"connected_time":817000000000,"state":"active","ping":66},{"user_id":400,"name":"TovenaarGenieter","steam_id":76561198051685232,"connected_time":3357000000000,"state":"active","ping":45},{"user_id":346,"name":"Hexagon","steam_id":76561198151205758,"connected_time":8855000000000,"state":"active","ping":50},{"user_id":450,"name":"Ghost11","steam_id":76561198068892992,"connected_time":407000000000,"state":"active","ping":111},{"user_id":446,"name":"JepCabestany","steam_id":76561198123812578,"connected_time":765000000000,"state":"active","ping":88},{"user_id":458,"name":"scoutcasper","steam_id":76561199019266022,"connected_time":79000000000,"state":"active","ping":48},{"user_id":424,"name":"Meshex","steam_id":76561199109959994,"connected_time":2248000000000,"state":"active","ping":74}]},{"server_id":23,"name":"Uncletopia | Frankfurt | 7 | Stopwatch","name_short":"frk-7","host":"frk-1.de.uncletopia.com","port":27075,"enabled":true,"region":"eu","cc":"de","latitude":50.110924,"longitude":8.682127,"reserved":0,"last_update":"0001-01-01T00:00:00Z","name_a2s":"Uncletopia | Frankfurt | 7 | Stopwatch","protocol":17,"map":"cp_process_final","folder":"tf","game":"Team Fortress","app_id":440,"player_count":24,"max_players":24,"Bots":0,"server_type":"Dedicated","server_os":"Linux","password":true,"vac":true,"version":"7961495","steam_id":85568392924742827,"keywords":["cp","nocrits","nodmgspread","uncletopia"],"game_id":440,"stv_port":27076,"stv_name":"Uncletopia | Frankfurt | 7 | Stopwatch | STV","players":[{"user_id":305,"name":"MGE Nuno Canavarro","steam_id":76561198105121641,"connected_time":1739000000000,"state":"active","ping":70},{"user_id":324,"name":"lugge","steam_id":76561197963937453,"connected_time":619000000000,"state":"active","ping":56},{"user_id":327,"name":"Michael","steam_id":76561198003146906,"connected_time":394000000000,"state":"active","ping":60},{"user_id":320,"name":"sigma phonk mix 4h","steam_id":76561198869806001,"connected_time":939000000000,"state":"active","ping":46},{"user_id":317,"name":"bomberman","steam_id":76561199066513442,"connected_time":1180000000000,"state":"active","ping":76},{"user_id":332,"name":"Gurgula","steam_id":76561198021253678,"connected_time":267000000000,"state":"active","ping":61},{"user_id":328,"name":"President013","steam_id":76561198107233527,"connected_time":384000000000,"state":"active","ping":85},{"user_id":290,"name":"·¥ÄÍú±·¥ã·¥ú ü·¥Ä·¥ò","steam_id":76561197992018795,"connected_time":2758000000000,"state":"active","ping":73},{"user_id":282,"name":"THE VOLCANO","steam_id":76561198148600977,"connected_time":3151000000000,"state":"active","ping":156},{"user_id":291,"name":"R8N - Obismal","steam_id":76561198007482714,"connected_time":2692000000000,"state":"active","ping":68},{"user_id":254,"name":"Quartzy","steam_id":76561198313301520,"connected_time":4990000000000,"state":"active","ping":50},{"user_id":313,"name":"Vivian From Paper Mario","steam_id":76561198077624205,"connected_time":1393000000000,"state":"active","ping":89},{"user_id":292,"name":"BigDikNRJ - Obismal","steam_id":76561198055309521,"connected_time":2688000000000,"state":"active","ping":70},{"user_id":253,"name":"Reimu","steam_id":76561198101532240,"connected_time":5340000000000,"state":"active","ping":74},{"user_id":314,"name":"fifrok","steam_id":76561198799267621,"connected_time":1212000000000,"state":"active","ping":72},{"user_id":295,"name":"Magnum Carlos","steam_id":76561197986026985,"connected_time":2501000000000,"state":"active","ping":48},{"user_id":334,"name":"the milk man","steam_id":76561198883437990,"connected_time":34000000000,"state":"active","ping":73},{"user_id":293,"name":"Ch33zBuRg4r","steam_id":76561198069530746,"connected_time":2573000000000,"state":"active","ping":156},{"user_id":331,"name":"Isaac Clarke S-laughter","steam_id":76561198133546537,"connected_time":312000000000,"state":"active","ping":53},{"user_id":319,"name":"Plazma1234","steam_id":76561198394203523,"connected_time":1123000000000,"state":"active","ping":91},{"user_id":330,"name":"dirhs","steam_id":76561198383867611,"connected_time":342000000000,"state":"active","ping":65},{"user_id":333,"name":"Qwerty","steam_id":76561198023525894,"connected_time":251000000000,"state":"active","ping":81},{"user_id":302,"name":"A ferret with a McCree hat","steam_id":76561198128034417,"connected_time":2203000000000,"state":"active","ping":86},{"user_id":323,"name":"È≠îË°ìÂ∏´","steam_id":76561198049639319,"connected_time":741000000000,"state":"active","ping":85}]},{"server_id":24,"name":"Uncletopia | Frankfurt | 8 | Community","name_short":"frk-8","host":"frk-1.de.uncletopia.com","port":27085,"enabled":true,"region":"eu","cc":"de","latitude":50.110924,"longitude":8.682127,"reserved":0,"last_update":"0001-01-01T00:00:00Z","name_a2s":"Uncletopia | Frankfurt | 8 | Community","protocol":17,"map":"workshop/cp_mannbase_rc2a.ugc1900737467","folder":"tf","game":"Team Fortress","app_id":440,"player_count":0,"max_players":24,"Bots":0,"server_type":"Dedicated","server_os":"Linux","password":true,"vac":true,"version":"7961495","steam_id":85568392924742828,"keywords":["cp","nocrits","nodmgspread","uncletopia"],"game_id":440,"stv_port":27086,"stv_name":"Uncletopia | Frankfurt | 8 | Community | STV","players":null},{"server_id":202,"name":"Uncletopia | Hong Kong | 1 | All Maps","name_short":"hgk-1","host":"hgk-1.hk.uncletopia.com","port":27015,"enabled":true,"region":"asia","cc":"hk","latitude":22.302711,"longitude":114.177216,"reserved":0,"last_update":"0001-01-01T00:00:00Z","name_a2s":"Uncletopia | Hong Kong | 1 | All Maps","protocol":17,"map":"pl_pier","folder":"tf","game":"Team Fortress","app_id":440,"player_count":11,"max_players":24,"Bots":0,"server_type":"Dedicated","server_os":"Linux","password":true,"vac":true,"version":"7961495","steam_id":85568392924494504,"keywords":["nocrits","nodmgspread","payload","uncletopia"],"game_id":440,"stv_port":27016,"stv_name":"Uncletopia | Hong Kong | 1 | All Maps | STV","players":[{"user_id":600,"name":"Shogun","steam_id":76561198206492349,"connected_time":4559000000000,"state":"active","ping":99},{"user_id":625,"name":"what in tarnation","steam_id":76561199023360624,"connected_time":550000000000,"state":"active","ping":103},{"user_id":626,"name":"Danimao","steam_id":76561198013942574,"connected_time":331000000000,"state":"active","ping":255},{"user_id":627,"name":"Patricks3n_TTV","steam_id":76561198070779774,"connected_time":328000000000,"state":"active","ping":249},{"user_id":556,"name":"ÍπÄÍ¥ëÎßå","steam_id":76561198295279503,"connected_time":7351000000000,"state":"active","ping":78},{"user_id":615,"name":"tris","steam_id":76561198337296919,"connected_time":2527000000000,"state":"active","ping":68},{"user_id":613,"name":"Extra-Supachan","steam_id":76561199127500940,"connected_time":2859000000000,"state":"active","ping":99},{"user_id":601,"name":"mono","steam_id":76561198080249874,"connected_time":4542000000000,"state":"active","ping":91},{"user_id":604,"name":"Âè≤‰∏äÊúÄÂº∑„ÅÆ„Ç®„É≥„Ç∏„Éã„Ç¢","steam_id":76561198200606485,"connected_time":4372000000000,"state":"active","ping":102},{"user_id":607,"name":"average 2fort enjoyer","steam_id":76561198062112214,"connected_time":4207000000000,"state":"active","ping":112},{"user_id":608,"name":"„Åö„Çãbot","steam_id":76561198067650695,"connected_time":4200000000000,"state":"active","ping":89}]},{"server_id":1,"name":"Uncletopia | Los Angeles | 1 | All Maps","name_short":"lax-1","host":"lax-1.us.uncletopia.com","port":27015,"enabled":true,"region":"us-west","cc":"us","latitude":33.94279,"longitude":-118.41004,"reserved":0,"last_update":"0001-01-01T00:00:00Z","name_a2s":"Uncletopia | Los Angeles | 1 | All Maps","protocol":17,"map":"cp_altitude","folder":"tf","game":"Team Fortress","app_id":440,"player_count":0,"max_players":24,"Bots":0,"server_type":"Dedicated","server_os":"Linux","password":true,"vac":true,"version":"7961495","steam_id":85568392924469991,"keywords":["cp","nocrits","nodmgspread","uncletopia"],"game_id":440,"stv_port":27016,"stv_name":"Uncletopia | Los Angeles | 1 | All Maps | STV","players":null},{"server_id":112,"name":"Uncletopia | Los Angeles | 2 | All Maps","name_short":"lax-2","host":"lax-1.us.uncletopia.com","port":27025,"enabled":true,"region":"us-west","cc":"us","latitude":33.94279,"longitude":-118.41004,"reserved":0,"last_update":"0001-01-01T00:00:00Z","name_a2s":"Uncletopia | Los Angeles | 2 | All Maps","protocol":17,"map":"cp_mountainlab","folder":"tf","game":"Team Fortress","app_id":440,"player_count":0,"max_players":24,"Bots":0,"server_type":"Dedicated","server_os":"Linux","password":true,"vac":true,"version":"7961495","steam_id":85568392924469992,"keywords":["cp","nocrits","nodmgspread","uncletopia"],"game_id":440,"stv_port":27026,"stv_name":"Uncletopia | Los Angeles | 2 | All Maps | STV","players":null},{"server_id":324,"name":"Uncletopia | Los Angeles | 3 | All Maps","name_short":"lax-3","host":"lax-1.us.uncletopia.com","port":27035,"enabled":true,"region":"us-west","cc":"us","latitude":33.94279,"longitude":-118.41004,"reserved":0,"last_update":"0001-01-01T00:00:00Z","name_a2s":"Uncletopia | Los Angeles | 3 | All Maps","protocol":17,"map":"pl_frontier_final","folder":"tf","game":"Team Fortress","app_id":440,"player_count":0,"max_players":24,"Bots":0,"server_type":"Dedicated","server_os":"Linux","password":true,"vac":true,"version":"7961495","steam_id":85568392924510198,"keywords":["nocrits","nodmgspread","payload","uncletopia"],"game_id":440,"stv_port":27036,"stv_name":"Uncletopia | Los Angeles | 3 | All Maps | STV","players":null},{"server_id":25,"name":"Uncletopia | Los Angeles | 4 | Stopwatch","name_short":"lax-4","host":"lax-1.us.uncletopia.com","port":27045,"enabled":true,"region":"us-west","cc":"us","latitude":33.94279,"longitude":-118.41004,"reserved":0,"last_update":"0001-01-01T00:00:00Z","name_a2s":"Uncletopia | Los Angeles | 4 | Stopwatch","protocol":17,"map":"pl_barnblitz","folder":"tf","game":"Team Fortress","app_id":440,"player_count":0,"max_players":24,"Bots":0,"server_type":"Dedicated","server_os":"Linux","password":true,"vac":true,"version":"7961495","steam_id":85568392924510199,"keywords":["nocrits","nodmgspread","payload","uncletopia"],"game_id":440,"stv_port":27046,"stv_name":"Uncletopia | Los Angeles | 4 | Stopwatch | STV","players":null},{"server_id":11,"name":"Uncletopia | London | 1 | All Maps","name_short":"lon-1","host":"lon-1.uk.uncletopia.com","port":27015,"enabled":true,"region":"eu","cc":"gb","latitude":51.509865,"longitude":-0.118092,"reserved":0,"last_update":"0001-01-01T00:00:00Z","name_a2s":"Uncletopia | London | 1 | All Maps","protocol":17,"map":"pl_swiftwater_final1","folder":"tf","game":"Team Fortress","app_id":440,"player_count":24,"max_players":24,"Bots":0,"server_type":"Dedicated","server_os":"Linux","password":true,"vac":true,"version":"7961495","steam_id":85568392924367362,"keywords":["nocrits","nodmgspread","payload","uncletopia"],"game_id":440,"stv_port":27016,"stv_name":"Uncletopia | London | 1 | All Maps | STV","players":[{"user_id":306,"name":"SaltyCupcakes","steam_id":76561198256386417,"connected_time":307000000000,"state":"active","ping":45},{"user_id":272,"name":"Fataol","steam_id":76561198242227064,"connected_time":2848000000000,"state":"active","ping":108},{"user_id":273,"name":"I will violate you","steam_id":76561198349830813,"connected_time":2835000000000,"state":"active","ping":37},{"user_id":238,"name":"Nox Equites","steam_id":76561198115438449,"connected_time":5427000000000,"state":"active","ping":102},{"user_id":283,"name":"Fried_Dough","steam_id":76561198068746207,"connected_time":2376000000000,"state":"active","ping":129},{"user_id":269,"name":"FNF","steam_id":76561199151422826,"connected_time":2925000000000,"state":"active","ping":132},{"user_id":274,"name":"Optimist 50","steam_id":76561198039631442,"connected_time":2826000000000,"state":"active","ping":79},{"user_id":303,"name":"HoneyBe_","steam_id":76561198288930154,"connected_time":514000000000,"state":"active","ping":69},{"user_id":289,"name":"mertefe","steam_id":76561199237126613,"connected_time":1321000000000,"state":"active","ping":102},{"user_id":275,"name":"smecleu","steam_id":76561198401018345,"connected_time":2814000000000,"state":"active","ping":83},{"user_id":121,"name":"hmscole09","steam_id":76561198811362788,"connected_time":14603000000000,"state":"active","ping":59},{"user_id":294,"name":"Silver 25","steam_id":76561198038182012,"connected_time":1018000000000,"state":"active","ping":100},{"user_id":246,"name":"milof","steam_id":76561198809199604,"connected_time":4379000000000,"state":"active","ping":80},{"user_id":291,"name":"deadkep","steam_id":76561198097463968,"connected_time":1111000000000,"state":"active","ping":63},{"user_id":293,"name":"Croy","steam_id":76561197972552579,"connected_time":1030000000000,"state":"active","ping":45},{"user_id":277,"name":"LivEssense","steam_id":76561198052476979,"connected_time":2802000000000,"state":"active","ping":90},{"user_id":288,"name":"HRTV","steam_id":76561198978457123,"connected_time":1670000000000,"state":"active","ping":79},{"user_id":296,"name":"Real (Real)","steam_id":76561198323425034,"connected_time":990000000000,"state":"active","ping":72},{"user_id":262,"name":"The Spook","steam_id":76561198017771669,"connected_time":3659000000000,"state":"active","ping":86},{"user_id":278,"name":"lonely fortnite gamer girl","steam_id":76561198272948471,"connected_time":2787000000000,"state":"active","ping":135},{"user_id":223,"name":"impossible whopper eater","steam_id":76561198058641805,"connected_time":5819000000000,"state":"active","ping":58},{"user_id":279,"name":"ZYD","steam_id":76561198940487279,"connected_time":2780000000000,"state":"active","ping":138},{"user_id":305,"name":"lemao","steam_id":76561198058366676,"connected_time":383000000000,"state":"active","ping":93},{"user_id":300,"name":"Sunkerdink","steam_id":76561197996757446,"connected_time":745000000000,"state":"active","ping":58}]},{"server_id":114,"name":"Uncletopia | London | 2 | All Maps","name_short":"lon-2","host":"lon-1.uk.uncletopia.com","port":27025,"enabled":true,"region":"eu","cc":"gb","latitude":51.509865,"longitude":-0.118092,"reserved":0,"last_update":"0001-01-01T00:00:00Z","name_a2s":"Uncletopia | London | 2 | All Maps","protocol":17,"map":"pl_swiftwater_final1","folder":"tf","game":"Team Fortress","app_id":440,"player_count":24,"max_players":24,"Bots":0,"server_type":"Dedicated","server_os":"Linux","password":true,"vac":true,"version":"7961495","steam_id":85568392924470941,"keywords":["nocrits","nodmgspread","payload","uncletopia"],"game_id":440,"stv_port":27026,"stv_name":"Uncletopia | London | 2 | All Maps | STV","players":[{"user_id":570,"name":"worthless human being","steam_id":76561199177223922,"connected_time":801000000000,"state":"active","ping":47},{"user_id":564,"name":"school playground bully","steam_id":76561198049581293,"connected_time":954000000000,"state":"active","ping":74},{"user_id":580,"name":"akakez","steam_id":76561198095432821,"connected_time":149000000000,"state":"active","ping":115},{"user_id":542,"name":"4real","steam_id":76561199217753246,"connected_time":2457000000000,"state":"active","ping":192},{"user_id":554,"name":"FROG IndigoJones","steam_id":76561198050284262,"connected_time":2243000000000,"state":"active","ping":45},{"user_id":575,"name":"e","steam_id":76561198204685028,"connected_time":606000000000,"state":"active","ping":73},{"user_id":480,"name":"soil.dirt.earth","steam_id":76561198014377623,"connected_time":7993000000000,"state":"active","ping":31},{"user_id":566,"name":"Mammut","steam_id":76561198056773933,"connected_time":854000000000,"state":"active","ping":60},{"user_id":569,"name":"ChebJeb","steam_id":76561198981377081,"connected_time":825000000000,"state":"active","ping":137},{"user_id":582,"name":"„Äågrumpy„ÄçWylenn","steam_id":76561198024292352,"connected_time":45000000000,"state":"active","ping":70},{"user_id":557,"name":"NeonPixel","steam_id":76561198165901066,"connected_time":2196000000000,"state":"active","ping":75},{"user_id":519,"name":"Centurion","steam_id":76561198063544362,"connected_time":4405000000000,"state":"active","ping":68},{"user_id":490,"name":"fy","steam_id":76561198315371425,"connected_time":7071000000000,"state":"active","ping":48},{"user_id":571,"name":"Urfangonultasadana","steam_id":76561199389286151,"connected_time":800000000000,"state":"active","ping":109},{"user_id":577,"name":"Dozer","steam_id":76561197998742338,"connected_time":261000000000,"state":"active","ping":52},{"user_id":558,"name":"penis gaming","steam_id":76561198086132840,"connected_time":2142000000000,"state":"active","ping":62},{"user_id":572,"name":"Autisticlaat","steam_id":76561198154078133,"connected_time":798000000000,"state":"active","ping":33},{"user_id":579,"name":"Butcher My Jokes","steam_id":76561198112720511,"connected_time":190000000000,"state":"active","ping":55},{"user_id":576,"name":"Cosmic Gamer","steam_id":76561198027357981,"connected_time":558000000000,"state":"active","ping":101},{"user_id":526,"name":"ziong xina","steam_id":76561198059933595,"connected_time":4062000000000,"state":"active","ping":56},{"user_id":541,"name":"Staz","steam_id":76561198201648919,"connected_time":2905000000000,"state":"active","ping":193},{"user_id":545,"name":"Crusade","steam_id":76561199192979051,"connected_time":2441000000000,"state":"active","ping":152},{"user_id":556,"name":"Nati Noot","steam_id":76561198212005117,"connected_time":2232000000000,"state":"active","ping":75}]},{"server_id":320,"name":"Uncletopia | London | 3 | All Maps","name_short":"lon-3","host":"lon-1.uk.uncletopia.com","port":27035,"enabled":true,"region":"eu","cc":"gb","latitude":51.509865,"longitude":-0.118092,"reserved":0,"last_update":"0001-01-01T00:00:00Z","name_a2s":"Uncletopia | London | 3 | All Maps","protocol":17,"map":"cp_mountainlab","folder":"tf","game":"Team Fortress","app_id":440,"player_count":24,"max_players":24,"Bots":0,"server_type":"Dedicated","server_os":"Linux","password":true,"vac":true,"version":"7961495","steam_id":85568392924510192,"keywords":["cp","nocrits","nodmgspread","uncletopia"],"game_id":440,"stv_port":27036,"stv_name":"Uncletopia | London | 3 | All Maps | STV","players":[{"user_id":334,"name":"fence_","steam_id":76561198150386379,"connected_time":11254000000000,"state":"active","ping":45},{"user_id":439,"name":"cowb√∂y","steam_id":76561198048990716,"connected_time":3678000000000,"state":"active","ping":95},{"user_id":456,"name":"Kiryu Kazuma","steam_id":76561198120390292,"connected_time":1546000000000,"state":"active","ping":57},{"user_id":427,"name":"Retrograde_","steam_id":76561198155371354,"connected_time":4488000000000,"state":"active","ping":51},{"user_id":443,"name":"skittish maiden","steam_id":76561198096856475,"connected_time":3353000000000,"state":"active","ping":48},{"user_id":444,"name":"Beanie","steam_id":76561198173882658,"connected_time":2914000000000,"state":"active","ping":51},{"user_id":463,"name":"volpina","steam_id":76561198008107656,"connected_time":928000000000,"state":"active","ping":43},{"user_id":464,"name":"Spaguetti","steam_id":76561198002913092,"connected_time":920000000000,"state":"active","ping":80},{"user_id":474,"name":"24/7 lofi hip hop beats","steam_id":76561198130597374,"connected_time":326000000000,"state":"active","ping":64},{"user_id":449,"name":"Anri Okita's Massive Milkers","steam_id":76561199186352720,"connected_time":2494000000000,"state":"active","ping":68},{"user_id":390,"name":"Adam","steam_id":76561198259467867,"connected_time":7432000000000,"state":"active","ping":86},{"user_id":398,"name":"asa004","steam_id":76561198160323444,"connected_time":7103000000000,"state":"active","ping":76},{"user_id":453,"name":"2006 Mitsubishi Lancer","steam_id":76561198036632498,"connected_time":1734000000000,"state":"active","ping":42},{"user_id":457,"name":"spy among us","steam_id":76561198392537090,"connected_time":1517000000000,"state":"active","ping":68},{"user_id":431,"name":"Adwulf","steam_id":76561198045489942,"connected_time":4395000000000,"state":"active","ping":37},{"user_id":454,"name":"FilipeskoBro  trade.tf","steam_id":76561198831347261,"connected_time":1728000000000,"state":"active","ping":64},{"user_id":465,"name":"Rebeliondog","steam_id":76561198056815609,"connected_time":906000000000,"state":"active","ping":65},{"user_id":476,"name":"Unemployed Gaming","steam_id":76561198982674420,"connected_time":199000000000,"state":"active","ping":51},{"user_id":459,"name":"Dean Craig Pelton From Communit","steam_id":76561198155010055,"connected_time":1357000000000,"state":"active","ping":119},{"user_id":460,"name":"Nobaddy","steam_id":76561198037871007,"connected_time":1213000000000,"state":"active","ping":74},{"user_id":467,"name":"Feelsbadman","steam_id":76561198002461001,"connected_time":885000000000,"state":"active","ping":102},{"user_id":451,"name":"mr.resetti","steam_id":76561198974520642,"connected_time":1916000000000,"state":"active","ping":76},{"user_id":462,"name":"Dingle Loui","steam_id":76561198114985331,"connected_time":1184000000000,"state":"active","ping":59},{"user_id":468,"name":"senator armstrong","steam_id":76561199220625233,"connected_time":877000000000,"state":"active","ping":92}]},{"server_id":321,"name":"Uncletopia | London | 4 | All Maps","name_short":"lon-4","host":"lon-1.uk.uncletopia.com","port":27045,"enabled":true,"region":"eu","cc":"gb","latitude":51.509865,"longitude":-0.118092,"reserved":0,"last_update":"0001-01-01T00:00:00Z","name_a2s":"Uncletopia | London | 4 | All Maps","protocol":17,"map":"pl_pier","folder":"tf","game":"Team Fortress","app_id":440,"player_count":24,"max_players":24,"Bots":0,"server_type":"Dedicated","server_os":"Linux","password":true,"vac":true,"version":"7961495","steam_id":85568392924510193,"keywords":["nocrits","nodmgspread","payload","uncletopia"],"game_id":440,"stv_port":27046,"stv_name":"Uncletopia | London | 4 | All Maps | STV","players":[{"user_id":183,"name":"Pixel-Jay","steam_id":76561198853840115,"connected_time":1385000000000,"state":"active","ping":52},{"user_id":186,"name":"IT'S OVER","steam_id":76561198094268619,"connected_time":1158000000000,"state":"active","ping":75},{"user_id":185,"name":"hasky","steam_id":76561197986052798,"connected_time":1240000000000,"state":"active","ping":73},{"user_id":187,"name":"emi","steam_id":76561198163615254,"connected_time":1017000000000,"state":"active","ping":60},{"user_id":175,"name":"Axio","steam_id":76561198046826031,"connected_time":1528000000000,"state":"active","ping":62},{"user_id":161,"name":"lark","steam_id":76561198091724522,"connected_time":2406000000000,"state":"active","ping":51},{"user_id":176,"name":"weaj","steam_id":76561198053628243,"connected_time":1523000000000,"state":"active","ping":46},{"user_id":191,"name":"Gameing","steam_id":76561198199687607,"connected_time":838000000000,"state":"active","ping":69},{"user_id":172,"name":"Sir Sammie","steam_id":76561198329808137,"connected_time":1697000000000,"state":"active","ping":46},{"user_id":194,"name":"putrefied meat","steam_id":76561198280507478,"connected_time":640000000000,"state":"active","ping":63},{"user_id":156,"name":"Saken","steam_id":76561198049075295,"connected_time":2937000000000,"state":"active","ping":64},{"user_id":159,"name":"Obama Healthcare","steam_id":76561198364121077,"connected_time":2862000000000,"state":"active","ping":98},{"user_id":195,"name":"Xanics","steam_id":76561198187813929,"connected_time":244000000000,"state":"active","ping":68},{"user_id":179,"name":"moglimbo","steam_id":76561198083937378,"connected_time":1507000000000,"state":"active","ping":47},{"user_id":180,"name":"TSx* Osa__PL","steam_id":76561198027016799,"connected_time":1502000000000,"state":"active","ping":75},{"user_id":188,"name":"embrace the girlflop","steam_id":76561197994492154,"connected_time":897000000000,"state":"active","ping":71},{"user_id":184,"name":"TSx* Naxer","steam_id":76561198011986779,"connected_time":1310000000000,"state":"active","ping":74},{"user_id":99,"name":"john fortress","steam_id":76561198013237629,"connected_time":7925000000000,"state":"active","ping":101},{"user_id":182,"name":"TylowStar","steam_id":76561198357107806,"connected_time":1452000000000,"state":"active","ping":61},{"user_id":151,"name":"heavy sings (real)","steam_id":76561199023804405,"connected_time":3222000000000,"state":"active","ping":67},{"user_id":196,"name":"Jimmy Poppadopolos","steam_id":76561198044825612,"connected_time":159000000000,"state":"active","ping":57},{"user_id":192,"name":"After8","steam_id":76561198090750865,"connected_time":820000000000,"state":"active","ping":76},{"user_id":148,"name":"high roller bmb","steam_id":76561198029592773,"connected_time":3379000000000,"state":"active","ping":60},{"user_id":115,"name":"Corn Carson","steam_id":76561198309589159,"connected_time":6404000000000,"state":"active","ping":167}]},{"server_id":21,"name":"Uncletopia | London | 5 | All Maps","name_short":"lon-5","host":"lon-1.uk.uncletopia.com","port":27055,"enabled":true,"region":"eu","cc":"gb","latitude":51.509865,"longitude":-0.118092,"reserved":0,"last_update":"0001-01-01T00:00:00Z","name_a2s":"Uncletopia | London | 5 | All Maps","protocol":17,"map":"koth_lakeside_final","folder":"tf","game":"Team Fortress","app_id":440,"player_count":6,"max_players":24,"Bots":0,"server_type":"Dedicated","server_os":"Linux","password":true,"vac":true,"version":"7961495","steam_id":85568392924742829,"keywords":["cp","nocrits","nodmgspread","uncletopia"],"game_id":440,"stv_port":27056,"stv_name":"Uncletopia | London | 5 | All Maps | STV","players":[{"user_id":21,"name":"Gul'dan","steam_id":76561198240466940,"connected_time":544000000000,"state":"active","ping":77},{"user_id":17,"name":"C++, Git and Linux Enjoyer","steam_id":76561198277310442,"connected_time":1056000000000,"state":"active","ping":84},{"user_id":16,"name":"Distroyer314","steam_id":76561199498506974,"connected_time":1074000000000,"state":"active","ping":140},{"user_id":20,"name":"_Context_","steam_id":76561199163359312,"connected_time":676000000000,"state":"active","ping":64},{"user_id":23,"name":"OhMyGrosch","steam_id":76561198361193051,"connected_time":520000000000,"state":"active","ping":61},{"user_id":24,"name":"dbl290","steam_id":76561199016925320,"connected_time":511000000000,"state":"active","ping":54}]},{"server_id":22,"name":"Uncletopia | London | 6 | All Maps","name_short":"lon-6","host":"lon-1.uk.uncletopia.com","port":27065,"enabled":true,"region":"eu","cc":"gb","latitude":51.509865,"longitude":-0.118092,"reserved":0,"last_update":"0001-01-01T00:00:00Z","name_a2s":"Uncletopia | London | 6 | All Maps","protocol":17,"map":"cp_dustbowl","folder":"tf","game":"Team Fortress","app_id":440,"player_count":23,"max_players":24,"Bots":0,"server_type":"Dedicated","server_os":"Linux","password":true,"vac":true,"version":"7961495","steam_id":85568392924742830,"keywords":["cp","nocrits","nodmgspread","uncletopia"],"game_id":440,"stv_port":27066,"stv_name":"Uncletopia | London | 6 | All Maps | STV","players":[{"user_id":277,"name":"simeswipe","steam_id":76561198188471097,"connected_time":159000000000,"state":"active","ping":84},{"user_id":273,"name":"Name","steam_id":76561197990757157,"connected_time":414000000000,"state":"active","ping":64},{"user_id":263,"name":"Luxotrics","steam_id":76561198053455161,"connected_time":1076000000000,"state":"active","ping":99},{"user_id":210,"name":"FlameTheGame","steam_id":76561198841108519,"connected_time":5445000000000,"state":"active","ping":100},{"user_id":254,"name":"Fancy","steam_id":76561198350658462,"connected_time":1880000000000,"state":"active","ping":79},{"user_id":257,"name":"Amoru","steam_id":76561198798161817,"connected_time":1831000000000,"state":"active","ping":90},{"user_id":244,"name":"Poland","steam_id":76561199030500510,"connected_time":2439000000000,"state":"active","ping":70},{"user_id":276,"name":"blackstone_o","steam_id":76561199324934485,"connected_time":183000000000,"state":"active","ping":84},{"user_id":204,"name":"night.s","steam_id":76561198326287823,"connected_time":5893000000000,"state":"active","ping":68},{"user_id":249,"name":"aleks","steam_id":76561198388750592,"connected_time":2333000000000,"state":"active","ping":69},{"user_id":260,"name":"Omyskull","steam_id":76561198131711758,"connected_time":1706000000000,"state":"active","ping":66},{"user_id":216,"name":"Saul Badman","steam_id":76561199013233409,"connected_time":4579000000000,"state":"active","ping":63},{"user_id":239,"name":"Craig Crusade","steam_id":76561199225918086,"connected_time":2571000000000,"state":"active","ping":65},{"user_id":262,"name":"Trollstoy","steam_id":76561198072017175,"connected_time":1103000000000,"state":"active","ping":64},{"user_id":275,"name":"Chris","steam_id":76561198179791702,"connected_time":223000000000,"state":"active","ping":188},{"user_id":247,"name":"CALUX-ARTZ","steam_id":76561198863351607,"connected_time":2366000000000,"state":"active","ping":74},{"user_id":248,"name":"NIKOgamer011","steam_id":76561199021842078,"connected_time":2343000000000,"state":"active","ping":70},{"user_id":256,"name":"A Very Disappointing Salad","steam_id":76561198020277939,"connected_time":1857000000000,"state":"active","ping":57},{"user_id":267,"name":"Arc","steam_id":76561198805049375,"connected_time":981000000000,"state":"active","ping":49},{"user_id":259,"name":"Baron","steam_id":76561198021901783,"connected_time":1750000000000,"state":"active","ping":54},{"user_id":274,"name":"Otto von Bismarck","steam_id":76561198964429990,"connected_time":351000000000,"state":"active","ping":89},{"user_id":278,"name":"Fischer101","steam_id":76561198301481739,"connected_time":142000000000,"state":"active","ping":59},{"user_id":279,"name":"The Empire Ant","steam_id":76561198082466790,"connected_time":98000000000,"state":"active","ping":60}]},{"server_id":40,"name":"Uncletopia | London | 7 | Stopwatch","name_short":"lon-7","host":"lon-1.uk.uncletopia.com","port":27075,"enabled":true,"region":"eu","cc":"gb","latitude":51.509865,"longitude":-0.118092,"reserved":0,"last_update":"0001-01-01T00:00:00Z","name_a2s":"Uncletopia | London | 7 | Stopwatch","protocol":17,"map":"workshop/koth_ramjam_rc1.ugc459778887","folder":"tf","game":"Team Fortress","app_id":440,"player_count":0,"max_players":24,"Bots":0,"server_type":"Dedicated","server_os":"Linux","password":true,"vac":true,"version":"7961495","steam_id":85568392924964314,"keywords":["cp","nocrits","nodmgspread","uncletopia"],"game_id":440,"stv_port":27076,"stv_name":"Uncletopia | London | 7 | Stopwatch | STV","players":null},{"server_id":41,"name":"Uncletopia | London | 8 | Community","name_short":"lon-8","host":"lon-1.uk.uncletopia.com","port":27085,"enabled":true,"region":"eu","cc":"gb","latitude":51.509865,"longitude":-0.118092,"reserved":0,"last_update":"0001-01-01T00:00:00Z","name_a2s":"Uncletopia | London | 8 | Community","protocol":17,"map":"cp_snakewater_final1","folder":"tf","game":"Team Fortress","app_id":440,"player_count":0,"max_players":24,"Bots":0,"server_type":"Dedicated","server_os":"Linux","password":true,"vac":true,"version":"7961495","steam_id":85568392924964315,"keywords":["cp","nocrits","nodmgspread","uncletopia"],"game_id":440,"stv_port":27086,"stv_name":"Uncletopia | London | 8 | Community | STV","players":null},{"server_id":300,"name":"Uncletopia | Montr√©al | 1 | One Thousand Uncles","name_short":"mtl-1","host":"mtl-1.ca.uncletopia.com","port":27015,"enabled":true,"region":"us-east","cc":"ca","latitude":45.50889,"longitude":-73.56167,"reserved":0,"last_update":"0001-01-01T00:00:00Z","name_a2s":"","protocol":0,"map":"","folder":"","game":"","app_id":0,"player_count":8,"max_players":0,"Bots":0,"server_type":"","server_os":"","password":false,"vac":false,"version":"","steam_id":0,"keywords":null,"game_id":0,"stv_port":0,"stv_name":"","players":[{"user_id":2,"name":"Joe Nathan","steam_id":76561198041030399,"connected_time":4766000000000,"state":"active","ping":85},{"user_id":51,"name":"bastard","steam_id":76561198833767331,"connected_time":1000000000,"state":"spawning","ping":119},{"user_id":21,"name":"Shattered the protogen","steam_id":76561199164283571,"connected_time":2806000000000,"state":"active","ping":59},{"user_id":23,"name":"BIGMOOD","steam_id":76561199086966716,"connected_time":2513000000000,"state":"active","ping":114},{"user_id":25,"name":"Robot","steam_id":76561199145848046,"connected_time":1753000000000,"state":"active","ping":80},{"user_id":27,"name":"MysteryTopHat","steam_id":76561199011317714,"connected_time":1671000000000,"state":"active","ping":67},{"user_id":31,"name":"Whompert","steam_id":76561198042939624,"connected_time":689000000000,"state":"active","ping":73},{"user_id":32,"name":"LizardMilk_19","steam_id":76561199435002235,"connected_time":450000000000,"state":"active","ping":181}]},{"server_id":301,"name":"Uncletopia | Montr√©al | 2 | One Thousand Uncles","name_short":"mtl-2","host":"mtl-1.ca.uncletopia.com","port":27025,"enabled":true,"region":"us-east","cc":"ca","latitude":45.50889,"longitude":-73.56167,"reserved":0,"last_update":"0001-01-01T00:00:00Z","name_a2s":"","protocol":0,"map":"","folder":"","game":"","app_id":0,"player_count":0,"max_players":0,"Bots":0,"server_type":"","server_os":"","password":false,"vac":false,"version":"","steam_id":0,"keywords":null,"game_id":0,"stv_port":0,"stv_name":"","players":null},{"server_id":302,"name":"Uncletopia | Montr√©al | 3 | One Thousand Uncles","name_short":"mtl-3","host":"mtl-1.ca.uncletopia.com","port":27035,"enabled":true,"region":"us-east","cc":"ca","latitude":45.50889,"longitude":-73.56167,"reserved":0,"last_update":"0001-01-01T00:00:00Z","name_a2s":"","protocol":0,"map":"","folder":"","game":"","app_id":0,"player_count":0,"max_players":0,"Bots":0,"server_type":"","server_os":"","password":false,"vac":false,"version":"","steam_id":0,"keywords":null,"game_id":0,"stv_port":0,"stv_name":"","players":null},{"server_id":13,"name":"Uncletopia | New York City | 1 | All Maps","name_short":"nyc-1","host":"nyc-1.us.uncletopia.com","port":27015,"enabled":true,"region":"us-east","cc":"us","latitude":40.73061,"longitude":-73.93524,"reserved":0,"last_update":"0001-01-01T00:00:00Z","name_a2s":"Uncletopia | New York City | 1 | All Maps","protocol":17,"map":"pl_frontier_final","folder":"tf","game":"Team Fortress","app_id":440,"player_count":24,"max_players":24,"Bots":0,"server_type":"Dedicated","server_os":"Linux","password":true,"vac":true,"version":"7961495","steam_id":85568392924469993,"keywords":["nocrits","nodmgspread","payload","uncletopia"],"game_id":440,"stv_port":27016,"stv_name":"Uncletopia | New York City | 1 | All Maps | STV","players":[{"user_id":187,"name":"my name jeff","steam_id":76561198179816898,"connected_time":445000000000,"state":"active","ping":85},{"user_id":138,"name":"corntent","steam_id":76561198824847948,"connected_time":4435000000000,"state":"active","ping":44},{"user_id":196,"name":"feleven","steam_id":76561198853721046,"connected_time":154000000000,"state":"active","ping":52},{"user_id":189,"name":"normal human","steam_id":76561198202589758,"connected_time":378000000000,"state":"active","ping":63},{"user_id":171,"name":"murfree","steam_id":76561198045335319,"connected_time":1367000000000,"state":"active","ping":100},{"user_id":172,"name":"Your Local Jester","steam_id":76561199120223717,"connected_time":1329000000000,"state":"active","ping":57},{"user_id":173,"name":"\"Guts has gone berserk\"","steam_id":76561199101373436,"connected_time":1249000000000,"state":"active","ping":68},{"user_id":190,"name":"Stonks","steam_id":76561199490085068,"connected_time":362000000000,"state":"active","ping":66},{"user_id":188,"name":"pea ttv/peabeanz","steam_id":76561198119551968,"connected_time":387000000000,"state":"active","ping":57},{"user_id":148,"name":"Techno Priest","steam_id":76561198129254533,"connected_time":3697000000000,"state":"active","ping":97},{"user_id":135,"name":"Broadsword #LGM","steam_id":76561198011160411,"connected_time":4644000000000,"state":"active","ping":75},{"user_id":177,"name":"Crouching Noob Hidden Sniper","steam_id":76561197971328473,"connected_time":1040000000000,"state":"active","ping":85},{"user_id":133,"name":"Naffu","steam_id":76561198036945403,"connected_time":5033000000000,"state":"active","ping":45},{"user_id":178,"name":"NoobsSlayer","steam_id":76561199102765122,"connected_time":1040000000000,"state":"active","ping":141},{"user_id":182,"name":"bologna forklift 2012","steam_id":76561198199061206,"connected_time":739000000000,"state":"active","ping":56},{"user_id":179,"name":"THOTDADDY","steam_id":76561198069868942,"connected_time":976000000000,"state":"active","ping":75},{"user_id":150,"name":"Max Platinum","steam_id":76561198986537137,"connected_time":3567000000000,"state":"active","ping":88},{"user_id":197,"name":"club going up","steam_id":76561198141700569,"connected_time":64000000000,"state":"active","ping":72},{"user_id":194,"name":"EL Matador","steam_id":76561197971206879,"connected_time":300000000000,"state":"active","ping":64},{"user_id":195,"name":"seeyouauntie","steam_id":76561198045852999,"connected_time":299000000000,"state":"active","ping":71},{"user_id":184,"name":"H0wlr","steam_id":76561198012332824,"connected_time":578000000000,"state":"active","ping":45},{"user_id":161,"name":"Kamin","steam_id":76561198255299559,"connected_time":2563000000000,"state":"active","ping":102},{"user_id":166,"name":"High School Nudical","steam_id":76561198172120615,"connected_time":2217000000000,"state":"active","ping":42},{"user_id":144,"name":"amor","steam_id":76561199064278937,"connected_time":3827000000000,"state":"active","ping":70}]},{"server_id":14,"name":"Uncletopia | New York City | 2 | All Maps","name_short":"nyc-2","host":"nyc-1.us.uncletopia.com","port":27025,"enabled":true,"region":"us-east","cc":"us","latitude":40.73061,"longitude":-73.93524,"reserved":0,"last_update":"0001-01-01T00:00:00Z","name_a2s":"Uncletopia | New York City | 2 | All Maps","protocol":17,"map":"pl_upward","folder":"tf","game":"Team Fortress","app_id":440,"player_count":24,"max_players":24,"Bots":0,"server_type":"Dedicated","server_os":"Linux","password":true,"vac":true,"version":"7961495","steam_id":85568392924469994,"keywords":["nocrits","nodmgspread","payload","uncletopia"],"game_id":440,"stv_port":27026,"stv_name":"Uncletopia | New York City | 2 | All Maps | STV","players":[{"user_id":12,"name":"FrosbeeChill","steam_id":76561198182510862,"connected_time":3069000000000,"state":"active","ping":54},{"user_id":48,"name":"_GOOSE","steam_id":76561198013747901,"connected_time":1482000000000,"state":"active","ping":62},{"user_id":56,"name":"thefanchick","steam_id":76561199092414034,"connected_time":461000000000,"state":"active","ping":62},{"user_id":50,"name":"BadLuck","steam_id":76561198096452401,"connected_time":594000000000,"state":"active","ping":64},{"user_id":22,"name":"Supplelyarrow45","steam_id":76561199176809885,"connected_time":2120000000000,"state":"active","ping":73},{"user_id":23,"name":"rtj111","steam_id":76561199122545114,"connected_time":2097000000000,"state":"active","ping":84},{"user_id":30,"name":"HollyBlocky","steam_id":76561198030156100,"connected_time":1995000000000,"state":"active","ping":76},{"user_id":52,"name":"Smiley","steam_id":76561198056430811,"connected_time":586000000000,"state":"active","ping":66},{"user_id":58,"name":"Rennsellaer","steam_id":76561198096207580,"connected_time":126000000000,"state":"active","ping":114},{"user_id":24,"name":"DJ Pon-3","steam_id":76561199172206856,"connected_time":2078000000000,"state":"active","ping":113},{"user_id":25,"name":"Peri","steam_id":76561198255311543,"connected_time":2054000000000,"state":"active","ping":77},{"user_id":26,"name":"Myr1ad","steam_id":76561198072795505,"connected_time":2049000000000,"state":"active","ping":78},{"user_id":53,"name":"PikaWarrior1222","steam_id":76561199502616838,"connected_time":582000000000,"state":"active","ping":71},{"user_id":57,"name":"[CCP] franc | montuga;com","steam_id":76561198417807155,"connected_time":156000000000,"state":"active","ping":46},{"user_id":49,"name":"duskdotexe","steam_id":76561199353965946,"connected_time":1456000000000,"state":"active","ping":50},{"user_id":31,"name":"Andallfor","steam_id":76561198350143349,"connected_time":1978000000000,"state":"active","ping":64},{"user_id":55,"name":"Jake_Spencer","steam_id":76561198025176750,"connected_time":551000000000,"state":"active","ping":220},{"user_id":35,"name":"BradB.","steam_id":76561199163905036,"connected_time":1960000000000,"state":"active","ping":77},{"user_id":34,"name":"Yiggs_","steam_id":76561198058742814,"connected_time":1967000000000,"state":"active","ping":75},{"user_id":59,"name":"artichoke","steam_id":76561198980994364,"connected_time":120000000000,"state":"active","ping":89},{"user_id":37,"name":"Nephi","steam_id":76561198031525122,"connected_time":1939000000000,"state":"active","ping":80},{"user_id":38,"name":"Mad_Buu","steam_id":76561198047243682,"connected_time":1910000000000,"state":"active","ping":82},{"user_id":61,"name":"Huntpk","steam_id":76561198340591674,"connected_time":91000000000,"state":"active","ping":65},{"user_id":62,"name":"Scum Knight | T.I.D.K.","steam_id":76561198282444763,"connected_time":52000000000,"state":"active","ping":51}]},{"server_id":15,"name":"Uncletopia | New York City | 3 | Stopwatch","name_short":"nyc-3","host":"nyc-1.us.uncletopia.com","port":27035,"enabled":true,"region":"us-east","cc":"us","latitude":40.73061,"longitude":-73.93524,"reserved":0,"last_update":"0001-01-01T00:00:00Z","name_a2s":"Uncletopia | New York City | 3 | Stopwatch","protocol":17,"map":"koth_lakeside_final","folder":"tf","game":"Team Fortress","app_id":440,"player_count":22,"max_players":24,"Bots":0,"server_type":"Dedicated","server_os":"Linux","password":true,"vac":true,"version":"7961495","steam_id":85568392924742820,"keywords":["cp","nocrits","nodmgspread","uncletopia"],"game_id":440,"stv_port":27036,"stv_name":"Uncletopia | New York City | 3 | Stopwatch | STV","players":[{"user_id":257,"name":"big chungus wholesome 9000","steam_id":76561198111259720,"connected_time":571000000000,"state":"active","ping":149},{"user_id":241,"name":"King","steam_id":76561198123927752,"connected_time":1505000000000,"state":"active","ping":58},{"user_id":235,"name":"Nixon's the One","steam_id":76561198046688278,"connected_time":1978000000000,"state":"active","ping":92},{"user_id":265,"name":"an angry texan","steam_id":76561198147484780,"connected_time":330000000000,"state":"active","ping":105},{"user_id":255,"name":"'LaxAttack","steam_id":76561198044129346,"connected_time":593000000000,"state":"active","ping":59},{"user_id":264,"name":"„Éä„Ç™„Éü","steam_id":76561198060307235,"connected_time":347000000000,"state":"active","ping":120},{"user_id":266,"name":"Muxie","steam_id":76561198268567705,"connected_time":304000000000,"state":"active","ping":112},{"user_id":273,"name":"fish (2:3)","steam_id":76561198134331073,"connected_time":97000000000,"state":"active","ping":127},{"user_id":260,"name":"Beta Fish","steam_id":76561198073504861,"connected_time":470000000000,"state":"active","ping":63},{"user_id":248,"name":"Klondike Bar, Perfected","steam_id":76561199146777541,"connected_time":1085000000000,"state":"active","ping":77},{"user_id":249,"name":"bridgerald","steam_id":76561198104372033,"connected_time":1071000000000,"state":"active","ping":111},{"user_id":250,"name":"Mer","steam_id":76561198192171041,"connected_time":1040000000000,"state":"active","ping":122},{"user_id":262,"name":"who is gavin?","steam_id":76561198069415057,"connected_time":372000000000,"state":"active","ping":37},{"user_id":207,"name":"wip alias","steam_id":76561198843908398,"connected_time":3227000000000,"state":"active","ping":85},{"user_id":223,"name":"b4rry","steam_id":76561198365887154,"connected_time":2519000000000,"state":"active","ping":112},{"user_id":274,"name":"cee","steam_id":76561198420893458,"connected_time":20000000000,"state":"spawning","ping":100},{"user_id":263,"name":"Tabby!!!!","steam_id":76561198018288153,"connected_time":366000000000,"state":"active","ping":53},{"user_id":270,"name":"I AM NOT A CROOK","steam_id":76561198065093749,"connected_time":193000000000,"state":"active","ping":88},{"user_id":229,"name":"hazel (she/her)","steam_id":76561198879911815,"connected_time":2304000000000,"state":"spawning","ping":46},{"user_id":227,"name":"Nixon Me, Dixon Me","steam_id":76561198126519537,"connected_time":2406000000000,"state":"active","ping":60},{"user_id":271,"name":"Enad11","steam_id":76561198256263282,"connected_time":168000000000,"state":"active","ping":69},{"user_id":272,"name":"Conz","steam_id":76561198401205345,"connected_time":151000000000,"state":"active","ping":75}]},{"server_id":16,"name":"Uncletopia | New York City | 4 | Community","name_short":"nyc-4","host":"nyc-1.us.uncletopia.com","port":27045,"enabled":true,"region":"us-east","cc":"us","latitude":40.73061,"longitude":-73.93524,"reserved":0,"last_update":"0001-01-01T00:00:00Z","name_a2s":"Uncletopia | New York City | 4 | Community","protocol":17,"map":"cp_altitude","folder":"tf","game":"Team Fortress","app_id":440,"player_count":0,"max_players":24,"Bots":0,"server_type":"Dedicated","server_os":"Linux","password":true,"vac":true,"version":"7961495","steam_id":85568392924742821,"keywords":["cp","nocrits","nodmgspread","uncletopia"],"game_id":440,"stv_port":27046,"stv_name":"Uncletopia | New York City | 4 | Community | STV","players":null},{"server_id":142,"name":"Uncletopia | S√£o Paulo | 1 | All Maps","name_short":"sao-1","host":"sao-1.br.uncletopia.com","port":27015,"enabled":true,"region":"sa","cc":"br","latitude":-23.533773,"longitude":-46.62529,"reserved":0,"last_update":"0001-01-01T00:00:00Z","name_a2s":"Uncletopia | S√£o Paulo | 1 | All Maps","protocol":17,"map":"pl_pier","folder":"tf","game":"Team Fortress","app_id":440,"player_count":0,"max_players":24,"Bots":0,"server_type":"Dedicated","server_os":"Linux","password":true,"vac":true,"version":"7961495","steam_id":85568392924469996,"keywords":["nocrits","nodmgspread","payload","uncletopia"],"game_id":440,"stv_port":27016,"stv_name":"Uncletopia | S√£o Paulo | 1 | All Maps | STV","players":null},{"server_id":143,"name":"Uncletopia | S√£o Paulo | 2 | Community","name_short":"sao-2","host":"sao-2.br.uncletopia.com","port":27015,"enabled":true,"region":"sa","cc":"br","latitude":-23.533773,"longitude":-46.62529,"reserved":0,"last_update":"0001-01-01T00:00:00Z","name_a2s":"Uncletopia | S√£o Paulo | 2 | Community","protocol":17,"map":"workshop/rd_asteroid_redux_b1.ugc2154902912","folder":"tf","game":"Team Fortress","app_id":440,"player_count":0,"max_players":24,"Bots":0,"server_type":"Dedicated","server_os":"Linux","password":true,"vac":true,"version":"7961495","steam_id":85568392924485349,"keywords":["beta","nocrits","nodmgspread","rd","uncletopia"],"game_id":440,"stv_port":27016,"stv_name":"Uncletopia | S√£o Paulo | 2 | Community | STV","players":null},{"server_id":7,"name":"Uncletopia | Seattle | 1 | All Maps","name_short":"sea-1","host":"sea-1.us.uncletopia.com","port":27015,"enabled":true,"region":"us-west","cc":"us","latitude":47.608013,"longitude":-122.33517,"reserved":0,"last_update":"0001-01-01T00:00:00Z","name_a2s":"Uncletopia | Seattle | 1 | All Maps","protocol":17,"map":"cp_mountainlab","folder":"tf","game":"Team Fortress","app_id":440,"player_count":24,"max_players":24,"Bots":0,"server_type":"Dedicated","server_os":"Linux","password":true,"vac":true,"version":"7961495","steam_id":85568392924469997,"keywords":["cp","nocrits","nodmgspread","uncletopia"],"game_id":440,"stv_port":27016,"stv_name":"Uncletopia | Seattle | 1 | All Maps | STV","players":[{"user_id":165,"name":"Papes","steam_id":76561198174593497,"connected_time":1569000000000,"state":"active","ping":59},{"user_id":170,"name":"axellinag15","steam_id":76561199188113751,"connected_time":1328000000000,"state":"active","ping":68},{"user_id":173,"name":"Warhead","steam_id":76561198067746049,"connected_time":1236000000000,"state":"active","ping":63},{"user_id":154,"name":"noahbossman","steam_id":76561199043852893,"connected_time":2566000000000,"state":"active","ping":120},{"user_id":174,"name":"Seshreb","steam_id":76561198846614634,"connected_time":511000000000,"state":"active","ping":88},{"user_id":88,"name":"cupsovietxeno","steam_id":76561198997539399,"connected_time":9735000000000,"state":"active","ping":73},{"user_id":150,"name":"some nerd","steam_id":76561198297272878,"connected_time":2659000000000,"state":"active","ping":70},{"user_id":159,"name":"grape","steam_id":76561198976352881,"connected_time":2261000000000,"state":"active","ping":63},{"user_id":144,"name":"Imitation Caucasian","steam_id":76561198320536166,"connected_time":3713000000000,"state":"active","ping":85},{"user_id":167,"name":"bcizzo","steam_id":76561197994399953,"connected_time":1468000000000,"state":"active","ping":63},{"user_id":146,"name":"Clockwork0613","steam_id":76561198987121123,"connected_time":3259000000000,"state":"active","ping":71},{"user_id":171,"name":"veen","steam_id":76561198084334538,"connected_time":1313000000000,"state":"active","ping":119},{"user_id":136,"name":"Preston","steam_id":76561198255721392,"connected_time":5132000000000,"state":"active","ping":105},{"user_id":178,"name":"shomo","steam_id":76561198158787127,"connected_time":236000000000,"state":"active","ping":84},{"user_id":168,"name":"WolfNinja","steam_id":76561199218099629,"connected_time":1441000000000,"state":"active","ping":101},{"user_id":163,"name":"Darkgigglemonster","steam_id":76561198870649125,"connected_time":2029000000000,"state":"active","ping":83},{"user_id":130,"name":"YOU WHAT?!","steam_id":76561198418679471,"connected_time":5789000000000,"state":"active","ping":106},{"user_id":120,"name":"Dimple","steam_id":76561198980324190,"connected_time":6508000000000,"state":"active","ping":63},{"user_id":172,"name":"Shipmunk","steam_id":76561198063062670,"connected_time":1257000000000,"state":"active","ping":112},{"user_id":152,"name":"dearender the burger fan","steam_id":76561199427644498,"connected_time":2617000000000,"state":"active","ping":53},{"user_id":149,"name":"mansteam905","steam_id":76561199488421021,"connected_time":3154000000000,"state":"active","ping":123},{"user_id":132,"name":"SolarusD","steam_id":76561198029279861,"connected_time":5727000000000,"state":"active","ping":64},{"user_id":162,"name":"SanitysEdge","steam_id":76561198130732813,"connected_time":2116000000000,"state":"active","ping":77},{"user_id":139,"name":"GuaTii","steam_id":76561198166926843,"connected_time":4617000000000,"state":"active","ping":76}]},{"server_id":119,"name":"Uncletopia | Seattle | 2 | All Maps","name_short":"sea-2","host":"sea-1.us.uncletopia.com","port":27025,"enabled":true,"region":"us-west","cc":"us","latitude":47.608013,"longitude":-122.33517,"reserved":0,"last_update":"0001-01-01T00:00:00Z","name_a2s":"Uncletopia | Seattle | 2 | All Maps","protocol":17,"map":"koth_highpass","folder":"tf","game":"Team Fortress","app_id":440,"player_count":0,"max_players":24,"Bots":0,"server_type":"Dedicated","server_os":"Linux","password":true,"vac":true,"version":"7961495","steam_id":85568392924469998,"keywords":["cp","nocrits","nodmgspread","uncletopia"],"game_id":440,"stv_port":27026,"stv_name":"Uncletopia | Seattle | 2 | All Maps | STV","players":null},{"server_id":406,"name":"Uncletopia | Seattle | 3 | Stopwatch","name_short":"sea-3","host":"sea-1.us.uncletopia.com","port":27035,"enabled":true,"region":"us-west","cc":"us","latitude":47.608013,"longitude":-122.33517,"reserved":0,"last_update":"0001-01-01T00:00:00Z","name_a2s":"Uncletopia | Seattle | 3 | Stopwatch","protocol":17,"map":"workshop/pl_summercoast_rc8e.ugc1761528829","folder":"tf","game":"Team Fortress","app_id":440,"player_count":0,"max_players":24,"Bots":0,"server_type":"Dedicated","server_os":"Linux","password":true,"vac":true,"version":"7961495","steam_id":85568392924515217,"keywords":["nocrits","nodmgspread","payload","uncletopia"],"game_id":440,"stv_port":27036,"stv_name":"Uncletopia | Seattle | 3 | Stopwatch | STV","players":null},{"server_id":17,"name":"Uncletopia | San Francisco | 1 | All Maps","name_short":"sfo-1","host":"sfo-1.us.uncletopia.com","port":27015,"enabled":true,"region":"us-west","cc":"us","latitude":37.77397,"longitude":-122.4313,"reserved":0,"last_update":"0001-01-01T00:00:00Z","name_a2s":"Uncletopia | San Francisco | 1 | All Maps","protocol":17,"map":"koth_cascade","folder":"tf","game":"Team Fortress","app_id":440,"player_count":0,"max_players":24,"Bots":0,"server_type":"Dedicated","server_os":"Linux","password":true,"vac":true,"version":"7961495","steam_id":85568392924469999,"keywords":["cp","nocrits","nodmgspread","uncletopia"],"game_id":440,"stv_port":27016,"stv_name":"Uncletopia | San Francisco | 1 | All Maps | STV","players":null},{"server_id":18,"name":"Uncletopia | San Francisco | 2 | All Maps","name_short":"sfo-2","host":"sfo-1.us.uncletopia.com","port":27025,"enabled":true,"region":"us-west","cc":"us","latitude":37.77397,"longitude":-122.4313,"reserved":0,"last_update":"0001-01-01T00:00:00Z","name_a2s":"Uncletopia | San Francisco | 2 | All Maps","protocol":17,"map":"pl_frontier_final","folder":"tf","game":"Team Fortress","app_id":440,"player_count":0,"max_players":24,"Bots":0,"server_type":"Dedicated","server_os":"Linux","password":true,"vac":true,"version":"7961495","steam_id":85568392924470000,"keywords":["nocrits","nodmgspread","payload","uncletopia"],"game_id":440,"stv_port":27026,"stv_name":"Uncletopia | San Francisco | 2 | All Maps | STV","players":null},{"server_id":19,"name":"Uncletopia | San Francisco | 3 | Stopwatch","name_short":"sfo-3","host":"sfo-1.us.uncletopia.com","port":27035,"enabled":true,"region":"us-west","cc":"us","latitude":37.77397,"longitude":-122.4313,"reserved":0,"last_update":"0001-01-01T00:00:00Z","name_a2s":"Uncletopia | San Francisco | 3 | Stopwatch","protocol":17,"map":"pl_pier","folder":"tf","game":"Team Fortress","app_id":440,"player_count":0,"max_players":24,"Bots":0,"server_type":"Dedicated","server_os":"Linux","password":true,"vac":true,"version":"7961495","steam_id":85568392924742824,"keywords":["nocrits","nodmgspread","payload","uncletopia"],"game_id":440,"stv_port":27036,"stv_name":"Uncletopia | San Francisco | 3 | Stopwatch | STV","players":null},{"server_id":20,"name":"Uncletopia | San Francisco | 4 | Community","name_short":"sfo-4","host":"sfo-1.us.uncletopia.com","port":27045,"enabled":true,"region":"us-west","cc":"us","latitude":37.77397,"longitude":-122.4313,"reserved":0,"last_update":"0001-01-01T00:00:00Z","name_a2s":"Uncletopia | San Francisco | 4 | Community","protocol":17,"map":"pl_pier","folder":"tf","game":"Team Fortress","app_id":440,"player_count":0,"max_players":24,"Bots":0,"server_type":"Dedicated","server_os":"Linux","password":true,"vac":true,"version":"7961495","steam_id":85568392924742826,"keywords":["nocrits","nodmgspread","payload","uncletopia"],"game_id":440,"stv_port":27046,"stv_name":"Uncletopia | San Francisco | 4 | Community | STV","players":null},{"server_id":141,"name":"Uncletopia | Sydney | 1 | All Maps","name_short":"syd-1","host":"syd-1.au.uncletopia.com","port":27015,"enabled":true,"region":"au","cc":"au","latitude":-33.865143,"longitude":151.2099,"reserved":0,"last_update":"0001-01-01T00:00:00Z","name_a2s":"Uncletopia | Sydney | 1 | All Maps","protocol":17,"map":"pl_barnblitz","folder":"tf","game":"Team Fortress","app_id":440,"player_count":0,"max_players":24,"Bots":0,"server_type":"Dedicated","server_os":"Linux","password":true,"vac":true,"version":"7961495","steam_id":85568392924470001,"keywords":["nocrits","nodmgspread","payload","uncletopia"],"game_id":440,"stv_port":27016,"stv_name":"Uncletopia | Sydney | 1 | All Maps | STV","players":null},{"server_id":123,"name":"Uncletopia | Sydney | 2 | All Maps","name_short":"syd-2","host":"syd-1.au.uncletopia.com","port":27025,"enabled":true,"region":"au","cc":"au","latitude":-33.865143,"longitude":151.2099,"reserved":0,"last_update":"0001-01-01T00:00:00Z","name_a2s":"Uncletopia | Sydney | 2 | All Maps","protocol":17,"map":"koth_lakeside_final","folder":"tf","game":"Team Fortress","app_id":440,"player_count":0,"max_players":24,"Bots":0,"server_type":"Dedicated","server_os":"Linux","password":true,"vac":true,"version":"7961495","steam_id":85568392924470002,"keywords":["cp","nocrits","nodmgspread","uncletopia"],"game_id":440,"stv_port":27026,"stv_name":"Uncletopia | Sydney | 2 | All Maps | STV","players":null},{"server_id":395,"name":"Uncletopia | Sydney | 3 | All Maps","name_short":"syd-3","host":"syd-1.au.uncletopia.com","port":27035,"enabled":true,"region":"au","cc":"au","latitude":-33.865143,"longitude":151.2099,"reserved":0,"last_update":"0001-01-01T00:00:00Z","name_a2s":"Uncletopia | Sydney | 3 | All Maps","protocol":17,"map":"koth_lakeside_final","folder":"tf","game":"Team Fortress","app_id":440,"player_count":0,"max_players":24,"Bots":0,"server_type":"Dedicated","server_os":"Linux","password":true,"vac":true,"version":"7961495","steam_id":85568392925194467,"keywords":["cp","nocrits","nodmgspread","uncletopia"],"game_id":440,"stv_port":27036,"stv_name":"Uncletopia | Sydney | 3 | All Maps | STV","players":null},{"server_id":396,"name":"Uncletopia | Sydney | 4 | All Maps","name_short":"syd-4","host":"syd-1.au.uncletopia.com","port":27045,"enabled":true,"region":"au","cc":"au","latitude":-33.865143,"longitude":151.2099,"reserved":0,"last_update":"0001-01-01T00:00:00Z","name_a2s":"Uncletopia | Sydney | 4 | All Maps","protocol":17,"map":"pl_upward","folder":"tf","game":"Team Fortress","app_id":440,"player_count":0,"max_players":24,"Bots":0,"server_type":"Dedicated","server_os":"Linux","password":true,"vac":true,"version":"7961495","steam_id":85568392925397958,"keywords":["nocrits","nodmgspread","payload","uncletopia"],"game_id":440,"stv_port":27046,"stv_name":"Uncletopia | Sydney | 4 | All Maps | STV","players":null},{"server_id":58,"name":"Uncletopia | Sydney | 5 | Stopwatch","name_short":"syd-5","host":"syd-1.au.uncletopia.com","port":27055,"enabled":true,"region":"au","cc":"au","latitude":-33.865143,"longitude":151.2099,"reserved":0,"last_update":"0001-01-01T00:00:00Z","name_a2s":"Uncletopia | Sydney | 5 | Stopwatch","protocol":17,"map":"pl_swiftwater_final1","folder":"tf","game":"Team Fortress","app_id":440,"player_count":0,"max_players":24,"Bots":0,"server_type":"Dedicated","server_os":"Linux","password":true,"vac":true,"version":"7961495","steam_id":85568392925397959,"keywords":["nocrits","nodmgspread","payload","uncletopia"],"game_id":440,"stv_port":27056,"stv_name":"Uncletopia | Sydney | 5 | Stopwatch | STV","players":null},{"server_id":59,"name":"Uncletopia | Sydney | 6 | Community","name_short":"syd-6","host":"syd-1.au.uncletopia.com","port":27065,"enabled":true,"region":"au","cc":"au","latitude":-33.865143,"longitude":151.2099,"reserved":0,"last_update":"0001-01-01T00:00:00Z","name_a2s":"Uncletopia | Sydney | 6 | Community","protocol":17,"map":"workshop/cp_caldera_rc3.ugc2834196889","folder":"tf","game":"Team Fortress","app_id":440,"player_count":0,"max_players":24,"Bots":0,"server_type":"Dedicated","server_os":"Linux","password":true,"vac":true,"version":"7961495","steam_id":85568392925397960,"keywords":["cp","nocrits","nodmgspread","uncletopia"],"game_id":440,"stv_port":27066,"stv_name":"Uncletopia | Sydney | 6 | Community | STV","players":null},{"server_id":49,"name":"Uncletopia | Warsaw | 1 | One Thousand Uncles","name_short":"waw-1","host":"waw-1.pl.uncletopia.com","port":27015,"enabled":true,"region":"eu","cc":"pl","latitude":52.2297,"longitude":21.017532,"reserved":0,"last_update":"0001-01-01T00:00:00Z","name_a2s":"Uncletopia | Warsaw | 1 | One Thousand Uncles","protocol":17,"map":"pl_swiftwater_final1","folder":"tf","game":"Team Fortress","app_id":440,"player_count":25,"max_players":32,"Bots":16,"server_type":"Dedicated","server_os":"Linux","password":true,"vac":true,"version":"7961495","steam_id":85568392925397850,"keywords":["alltalk","bots","danepve","increased_maxplayers","nocrits","norespawntime","payload","uncletopia"],"game_id":440,"stv_port":0,"stv_name":"","players":[{"user_id":71,"name":"animan studio","steam_id":76561199229806546,"connected_time":2370000000000,"state":"active","ping":50},{"user_id":4,"name":"the baddest boy in btd5","steam_id":76561199487914508,"connected_time":4622000000000,"state":"active","ping":42},{"user_id":88,"name":"aberrato","steam_id":76561198047206994,"connected_time":707000000000,"state":"active","ping":94},{"user_id":89,"name":"[Heavy Mandarin]","steam_id":76561198531978435,"connected_time":692000000000,"state":"active","ping":76},{"user_id":92,"name":"Mizel","steam_id":76561199226604824,"connected_time":514000000000,"state":"active","ping":63},{"user_id":79,"name":"El Wiwi","steam_id":76561198134378108,"connected_time":1435000000000,"state":"active","ping":93},{"user_id":75,"name":"Dzejjj :-D","steam_id":76561199348875069,"connected_time":1886000000000,"state":"active","ping":45},{"user_id":80,"name":"WolfyGamer21","steam_id":76561199148811704,"connected_time":1382000000000,"state":"active","ping":154},{"user_id":83,"name":"T_G_G","steam_id":76561199114568070,"connected_time":1239000000000,"state":"active","ping":103}]},{"server_id":50,"name":"Uncletopia | Warsaw | 2 | One Thousand Uncles","name_short":"waw-2","host":"waw-1.pl.uncletopia.com","port":27025,"enabled":true,"region":"eu","cc":"pl","latitude":52.2297,"longitude":21.017532,"reserved":0,"last_update":"0001-01-01T00:00:00Z","name_a2s":"Uncletopia | Warsaw | 2 | One Thousand Uncles","protocol":17,"map":"pl_chilly","folder":"tf","game":"Team Fortress","app_id":440,"player_count":23,"max_players":32,"Bots":16,"server_type":"Dedicated","server_os":"Linux","password":true,"vac":true,"version":"7961495","steam_id":85568392925397851,"keywords":["alltalk","bots","danepve","increased_maxplayers","nocrits","norespawntime","payload","uncletopia"],"game_id":440,"stv_port":0,"stv_name":"","players":[{"user_id":179,"name":"Mr.CatAstrophe","steam_id":76561198007941826,"connected_time":5038000000000,"state":"active","ping":178},{"user_id":221,"name":"lisivi","steam_id":76561198365503306,"connected_time":1747000000000,"state":"active","ping":68},{"user_id":198,"name":"Minister of cocks","steam_id":76561198829740342,"connected_time":2530000000000,"state":"active","ping":94},{"user_id":224,"name":"L√ÜMppu","steam_id":76561199014627141,"connected_time":803000000000,"state":"active","ping":105},{"user_id":226,"name":"FinnishGuy","steam_id":76561198155380452,"connected_time":163000000000,"state":"active","ping":100},{"user_id":187,"name":"joachym","steam_id":76561198428579761,"connected_time":4460000000000,"state":"active","ping":68},{"user_id":189,"name":"ÓÑ¶The BaphometÓÑ§","steam_id":76561198051424707,"connected_time":4346000000000,"state":"active","ping":190}]},{"server_id":51,"name":"Uncletopia | Warsaw | 3 | All Maps","name_short":"waw-3","host":"waw-1.pl.uncletopia.com","port":27035,"enabled":true,"region":"eu","cc":"pl","latitude":52.2297,"longitude":21.017532,"reserved":0,"last_update":"0001-01-01T00:00:00Z","name_a2s":"Uncletopia | Warsaw | 3 | All Maps","protocol":17,"map":"koth_highpass","folder":"tf","game":"Team Fortress","app_id":440,"player_count":2,"max_players":24,"Bots":0,"server_type":"Dedicated","server_os":"Linux","password":true,"vac":true,"version":"7961495","steam_id":85568392925397852,"keywords":["cp","nocrits","nodmgspread","uncletopia"],"game_id":440,"stv_port":27036,"stv_name":"Uncletopia | Warsaw | 3 | All Maps | STV","players":[{"user_id":53,"name":"Jimmi hatt","steam_id":76561198858601240,"connected_time":311000000000,"state":"active","ping":165},{"user_id":54,"name":"Chowd3r","steam_id":76561199231483630,"connected_time":232000000000,"state":"active","ping":137}]},{"server_id":52,"name":"Uncletopia | Warsaw | 4 | All Maps","name_short":"waw-4","host":"waw-1.pl.uncletopia.com","port":27045,"enabled":true,"region":"eu","cc":"pl","latitude":52.2297,"longitude":21.017532,"reserved":0,"last_update":"0001-01-01T00:00:00Z","name_a2s":"Uncletopia | Warsaw | 4 | All Maps","protocol":17,"map":"cp_coldfront","folder":"tf","game":"Team Fortress","app_id":440,"player_count":0,"max_players":24,"Bots":0,"server_type":"Dedicated","server_os":"Linux","password":true,"vac":true,"version":"7961495","steam_id":85568392925397853,"keywords":["cp","nocrits","nodmgspread","uncletopia"],"game_id":440,"stv_port":27046,"stv_name":"Uncletopia | Warsaw | 4 | All Maps | STV","players":null},{"server_id":53,"name":"Uncletopia | Warsaw | 5 | Stopwatch","name_short":"waw-5","host":"waw-1.pl.uncletopia.com","port":27055,"enabled":true,"region":"eu","cc":"pl","latitude":52.2297,"longitude":21.017532,"reserved":0,"last_update":"0001-01-01T00:00:00Z","name_a2s":"Uncletopia | Warsaw | 5 | Stopwatch","protocol":17,"map":"workshop/koth_bagel_rc6.ugc2514036946","folder":"tf","game":"Team Fortress","app_id":440,"player_count":0,"max_players":24,"Bots":0,"server_type":"Dedicated","server_os":"Linux","password":true,"vac":true,"version":"7961495","steam_id":85568392925397854,"keywords":["cp","nocrits","nodmgspread","uncletopia"],"game_id":440,"stv_port":27056,"stv_name":"Uncletopia | Warsaw | 5 | Stopwatch | STV","players":null},{"server_id":54,"name":"Uncletopia | Warsaw | 6 | Community","name_short":"waw-6","host":"waw-1.pl.uncletopia.com","port":27065,"enabled":true,"region":"eu","cc":"pl","latitude":52.2297,"longitude":21.017532,"reserved":0,"last_update":"0001-01-01T00:00:00Z","name_a2s":"Uncletopia | Warsaw | 6 | Community","protocol":17,"map":"workshop/pl_barnblitz_pro7.ugc582280235","folder":"tf","game":"Team Fortress","app_id":440,"player_count":0,"max_players":24,"Bots":0,"server_type":"Dedicated","server_os":"Linux","password":true,"vac":true,"version":"7961495","steam_id":85568392925397856,"keywords":["nocrits","nodmgspread","payload","uncletopia"],"game_id":440,"stv_port":27066,"stv_name":"Uncletopia | Warsaw | 6 | Community | STV","players":null}]}