{"status":true,"message":"","result":[{"server_id":9,"name":"Uncletopia | Atlanta | 1 | All Maps","name_short":"atl-1","host":"atl-1.us.uncletopia.com","port":27015,"enabled":true,"region":"us-east","cc":"us","latitude":33.753746,"longitude":-84.38633,"reserved":0,"last_update":"0001-01-01T00:00:00Z","name_a2s":"Uncletopia | Atlanta | 1 | All Maps","protocol":17,"map":"koth_viaduct","folder":"tf","game":"Team Fortress","app_id":440,"player_count":0,"max_players":24,"Bots":0,"server_type":"Dedicated","server_os":"Linux","password":true,"vac":true,"version":"7882260","steam_id":85568392924469982,"keywords":["cp","nocrits","nodmgspread","uncletopia"],"game_id":440,"stv_port":27016,"stv_name":"Uncletopia | Atlanta | 1 | All Maps | STV","players":null},{"server_id":104,"name":"Uncletopia | Atlanta | 2 | All Maps","name_short":"atl-2","host":"atl-1.us.uncletopia.com","port":27025,"enabled":true,"region":"us-east","cc":"us","latitude":33.753746,"longitude":-84.38633,"reserved":0,"last_update":"0001-01-01T00:00:00Z","name_a2s":"Uncletopia | Atlanta | 2 | All Maps","protocol":17,"map":"cp_process_final","folder":"tf","game":"Team Fortress","app_id":440,"player_count":0,"max_players":24,"Bots":0,"server_type":"Dedicated","server_os":"Linux","password":true,"vac":true,"version":"7882260","steam_id":85568392924469983,"keywords":["cp","nocrits","nodmgspread","uncletopia"],"game_id":440,"stv_port":27026,"stv_name":"Uncletopia | Atlanta | 2 | All Maps | STV","players":null},{"server_id":400,"name":"Uncletopia | Atlanta | 3 | Community","name_short":"atl-3","host":"atl-1.us.uncletopia.com","port":27035,"enabled":true,"region":"us-east","cc":"us","latitude":33.753746,"longitude":-84.38633,"reserved":0,"last_update":"0001-01-01T00:00:00Z","name_a2s":"Uncletopia | Atlanta | 3 | Community","protocol":17,"map":"cp_sunshine","folder":"tf","game":"Team Fortress","app_id":440,"player_count":0,"max_players":24,"Bots":0,"server_type":"Dedicated","server_os":"Linux","password":true,"vac":true,"version":"7882260","steam_id":85568392924515187,"keywords":["cp","nocrits","nodmgspread","uncletopia"],"game_id":440,"stv_port":27036,"stv_name":"Uncletopia | Atlanta | 3 | Community | STV","players":null},{"server_id":401,"name":"Uncletopia | Atlanta | 4 | No Payload","name_short":"atl-4","host":"atl-1.us.uncletopia.com","port":27045,"enabled":true,"region":"us-east","cc":"us","latitude":33.753746,"longitude":-84.38633,"reserved":0,"last_update":"0001-01-01T00:00:00Z","name_a2s":"","protocol":0,"map":"","folder":"","game":"","app_id":0,"player_count":0,"max_players":0,"Bots":0,"server_type":"","server_os":"","password":false,"vac":false,"version":"","steam_id":0,"keywords":null,"game_id":0,"stv_port":0,"stv_name":"","players":null},{"server_id":2,"name":"Uncletopia | Chicago | 1 | All Maps","name_short":"chi-1","host":"chi-1.us.uncletopia.com","port":27015,"enabled":true,"region":"us-central","cc":"us","latitude":41.881832,"longitude":-87.62318,"reserved":0,"last_update":"0001-01-01T00:00:00Z","name_a2s":"Uncletopia | Chicago | 1 | All Maps","protocol":17,"map":"cp_mountainlab","folder":"tf","game":"Team Fortress","app_id":440,"player_count":0,"max_players":24,"Bots":0,"server_type":"Dedicated","server_os":"Linux","password":true,"vac":true,"version":"7882260","steam_id":85568392924469984,"keywords":["cp","nocrits","nodmgspread","uncletopia"],"game_id":440,"stv_port":27016,"stv_name":"Uncletopia | Chicago | 1 | All Maps | STV","players":null},{"server_id":106,"name":"Uncletopia | Chicago | 2 | All Maps","name_short":"chi-2","host":"chi-1.us.uncletopia.com","port":27025,"enabled":true,"region":"us-central","cc":"us","latitude":41.881832,"longitude":-87.62318,"reserved":0,"last_update":"0001-01-01T00:00:00Z","name_a2s":"Uncletopia | Chicago | 2 | All Maps","protocol":17,"map":"pl_swiftwater_final1","folder":"tf","game":"Team Fortress","app_id":440,"player_count":0,"max_players":24,"Bots":0,"server_type":"Dedicated","server_os":"Linux","password":true,"vac":true,"version":"7882260","steam_id":85568392924469985,"keywords":["nocrits","nodmgspread","payload","uncletopia"],"game_id":440,"stv_port":27026,"stv_name":"Uncletopia | Chicago | 2 | All Maps | STV","players":null},{"server_id":402,"name":"Uncletopia | Chicago | 3 | All Maps","name_short":"chi-3","host":"chi-1.us.uncletopia.com","port":27035,"enabled":true,"region":"us-central","cc":"us","latitude":41.881832,"longitude":-87.62318,"reserved":0,"last_update":"0001-01-01T00:00:00Z","name_a2s":"Uncletopia | Chicago | 3 | All Maps","protocol":17,"map":"pl_snowycoast","folder":"tf","game":"Team Fortress","app_id":440,"player_count":0,"max_players":24,"Bots":0,"server_type":"Dedicated","server_os":"Linux","password":true,"vac":true,"version":"7882260","steam_id":85568392924515191,"keywords":["nocrits","nodmgspread","payload","uncletopia"],"game_id":440,"stv_port":27036,"stv_name":"Uncletopia | Chicago | 3 | All Maps | STV","players":null},{"server_id":403,"name":"Uncletopia | Chicago | 4 | All Maps","name_short":"chi-4","host":"chi-1.us.uncletopia.com","port":27045,"enabled":true,"region":"us-central","cc":"us","latitude":41.881832,"longitude":-87.62318,"reserved":0,"last_update":"0001-01-01T00:00:00Z","name_a2s":"Uncletopia | Chicago | 4 | All Maps","protocol":17,"map":"koth_cascade","folder":"tf","game":"Team Fortress","app_id":440,"player_count":0,"max_players":24,"Bots":0,"server_type":"Dedicated","server_os":"Linux","password":true,"vac":true,"version":"7882260","steam_id":85568392924515193,"keywords":["cp","nocrits","nodmgspread","uncletopia"],"game_id":440,"stv_port":27046,"stv_name":"Uncletopia | Chicago | 4 | All Maps | STV","players":null},{"server_id":36,"name":"Uncletopia | Chicago | 5 | All Maps","name_short":"chi-5","host":"chi-2.us.uncletopia.com","port":27015,"enabled":true,"region":"us-central","cc":"us","latitude":41.881832,"longitude":-87.62318,"reserved":0,"last_update":"0001-01-01T00:00:00Z","name_a2s":"Uncletopia | Chicago | 5 | All Maps","protocol":17,"map":"pl_badwater","folder":"tf","game":"Team Fortress","app_id":440,"player_count":0,"max_players":24,"Bots":0,"server_type":"Dedicated","server_os":"Linux","password":true,"vac":true,"version":"7882260","steam_id":85568392924866362,"keywords":["nocrits","nodmgspread","payload","uncletopia"],"game_id":440,"stv_port":27016,"stv_name":"Uncletopia | Chicago | 5 | All Maps | STV","players":null},{"server_id":37,"name":"Uncletopia | Chicago | 6 | All Maps","name_short":"chi-6","host":"chi-2.us.uncletopia.com","port":27025,"enabled":true,"region":"us-central","cc":"us","latitude":41.881832,"longitude":-87.62318,"reserved":0,"last_update":"0001-01-01T00:00:00Z","name_a2s":"Uncletopia | Chicago | 6 | All Maps","protocol":17,"map":"koth_cascade","folder":"tf","game":"Team Fortress","app_id":440,"player_count":0,"max_players":24,"Bots":0,"server_type":"Dedicated","server_os":"Linux","password":true,"vac":true,"version":"7882260","steam_id":85568392924866363,"keywords":["cp","nocrits","nodmgspread","uncletopia"],"game_id":440,"stv_port":27026,"stv_name":"Uncletopia | Chicago | 6 | All Maps | STV","players":null},{"server_id":38,"name":"Uncletopia | Chicago | 7 | Stopwatch Beta","name_short":"chi-7","host":"chi-2.us.uncletopia.com","port":27035,"enabled":true,"region":"us-central","cc":"us","latitude":41.881832,"longitude":-87.62318,"reserved":0,"last_update":"0001-01-01T00:00:00Z","name_a2s":"Uncletopia | Chicago | 7 | Stopwatch Beta","protocol":17,"map":"pl_borneo","folder":"tf","game":"Team Fortress","app_id":440,"player_count":0,"max_players":24,"Bots":0,"server_type":"Dedicated","server_os":"Linux","password":true,"vac":true,"version":"7882260","steam_id":85568392924866364,"keywords":["nocrits","nodmgspread","payload","uncletopia"],"game_id":440,"stv_port":27036,"stv_name":"Uncletopia | Chicago | 7 | Stopwatch Beta | STV","players":null},{"server_id":39,"name":"Uncletopia | Chicago | 8 | Community","name_short":"chi-8","host":"chi-2.us.uncletopia.com","port":27045,"enabled":true,"region":"us-central","cc":"us","latitude":41.881832,"longitude":-87.62318,"reserved":0,"last_update":"0001-01-01T00:00:00Z","name_a2s":"Uncletopia | Chicago | 8 | Community","protocol":17,"map":"workshop/pl_badwater_pro_v12.ugc2142942074","folder":"tf","game":"Team Fortress","app_id":440,"player_count":0,"max_players":24,"Bots":0,"server_type":"Dedicated","server_os":"Linux","password":true,"vac":true,"version":"7882260","steam_id":85568392924866365,"keywords":["nocrits","nodmgspread","payload","uncletopia"],"game_id":440,"stv_port":27046,"stv_name":"Uncletopia | Chicago | 8 | Community | STV","players":null},{"server_id":8,"name":"Uncletopia | Dallas | 1 | All Maps","name_short":"dal-1","host":"dal-1.us.uncletopia.com","port":27015,"enabled":true,"region":"us-central","cc":"us","latitude":32.779167,"longitude":-96.80889,"reserved":0,"last_update":"0001-01-01T00:00:00Z","name_a2s":"Uncletopia | Dallas | 1 | All Maps","protocol":17,"map":"pl_badwater","folder":"tf","game":"Team Fortress","app_id":440,"player_count":23,"max_players":24,"Bots":0,"server_type":"Dedicated","server_os":"Linux","password":true,"vac":true,"version":"7882260","steam_id":85568392924469986,"keywords":["nocrits","nodmgspread","payload","uncletopia"],"game_id":440,"stv_port":27016,"stv_name":"Uncletopia | Dallas | 1 | All Maps | STV","players":[{"user_id":39,"name":"Brown_Dream","steam_id":76561198975766145,"connected_time":920000000000,"state":"active","ping":87},{"user_id":48,"name":"mebekainoa","steam_id":76561199028122569,"connected_time":119000000000,"state":"active","ping":92},{"user_id":19,"name":"RainboomCrash","steam_id":76561198065612273,"connected_time":2181000000000,"state":"active","ping":95},{"user_id":23,"name":"Zeodexic","steam_id":76561198055636655,"connected_time":1945000000000,"state":"active","ping":89},{"user_id":8,"name":"Cliffigriff","steam_id":76561198121924499,"connected_time":2299000000000,"state":"active","ping":59},{"user_id":9,"name":"tacofever","steam_id":76561198010966507,"connected_time":2293000000000,"state":"active","ping":78},{"user_id":10,"name":"T√ñZI","steam_id":76561198045268695,"connected_time":2292000000000,"state":"active","ping":106},{"user_id":41,"name":"life drop-out","steam_id":76561198366299848,"connected_time":554000000000,"state":"active","ping":68},{"user_id":13,"name":"ClutchSR","steam_id":76561199018366378,"connected_time":2287000000000,"state":"active","ping":87},{"user_id":25,"name":"BIG HOG","steam_id":76561198079923652,"connected_time":1771000000000,"state":"active","ping":51},{"user_id":42,"name":"Tired-Out Tibet-Trout","steam_id":76561198118082897,"connected_time":423000000000,"state":"active","ping":90},{"user_id":26,"name":"Albino Jellyfish","steam_id":76561198208561097,"connected_time":1762000000000,"state":"active","ping":85},{"user_id":22,"name":"rice white","steam_id":76561198320732910,"connected_time":2033000000000,"state":"active","ping":95},{"user_id":24,"name":"lentil","steam_id":76561198079359870,"connected_time":1894000000000,"state":"active","ping":89},{"user_id":27,"name":"YourNansFlipFlops","steam_id":76561199363301288,"connected_time":1750000000000,"state":"active","ping":197},{"user_id":44,"name":"Pickle","steam_id":76561198096221632,"connected_time":399000000000,"state":"active","ping":60},{"user_id":29,"name":"Zelith","steam_id":76561198234980480,"connected_time":1709000000000,"state":"active","ping":76},{"user_id":43,"name":"Turtle","steam_id":76561198821905297,"connected_time":420000000000,"state":"active","ping":76},{"user_id":46,"name":"Pastor John","steam_id":76561198216484412,"connected_time":380000000000,"state":"active","ping":88},{"user_id":34,"name":"Stauxie","steam_id":76561198255030077,"connected_time":1374000000000,"state":"active","ping":88},{"user_id":47,"name":"Gm_Trash","steam_id":76561199445091548,"connected_time":354000000000,"state":"active","ping":85},{"user_id":38,"name":"Fake Chainz","steam_id":76561198312889455,"connected_time":1195000000000,"state":"active","ping":135},{"user_id":40,"name":"kyepka yobane","steam_id":76561198078626283,"connected_time":919000000000,"state":"active","ping":83}]},{"server_id":108,"name":"Uncletopia | Dallas | 2 | All Maps","name_short":"dal-2","host":"dal-1.us.uncletopia.com","port":27025,"enabled":true,"region":"us-central","cc":"us","latitude":32.779167,"longitude":-96.80889,"reserved":0,"last_update":"0001-01-01T00:00:00Z","name_a2s":"Uncletopia | Dallas | 2 | All Maps","protocol":17,"map":"pl_barnblitz","folder":"tf","game":"Team Fortress","app_id":440,"player_count":0,"max_players":24,"Bots":0,"server_type":"Dedicated","server_os":"Linux","password":true,"vac":true,"version":"7882260","steam_id":85568392924469988,"keywords":["nocrits","nodmgspread","payload","uncletopia"],"game_id":440,"stv_port":27026,"stv_name":"Uncletopia | Dallas | 2 | All Maps | STV","players":null},{"server_id":5,"name":"Uncletopia | Frankfurt | 1 | All Maps","name_short":"frk-1","host":"frk-1.de.uncletopia.com","port":27015,"enabled":true,"region":"eu","cc":"de","latitude":50.110924,"longitude":8.682127,"reserved":0,"last_update":"0001-01-01T00:00:00Z","name_a2s":"Uncletopia | Frankfurt | 1 | All Maps","protocol":17,"map":"pl_borneo","folder":"tf","game":"Team Fortress","app_id":440,"player_count":22,"max_players":24,"Bots":0,"server_type":"Dedicated","server_os":"Linux","password":true,"vac":true,"version":"7882260","steam_id":85568392924469989,"keywords":["nocrits","nodmgspread","payload","uncletopia"],"game_id":440,"stv_port":27016,"stv_name":"Uncletopia | Frankfurt | 1 | All Maps | STV","players":[{"user_id":113,"name":"gagalak","steam_id":76561198089979108,"connected_time":1789000000000,"state":"active","ping":90},{"user_id":135,"name":"PerskuleBenener","steam_id":76561198156899375,"connected_time":461000000000,"state":"active","ping":81},{"user_id":109,"name":"Murphy","steam_id":76561198271394131,"connected_time":2013000000000,"state":"active","ping":60},{"user_id":68,"name":"kyuta","steam_id":76561198382281653,"connected_time":5344000000000,"state":"active","ping":75},{"user_id":111,"name":"chocolate pudding","steam_id":76561198214356923,"connected_time":1982000000000,"state":"active","ping":55},{"user_id":133,"name":"on1on (roughly chopped)","steam_id":76561197995304137,"connected_time":575000000000,"state":"active","ping":62},{"user_id":93,"name":"KnusprigeKloake","steam_id":76561198051422734,"connected_time":3413000000000,"state":"active","ping":45},{"user_id":108,"name":"1 greg fan","steam_id":76561199052146306,"connected_time":2085000000000,"state":"active","ping":157},{"user_id":138,"name":"Ane≈•√°k","steam_id":76561198159294906,"connected_time":82000000000,"state":"active","ping":46},{"user_id":125,"name":"BWABA","steam_id":76561199192887256,"connected_time":1050000000000,"state":"active","ping":101},{"user_id":118,"name":"Coyot","steam_id":76561198344502070,"connected_time":1511000000000,"state":"active","ping":75},{"user_id":42,"name":"hipster_doofus","steam_id":76561197970902697,"connected_time":7068000000000,"state":"active","ping":73},{"user_id":54,"name":"Mephistopheles","steam_id":76561199033390312,"connected_time":6187000000000,"state":"active","ping":105},{"user_id":119,"name":"Piss Man","steam_id":76561198860861032,"connected_time":1511000000000,"state":"active","ping":73},{"user_id":131,"name":"Yelowchy","steam_id":76561198199416121,"connected_time":617000000000,"state":"active","ping":63},{"user_id":134,"name":"Jucatron","steam_id":76561198044259577,"connected_time":479000000000,"state":"active","ping":87},{"user_id":120,"name":"Urfangonultasadana","steam_id":76561199389286151,"connected_time":1493000000000,"state":"active","ping":96},{"user_id":84,"name":"^_^","steam_id":76561198032359132,"connected_time":4085000000000,"state":"active","ping":60},{"user_id":55,"name":"mindas","steam_id":76561198056839438,"connected_time":6158000000000,"state":"active","ping":68},{"user_id":98,"name":"„ÉÜ„Ç§„É´„Çπ","steam_id":76561198022403271,"connected_time":2919000000000,"state":"active","ping":47},{"user_id":137,"name":"KiT","steam_id":76561198043770371,"connected_time":294000000000,"state":"active","ping":60},{"user_id":132,"name":"Lordware","steam_id":76561198022011299,"connected_time":604000000000,"state":"active","ping":82}]},{"server_id":110,"name":"Uncletopia | Frankfurt | 2 | All Maps","name_short":"frk-2","host":"frk-1.de.uncletopia.com","port":27025,"enabled":true,"region":"eu","cc":"de","latitude":50.110924,"longitude":8.682127,"reserved":0,"last_update":"0001-01-01T00:00:00Z","name_a2s":"Uncletopia | Frankfurt | 2 | All Maps","protocol":17,"map":"pl_borneo","folder":"tf","game":"Team Fortress","app_id":440,"player_count":24,"max_players":24,"Bots":0,"server_type":"Dedicated","server_os":"Linux","password":true,"vac":true,"version":"7882260","steam_id":85568392924469990,"keywords":["nocrits","nodmgspread","payload","uncletopia"],"game_id":440,"stv_port":27026,"stv_name":"Uncletopia | Frankfurt | 2 | All Maps | STV","players":[{"user_id":133,"name":"Peaky Blinder","steam_id":76561198979874772,"connected_time":42000000000,"state":"active","ping":73},{"user_id":94,"name":"simon","steam_id":76561198880361394,"connected_time":2298000000000,"state":"active","ping":46},{"user_id":112,"name":"Faking.","steam_id":76561198823540483,"connected_time":939000000000,"state":"active","ping":83},{"user_id":64,"name":"romaingallo","steam_id":76561198268112907,"connected_time":3757000000000,"state":"active","ping":61},{"user_id":120,"name":"kira","steam_id":76561198894722441,"connected_time":594000000000,"state":"active","ping":85},{"user_id":98,"name":"Beni ü¶ßüçå","steam_id":76561198011340227,"connected_time":1942000000000,"state":"active","ping":74},{"user_id":121,"name":"Ghyros","steam_id":76561198035449643,"connected_time":590000000000,"state":"active","ping":69},{"user_id":105,"name":"Guru","steam_id":76561198093853069,"connected_time":1394000000000,"state":"active","ping":54},{"user_id":130,"name":"Psycho","steam_id":76561198160390984,"connected_time":76000000000,"state":"active","ping":81},{"user_id":59,"name":"alice","steam_id":76561198269200388,"connected_time":3964000000000,"state":"active","ping":72},{"user_id":109,"name":"Bayoyo","steam_id":76561199069591774,"connected_time":1131000000000,"state":"active","ping":72},{"user_id":23,"name":"Bottle O' Scrumpy","steam_id":76561199244250562,"connected_time":6399000000000,"state":"active","ping":85},{"user_id":126,"name":"Vidrox #savetf2","steam_id":76561199217854983,"connected_time":463000000000,"state":"active","ping":86},{"user_id":117,"name":"HerrMyrddin","steam_id":76561198045778215,"connected_time":831000000000,"state":"active","ping":55},{"user_id":101,"name":"hol horse","steam_id":76561199235435358,"connected_time":1565000000000,"state":"active","ping":78},{"user_id":131,"name":"garry","steam_id":76561198019078145,"connected_time":70000000000,"state":"active","ping":66},{"user_id":124,"name":"gort","steam_id":76561198060339391,"connected_time":519000000000,"state":"active","ping":45},{"user_id":129,"name":"wise ukrainian shaman","steam_id":76561198989398023,"connected_time":123000000000,"state":"active","ping":103},{"user_id":132,"name":"Hat Lover","steam_id":76561198312283433,"connected_time":67000000000,"state":"active","ping":85},{"user_id":134,"name":"El`Capitano Flex","steam_id":76561198061813730,"connected_time":39000000000,"state":"active","ping":60},{"user_id":83,"name":"damn, that bussy can squirt","steam_id":76561198050214002,"connected_time":2860000000000,"state":"active","ping":52},{"user_id":128,"name":"vadim_kotler","steam_id":76561199016634369,"connected_time":315000000000,"state":"active","ping":118},{"user_id":125,"name":"doppelg√§nger","steam_id":76561198853501108,"connected_time":467000000000,"state":"active","ping":60},{"user_id":42,"name":"le big mac","steam_id":76561199026378253,"connected_time":5888000000000,"state":"active","ping":52}]},{"server_id":308,"name":"Uncletopia | Frankfurt | 3 | All Maps","name_short":"frk-3","host":"frk-1.de.uncletopia.com","port":27035,"enabled":true,"region":"eu","cc":"de","latitude":50.110924,"longitude":8.682127,"reserved":0,"last_update":"0001-01-01T00:00:00Z","name_a2s":"Uncletopia | Frankfurt | 3 | All Maps","protocol":17,"map":"koth_highpass","folder":"tf","game":"Team Fortress","app_id":440,"player_count":0,"max_players":24,"Bots":0,"server_type":"Dedicated","server_os":"Linux","password":true,"vac":true,"version":"7882260","steam_id":85568392924504274,"keywords":["cp","nocrits","nodmgspread","uncletopia"],"game_id":440,"stv_port":27036,"stv_name":"Uncletopia | Frankfurt | 3 | All Maps | STV","players":null},{"server_id":309,"name":"Uncletopia | Frankfurt | 4 | All Maps","name_short":"frk-4","host":"frk-1.de.uncletopia.com","port":27045,"enabled":true,"region":"eu","cc":"de","latitude":50.110924,"longitude":8.682127,"reserved":0,"last_update":"0001-01-01T00:00:00Z","name_a2s":"Uncletopia | Frankfurt | 4 | All Maps","protocol":17,"map":"pl_barnblitz","folder":"tf","game":"Team Fortress","app_id":440,"player_count":23,"max_players":24,"Bots":0,"server_type":"Dedicated","server_os":"Linux","password":true,"vac":true,"version":"7882260","steam_id":85568392924504275,"keywords":["nocrits","nodmgspread","payload","uncletopia"],"game_id":440,"stv_port":27046,"stv_name":"Uncletopia | Frankfurt | 4 | All Maps | STV","players":[{"user_id":176,"name":"Corpus Christi","steam_id":76561198417999443,"connected_time":4568000000000,"state":"active","ping":103},{"user_id":228,"name":"Rat, the ungodly rat #SaveTF2","steam_id":76561199126577423,"connected_time":824000000000,"state":"active","ping":68},{"user_id":216,"name":"make war not love","steam_id":76561198260285179,"connected_time":1594000000000,"state":"active","ping":104},{"user_id":207,"name":"Real Lad‚Ñ¢","steam_id":76561198053730933,"connected_time":2540000000000,"state":"active","ping":71},{"user_id":199,"name":"El_Kommadante","steam_id":76561198079551685,"connected_time":3015000000000,"state":"active","ping":80},{"user_id":229,"name":"Perci","steam_id":76561198097789669,"connected_time":820000000000,"state":"active","ping":58},{"user_id":230,"name":"JAZZ COMMANDO","steam_id":76561198031766068,"connected_time":798000000000,"state":"active","ping":59},{"user_id":237,"name":"davlevan","steam_id":76561198090848620,"connected_time":265000000000,"state":"active","ping":82},{"user_id":92,"name":"Rin-Nakaret","steam_id":76561197971051188,"connected_time":10451000000000,"state":"active","ping":68},{"user_id":220,"name":"Veile","steam_id":76561199007201531,"connected_time":1045000000000,"state":"active","ping":85},{"user_id":221,"name":"Dora","steam_id":76561198072207649,"connected_time":1037000000000,"state":"active","ping":64},{"user_id":239,"name":"B.batt","steam_id":76561198998684199,"connected_time":260000000000,"state":"active","ping":119},{"user_id":241,"name":"Miraak","steam_id":76561198173825737,"connected_time":69000000000,"state":"active","ping":81},{"user_id":212,"name":"kranet ‚Ññ535","steam_id":76561198343910974,"connected_time":1815000000000,"state":"active","ping":89},{"user_id":140,"name":"Mac Bean","steam_id":76561198133782205,"connected_time":6701000000000,"state":"active","ping":120},{"user_id":217,"name":"SCRAMMMBLED","steam_id":76561197998307746,"connected_time":1344000000000,"state":"active","ping":73},{"user_id":231,"name":"Begone","steam_id":76561199093369711,"connected_time":761000000000,"state":"active","ping":90},{"user_id":240,"name":"RizzControlPete","steam_id":76561199009525001,"connected_time":219000000000,"state":"active","ping":54},{"user_id":236,"name":"Rizziologist","steam_id":76561198089003514,"connected_time":332000000000,"state":"active","ping":44},{"user_id":232,"name":"Deacon Dracul","steam_id":76561198046880663,"connected_time":679000000000,"state":"active","ping":89},{"user_id":188,"name":"engineer","steam_id":76561198298938176,"connected_time":4279000000000,"state":"active","ping":104},{"user_id":242,"name":"Hasse Meister","steam_id":76561198126614993,"connected_time":6000000000,"state":"spawning","ping":59},{"user_id":198,"name":"Matteo Il Biondo","steam_id":76561198315389475,"connected_time":3173000000000,"state":"active","ping":88}]},{"server_id":310,"name":"Uncletopia | Frankfurt | 5 | All Maps","name_short":"frk-5","host":"frk-1.de.uncletopia.com","port":27055,"enabled":true,"region":"eu","cc":"de","latitude":50.110924,"longitude":8.682127,"reserved":0,"last_update":"0001-01-01T00:00:00Z","name_a2s":"Uncletopia | Frankfurt | 5 | All Maps","protocol":17,"map":"pl_upward","folder":"tf","game":"Team Fortress","app_id":440,"player_count":24,"max_players":24,"Bots":0,"server_type":"Dedicated","server_os":"Linux","password":true,"vac":true,"version":"7882260","steam_id":85568392924504277,"keywords":["nocrits","nodmgspread","payload","uncletopia"],"game_id":440,"stv_port":27056,"stv_name":"Uncletopia | Frankfurt | 5 | All Maps | STV","players":[{"user_id":11,"name":"Jhesus","steam_id":76561198778605978,"connected_time":3216000000000,"state":"active","ping":127},{"user_id":10,"name":"WALTER WHITE","steam_id":76561199147666336,"connected_time":3259000000000,"state":"active","ping":50},{"user_id":55,"name":"Zina Tv","steam_id":76561198116530769,"connected_time":1310000000000,"state":"active","ping":86},{"user_id":63,"name":"–ñ—ã–≤–µ –ë–µ–ª–∞—Ä—É—Å—å!","steam_id":76561199293036742,"connected_time":172000000000,"state":"active","ping":51},{"user_id":15,"name":"FanFish","steam_id":76561199389558024,"connected_time":3094000000000,"state":"active","ping":67},{"user_id":23,"name":"Adolf gayming","steam_id":76561198830058797,"connected_time":2856000000000,"state":"active","ping":75},{"user_id":64,"name":"arcticcu","steam_id":76561198002435882,"connected_time":156000000000,"state":"active","ping":83},{"user_id":56,"name":"Zygocact","steam_id":76561197990776598,"connected_time":1084000000000,"state":"active","ping":135},{"user_id":52,"name":"Livicron","steam_id":76561199133754491,"connected_time":1552000000000,"state":"active","ping":69},{"user_id":50,"name":"glass of drink","steam_id":76561198881074696,"connected_time":1782000000000,"state":"active","ping":73},{"user_id":53,"name":"ScaryTree","steam_id":76561199384362833,"connected_time":1541000000000,"state":"active","ping":59},{"user_id":27,"name":"sunshine (he/him)","steam_id":76561198084597975,"connected_time":2753000000000,"state":"active","ping":69},{"user_id":33,"name":"Stroz","steam_id":76561198146444213,"connected_time":2499000000000,"state":"active","ping":76},{"user_id":61,"name":"ackermann","steam_id":76561199129801006,"connected_time":803000000000,"state":"active","ping":49},{"user_id":35,"name":"___U_w_U___","steam_id":76561198246939740,"connected_time":2410000000000,"state":"active","ping":86},{"user_id":36,"name":"Munshy","steam_id":76561198042537812,"connected_time":2405000000000,"state":"active","ping":67},{"user_id":37,"name":"I own the penis scooter","steam_id":76561198173218318,"connected_time":2379000000000,"state":"active","ping":53},{"user_id":58,"name":"(UB) Gnome Chompski","steam_id":76561199152001285,"connected_time":1075000000000,"state":"active","ping":78},{"user_id":39,"name":"Well, off to hang myself","steam_id":76561198053374944,"connected_time":2303000000000,"state":"active","ping":75},{"user_id":40,"name":"vedatbora35 blw.tf","steam_id":76561199242623968,"connected_time":2297000000000,"state":"active","ping":97},{"user_id":62,"name":"ramirez","steam_id":76561198117060048,"connected_time":618000000000,"state":"active","ping":53},{"user_id":42,"name":"SlowKeKS","steam_id":76561199030279091,"connected_time":2253000000000,"state":"active","ping":95},{"user_id":54,"name":"medicinal man","steam_id":76561198202668788,"connected_time":1526000000000,"state":"active","ping":65},{"user_id":46,"name":"axel, comp bot","steam_id":76561197992311317,"connected_time":2154000000000,"state":"active","ping":74}]},{"server_id":311,"name":"Uncletopia | Frankfurt | 6 | All Maps","name_short":"frk-6","host":"frk-1.de.uncletopia.com","port":27065,"enabled":true,"region":"eu","cc":"de","latitude":50.110924,"longitude":8.682127,"reserved":0,"last_update":"0001-01-01T00:00:00Z","name_a2s":"Uncletopia | Frankfurt | 6 | All Maps","protocol":17,"map":"pl_barnblitz","folder":"tf","game":"Team Fortress","app_id":440,"player_count":0,"max_players":24,"Bots":0,"server_type":"Dedicated","server_os":"Linux","password":true,"vac":true,"version":"7882260","steam_id":85568392924504278,"keywords":["nocrits","nodmgspread","payload","uncletopia"],"game_id":440,"stv_port":27066,"stv_name":"Uncletopia | Frankfurt | 6 | All Maps | STV","players":null},{"server_id":23,"name":"Uncletopia | Frankfurt | 7 | Stopwatch Beta","name_short":"frk-7","host":"frk-1.de.uncletopia.com","port":27075,"enabled":true,"region":"eu","cc":"de","latitude":50.110924,"longitude":8.682127,"reserved":0,"last_update":"0001-01-01T00:00:00Z","name_a2s":"Uncletopia | Frankfurt | 7 | Stopwatch Beta","protocol":17,"map":"cp_dustbowl","folder":"tf","game":"Team Fortress","app_id":440,"player_count":0,"max_players":24,"Bots":0,"server_type":"Dedicated","server_os":"Linux","password":true,"vac":true,"version":"7882260","steam_id":85568392924742827,"keywords":["cp","nocrits","nodmgspread","uncletopia"],"game_id":440,"stv_port":27076,"stv_name":"Uncletopia | Frankfurt | 7 | Stopwatch Beta | STV","players":null},{"server_id":24,"name":"Uncletopia | Frankfurt | 8 | Community","name_short":"frk-8","host":"frk-1.de.uncletopia.com","port":27085,"enabled":true,"region":"eu","cc":"de","latitude":50.110924,"longitude":8.682127,"reserved":0,"last_update":"0001-01-01T00:00:00Z","name_a2s":"Uncletopia | Frankfurt | 8 | Community","protocol":17,"map":"koth_cascade","folder":"tf","game":"Team Fortress","app_id":440,"player_count":0,"max_players":24,"Bots":0,"server_type":"Dedicated","server_os":"Linux","password":true,"vac":true,"version":"7882260","steam_id":85568392924742828,"keywords":["cp","nocrits","nodmgspread","uncletopia"],"game_id":440,"stv_port":27086,"stv_name":"Uncletopia | Frankfurt | 8 | Community | STV","players":null},{"server_id":202,"name":"Uncletopia | Hong Kong | 1 | All Maps","name_short":"hgk-1","host":"hgk-1.hk.uncletopia.com","port":27015,"enabled":true,"region":"asia","cc":"hk","latitude":22.302711,"longitude":114.177216,"reserved":0,"last_update":"0001-01-01T00:00:00Z","name_a2s":"Uncletopia | Hong Kong | 1 | All Maps","protocol":17,"map":"pl_badwater","folder":"tf","game":"Team Fortress","app_id":440,"player_count":24,"max_players":24,"Bots":0,"server_type":"Dedicated","server_os":"Linux","password":true,"vac":true,"version":"7882260","steam_id":85568392924494504,"keywords":["nocrits","nodmgspread","payload","uncletopia"],"game_id":440,"stv_port":27016,"stv_name":"Uncletopia | Hong Kong | 1 | All Maps | STV","players":[{"user_id":210,"name":"corpse_cadaver","steam_id":76561199225360457,"connected_time":1802000000000,"state":"active","ping":69},{"user_id":166,"name":"UltraFat","steam_id":76561198253918132,"connected_time":6821000000000,"state":"active","ping":91},{"user_id":221,"name":"JDSFE","steam_id":76561198975490851,"connected_time":1403000000000,"state":"active","ping":110},{"user_id":179,"name":"U SUX","steam_id":76561199171910074,"connected_time":5207000000000,"state":"active","ping":75},{"user_id":175,"name":"TomProPlayer","steam_id":76561199223292521,"connected_time":5920000000000,"state":"active","ping":72},{"user_id":206,"name":"ObscuroLucem","steam_id":76561198875037943,"connected_time":2441000000000,"state":"active","ping":86},{"user_id":193,"name":"TheChainsaw","steam_id":76561198312001455,"connected_time":4019000000000,"state":"active","ping":112},{"user_id":217,"name":"Marika","steam_id":76561198212649929,"connected_time":1574000000000,"state":"active","ping":83},{"user_id":212,"name":"sierra","steam_id":76561197969873415,"connected_time":1759000000000,"state":"active","ping":105},{"user_id":187,"name":"lalo","steam_id":76561198074020067,"connected_time":4310000000000,"state":"active","ping":87},{"user_id":205,"name":"Maria ghostcap.com","steam_id":76561198237613398,"connected_time":2448000000000,"state":"active","ping":163},{"user_id":220,"name":"Longst01","steam_id":76561199170105562,"connected_time":1473000000000,"state":"active","ping":68},{"user_id":214,"name":"Mug","steam_id":76561198055667131,"connected_time":1738000000000,"state":"active","ping":178},{"user_id":185,"name":"PocoLoco","steam_id":76561198834044246,"connected_time":4895000000000,"state":"active","ping":105},{"user_id":82,"name":"Â∏ï","steam_id":76561198439343999,"connected_time":17407000000000,"state":"active","ping":102},{"user_id":203,"name":"MeetTeMedic99","steam_id":76561199208706868,"connected_time":3080000000000,"state":"active","ping":81},{"user_id":158,"name":"Milf (The fan O'Milk)","steam_id":76561198213031155,"connected_time":7836000000000,"state":"active","ping":97},{"user_id":207,"name":"Buttman","steam_id":76561198044693388,"connected_time":2093000000000,"state":"active","ping":52},{"user_id":198,"name":"Ghuzik","steam_id":76561199107596818,"connected_time":3729000000000,"state":"active","ping":121},{"user_id":215,"name":"The Black Ninja from Ninjago","steam_id":76561199019247258,"connected_time":1702000000000,"state":"active","ping":128},{"user_id":216,"name":"The Green Ninja from NInjago","steam_id":76561199090854395,"connected_time":1687000000000,"state":"active","ping":95},{"user_id":223,"name":"NootNoot","steam_id":76561199122109977,"connected_time":636000000000,"state":"active","ping":127},{"user_id":196,"name":"E","steam_id":76561199173781370,"connected_time":3829000000000,"state":"active","ping":128},{"user_id":225,"name":"Wx","steam_id":76561199217780897,"connected_time":267000000000,"state":"active","ping":124}]},{"server_id":1,"name":"Uncletopia | Los Angeles | 1 | All Maps","name_short":"lax-1","host":"lax-1.us.uncletopia.com","port":27015,"enabled":true,"region":"us-west","cc":"us","latitude":33.94279,"longitude":-118.41004,"reserved":0,"last_update":"0001-01-01T00:00:00Z","name_a2s":"Uncletopia | Los Angeles | 1 | All Maps","protocol":17,"map":"cp_sunshine","folder":"tf","game":"Team Fortress","app_id":440,"player_count":0,"max_players":24,"Bots":0,"server_type":"Dedicated","server_os":"Linux","password":true,"vac":true,"version":"7882260","steam_id":85568392924469991,"keywords":["cp","nocrits","nodmgspread","uncletopia"],"game_id":440,"stv_port":27016,"stv_name":"Uncletopia | Los Angeles | 1 | All Maps | STV","players":null},{"server_id":112,"name":"Uncletopia | Los Angeles | 2 | All Maps","name_short":"lax-2","host":"lax-1.us.uncletopia.com","port":27025,"enabled":true,"region":"us-west","cc":"us","latitude":33.94279,"longitude":-118.41004,"reserved":0,"last_update":"0001-01-01T00:00:00Z","name_a2s":"Uncletopia | Los Angeles | 2 | All Maps","protocol":17,"map":"plr_hightower","folder":"tf","game":"Team Fortress","app_id":440,"player_count":0,"max_players":24,"Bots":0,"server_type":"Dedicated","server_os":"Linux","password":true,"vac":true,"version":"7882260","steam_id":85568392924469992,"keywords":["nocrits","nodmgspread","payload","uncletopia"],"game_id":440,"stv_port":27026,"stv_name":"Uncletopia | Los Angeles | 2 | All Maps | STV","players":null},{"server_id":324,"name":"Uncletopia | Los Angeles | 3 | All Maps","name_short":"lax-3","host":"lax-1.us.uncletopia.com","port":27035,"enabled":true,"region":"us-west","cc":"us","latitude":33.94279,"longitude":-118.41004,"reserved":0,"last_update":"0001-01-01T00:00:00Z","name_a2s":"Uncletopia | Los Angeles | 3 | All Maps","protocol":17,"map":"cp_process_final","folder":"tf","game":"Team Fortress","app_id":440,"player_count":0,"max_players":24,"Bots":0,"server_type":"Dedicated","server_os":"Linux","password":true,"vac":true,"version":"7882260","steam_id":85568392924510198,"keywords":["cp","nocrits","nodmgspread","uncletopia"],"game_id":440,"stv_port":27036,"stv_name":"Uncletopia | Los Angeles | 3 | All Maps | STV","players":null},{"server_id":25,"name":"Uncletopia | Los Angeles | 4 | Stopwatch Beta","name_short":"lax-4","host":"lax-1.us.uncletopia.com","port":27045,"enabled":true,"region":"us-west","cc":"us","latitude":33.94279,"longitude":-118.41004,"reserved":0,"last_update":"0001-01-01T00:00:00Z","name_a2s":"Uncletopia | Los Angeles | 4 | Stopwatch Beta","protocol":17,"map":"koth_lakeside_final","folder":"tf","game":"Team Fortress","app_id":440,"player_count":0,"max_players":24,"Bots":0,"server_type":"Dedicated","server_os":"Linux","password":true,"vac":true,"version":"7882260","steam_id":85568392924510199,"keywords":["cp","nocrits","nodmgspread","uncletopia"],"game_id":440,"stv_port":27046,"stv_name":"Uncletopia | Los Angeles | 4 | Stopwatch Beta | STV","players":null},{"server_id":11,"name":"Uncletopia | London | 1 | All Maps","name_short":"lon-1","host":"lon-1.uk.uncletopia.com","port":27015,"enabled":true,"region":"eu","cc":"gb","latitude":51.509865,"longitude":-0.118092,"reserved":0,"last_update":"0001-01-01T00:00:00Z","name_a2s":"Uncletopia | London | 1 | All Maps","protocol":17,"map":"cp_sunshine","folder":"tf","game":"Team Fortress","app_id":440,"player_count":25,"max_players":24,"Bots":0,"server_type":"Dedicated","server_os":"Linux","password":true,"vac":true,"version":"7882260","steam_id":85568392924367362,"keywords":["cp","nocrits","nodmgspread","uncletopia"],"game_id":440,"stv_port":27016,"stv_name":"Uncletopia | London | 1 | All Maps | STV","players":[{"user_id":14,"name":"R0mulone","steam_id":76561198352513792,"connected_time":2513000000000,"state":"active","ping":62},{"user_id":16,"name":"Trapezoid","steam_id":76561198059369295,"connected_time":2189000000000,"state":"active","ping":64},{"user_id":50,"name":"DABUREE","steam_id":76561199386729158,"connected_time":445000000000,"state":"active","ping":40},{"user_id":19,"name":"NSaaby","steam_id":76561198109270277,"connected_time":1869000000000,"state":"active","ping":89},{"user_id":58,"name":"Fran","steam_id":76561199070516960,"connected_time":122000000000,"state":"active","ping":74},{"user_id":51,"name":"noninja","steam_id":76561199472747026,"connected_time":441000000000,"state":"active","ping":46},{"user_id":22,"name":"Kapitan Polska","steam_id":76561197968069413,"connected_time":1685000000000,"state":"active","ping":78},{"user_id":23,"name":"no.","steam_id":76561198988350454,"connected_time":1674000000000,"state":"active","ping":57},{"user_id":30,"name":"pakin157","steam_id":76561198035125667,"connected_time":1224000000000,"state":"active","ping":94},{"user_id":52,"name":"tim","steam_id":76561198143626955,"connected_time":407000000000,"state":"active","ping":48},{"user_id":27,"name":"band-aid copyright infringement","steam_id":76561199027095451,"connected_time":1343000000000,"state":"active","ping":85},{"user_id":28,"name":"wee woo","steam_id":76561198147277460,"connected_time":1270000000000,"state":"active","ping":61},{"user_id":29,"name":"Sch","steam_id":76561198071341689,"connected_time":1241000000000,"state":"active","ping":65},{"user_id":45,"name":"quentu-","steam_id":76561198087457220,"connected_time":684000000000,"state":"active","ping":72},{"user_id":32,"name":"Klokov","steam_id":76561198240633534,"connected_time":1204000000000,"state":"active","ping":56},{"user_id":53,"name":"eepy man","steam_id":76561199001657140,"connected_time":359000000000,"state":"active","ping":85},{"user_id":34,"name":"Ghostly","steam_id":76561199229629421,"connected_time":1187000000000,"state":"active","ping":161},{"user_id":59,"name":"Maximus","steam_id":76561198032472655,"connected_time":52000000000,"state":"active","ping":63},{"user_id":61,"name":"boofdeliveryman","steam_id":76561198101292843,"connected_time":33000000000,"state":"active","ping":45},{"user_id":55,"name":"CAR DOOR","steam_id":76561198055283295,"connected_time":284000000000,"state":"active","ping":52},{"user_id":38,"name":"peruna","steam_id":76561198000721196,"connected_time":1101000000000,"state":"active","ping":74},{"user_id":43,"name":"Jara.","steam_id":76561197992207165,"connected_time":907000000000,"state":"active","ping":100},{"user_id":41,"name":"Panda","steam_id":76561198176342325,"connected_time":997000000000,"state":"active","ping":92},{"user_id":62,"name":"Mirandaws","steam_id":76561198930890710,"connected_time":26000000000,"state":"spawning","ping":73},{"user_id":63,"name":"peppie","steam_id":76561199273930492,"connected_time":13000000000,"state":"spawning","ping":59}]},{"server_id":114,"name":"Uncletopia | London | 2 | All Maps","name_short":"lon-2","host":"lon-1.uk.uncletopia.com","port":27025,"enabled":true,"region":"eu","cc":"gb","latitude":51.509865,"longitude":-0.118092,"reserved":0,"last_update":"0001-01-01T00:00:00Z","name_a2s":"Uncletopia | London | 2 | All Maps","protocol":17,"map":"cp_mountainlab","folder":"tf","game":"Team Fortress","app_id":440,"player_count":0,"max_players":24,"Bots":0,"server_type":"Dedicated","server_os":"Linux","password":true,"vac":true,"version":"7882260","steam_id":85568392924470941,"keywords":["cp","nocrits","nodmgspread","uncletopia"],"game_id":440,"stv_port":27026,"stv_name":"Uncletopia | London | 2 | All Maps | STV","players":null},{"server_id":320,"name":"Uncletopia | London | 3 | All Maps","name_short":"lon-3","host":"lon-1.uk.uncletopia.com","port":27035,"enabled":true,"region":"eu","cc":"gb","latitude":51.509865,"longitude":-0.118092,"reserved":0,"last_update":"0001-01-01T00:00:00Z","name_a2s":"Uncletopia | London | 3 | All Maps","protocol":17,"map":"pl_thundermountain","folder":"tf","game":"Team Fortress","app_id":440,"player_count":24,"max_players":24,"Bots":0,"server_type":"Dedicated","server_os":"Linux","password":true,"vac":true,"version":"7882260","steam_id":85568392924510192,"keywords":["nocrits","nodmgspread","payload","uncletopia"],"game_id":440,"stv_port":27036,"stv_name":"Uncletopia | London | 3 | All Maps | STV","players":[{"user_id":340,"name":"YOU'RE GONNA BE","steam_id":76561198124230698,"connected_time":481000000000,"state":"active","ping":54},{"user_id":209,"name":"Paul B√§umer","steam_id":76561198308302932,"connected_time":8130000000000,"state":"active","ping":100},{"user_id":313,"name":"Luxotrics","steam_id":76561198053455161,"connected_time":1773000000000,"state":"active","ping":85},{"user_id":324,"name":"molly","steam_id":76561198029399151,"connected_time":1189000000000,"state":"active","ping":68},{"user_id":289,"name":"Carrot","steam_id":76561198119340863,"connected_time":2940000000000,"state":"active","ping":38},{"user_id":332,"name":"Funny Man 625","steam_id":76561198256807474,"connected_time":745000000000,"state":"active","ping":55},{"user_id":338,"name":"Muppburg","steam_id":76561198031070682,"connected_time":580000000000,"state":"active","ping":61},{"user_id":323,"name":"Alx2k1","steam_id":76561198051544601,"connected_time":1503000000000,"state":"active","ping":76},{"user_id":327,"name":"azzy","steam_id":76561198061293740,"connected_time":844000000000,"state":"active","ping":75},{"user_id":264,"name":"Carrot (woman)","steam_id":76561198139404261,"connected_time":4506000000000,"state":"active","ping":46},{"user_id":342,"name":"znunney","steam_id":76561199438501613,"connected_time":427000000000,"state":"active","ping":58},{"user_id":305,"name":"gub","steam_id":76561198171178427,"connected_time":2449000000000,"state":"active","ping":84},{"user_id":345,"name":"cropping","steam_id":76561198026586456,"connected_time":295000000000,"state":"active","ping":55},{"user_id":346,"name":"CarBombEnthusiast","steam_id":76561199448185434,"connected_time":260000000000,"state":"active","ping":70},{"user_id":337,"name":"DOMAIN","steam_id":76561199095640319,"connected_time":603000000000,"state":"active","ping":91},{"user_id":294,"name":"Yuval","steam_id":76561198241802390,"connected_time":2918000000000,"state":"active","ping":110},{"user_id":217,"name":"Tevinell81","steam_id":76561198340658904,"connected_time":7851000000000,"state":"active","ping":104},{"user_id":343,"name":"man with perfect posture","steam_id":76561198011854314,"connected_time":336000000000,"state":"active","ping":58},{"user_id":344,"name":"rajAs","steam_id":76561198035928111,"connected_time":324000000000,"state":"active","ping":88},{"user_id":306,"name":"0lloe","steam_id":76561198070861443,"connected_time":2387000000000,"state":"active","ping":56},{"user_id":341,"name":"Danube501","steam_id":76561198143222686,"connected_time":467000000000,"state":"active","ping":104},{"user_id":334,"name":"Marky","steam_id":76561199474556920,"connected_time":680000000000,"state":"active","ping":121},{"user_id":335,"name":"Blastrock64","steam_id":76561199008932704,"connected_time":650000000000,"state":"active","ping":75},{"user_id":339,"name":"punchmypotatoes","steam_id":76561198091255731,"connected_time":568000000000,"state":"active","ping":54}]},{"server_id":321,"name":"Uncletopia | London | 4 | All Maps","name_short":"lon-4","host":"lon-1.uk.uncletopia.com","port":27045,"enabled":true,"region":"eu","cc":"gb","latitude":51.509865,"longitude":-0.118092,"reserved":0,"last_update":"0001-01-01T00:00:00Z","name_a2s":"Uncletopia | London | 4 | All Maps","protocol":17,"map":"pl_upward","folder":"tf","game":"Team Fortress","app_id":440,"player_count":0,"max_players":24,"Bots":0,"server_type":"Dedicated","server_os":"Linux","password":true,"vac":true,"version":"7882260","steam_id":85568392924510193,"keywords":["nocrits","nodmgspread","payload","uncletopia"],"game_id":440,"stv_port":27046,"stv_name":"Uncletopia | London | 4 | All Maps | STV","players":null},{"server_id":21,"name":"Uncletopia | London | 5 | All Maps","name_short":"lon-5","host":"lon-1.uk.uncletopia.com","port":27055,"enabled":true,"region":"eu","cc":"gb","latitude":51.509865,"longitude":-0.118092,"reserved":0,"last_update":"0001-01-01T00:00:00Z","name_a2s":"Uncletopia | London | 5 | All Maps","protocol":17,"map":"pl_frontier_final","folder":"tf","game":"Team Fortress","app_id":440,"player_count":0,"max_players":24,"Bots":0,"server_type":"Dedicated","server_os":"Linux","password":true,"vac":true,"version":"7882260","steam_id":85568392924742829,"keywords":["nocrits","nodmgspread","payload","uncletopia"],"game_id":440,"stv_port":27056,"stv_name":"Uncletopia | London | 5 | All Maps | STV","players":null},{"server_id":22,"name":"Uncletopia | London | 6 | All Maps","name_short":"lon-6","host":"lon-1.uk.uncletopia.com","port":27065,"enabled":true,"region":"eu","cc":"gb","latitude":51.509865,"longitude":-0.118092,"reserved":0,"last_update":"0001-01-01T00:00:00Z","name_a2s":"Uncletopia | London | 6 | All Maps","protocol":17,"map":"pl_badwater","folder":"tf","game":"Team Fortress","app_id":440,"player_count":0,"max_players":24,"Bots":0,"server_type":"Dedicated","server_os":"Linux","password":true,"vac":true,"version":"7882260","steam_id":85568392924742830,"keywords":["nocrits","nodmgspread","payload","uncletopia"],"game_id":440,"stv_port":27066,"stv_name":"Uncletopia | London | 6 | All Maps | STV","players":null},{"server_id":40,"name":"Uncletopia | London | 7 | No Payload","name_short":"lon-7","host":"lon-1.uk.uncletopia.com","port":27075,"enabled":true,"region":"eu","cc":"gb","latitude":51.509865,"longitude":-0.118092,"reserved":0,"last_update":"0001-01-01T00:00:00Z","name_a2s":"Uncletopia | London | 7 | No Payload","protocol":17,"map":"pl_pier","folder":"tf","game":"Team Fortress","app_id":440,"player_count":0,"max_players":24,"Bots":0,"server_type":"Dedicated","server_os":"Linux","password":true,"vac":true,"version":"7882260","steam_id":85568392924964314,"keywords":["nocrits","nodmgspread","payload","uncletopia"],"game_id":440,"stv_port":27076,"stv_name":"Uncletopia | London | 7 | No Payload | STV","players":null},{"server_id":41,"name":"Uncletopia | London | 8 | Community","name_short":"lon-8","host":"lon-1.uk.uncletopia.com","port":27085,"enabled":true,"region":"eu","cc":"gb","latitude":51.509865,"longitude":-0.118092,"reserved":0,"last_update":"0001-01-01T00:00:00Z","name_a2s":"Uncletopia | London | 8 | Community","protocol":17,"map":"workshop/cp_mannbase_rc2a.ugc1900737467","folder":"tf","game":"Team Fortress","app_id":440,"player_count":7,"max_players":24,"Bots":0,"server_type":"Dedicated","server_os":"Linux","password":true,"vac":true,"version":"7882260","steam_id":85568392924964315,"keywords":["cp","nocrits","nodmgspread","uncletopia"],"game_id":440,"stv_port":27086,"stv_name":"Uncletopia | London | 8 | Community | STV","players":[{"user_id":32,"name":"truebosnianking","steam_id":76561199440060597,"connected_time":188000000000,"state":"active","ping":87},{"user_id":7,"name":"Rare bulldog owner","steam_id":76561199407941086,"connected_time":3571000000000,"state":"active","ping":72},{"user_id":23,"name":"Zama","steam_id":76561199121691104,"connected_time":1249000000000,"state":"active","ping":45},{"user_id":33,"name":"‚òÜMiNTERRRRR‚òÜ","steam_id":76561198799866156,"connected_time":151000000000,"state":"active","ping":114},{"user_id":34,"name":"Sir.Wheatly","steam_id":76561197995938007,"connected_time":114000000000,"state":"active","ping":110},{"user_id":28,"name":"Grumtsior","steam_id":76561198043563111,"connected_time":787000000000,"state":"active","ping":78},{"user_id":30,"name":"Spich","steam_id":76561199017245962,"connected_time":465000000000,"state":"active","ping":93}]},{"server_id":300,"name":"Uncletopia | Montr√©al | 1 | All Maps","name_short":"mtl-1","host":"mtl-1.ca.uncletopia.com","port":27015,"enabled":true,"region":"us-east","cc":"ca","latitude":45.50889,"longitude":-73.56167,"reserved":0,"last_update":"0001-01-01T00:00:00Z","name_a2s":"Uncletopia | Montr√©al | 1 | All Maps","protocol":17,"map":"pl_snowycoast","folder":"tf","game":"Team Fortress","app_id":440,"player_count":0,"max_players":24,"Bots":0,"server_type":"Dedicated","server_os":"Linux","password":true,"vac":true,"version":"7882260","steam_id":85568392924500087,"keywords":["nocrits","nodmgspread","payload","uncletopia"],"game_id":440,"stv_port":27016,"stv_name":"Uncletopia | Montr√©al | 1 | All Maps | STV","players":null},{"server_id":301,"name":"Uncletopia | Montr√©al | 2 | All Maps","name_short":"mtl-2","host":"mtl-1.ca.uncletopia.com","port":27025,"enabled":true,"region":"us-east","cc":"ca","latitude":45.50889,"longitude":-73.56167,"reserved":0,"last_update":"0001-01-01T00:00:00Z","name_a2s":"Uncletopia | Montr√©al | 2 | All Maps","protocol":17,"map":"cp_sunshine","folder":"tf","game":"Team Fortress","app_id":440,"player_count":0,"max_players":24,"Bots":0,"server_type":"Dedicated","server_os":"Linux","password":true,"vac":true,"version":"7882260","steam_id":85568392924500088,"keywords":["cp","nocrits","nodmgspread","uncletopia"],"game_id":440,"stv_port":27026,"stv_name":"Uncletopia | Montr√©al | 2 | All Maps | STV","players":null},{"server_id":302,"name":"Uncletopia | Montr√©al | 3 | All Maps","name_short":"mtl-3","host":"mtl-1.ca.uncletopia.com","port":27035,"enabled":true,"region":"us-east","cc":"ca","latitude":45.50889,"longitude":-73.56167,"reserved":0,"last_update":"0001-01-01T00:00:00Z","name_a2s":"Uncletopia | Montr√©al | 3 | All Maps","protocol":17,"map":"pl_borneo","folder":"tf","game":"Team Fortress","app_id":440,"player_count":0,"max_players":24,"Bots":0,"server_type":"Dedicated","server_os":"Linux","password":true,"vac":true,"version":"7882260","steam_id":85568392924500089,"keywords":["nocrits","nodmgspread","payload","uncletopia"],"game_id":440,"stv_port":27036,"stv_name":"Uncletopia | Montr√©al | 3 | All Maps | STV","players":null},{"server_id":303,"name":"Uncletopia | Montr√©al | 4 | No Payload","name_short":"mtl-4","host":"mtl-1.ca.uncletopia.com","port":27045,"enabled":true,"region":"us-east","cc":"ca","latitude":45.50889,"longitude":-73.56167,"reserved":0,"last_update":"0001-01-01T00:00:00Z","name_a2s":"Uncletopia | Montr√©al | 4 | No Payload","protocol":17,"map":"cp_altitude","folder":"tf","game":"Team Fortress","app_id":440,"player_count":0,"max_players":24,"Bots":0,"server_type":"Dedicated","server_os":"Linux","password":true,"vac":true,"version":"7882260","steam_id":85568392924500090,"keywords":["cp","nocrits","nodmgspread","uncletopia"],"game_id":440,"stv_port":27046,"stv_name":"Uncletopia | Montr√©al | 4 | No Payload | STV","players":null},{"server_id":13,"name":"Uncletopia | New York City | 1 | All Maps","name_short":"nyc-1","host":"nyc-1.us.uncletopia.com","port":27015,"enabled":true,"region":"us-east","cc":"us","latitude":40.73061,"longitude":-73.93524,"reserved":0,"last_update":"0001-01-01T00:00:00Z","name_a2s":"Uncletopia | New York City | 1 | All Maps","protocol":17,"map":"pl_borneo","folder":"tf","game":"Team Fortress","app_id":440,"player_count":0,"max_players":24,"Bots":0,"server_type":"Dedicated","server_os":"Linux","password":true,"vac":true,"version":"7882260","steam_id":85568392924469993,"keywords":["nocrits","nodmgspread","payload","uncletopia"],"game_id":440,"stv_port":27016,"stv_name":"Uncletopia | New York City | 1 | All Maps | STV","players":null},{"server_id":14,"name":"Uncletopia | New York City | 2 | All Maps","name_short":"nyc-2","host":"nyc-1.us.uncletopia.com","port":27025,"enabled":true,"region":"us-east","cc":"us","latitude":40.73061,"longitude":-73.93524,"reserved":0,"last_update":"0001-01-01T00:00:00Z","name_a2s":"Uncletopia | New York City | 2 | All Maps","protocol":17,"map":"koth_cascade","folder":"tf","game":"Team Fortress","app_id":440,"player_count":0,"max_players":24,"Bots":0,"server_type":"Dedicated","server_os":"Linux","password":true,"vac":true,"version":"7882260","steam_id":85568392924469994,"keywords":["cp","nocrits","nodmgspread","uncletopia"],"game_id":440,"stv_port":27026,"stv_name":"Uncletopia | New York City | 2 | All Maps | STV","players":null},{"server_id":15,"name":"Uncletopia | New York City | 3 | Stopwatch Beta","name_short":"nyc-3","host":"nyc-1.us.uncletopia.com","port":27035,"enabled":true,"region":"us-east","cc":"us","latitude":40.73061,"longitude":-73.93524,"reserved":0,"last_update":"0001-01-01T00:00:00Z","name_a2s":"Uncletopia | New York City | 3 | Stopwatch Beta","protocol":17,"map":"koth_lakeside_final","folder":"tf","game":"Team Fortress","app_id":440,"player_count":0,"max_players":24,"Bots":0,"server_type":"Dedicated","server_os":"Linux","password":true,"vac":true,"version":"7882260","steam_id":85568392924742820,"keywords":["cp","nocrits","nodmgspread","uncletopia"],"game_id":440,"stv_port":27036,"stv_name":"Uncletopia | New York City | 3 | Stopwatch Beta | STV","players":null},{"server_id":16,"name":"Uncletopia | New York City | 4 | Community","name_short":"nyc-4","host":"nyc-1.us.uncletopia.com","port":27045,"enabled":true,"region":"us-east","cc":"us","latitude":40.73061,"longitude":-73.93524,"reserved":0,"last_update":"0001-01-01T00:00:00Z","name_a2s":"Uncletopia | New York City | 4 | Community","protocol":17,"map":"pl_badwater","folder":"tf","game":"Team Fortress","app_id":440,"player_count":0,"max_players":24,"Bots":0,"server_type":"Dedicated","server_os":"Linux","password":true,"vac":true,"version":"7882260","steam_id":85568392924742821,"keywords":["nocrits","nodmgspread","payload","uncletopia"],"game_id":440,"stv_port":27046,"stv_name":"Uncletopia | New York City | 4 | Community | STV","players":null},{"server_id":142,"name":"Uncletopia | S√£o Paulo | 1 | All Maps","name_short":"sao-1","host":"sao-1.br.uncletopia.com","port":27015,"enabled":true,"region":"sa","cc":"br","latitude":-23.533773,"longitude":-46.62529,"reserved":0,"last_update":"0001-01-01T00:00:00Z","name_a2s":"Uncletopia | S√£o Paulo | 1 | All Maps","protocol":17,"map":"cp_process_final","folder":"tf","game":"Team Fortress","app_id":440,"player_count":0,"max_players":24,"Bots":0,"server_type":"Dedicated","server_os":"Linux","password":true,"vac":true,"version":"7882260","steam_id":85568392924469996,"keywords":["cp","nocrits","nodmgspread","uncletopia"],"game_id":440,"stv_port":27016,"stv_name":"Uncletopia | S√£o Paulo | 1 | All Maps | STV","players":null},{"server_id":143,"name":"Uncletopia | S√£o Paulo | 2 | All Maps","name_short":"sao-2","host":"sao-2.br.uncletopia.com","port":27015,"enabled":true,"region":"sa","cc":"br","latitude":-23.533773,"longitude":-46.62529,"reserved":0,"last_update":"0001-01-01T00:00:00Z","name_a2s":"Uncletopia | S√£o Paulo | 2 | All Maps","protocol":17,"map":"pl_snowycoast","folder":"tf","game":"Team Fortress","app_id":440,"player_count":0,"max_players":24,"Bots":0,"server_type":"Dedicated","server_os":"Linux","password":true,"vac":true,"version":"7882260","steam_id":85568392924485349,"keywords":["nocrits","nodmgspread","payload","uncletopia"],"game_id":440,"stv_port":27016,"stv_name":"Uncletopia | S√£o Paulo | 2 | All Maps | STV","players":null},{"server_id":7,"name":"Uncletopia | Seattle | 1 | All Maps","name_short":"sea-1","host":"sea-1.us.uncletopia.com","port":27015,"enabled":true,"region":"us-west","cc":"us","latitude":47.608013,"longitude":-122.33517,"reserved":0,"last_update":"0001-01-01T00:00:00Z","name_a2s":"Uncletopia | Seattle | 1 | All Maps","protocol":17,"map":"pl_badwater","folder":"tf","game":"Team Fortress","app_id":440,"player_count":0,"max_players":24,"Bots":0,"server_type":"Dedicated","server_os":"Linux","password":true,"vac":true,"version":"7882260","steam_id":85568392924469997,"keywords":["nocrits","nodmgspread","payload","uncletopia"],"game_id":440,"stv_port":27016,"stv_name":"Uncletopia | Seattle | 1 | All Maps | STV","players":null},{"server_id":119,"name":"Uncletopia | Seattle | 2 | All Maps","name_short":"sea-2","host":"sea-1.us.uncletopia.com","port":27025,"enabled":true,"region":"us-west","cc":"us","latitude":47.608013,"longitude":-122.33517,"reserved":0,"last_update":"0001-01-01T00:00:00Z","name_a2s":"Uncletopia | Seattle | 2 | All Maps","protocol":17,"map":"cp_dustbowl","folder":"tf","game":"Team Fortress","app_id":440,"player_count":23,"max_players":24,"Bots":0,"server_type":"Dedicated","server_os":"Linux","password":true,"vac":true,"version":"7882260","steam_id":85568392924469998,"keywords":["cp","nocrits","nodmgspread","uncletopia"],"game_id":440,"stv_port":27026,"stv_name":"Uncletopia | Seattle | 2 | All Maps | STV","players":[{"user_id":601,"name":"‚ô° ironterrortrain ‚ô°","steam_id":76561198046460418,"connected_time":14617000000000,"state":"active","ping":76},{"user_id":794,"name":"THEY LET YOU PUT ANYTHING HERE","steam_id":76561198056214875,"connected_time":961000000000,"state":"active","ping":108},{"user_id":762,"name":"Where The F**K I Am?","steam_id":76561197986530028,"connected_time":3678000000000,"state":"active","ping":99},{"user_id":770,"name":"HellaCopter","steam_id":76561198062313698,"connected_time":3314000000000,"state":"active","ping":45},{"user_id":783,"name":"Sou1Eater7","steam_id":76561198011330131,"connected_time":2567000000000,"state":"active","ping":123},{"user_id":795,"name":"Korean Game Designer","steam_id":76561198329996506,"connected_time":753000000000,"state":"active","ping":105},{"user_id":802,"name":"Matsuringo","steam_id":76561197993790862,"connected_time":39000000000,"state":"active","ping":32},{"user_id":804,"name":"FI LO","steam_id":76561198976530881,"connected_time":16000000000,"state":"active","ping":71},{"user_id":784,"name":"Tyler\u0026Fingers","steam_id":76561198085154485,"connected_time":2366000000000,"state":"active","ping":134},{"user_id":792,"name":"quoy","steam_id":76561198085862748,"connected_time":999000000000,"state":"active","ping":46},{"user_id":799,"name":"cobalt","steam_id":76561198126982318,"connected_time":455000000000,"state":"active","ping":86},{"user_id":773,"name":"oske","steam_id":76561198131526809,"connected_time":3229000000000,"state":"active","ping":75},{"user_id":757,"name":"KonJac","steam_id":76561198027812652,"connected_time":3960000000000,"state":"active","ping":71},{"user_id":793,"name":"John Calibur","steam_id":76561197999986606,"connected_time":996000000000,"state":"active","ping":64},{"user_id":796,"name":"DanceBunny","steam_id":76561198243610560,"connected_time":745000000000,"state":"active","ping":76},{"user_id":791,"name":"Zizen","steam_id":76561199011832069,"connected_time":1425000000000,"state":"active","ping":70},{"user_id":778,"name":"Xain35","steam_id":76561198121834307,"connected_time":2720000000000,"state":"active","ping":45},{"user_id":797,"name":"Spiderfight1","steam_id":76561199189991528,"connected_time":723000000000,"state":"active","ping":147},{"user_id":777,"name":"Sil","steam_id":76561199029535430,"connected_time":2795000000000,"state":"active","ping":52},{"user_id":790,"name":"Headmouth","steam_id":76561198019789855,"connected_time":1807000000000,"state":"active","ping":164},{"user_id":798,"name":"noble","steam_id":76561199082016496,"connected_time":646000000000,"state":"active","ping":74},{"user_id":803,"name":"cheeeezball","steam_id":76561198086461519,"connected_time":39000000000,"state":"spawning","ping":65},{"user_id":701,"name":"toilet thief","steam_id":76561198057486874,"connected_time":7858000000000,"state":"active","ping":75}]},{"server_id":406,"name":"Uncletopia | Seattle | 3 | Stopwatch Beta","name_short":"sea-3","host":"sea-1.us.uncletopia.com","port":27035,"enabled":true,"region":"us-west","cc":"us","latitude":47.608013,"longitude":-122.33517,"reserved":0,"last_update":"0001-01-01T00:00:00Z","name_a2s":"Uncletopia | Seattle | 3 | Stopwatch Beta","protocol":17,"map":"workshop/koth_ramjam_rc1.ugc459778887","folder":"tf","game":"Team Fortress","app_id":440,"player_count":0,"max_players":24,"Bots":0,"server_type":"Dedicated","server_os":"Linux","password":true,"vac":true,"version":"7882260","steam_id":85568392924515217,"keywords":["cp","nocrits","nodmgspread","uncletopia"],"game_id":440,"stv_port":27036,"stv_name":"Uncletopia | Seattle | 3 | Stopwatch Beta | STV","players":null},{"server_id":17,"name":"Uncletopia | San Francisco | 1 | All Maps","name_short":"sfo-1","host":"sfo-1.us.uncletopia.com","port":27015,"enabled":true,"region":"us-west","cc":"us","latitude":37.77397,"longitude":-122.4313,"reserved":0,"last_update":"0001-01-01T00:00:00Z","name_a2s":"Uncletopia | San Francisco | 1 | All Maps","protocol":17,"map":"koth_lakeside_final","folder":"tf","game":"Team Fortress","app_id":440,"player_count":0,"max_players":24,"Bots":0,"server_type":"Dedicated","server_os":"Linux","password":true,"vac":true,"version":"7882260","steam_id":85568392924469999,"keywords":["cp","nocrits","nodmgspread","uncletopia"],"game_id":440,"stv_port":27016,"stv_name":"Uncletopia | San Francisco | 1 | All Maps | STV","players":null},{"server_id":18,"name":"Uncletopia | San Francisco | 2 | All Maps","name_short":"sfo-2","host":"sfo-1.us.uncletopia.com","port":27025,"enabled":true,"region":"us-west","cc":"us","latitude":37.77397,"longitude":-122.4313,"reserved":0,"last_update":"0001-01-01T00:00:00Z","name_a2s":"Uncletopia | San Francisco | 2 | All Maps","protocol":17,"map":"pl_borneo","folder":"tf","game":"Team Fortress","app_id":440,"player_count":5,"max_players":24,"Bots":0,"server_type":"Dedicated","server_os":"Linux","password":true,"vac":true,"version":"7882260","steam_id":85568392924470000,"keywords":["nocrits","nodmgspread","payload","uncletopia"],"game_id":440,"stv_port":27026,"stv_name":"Uncletopia | San Francisco | 2 | All Maps | STV","players":[{"user_id":266,"name":"Engineer(matejkolcz)","steam_id":76561198280461212,"connected_time":3739000000000,"state":"active","ping":206},{"user_id":275,"name":"IMM0RTAL","steam_id":76561198013747901,"connected_time":172000000000,"state":"active","ping":112},{"user_id":276,"name":"LEHONKENINGCLOWN","steam_id":76561199024647418,"connected_time":40000000000,"state":"active","ping":209},{"user_id":270,"name":"Mak","steam_id":76561198089197922,"connected_time":2296000000000,"state":"active","ping":74},{"user_id":277,"name":"Merrie Melodies","steam_id":76561199086808471,"connected_time":7000000000,"state":"spawning","ping":232}]},{"server_id":19,"name":"Uncletopia | San Francisco | 3 | Stopwatch Beta","name_short":"sfo-3","host":"sfo-1.us.uncletopia.com","port":27035,"enabled":true,"region":"us-west","cc":"us","latitude":37.77397,"longitude":-122.4313,"reserved":0,"last_update":"0001-01-01T00:00:00Z","name_a2s":"Uncletopia | San Francisco | 3 | Stopwatch Beta","protocol":17,"map":"workshop/koth_bagel_rc6.ugc2514036946","folder":"tf","game":"Team Fortress","app_id":440,"player_count":0,"max_players":24,"Bots":0,"server_type":"Dedicated","server_os":"Linux","password":true,"vac":true,"version":"7882260","steam_id":85568392924742824,"keywords":["cp","nocrits","nodmgspread","uncletopia"],"game_id":440,"stv_port":27036,"stv_name":"Uncletopia | San Francisco | 3 | Stopwatch Beta | STV","players":null},{"server_id":20,"name":"Uncletopia | San Francisco | 4 | Community","name_short":"sfo-4","host":"sfo-1.us.uncletopia.com","port":27045,"enabled":true,"region":"us-west","cc":"us","latitude":37.77397,"longitude":-122.4313,"reserved":0,"last_update":"0001-01-01T00:00:00Z","name_a2s":"Uncletopia | San Francisco | 4 | Community","protocol":17,"map":"workshop/cp_indulge.ugc528106646","folder":"tf","game":"Team Fortress","app_id":440,"player_count":0,"max_players":24,"Bots":0,"server_type":"Dedicated","server_os":"Linux","password":true,"vac":true,"version":"7882260","steam_id":85568392924742826,"keywords":["cp","nocrits","nodmgspread","uncletopia"],"game_id":440,"stv_port":27046,"stv_name":"Uncletopia | San Francisco | 4 | Community | STV","players":null},{"server_id":141,"name":"Uncletopia | Sydney | 1 | All Maps","name_short":"syd-1","host":"syd-1.au.uncletopia.com","port":27015,"enabled":true,"region":"au","cc":"au","latitude":-33.865143,"longitude":151.2099,"reserved":0,"last_update":"0001-01-01T00:00:00Z","name_a2s":"Uncletopia | Sydney | 1 | All Maps","protocol":17,"map":"koth_nucleus","folder":"tf","game":"Team Fortress","app_id":440,"player_count":20,"max_players":24,"Bots":0,"server_type":"Dedicated","server_os":"Linux","password":true,"vac":true,"version":"7882260","steam_id":85568392924470001,"keywords":["cp","nocrits","nodmgspread","uncletopia"],"game_id":440,"stv_port":27016,"stv_name":"Uncletopia | Sydney | 1 | All Maps | STV","players":[{"user_id":1028,"name":"FlamingEngi","steam_id":76561199485241873,"connected_time":603000000000,"state":"active","ping":173},{"user_id":980,"name":"bread","steam_id":76561199405764106,"connected_time":3913000000000,"state":"active","ping":40},{"user_id":1025,"name":"TKO Stretchy","steam_id":76561198154827555,"connected_time":753000000000,"state":"active","ping":54},{"user_id":1036,"name":"fern.the.rogue","steam_id":76561199022486381,"connected_time":60000000000,"state":"active","ping":365},{"user_id":976,"name":"_MAFKEES","steam_id":76561198233733104,"connected_time":4037000000000,"state":"active","ping":70},{"user_id":1000,"name":"MikkyD","steam_id":76561198043452962,"connected_time":2614000000000,"state":"active","ping":68},{"user_id":1010,"name":"Genuline","steam_id":76561198126426787,"connected_time":1801000000000,"state":"active","ping":44},{"user_id":1024,"name":"Zepi","steam_id":76561198018887052,"connected_time":872000000000,"state":"active","ping":54},{"user_id":996,"name":"L.ion","steam_id":76561198261172910,"connected_time":2770000000000,"state":"active","ping":52},{"user_id":1026,"name":"Phil Mike Hunt","steam_id":76561198044836304,"connected_time":728000000000,"state":"active","ping":63},{"user_id":1029,"name":"Gnat","steam_id":76561198109747863,"connected_time":556000000000,"state":"active","ping":100},{"user_id":1030,"name":"dumbvent","steam_id":76561198190062810,"connected_time":486000000000,"state":"active","ping":63},{"user_id":1020,"name":"tim88435","steam_id":76561198089653987,"connected_time":1186000000000,"state":"active","ping":51},{"user_id":1031,"name":"Chibi Wolf","steam_id":76561198074235306,"connected_time":380000000000,"state":"active","ping":58},{"user_id":1037,"name":"Milk Man","steam_id":76561198882677157,"connected_time":59000000000,"state":"active","ping":60},{"user_id":988,"name":"Jiffy360","steam_id":76561198149550772,"connected_time":3638000000000,"state":"active","ping":91},{"user_id":1038,"name":"Trojan","steam_id":76561199087044066,"connected_time":51000000000,"state":"spawning","ping":605},{"user_id":1012,"name":"little raw meat boy","steam_id":76561199248254676,"connected_time":1780000000000,"state":"active","ping":56},{"user_id":1014,"name":"Rashid Of The Dank Memes","steam_id":76561198281398078,"connected_time":1720000000000,"state":"active","ping":63},{"user_id":1039,"name":"Leonidas","steam_id":76561198054096076,"connected_time":24000000000,"state":"active","ping":45}]},{"server_id":123,"name":"Uncletopia | Sydney | 2 | All Maps","name_short":"syd-2","host":"syd-1.au.uncletopia.com","port":27025,"enabled":true,"region":"au","cc":"au","latitude":-33.865143,"longitude":151.2099,"reserved":0,"last_update":"0001-01-01T00:00:00Z","name_a2s":"Uncletopia | Sydney | 2 | All Maps","protocol":17,"map":"pl_badwater","folder":"tf","game":"Team Fortress","app_id":440,"player_count":24,"max_players":24,"Bots":0,"server_type":"Dedicated","server_os":"Linux","password":true,"vac":true,"version":"7882260","steam_id":85568392924470002,"keywords":["nocrits","nodmgspread","payload","uncletopia"],"game_id":440,"stv_port":27026,"stv_name":"Uncletopia | Sydney | 2 | All Maps | STV","players":[{"user_id":347,"name":"Mooty","steam_id":76561198301293435,"connected_time":1977000000000,"state":"active","ping":46},{"user_id":298,"name":"Lumalee ‚ù§","steam_id":76561198157613299,"connected_time":5649000000000,"state":"active","ping":61},{"user_id":368,"name":"osmosis bones","steam_id":76561198106621308,"connected_time":758000000000,"state":"active","ping":77},{"user_id":353,"name":"Just Another Sandwich","steam_id":76561198137632334,"connected_time":1722000000000,"state":"active","ping":42},{"user_id":360,"name":"miyamoto is daddy","steam_id":76561199483818230,"connected_time":1445000000000,"state":"active","ping":77},{"user_id":363,"name":"SuPerTeD","steam_id":76561197996233289,"connected_time":1149000000000,"state":"active","ping":80},{"user_id":364,"name":"Pile of Sneed","steam_id":76561198143537391,"connected_time":1126000000000,"state":"active","ping":55},{"user_id":356,"name":"Welshey","steam_id":76561198849974390,"connected_time":1610000000000,"state":"active","ping":83},{"user_id":357,"name":"Nugget","steam_id":76561197961747465,"connected_time":1606000000000,"state":"active","ping":89},{"user_id":370,"name":"Pompadouraus","steam_id":76561198327530525,"connected_time":167000000000,"state":"active","ping":75},{"user_id":345,"name":"Mogin","steam_id":76561199020454029,"connected_time":2141000000000,"state":"active","ping":112},{"user_id":321,"name":"zorbingus blurgorgus","steam_id":76561198063481761,"connected_time":4199000000000,"state":"active","ping":42},{"user_id":317,"name":"Chromo Patrol","steam_id":76561197987001534,"connected_time":4440000000000,"state":"active","ping":99},{"user_id":325,"name":"lugig","steam_id":76561198264839805,"connected_time":3697000000000,"state":"active","ping":60},{"user_id":365,"name":"Whyyan","steam_id":76561198123825900,"connected_time":1057000000000,"state":"active","ping":58},{"user_id":349,"name":"terrablade_master","steam_id":76561198997249192,"connected_time":1907000000000,"state":"active","ping":70},{"user_id":350,"name":"scuba cat... my beloved","steam_id":76561198203917953,"connected_time":1879000000000,"state":"active","ping":63},{"user_id":278,"name":"Mario","steam_id":76561198828095685,"connected_time":7169000000000,"state":"active","ping":70},{"user_id":270,"name":"Wario","steam_id":76561198188708730,"connected_time":7581000000000,"state":"active","ping":63},{"user_id":371,"name":"GTH","steam_id":76561198004948857,"connected_time":135000000000,"state":"active","ping":68},{"user_id":366,"name":"asian.forty.seven","steam_id":76561199164513885,"connected_time":1050000000000,"state":"active","ping":69},{"user_id":323,"name":"whiteshaq","steam_id":76561198131988811,"connected_time":4053000000000,"state":"active","ping":47},{"user_id":367,"name":"SCHEFF","steam_id":76561198078226216,"connected_time":1049000000000,"state":"active","ping":58},{"user_id":374,"name":"no regurts","steam_id":76561198054804209,"connected_time":7000000000,"state":"active","ping":272}]},{"server_id":395,"name":"Uncletopia | Sydney | 3 | All Maps","name_short":"syd-3","host":"syd-1.au.uncletopia.com","port":27035,"enabled":true,"region":"au","cc":"au","latitude":-33.865143,"longitude":151.2099,"reserved":0,"last_update":"0001-01-01T00:00:00Z","name_a2s":"Uncletopia | Sydney | 3 | All Maps","protocol":17,"map":"cp_sunshine","folder":"tf","game":"Team Fortress","app_id":440,"player_count":0,"max_players":24,"Bots":0,"server_type":"Dedicated","server_os":"Linux","password":true,"vac":true,"version":"7882260","steam_id":85568392925194467,"keywords":["cp","nocrits","nodmgspread","uncletopia"],"game_id":440,"stv_port":27036,"stv_name":"Uncletopia | Sydney | 3 | All Maps | STV","players":null},{"server_id":396,"name":"Uncletopia | Sydney | 4 | All Maps","name_short":"syd-4","host":"syd-1.au.uncletopia.com","port":27045,"enabled":true,"region":"au","cc":"au","latitude":-33.865143,"longitude":151.2099,"reserved":0,"last_update":"0001-01-01T00:00:00Z","name_a2s":"Uncletopia | Sydney | 4 | All Maps","protocol":17,"map":"pl_barnblitz","folder":"tf","game":"Team Fortress","app_id":440,"player_count":0,"max_players":24,"Bots":0,"server_type":"Dedicated","server_os":"Linux","password":true,"vac":true,"version":"7882260","steam_id":85568392925397958,"keywords":["nocrits","nodmgspread","payload","uncletopia"],"game_id":440,"stv_port":27046,"stv_name":"Uncletopia | Sydney | 4 | All Maps | STV","players":null},{"server_id":58,"name":"Uncletopia | Sydney | 5 | Stopwatch Beta","name_short":"syd-5","host":"syd-1.au.uncletopia.com","port":27055,"enabled":true,"region":"au","cc":"au","latitude":-33.865143,"longitude":151.2099,"reserved":0,"last_update":"0001-01-01T00:00:00Z","name_a2s":"Uncletopia | Sydney | 5 | Stopwatch Beta","protocol":17,"map":"workshop/pl_vigil_rc9.ugc1266210012","folder":"tf","game":"Team Fortress","app_id":440,"player_count":0,"max_players":24,"Bots":0,"server_type":"Dedicated","server_os":"Linux","password":true,"vac":true,"version":"7882260","steam_id":85568392925397959,"keywords":["nocrits","nodmgspread","payload","uncletopia"],"game_id":440,"stv_port":27056,"stv_name":"Uncletopia | Sydney | 5 | Stopwatch Beta | STV","players":null},{"server_id":59,"name":"Uncletopia | Sydney | 6 | Community","name_short":"syd-6","host":"syd-1.au.uncletopia.com","port":27065,"enabled":true,"region":"au","cc":"au","latitude":-33.865143,"longitude":151.2099,"reserved":0,"last_update":"0001-01-01T00:00:00Z","name_a2s":"Uncletopia | Sydney | 6 | Community","protocol":17,"map":"workshop/rd_asteroid_redux_b1.ugc2154902912","folder":"tf","game":"Team Fortress","app_id":440,"player_count":0,"max_players":24,"Bots":0,"server_type":"Dedicated","server_os":"Linux","password":true,"vac":true,"version":"7882260","steam_id":85568392925397960,"keywords":["beta","nocrits","nodmgspread","rd","uncletopia"],"game_id":440,"stv_port":27066,"stv_name":"Uncletopia | Sydney | 6 | Community | STV","players":null},{"server_id":49,"name":"Uncletopia | Warsaw | 1 | All Maps","name_short":"waw-1","host":"waw-1.pl.uncletopia.com","port":27015,"enabled":true,"region":"eu","cc":"pl","latitude":52.2297,"longitude":21.017532,"reserved":0,"last_update":"0001-01-01T00:00:00Z","name_a2s":"","protocol":0,"map":"","folder":"","game":"","app_id":0,"player_count":0,"max_players":0,"Bots":0,"server_type":"","server_os":"","password":false,"vac":false,"version":"","steam_id":0,"keywords":null,"game_id":0,"stv_port":0,"stv_name":"","players":null},{"server_id":50,"name":"Uncletopia | Warsaw | 2 | All Maps","name_short":"waw-2","host":"waw-1.pl.uncletopia.com","port":27025,"enabled":true,"region":"eu","cc":"pl","latitude":52.2297,"longitude":21.017532,"reserved":0,"last_update":"0001-01-01T00:00:00Z","name_a2s":"Uncletopia | Warsaw | 2 | All Maps","protocol":17,"map":"cp_altitude","folder":"tf","game":"Team Fortress","app_id":440,"player_count":0,"max_players":24,"Bots":0,"server_type":"Dedicated","server_os":"Linux","password":true,"vac":true,"version":"7882260","steam_id":85568392925397851,"keywords":["cp","nocrits","nodmgspread","uncletopia"],"game_id":440,"stv_port":27026,"stv_name":"Uncletopia | Warsaw | 2 | All Maps | STV","players":null},{"server_id":51,"name":"Uncletopia | Warsaw | 3 | All Maps","name_short":"waw-3","host":"waw-1.pl.uncletopia.com","port":27035,"enabled":true,"region":"eu","cc":"pl","latitude":52.2297,"longitude":21.017532,"reserved":0,"last_update":"0001-01-01T00:00:00Z","name_a2s":"Uncletopia | Warsaw | 3 | All Maps","protocol":17,"map":"koth_viaduct","folder":"tf","game":"Team Fortress","app_id":440,"player_count":0,"max_players":24,"Bots":0,"server_type":"Dedicated","server_os":"Linux","password":true,"vac":true,"version":"7882260","steam_id":85568392925397852,"keywords":["cp","nocrits","nodmgspread","uncletopia"],"game_id":440,"stv_port":27036,"stv_name":"Uncletopia | Warsaw | 3 | All Maps | STV","players":null},{"server_id":52,"name":"Uncletopia | Warsaw | 4 | All Maps","name_short":"waw-4","host":"waw-1.pl.uncletopia.com","port":27045,"enabled":true,"region":"eu","cc":"pl","latitude":52.2297,"longitude":21.017532,"reserved":0,"last_update":"0001-01-01T00:00:00Z","name_a2s":"Uncletopia | Warsaw | 4 | All Maps","protocol":17,"map":"koth_highpass","folder":"tf","game":"Team Fortress","app_id":440,"player_count":0,"max_players":24,"Bots":0,"server_type":"Dedicated","server_os":"Linux","password":true,"vac":true,"version":"7882260","steam_id":85568392925397853,"keywords":["cp","nocrits","nodmgspread","uncletopia"],"game_id":440,"stv_port":27046,"stv_name":"Uncletopia | Warsaw | 4 | All Maps | STV","players":null},{"server_id":53,"name":"Uncletopia | Warsaw | 5 | Stopwatch Beta","name_short":"waw-5","host":"waw-1.pl.uncletopia.com","port":27055,"enabled":true,"region":"eu","cc":"pl","latitude":52.2297,"longitude":21.017532,"reserved":0,"last_update":"0001-01-01T00:00:00Z","name_a2s":"Uncletopia | Warsaw | 5 | Stopwatch Beta","protocol":17,"map":"cp_mountainlab","folder":"tf","game":"Team Fortress","app_id":440,"player_count":0,"max_players":24,"Bots":0,"server_type":"Dedicated","server_os":"Linux","password":true,"vac":true,"version":"7882260","steam_id":85568392925397854,"keywords":["cp","nocrits","nodmgspread","uncletopia"],"game_id":440,"stv_port":27056,"stv_name":"Uncletopia | Warsaw | 5 | Stopwatch Beta | STV","players":null},{"server_id":54,"name":"Uncletopia | Warsaw | 6 | Community","name_short":"waw-6","host":"waw-1.pl.uncletopia.com","port":27065,"enabled":true,"region":"eu","cc":"pl","latitude":52.2297,"longitude":21.017532,"reserved":0,"last_update":"0001-01-01T00:00:00Z","name_a2s":"Uncletopia | Warsaw | 6 | Community","protocol":17,"map":"koth_viaduct","folder":"tf","game":"Team Fortress","app_id":440,"player_count":0,"max_players":24,"Bots":0,"server_type":"Dedicated","server_os":"Linux","password":true,"vac":true,"version":"7882260","steam_id":85568392925397856,"keywords":["cp","nocrits","nodmgspread","uncletopia"],"game_id":440,"stv_port":27066,"stv_name":"Uncletopia | Warsaw | 6 | Community | STV","players":null}]}