{"status":true,"message":"","result":[{"server_id":9,"name":"Uncletopia | Atlanta | 1 | All Maps","name_short":"atl-1","host":"atl-1.us.uncletopia.com","port":27015,"enabled":true,"region":"us-east","cc":"us","latitude":33.753746,"longitude":-84.38633,"reserved":0,"last_update":"0001-01-01T00:00:00Z","name_a2s":"Uncletopia | Atlanta | 1 | All Maps","protocol":17,"map":"pl_upward","folder":"tf","game":"Team Fortress","app_id":440,"player_count":24,"max_players":24,"Bots":0,"server_type":"Dedicated","server_os":"Linux","password":true,"vac":true,"version":"7961495","steam_id":85568392924469982,"keywords":["nocrits","nodmgspread","payload","uncletopia"],"game_id":440,"stv_port":27016,"stv_name":"Uncletopia | Atlanta | 1 | All Maps | STV","players":[{"user_id":290,"name":"Rat","steam_id":76561198137925582,"connected_time":2139000000000,"state":"active","ping":64},{"user_id":256,"name":"Brown_Dream","steam_id":76561198975766145,"connected_time":6354000000000,"state":"active","ping":73},{"user_id":271,"name":"Sucsubot","steam_id":76561198106456128,"connected_time":5182000000000,"state":"active","ping":60},{"user_id":289,"name":"BIG HOG","steam_id":76561198079923652,"connected_time":2190000000000,"state":"active","ping":68},{"user_id":257,"name":"Intro Bonito","steam_id":76561198119478838,"connected_time":6257000000000,"state":"active","ping":46},{"user_id":303,"name":"Whispen","steam_id":76561198225905640,"connected_time":714000000000,"state":"active","ping":67},{"user_id":306,"name":"Sinta","steam_id":76561198098398841,"connected_time":664000000000,"state":"active","ping":61},{"user_id":263,"name":"An Engineer","steam_id":76561198110381643,"connected_time":5234000000000,"state":"active","ping":59},{"user_id":304,"name":"brotalium","steam_id":76561198055439054,"connected_time":700000000000,"state":"active","ping":59},{"user_id":309,"name":"Sythoo","steam_id":76561198220893788,"connected_time":442000000000,"state":"active","ping":73},{"user_id":308,"name":"Jest","steam_id":76561198170173062,"connected_time":552000000000,"state":"active","ping":118},{"user_id":302,"name":"dantheman","steam_id":76561199486390813,"connected_time":763000000000,"state":"active","ping":60},{"user_id":129,"name":"lil hog","steam_id":76561199230929836,"connected_time":17002000000000,"state":"active","ping":144},{"user_id":299,"name":"z","steam_id":76561198377478982,"connected_time":1098000000000,"state":"active","ping":71},{"user_id":298,"name":"Genetic Komodo (He/Him)","steam_id":76561198174806758,"connected_time":1280000000000,"state":"active","ping":63},{"user_id":301,"name":"M4TT","steam_id":76561198118496274,"connected_time":1074000000000,"state":"active","ping":81},{"user_id":260,"name":"DeezNoodlez","steam_id":76561198246700372,"connected_time":5717000000000,"state":"active","ping":53},{"user_id":249,"name":"lilac brooch...","steam_id":76561198333718916,"connected_time":6728000000000,"state":"active","ping":51},{"user_id":292,"name":"SnazzyCelestial","steam_id":76561198328763813,"connected_time":2063000000000,"state":"active","ping":57},{"user_id":300,"name":"sal","steam_id":76561198814096380,"connected_time":1096000000000,"state":"active","ping":84},{"user_id":307,"name":"Novu","steam_id":76561198886997024,"connected_time":613000000000,"state":"active","ping":85},{"user_id":288,"name":"krabby","steam_id":76561199072773402,"connected_time":2474000000000,"state":"active","ping":156},{"user_id":232,"name":"loot","steam_id":76561198069954956,"connected_time":7755000000000,"state":"active","ping":53},{"user_id":284,"name":"metalfan666","steam_id":76561198386344068,"connected_time":3012000000000,"state":"active","ping":69}]},{"server_id":104,"name":"Uncletopia | Atlanta | 2 | All Maps","name_short":"atl-2","host":"atl-1.us.uncletopia.com","port":27025,"enabled":true,"region":"us-east","cc":"us","latitude":33.753746,"longitude":-84.38633,"reserved":0,"last_update":"0001-01-01T00:00:00Z","name_a2s":"Uncletopia | Atlanta | 2 | All Maps","protocol":17,"map":"ctf_doublecross","folder":"tf","game":"Team Fortress","app_id":440,"player_count":22,"max_players":24,"Bots":0,"server_type":"Dedicated","server_os":"Linux","password":true,"vac":true,"version":"7961495","steam_id":85568392924469983,"keywords":["ctf","nocrits","nodmgspread","uncletopia"],"game_id":440,"stv_port":27026,"stv_name":"Uncletopia | Atlanta | 2 | All Maps | STV","players":[{"user_id":30,"name":"Breaker","steam_id":76561198275165836,"connected_time":4227000000000,"state":"active","ping":101},{"user_id":87,"name":"PK","steam_id":76561198368722500,"connected_time":306000000000,"state":"active","ping":60},{"user_id":84,"name":"mr. nice guy","steam_id":76561198209333517,"connected_time":567000000000,"state":"active","ping":68},{"user_id":12,"name":"lucky","steam_id":76561198323426623,"connected_time":4864000000000,"state":"active","ping":73},{"user_id":77,"name":"Boot Scootin Boogie","steam_id":76561198059171120,"connected_time":1053000000000,"state":"active","ping":65},{"user_id":72,"name":"GibbusGod","steam_id":76561199232436690,"connected_time":1343000000000,"state":"active","ping":47},{"user_id":56,"name":"Luxembird","steam_id":76561198079992107,"connected_time":1780000000000,"state":"active","ping":68},{"user_id":78,"name":"Santamen","steam_id":76561198119478199,"connected_time":1046000000000,"state":"active","ping":47},{"user_id":57,"name":"chen","steam_id":76561198064872330,"connected_time":1763000000000,"state":"active","ping":67},{"user_id":88,"name":"CheetoSmoke7","steam_id":76561198095217273,"connected_time":292000000000,"state":"active","ping":58},{"user_id":51,"name":"vastrobotmax","steam_id":76561198417110724,"connected_time":2433000000000,"state":"active","ping":75},{"user_id":75,"name":"TheEternalFlame","steam_id":76561198170101143,"connected_time":1303000000000,"state":"active","ping":66},{"user_id":76,"name":"-SL- Jeb Bush Liberation Army","steam_id":76561198046050045,"connected_time":1133000000000,"state":"active","ping":48},{"user_id":58,"name":"Godmode","steam_id":76561198076240365,"connected_time":1744000000000,"state":"active","ping":77},{"user_id":73,"name":"Carson","steam_id":76561198068551867,"connected_time":1342000000000,"state":"active","ping":72},{"user_id":62,"name":"Poodle","steam_id":76561199319713877,"connected_time":1640000000000,"state":"active","ping":45},{"user_id":86,"name":"TerracottaP","steam_id":76561199402983168,"connected_time":434000000000,"state":"active","ping":58},{"user_id":31,"name":"BB Lorexav","steam_id":76561198207565988,"connected_time":4189000000000,"state":"active","ping":56},{"user_id":32,"name":"Cbv isifjfofienentlgod","steam_id":76561198304661367,"connected_time":4186000000000,"state":"active","ping":59},{"user_id":74,"name":"HollyBlocky","steam_id":76561198030156100,"connected_time":1341000000000,"state":"active","ping":84},{"user_id":89,"name":"Smiles","steam_id":76561198107197973,"connected_time":178000000000,"state":"active","ping":87},{"user_id":81,"name":"Bigburgers","steam_id":76561198165013808,"connected_time":1014000000000,"state":"active","ping":69}]},{"server_id":400,"name":"Uncletopia | Atlanta | 3 | Stopwatch","name_short":"atl-3","host":"atl-1.us.uncletopia.com","port":27035,"enabled":true,"region":"us-east","cc":"us","latitude":33.753746,"longitude":-84.38633,"reserved":0,"last_update":"0001-01-01T00:00:00Z","name_a2s":"Uncletopia | Atlanta | 3 | Stopwatch","protocol":17,"map":"workshop/koth_bagel_rc6.ugc2514036946","folder":"tf","game":"Team Fortress","app_id":440,"player_count":0,"max_players":24,"Bots":0,"server_type":"Dedicated","server_os":"Linux","password":true,"vac":true,"version":"7961495","steam_id":85568392924515187,"keywords":["cp","nocrits","nodmgspread","uncletopia"],"game_id":440,"stv_port":27036,"stv_name":"Uncletopia | Atlanta | 3 | Stopwatch | STV","players":null},{"server_id":401,"name":"Uncletopia | Atlanta | 4 | Community","name_short":"atl-4","host":"atl-1.us.uncletopia.com","port":27045,"enabled":true,"region":"us-east","cc":"us","latitude":33.753746,"longitude":-84.38633,"reserved":0,"last_update":"0001-01-01T00:00:00Z","name_a2s":"Uncletopia | Atlanta | 4 | Community","protocol":17,"map":"workshop/koth_slaughter_rc1.ugc1712845210","folder":"tf","game":"Team Fortress","app_id":440,"player_count":0,"max_players":24,"Bots":0,"server_type":"Dedicated","server_os":"Linux","password":true,"vac":true,"version":"7961495","steam_id":85568392924515188,"keywords":["cp","nocrits","nodmgspread","uncletopia"],"game_id":440,"stv_port":27046,"stv_name":"Uncletopia | Atlanta | 4 | Community | STV","players":null},{"server_id":2,"name":"Uncletopia | Chicago | 1 | All Maps","name_short":"chi-1","host":"chi-1.us.uncletopia.com","port":27015,"enabled":true,"region":"us-central","cc":"us","latitude":41.881832,"longitude":-87.62318,"reserved":0,"last_update":"0001-01-01T00:00:00Z","name_a2s":"Uncletopia | Chicago | 1 | All Maps","protocol":17,"map":"cp_steel","folder":"tf","game":"Team Fortress","app_id":440,"player_count":24,"max_players":24,"Bots":0,"server_type":"Dedicated","server_os":"Linux","password":true,"vac":true,"version":"7961495","steam_id":85568392924469984,"keywords":["cp","nocrits","nodmgspread","uncletopia"],"game_id":440,"stv_port":27016,"stv_name":"Uncletopia | Chicago | 1 | All Maps | STV","players":[{"user_id":99,"name":"Rawhide Kobayashi","steam_id":76561198067051062,"connected_time":6452000000000,"state":"active","ping":37},{"user_id":174,"name":"ADrunkCaliburn","steam_id":76561198390889014,"connected_time":440000000000,"state":"active","ping":48},{"user_id":165,"name":"Emerald_Knight","steam_id":76561198067372868,"connected_time":1259000000000,"state":"active","ping":47},{"user_id":153,"name":"Cyclops_672","steam_id":76561198080169497,"connected_time":2194000000000,"state":"active","ping":52},{"user_id":180,"name":"Sportaflop","steam_id":76561197964085024,"connected_time":218000000000,"state":"active","ping":58},{"user_id":175,"name":"THIRDPIERCE","steam_id":76561198405366314,"connected_time":381000000000,"state":"active","ping":82},{"user_id":172,"name":"Robotferret87","steam_id":76561198259837716,"connected_time":481000000000,"state":"active","ping":81},{"user_id":171,"name":"[UHS] Assistant Manager","steam_id":76561199072970627,"connected_time":499000000000,"state":"active","ping":47},{"user_id":55,"name":"Mr.Pan","steam_id":76561198069030613,"connected_time":8806000000000,"state":"active","ping":66},{"user_id":169,"name":"TehOneZoot","steam_id":76561198121944243,"connected_time":542000000000,"state":"active","ping":75},{"user_id":154,"name":"LegendaryMister151","steam_id":76561198064890524,"connected_time":2081000000000,"state":"active","ping":74},{"user_id":173,"name":"Nintenjoe","steam_id":76561198821530178,"connected_time":467000000000,"state":"active","ping":73},{"user_id":176,"name":"dave strider","steam_id":76561198065112186,"connected_time":371000000000,"state":"active","ping":85},{"user_id":164,"name":"Ivory","steam_id":76561198978827841,"connected_time":1333000000000,"state":"active","ping":48},{"user_id":145,"name":"Rornir","steam_id":76561198081829615,"connected_time":2937000000000,"state":"active","ping":44},{"user_id":177,"name":"mintchocalot","steam_id":76561199074042407,"connected_time":370000000000,"state":"active","ping":75},{"user_id":178,"name":"chok","steam_id":76561198242016100,"connected_time":344000000000,"state":"active","ping":103},{"user_id":134,"name":"gps","steam_id":76561198067492304,"connected_time":3984000000000,"state":"active","ping":87},{"user_id":133,"name":"Addy \u003c3","steam_id":76561198045819723,"connected_time":4054000000000,"state":"active","ping":87},{"user_id":166,"name":"ChocoMcFudgeCake","steam_id":76561197994591295,"connected_time":1157000000000,"state":"active","ping":48},{"user_id":83,"name":"Sanic","steam_id":76561198083124962,"connected_time":7557000000000,"state":"active","ping":100},{"user_id":181,"name":"lover","steam_id":76561198089852954,"connected_time":203000000000,"state":"active","ping":87},{"user_id":179,"name":"LocaKola","steam_id":76561198173435430,"connected_time":310000000000,"state":"active","ping":66},{"user_id":168,"name":"Wasab1 Racon","steam_id":76561198271698198,"connected_time":795000000000,"state":"active","ping":75}]},{"server_id":106,"name":"Uncletopia | Chicago | 2 | All Maps","name_short":"chi-2","host":"chi-1.us.uncletopia.com","port":27025,"enabled":true,"region":"us-central","cc":"us","latitude":41.881832,"longitude":-87.62318,"reserved":0,"last_update":"0001-01-01T00:00:00Z","name_a2s":"Uncletopia | Chicago | 2 | All Maps","protocol":17,"map":"pl_badwater","folder":"tf","game":"Team Fortress","app_id":440,"player_count":24,"max_players":24,"Bots":0,"server_type":"Dedicated","server_os":"Linux","password":true,"vac":true,"version":"7961495","steam_id":85568392924469985,"keywords":["nocrits","nodmgspread","payload","uncletopia"],"game_id":440,"stv_port":27026,"stv_name":"Uncletopia | Chicago | 2 | All Maps | STV","players":[{"user_id":467,"name":"IVV4","steam_id":76561198194356583,"connected_time":274000000000,"state":"active","ping":69},{"user_id":442,"name":"IronicallyMe","steam_id":76561198882111337,"connected_time":2630000000000,"state":"active","ping":81},{"user_id":447,"name":"·πΩ‚ßâ Lojack Porscheman","steam_id":76561198000173889,"connected_time":2230000000000,"state":"active","ping":74},{"user_id":468,"name":"Milly","steam_id":76561198885055475,"connected_time":267000000000,"state":"active","ping":89},{"user_id":461,"name":"hcpeful","steam_id":76561198989505188,"connected_time":836000000000,"state":"active","ping":39},{"user_id":446,"name":"mr.edderkopper","steam_id":76561198152614478,"connected_time":2448000000000,"state":"active","ping":50},{"user_id":463,"name":"Bishop","steam_id":76561198033860186,"connected_time":753000000000,"state":"active","ping":75},{"user_id":473,"name":"Fermenting Kiwi","steam_id":76561198253303497,"connected_time":63000000000,"state":"active","ping":75},{"user_id":420,"name":"purple diesel","steam_id":76561197976548449,"connected_time":4045000000000,"state":"active","ping":75},{"user_id":458,"name":"soup","steam_id":76561198880568662,"connected_time":1143000000000,"state":"active","ping":54},{"user_id":437,"name":"Johnny Lawrence #JohnnyMaxxing","steam_id":76561199367141671,"connected_time":2799000000000,"state":"active","ping":64},{"user_id":469,"name":"Real","steam_id":76561198119315680,"connected_time":264000000000,"state":"active","ping":55},{"user_id":430,"name":"gaming elliptical","steam_id":76561198013456569,"connected_time":3344000000000,"state":"active","ping":45},{"user_id":472,"name":"Deltaco","steam_id":76561198094572694,"connected_time":205000000000,"state":"active","ping":118},{"user_id":471,"name":"haruto","steam_id":76561198375345777,"connected_time":244000000000,"state":"active","ping":138},{"user_id":300,"name":"Chadmander","steam_id":76561197974136337,"connected_time":14758000000000,"state":"active","ping":44},{"user_id":444,"name":"Wierd Round","steam_id":76561197969205852,"connected_time":2561000000000,"state":"active","ping":75},{"user_id":448,"name":"Gene Takovic","steam_id":76561198881039861,"connected_time":2227000000000,"state":"active","ping":45},{"user_id":462,"name":"bob leponge","steam_id":76561199490037538,"connected_time":775000000000,"state":"active","ping":65},{"user_id":451,"name":"blobb","steam_id":76561198950448488,"connected_time":2189000000000,"state":"active","ping":55},{"user_id":452,"name":"Tobo","steam_id":76561198085846393,"connected_time":1991000000000,"state":"active","ping":75},{"user_id":412,"name":"CrŒªf227","steam_id":76561198196211121,"connected_time":4409000000000,"state":"active","ping":94},{"user_id":465,"name":"Tlaloc","steam_id":76561198375215983,"connected_time":701000000000,"state":"active","ping":122},{"user_id":427,"name":"ark","steam_id":76561198041066271,"connected_time":3968000000000,"state":"active","ping":76}]},{"server_id":402,"name":"Uncletopia | Chicago | 3 | All Maps","name_short":"chi-3","host":"chi-1.us.uncletopia.com","port":27035,"enabled":true,"region":"us-central","cc":"us","latitude":41.881832,"longitude":-87.62318,"reserved":0,"last_update":"0001-01-01T00:00:00Z","name_a2s":"Uncletopia | Chicago | 3 | All Maps","protocol":17,"map":"koth_lakeside_final","folder":"tf","game":"Team Fortress","app_id":440,"player_count":23,"max_players":24,"Bots":0,"server_type":"Dedicated","server_os":"Linux","password":true,"vac":true,"version":"7961495","steam_id":85568392924515191,"keywords":["cp","nocrits","nodmgspread","uncletopia"],"game_id":440,"stv_port":27036,"stv_name":"Uncletopia | Chicago | 3 | All Maps | STV","players":[{"user_id":183,"name":"Little Skull Boi","steam_id":76561198093595888,"connected_time":1963000000000,"state":"active","ping":102},{"user_id":181,"name":"JohnFMX","steam_id":76561198175608097,"connected_time":2043000000000,"state":"active","ping":63},{"user_id":187,"name":"Fuyutake","steam_id":76561199123206779,"connected_time":1482000000000,"state":"active","ping":60},{"user_id":206,"name":"Soy King","steam_id":76561198263025614,"connected_time":191000000000,"state":"active","ping":96},{"user_id":113,"name":"ridge","steam_id":76561198381568825,"connected_time":7051000000000,"state":"active","ping":96},{"user_id":137,"name":"Sprucelass","steam_id":76561197998391724,"connected_time":5418000000000,"state":"active","ping":56},{"user_id":171,"name":"Mom","steam_id":76561198207936000,"connected_time":2957000000000,"state":"active","ping":90},{"user_id":172,"name":"Siz","steam_id":76561198072962154,"connected_time":2926000000000,"state":"active","ping":55},{"user_id":207,"name":"godsu","steam_id":76561197992498834,"connected_time":173000000000,"state":"active","ping":62},{"user_id":162,"name":"DeMarc0","steam_id":76561198150900434,"connected_time":3622000000000,"state":"active","ping":62},{"user_id":208,"name":"Soma Addict","steam_id":76561198951830050,"connected_time":171000000000,"state":"active","ping":63},{"user_id":209,"name":"totsnotabot","steam_id":76561198077023364,"connected_time":134000000000,"state":"active","ping":31},{"user_id":193,"name":"wendigo","steam_id":76561197994528974,"connected_time":843000000000,"state":"active","ping":88},{"user_id":210,"name":"Im totally a hacker","steam_id":76561198888005736,"connected_time":102000000000,"state":"active","ping":68},{"user_id":217,"name":"paisano","steam_id":76561198065575472,"connected_time":17000000000,"state":"active","ping":61},{"user_id":211,"name":"Sir Iasis","steam_id":76561198035666760,"connected_time":101000000000,"state":"active","ping":50},{"user_id":212,"name":"Mix56374","steam_id":76561199093717909,"connected_time":94000000000,"state":"active","ping":106},{"user_id":202,"name":"Captain Underbelly","steam_id":76561198811270935,"connected_time":570000000000,"state":"active","ping":85},{"user_id":213,"name":"benjamator67","steam_id":76561198209002860,"connected_time":93000000000,"state":"active","ping":38},{"user_id":214,"name":"PeePeePooPooMan","steam_id":76561198081691802,"connected_time":75000000000,"state":"active","ping":63},{"user_id":216,"name":"Inx Blott","steam_id":76561198044092009,"connected_time":63000000000,"state":"active","ping":100},{"user_id":195,"name":"BOO HAWND","steam_id":76561198141617142,"connected_time":837000000000,"state":"active","ping":81},{"user_id":196,"name":"Luucyf3r","steam_id":76561198141820085,"connected_time":809000000000,"state":"active","ping":76}]},{"server_id":403,"name":"Uncletopia | Chicago | 4 | All Maps","name_short":"chi-4","host":"chi-1.us.uncletopia.com","port":27045,"enabled":true,"region":"us-central","cc":"us","latitude":41.881832,"longitude":-87.62318,"reserved":0,"last_update":"0001-01-01T00:00:00Z","name_a2s":"Uncletopia | Chicago | 4 | All Maps","protocol":17,"map":"pl_rumford_event","folder":"tf","game":"Team Fortress","app_id":440,"player_count":0,"max_players":24,"Bots":0,"server_type":"Dedicated","server_os":"Linux","password":true,"vac":true,"version":"7961495","steam_id":85568392924515193,"keywords":["nocrits","nodmgspread","payload","uncletopia"],"game_id":440,"stv_port":27046,"stv_name":"Uncletopia | Chicago | 4 | All Maps | STV","players":null},{"server_id":36,"name":"Uncletopia | Chicago | 5 | All Maps","name_short":"chi-5","host":"chi-2.us.uncletopia.com","port":27015,"enabled":true,"region":"us-central","cc":"us","latitude":41.881832,"longitude":-87.62318,"reserved":0,"last_update":"0001-01-01T00:00:00Z","name_a2s":"Uncletopia | Chicago | 5 | All Maps","protocol":17,"map":"koth_cascade","folder":"tf","game":"Team Fortress","app_id":440,"player_count":22,"max_players":24,"Bots":0,"server_type":"Dedicated","server_os":"Linux","password":true,"vac":true,"version":"7961495","steam_id":85568392924866362,"keywords":["cp","nocrits","nodmgspread","uncletopia"],"game_id":440,"stv_port":27016,"stv_name":"Uncletopia | Chicago | 5 | All Maps | STV","players":[{"user_id":503,"name":"Reed","steam_id":76561198102058669,"connected_time":1271000000000,"state":"active","ping":69},{"user_id":457,"name":"Chris P. Bacon","steam_id":76561199083417745,"connected_time":3257000000000,"state":"active","ping":129},{"user_id":427,"name":"Matthew 10:39","steam_id":76561198121933439,"connected_time":4818000000000,"state":"active","ping":59},{"user_id":494,"name":"fish (2:3)","steam_id":76561198134331073,"connected_time":2041000000000,"state":"active","ping":99},{"user_id":502,"name":"Cabbage","steam_id":76561198405573530,"connected_time":1568000000000,"state":"active","ping":63},{"user_id":496,"name":"Captaindux","steam_id":76561198045390541,"connected_time":1947000000000,"state":"active","ping":59},{"user_id":522,"name":"esparz50","steam_id":76561198127117513,"connected_time":84000000000,"state":"active","ping":120},{"user_id":517,"name":"Beast_727","steam_id":76561198390289197,"connected_time":534000000000,"state":"active","ping":50},{"user_id":518,"name":"Brainrot","steam_id":76561198069185888,"connected_time":503000000000,"state":"active","ping":65},{"user_id":504,"name":"otwtomarsoffdabars(spacecore)","steam_id":76561199085974120,"connected_time":1098000000000,"state":"active","ping":66},{"user_id":466,"name":"Buswolley","steam_id":76561197995205571,"connected_time":2920000000000,"state":"active","ping":90},{"user_id":523,"name":"Plast","steam_id":76561198059668519,"connected_time":53000000000,"state":"active","ping":61},{"user_id":497,"name":"Inevitable","steam_id":76561198210050169,"connected_time":1776000000000,"state":"active","ping":60},{"user_id":524,"name":"CyMeryy","steam_id":76561197984986540,"connected_time":40000000000,"state":"active","ping":50},{"user_id":510,"name":"The Glute Guardian","steam_id":76561198189330642,"connected_time":686000000000,"state":"active","ping":105},{"user_id":432,"name":"nufyivuyda","steam_id":76561199499476489,"connected_time":4695000000000,"state":"active","ping":95},{"user_id":511,"name":"Tanyao (Furiten)","steam_id":76561198980504345,"connected_time":664000000000,"state":"active","ping":61},{"user_id":514,"name":"Nixon Me, Dixon Me","steam_id":76561198126519537,"connected_time":608000000000,"state":"active","ping":62},{"user_id":505,"name":"frenemy","steam_id":76561198011363677,"connected_time":1085000000000,"state":"active","ping":54},{"user_id":516,"name":"WaywardFinn","steam_id":76561198040391296,"connected_time":590000000000,"state":"active","ping":75},{"user_id":520,"name":"Gregory","steam_id":76561199070901945,"connected_time":334000000000,"state":"active","ping":71},{"user_id":513,"name":"Darkshadows","steam_id":76561198051424894,"connected_time":658000000000,"state":"active","ping":95}]},{"server_id":37,"name":"Uncletopia | Chicago | 6 | All Maps","name_short":"chi-6","host":"chi-2.us.uncletopia.com","port":27025,"enabled":true,"region":"us-central","cc":"us","latitude":41.881832,"longitude":-87.62318,"reserved":0,"last_update":"0001-01-01T00:00:00Z","name_a2s":"Uncletopia | Chicago | 6 | All Maps","protocol":17,"map":"koth_highpass","folder":"tf","game":"Team Fortress","app_id":440,"player_count":1,"max_players":24,"Bots":0,"server_type":"Dedicated","server_os":"Linux","password":true,"vac":true,"version":"7961495","steam_id":85568392924866363,"keywords":["cp","nocrits","nodmgspread","uncletopia"],"game_id":440,"stv_port":27026,"stv_name":"Uncletopia | Chicago | 6 | All Maps | STV","players":[{"user_id":18,"name":"TheSquidz_","steam_id":76561199496786652,"connected_time":259000000000,"state":"active","ping":89}]},{"server_id":38,"name":"Uncletopia | Chicago | 7 | Stopwatch","name_short":"chi-7","host":"chi-2.us.uncletopia.com","port":27035,"enabled":true,"region":"us-central","cc":"us","latitude":41.881832,"longitude":-87.62318,"reserved":0,"last_update":"0001-01-01T00:00:00Z","name_a2s":"Uncletopia | Chicago | 7 | Stopwatch","protocol":17,"map":"pl_upward","folder":"tf","game":"Team Fortress","app_id":440,"player_count":0,"max_players":24,"Bots":0,"server_type":"Dedicated","server_os":"Linux","password":true,"vac":true,"version":"7961495","steam_id":85568392924866364,"keywords":["nocrits","nodmgspread","payload","uncletopia"],"game_id":440,"stv_port":27036,"stv_name":"Uncletopia | Chicago | 7 | Stopwatch | STV","players":null},{"server_id":39,"name":"Uncletopia | Chicago | 8 | Community","name_short":"chi-8","host":"chi-2.us.uncletopia.com","port":27045,"enabled":true,"region":"us-central","cc":"us","latitude":41.881832,"longitude":-87.62318,"reserved":0,"last_update":"0001-01-01T00:00:00Z","name_a2s":"Uncletopia | Chicago | 8 | Community","protocol":17,"map":"workshop/cp_mannbase_rc2a.ugc1900737467","folder":"tf","game":"Team Fortress","app_id":440,"player_count":19,"max_players":24,"Bots":0,"server_type":"Dedicated","server_os":"Linux","password":true,"vac":true,"version":"7961495","steam_id":85568392924866365,"keywords":["cp","nocrits","nodmgspread","uncletopia"],"game_id":440,"stv_port":27046,"stv_name":"Uncletopia | Chicago | 8 | Community | STV","players":[{"user_id":114,"name":"MUG","steam_id":76561199353656571,"connected_time":446000000000,"state":"active","ping":51},{"user_id":112,"name":"John Jameson","steam_id":76561198065238093,"connected_time":725000000000,"state":"active","ping":74},{"user_id":113,"name":"Panzer4000","steam_id":76561198121308618,"connected_time":652000000000,"state":"active","ping":46},{"user_id":115,"name":"Aeris","steam_id":76561198287271028,"connected_time":386000000000,"state":"active","ping":49},{"user_id":48,"name":"mothra","steam_id":76561198994634058,"connected_time":5089000000000,"state":"active","ping":67},{"user_id":116,"name":"Nachtigall Honeybeefox","steam_id":76561198322389059,"connected_time":350000000000,"state":"active","ping":105},{"user_id":117,"name":"dweamy","steam_id":76561198119181880,"connected_time":344000000000,"state":"active","ping":61},{"user_id":93,"name":"harold of rock salt kingdom","steam_id":76561199016285746,"connected_time":2950000000000,"state":"active","ping":90},{"user_id":118,"name":"üÖúüÖîüÖîüÖöüÖ¢üÖ£üÖî\ufffd\ufffd\ufffd","steam_id":76561197999748343,"connected_time":253000000000,"state":"active","ping":61},{"user_id":16,"name":"A Trigger Happy Chipmunk","steam_id":76561198013608736,"connected_time":6692000000000,"state":"active","ping":46},{"user_id":70,"name":"GJDon","steam_id":76561199026755019,"connected_time":3636000000000,"state":"active","ping":150},{"user_id":119,"name":"Blitzy","steam_id":76561198149472890,"connected_time":222000000000,"state":"active","ping":74},{"user_id":120,"name":"Emails","steam_id":76561198836919458,"connected_time":183000000000,"state":"active","ping":67},{"user_id":121,"name":"suger1316","steam_id":76561199079999423,"connected_time":153000000000,"state":"active","ping":66},{"user_id":98,"name":"damn dude","steam_id":76561198065528284,"connected_time":2195000000000,"state":"active","ping":59},{"user_id":122,"name":"oopsboom24","steam_id":76561199105248648,"connected_time":115000000000,"state":"active","ping":82},{"user_id":84,"name":"Alexandra","steam_id":76561198064102265,"connected_time":3218000000000,"state":"active","ping":66},{"user_id":99,"name":"Modest","steam_id":76561198065643694,"connected_time":2189000000000,"state":"active","ping":57},{"user_id":100,"name":"OFF","steam_id":76561198191971493,"connected_time":2138000000000,"state":"active","ping":63}]},{"server_id":8,"name":"Uncletopia | Dallas | 1 | All Maps","name_short":"dal-1","host":"dal-1.us.uncletopia.com","port":27015,"enabled":true,"region":"us-central","cc":"us","latitude":32.779167,"longitude":-96.80889,"reserved":0,"last_update":"0001-01-01T00:00:00Z","name_a2s":"Uncletopia | Dallas | 1 | All Maps","protocol":17,"map":"pl_snowycoast","folder":"tf","game":"Team Fortress","app_id":440,"player_count":24,"max_players":24,"Bots":0,"server_type":"Dedicated","server_os":"Linux","password":true,"vac":true,"version":"7961495","steam_id":85568392924469986,"keywords":["nocrits","nodmgspread","payload","uncletopia"],"game_id":440,"stv_port":27016,"stv_name":"Uncletopia | Dallas | 1 | All Maps | STV","players":[{"user_id":13,"name":"Hauptmann Meade","steam_id":76561198048007962,"connected_time":2193000000000,"state":"active","ping":65},{"user_id":14,"name":"WalterJr.","steam_id":76561199433675789,"connected_time":1919000000000,"state":"spawning","ping":55},{"user_id":15,"name":"HeHedron","steam_id":76561199199667164,"connected_time":1646000000000,"state":"active","ping":65},{"user_id":16,"name":"mousejumper","steam_id":76561198220181353,"connected_time":1505000000000,"state":"active","ping":78},{"user_id":17,"name":"Femboy Garfield","steam_id":76561198356164204,"connected_time":1489000000000,"state":"active","ping":76},{"user_id":44,"name":"Pidgenn","steam_id":76561198367926202,"connected_time":254000000000,"state":"active","ping":34},{"user_id":19,"name":"FanaticSalt","steam_id":76561199380123059,"connected_time":1381000000000,"state":"active","ping":43},{"user_id":45,"name":"DMM","steam_id":76561198065426171,"connected_time":173000000000,"state":"active","ping":49},{"user_id":21,"name":"StudioMania (#SAVETF2)","steam_id":76561198211315795,"connected_time":1356000000000,"state":"active","ping":67},{"user_id":25,"name":"Lord_Manship","steam_id":76561198045168765,"connected_time":1156000000000,"state":"active","ping":91},{"user_id":27,"name":"Splexiey","steam_id":76561199122155213,"connected_time":950000000000,"state":"active","ping":83},{"user_id":32,"name":"Antking14","steam_id":76561198188971771,"connected_time":856000000000,"state":"active","ping":71},{"user_id":26,"name":"tsz","steam_id":76561199246231090,"connected_time":1152000000000,"state":"active","ping":71},{"user_id":46,"name":"DoctorDrew","steam_id":76561197962400538,"connected_time":49000000000,"state":"active","ping":78},{"user_id":43,"name":"missfitz","steam_id":76561199378281338,"connected_time":451000000000,"state":"active","ping":64},{"user_id":34,"name":"Shark Sandwich","steam_id":76561198025007938,"connected_time":820000000000,"state":"active","ping":103},{"user_id":31,"name":"Belvidere","steam_id":76561198121336953,"connected_time":875000000000,"state":"active","ping":78},{"user_id":35,"name":"pup","steam_id":76561198145921847,"connected_time":820000000000,"state":"active","ping":72},{"user_id":37,"name":"Glaceon","steam_id":76561198177715869,"connected_time":777000000000,"state":"active","ping":46},{"user_id":38,"name":"Sudsen","steam_id":76561198370603787,"connected_time":765000000000,"state":"active","ping":119},{"user_id":39,"name":"Lain","steam_id":76561198118282205,"connected_time":760000000000,"state":"active","ping":101},{"user_id":40,"name":"SaaxoM","steam_id":76561198208256603,"connected_time":757000000000,"state":"active","ping":74},{"user_id":41,"name":"Umbrazeta","steam_id":76561198122650609,"connected_time":753000000000,"state":"active","ping":52},{"user_id":42,"name":"Hobbes","steam_id":76561198087956236,"connected_time":753000000000,"state":"active","ping":79}]},{"server_id":108,"name":"Uncletopia | Dallas | 2 | All Maps","name_short":"dal-2","host":"dal-1.us.uncletopia.com","port":27025,"enabled":true,"region":"us-central","cc":"us","latitude":32.779167,"longitude":-96.80889,"reserved":0,"last_update":"0001-01-01T00:00:00Z","name_a2s":"Uncletopia | Dallas | 2 | All Maps","protocol":17,"map":"cp_mercenarypark","folder":"tf","game":"Team Fortress","app_id":440,"player_count":24,"max_players":24,"Bots":0,"server_type":"Dedicated","server_os":"Linux","password":true,"vac":true,"version":"7961495","steam_id":85568392924469988,"keywords":["cp","nocrits","nodmgspread","uncletopia"],"game_id":440,"stv_port":27026,"stv_name":"Uncletopia | Dallas | 2 | All Maps | STV","players":[{"user_id":62,"name":"Temujin","steam_id":76561198030936583,"connected_time":582000000000,"state":"active","ping":75},{"user_id":25,"name":"JOOOOOOOOOOOOO!!!!!!","steam_id":76561199101638460,"connected_time":2524000000000,"state":"active","ping":62},{"user_id":63,"name":"DarkFalconDX","steam_id":76561199213908323,"connected_time":570000000000,"state":"active","ping":49},{"user_id":61,"name":"R{FITH}‚Ñ¢ Z4LTte","steam_id":76561198283258068,"connected_time":663000000000,"state":"active","ping":76},{"user_id":64,"name":"bigchungusgaming(real)","steam_id":76561198273392037,"connected_time":559000000000,"state":"active","ping":77},{"user_id":72,"name":"24.99$ IKEA Cabinet","steam_id":76561199345458914,"connected_time":9000000000,"state":"spawning","ping":357},{"user_id":69,"name":"‚ú™·¥ç√∂ Ä·¥ã√∂‚ú™","steam_id":76561198114429501,"connected_time":287000000000,"state":"active","ping":170},{"user_id":71,"name":"playguy carter","steam_id":76561198080679337,"connected_time":103000000000,"state":"active","ping":86},{"user_id":29,"name":"Uluyo","steam_id":76561198065857148,"connected_time":2446000000000,"state":"active","ping":69},{"user_id":30,"name":"firefly","steam_id":76561198151308698,"connected_time":2402000000000,"state":"active","ping":43},{"user_id":32,"name":"American freedom bird","steam_id":76561198366142388,"connected_time":2367000000000,"state":"active","ping":76},{"user_id":34,"name":"Moonflower ‚ú¶","steam_id":76561198191782483,"connected_time":2216000000000,"state":"active","ping":45},{"user_id":36,"name":"Alkimia","steam_id":76561198385763137,"connected_time":2130000000000,"state":"active","ping":161},{"user_id":37,"name":"radical larry","steam_id":76561198172246829,"connected_time":2080000000000,"state":"active","ping":75},{"user_id":65,"name":"Makima Enjoyer","steam_id":76561198852044774,"connected_time":513000000000,"state":"active","ping":87},{"user_id":51,"name":"Zimil","steam_id":76561199187045818,"connected_time":1798000000000,"state":"active","ping":105},{"user_id":66,"name":"Tcmano","steam_id":76561198057233847,"connected_time":491000000000,"state":"active","ping":83},{"user_id":67,"name":"Mediocre Gaming","steam_id":76561199230467980,"connected_time":440000000000,"state":"active","ping":79},{"user_id":44,"name":"MangoMaster7834","steam_id":76561199231165397,"connected_time":1982000000000,"state":"active","ping":104},{"user_id":53,"name":"sil","steam_id":76561198041466580,"connected_time":1672000000000,"state":"active","ping":73},{"user_id":73,"name":"Jones","steam_id":76561198046037216,"connected_time":1000000000,"state":"spawning","ping":71},{"user_id":68,"name":"CeLeb144","steam_id":76561199089907740,"connected_time":399000000000,"state":"active","ping":56},{"user_id":58,"name":"Dosux2","steam_id":76561198390916062,"connected_time":1218000000000,"state":"active","ping":136},{"user_id":48,"name":"DreamlessKnight","steam_id":76561198414469325,"connected_time":1959000000000,"state":"active","ping":90}]},{"server_id":404,"name":"Uncletopia | Dallas | 3 | All Maps","name_short":"dal-3","host":"dal-1.us.uncletopia.com","port":27035,"enabled":true,"region":"us-central","cc":"us","latitude":32.779167,"longitude":-96.80889,"reserved":0,"last_update":"0001-01-01T00:00:00Z","name_a2s":"Uncletopia | Dallas | 3 | All Maps","protocol":17,"map":"cp_coldfront","folder":"tf","game":"Team Fortress","app_id":440,"player_count":0,"max_players":24,"Bots":0,"server_type":"Dedicated","server_os":"Linux","password":true,"vac":true,"version":"7961495","steam_id":85568392924515219,"keywords":["cp","nocrits","nodmgspread","uncletopia"],"game_id":440,"stv_port":27036,"stv_name":"Uncletopia | Dallas | 3 | All Maps | STV","players":null},{"server_id":405,"name":"Uncletopia | Dallas | 4 | Community","name_short":"dal-4","host":"dal-1.us.uncletopia.com","port":27045,"enabled":true,"region":"us-central","cc":"us","latitude":32.779167,"longitude":-96.80889,"reserved":0,"last_update":"0001-01-01T00:00:00Z","name_a2s":"Uncletopia | Dallas | 4 | Community","protocol":17,"map":"workshop/koth_ashville_final.ugc2130459942","folder":"tf","game":"Team Fortress","app_id":440,"player_count":0,"max_players":24,"Bots":0,"server_type":"Dedicated","server_os":"Linux","password":true,"vac":true,"version":"7961495","steam_id":85568392924515220,"keywords":["cp","nocrits","nodmgspread","uncletopia"],"game_id":440,"stv_port":27046,"stv_name":"Uncletopia | Dallas | 4 | Community | STV","players":null},{"server_id":5,"name":"Uncletopia | Frankfurt | 1 | All Maps","name_short":"frk-1","host":"frk-1.de.uncletopia.com","port":27015,"enabled":true,"region":"eu","cc":"de","latitude":50.110924,"longitude":8.682127,"reserved":0,"last_update":"0001-01-01T00:00:00Z","name_a2s":"Uncletopia | Frankfurt | 1 | All Maps","protocol":17,"map":"pl_pier","folder":"tf","game":"Team Fortress","app_id":440,"player_count":24,"max_players":24,"Bots":0,"server_type":"Dedicated","server_os":"Linux","password":true,"vac":true,"version":"7961495","steam_id":85568392924469989,"keywords":["nocrits","nodmgspread","payload","uncletopia"],"game_id":440,"stv_port":27016,"stv_name":"Uncletopia | Frankfurt | 1 | All Maps | STV","players":[{"user_id":586,"name":"Hagi","steam_id":76561198011192902,"connected_time":1068000000000,"state":"active","ping":89},{"user_id":581,"name":"Dragriff","steam_id":76561198042087776,"connected_time":1691000000000,"state":"active","ping":60},{"user_id":583,"name":"ay","steam_id":76561198033695429,"connected_time":1145000000000,"state":"active","ping":59},{"user_id":585,"name":"Mr torque","steam_id":76561198148448716,"connected_time":1073000000000,"state":"active","ping":55},{"user_id":587,"name":"Kevin","steam_id":76561198021280093,"connected_time":1038000000000,"state":"active","ping":94},{"user_id":588,"name":"Dont Beat Me Dad","steam_id":76561198347265410,"connected_time":1022000000000,"state":"active","ping":67},{"user_id":594,"name":"randem_","steam_id":76561198338793755,"connected_time":735000000000,"state":"active","ping":51},{"user_id":591,"name":"GrosFumiste","steam_id":76561198850134909,"connected_time":886000000000,"state":"active","ping":59},{"user_id":592,"name":"SpiritStar","steam_id":76561198063920313,"connected_time":878000000000,"state":"active","ping":135},{"user_id":593,"name":"Leviticus Cornwall","steam_id":76561197993702685,"connected_time":786000000000,"state":"active","ping":62},{"user_id":595,"name":"asasaBaboon","steam_id":76561198001144642,"connected_time":715000000000,"state":"active","ping":45},{"user_id":576,"name":"0Angel","steam_id":76561197991149080,"connected_time":2429000000000,"state":"active","ping":53},{"user_id":596,"name":"spy","steam_id":76561199402711007,"connected_time":672000000000,"state":"active","ping":117},{"user_id":597,"name":"monsterISfun","steam_id":76561198121734867,"connected_time":657000000000,"state":"active","ping":78},{"user_id":464,"name":"Peskyplumber64","steam_id":76561198044458330,"connected_time":10618000000000,"state":"active","ping":50},{"user_id":598,"name":"minx","steam_id":76561198075551260,"connected_time":578000000000,"state":"active","ping":101},{"user_id":544,"name":"IanThatMiner","steam_id":76561198079785511,"connected_time":5855000000000,"state":"active","ping":139},{"user_id":599,"name":"FoOzTV","steam_id":76561197998636728,"connected_time":562000000000,"state":"active","ping":86},{"user_id":546,"name":"Carl","steam_id":76561198045638738,"connected_time":5853000000000,"state":"active","ping":58},{"user_id":600,"name":"Aruno Fantasio","steam_id":76561197999059395,"connected_time":475000000000,"state":"active","ping":46},{"user_id":498,"name":"TKWDagfari","steam_id":76561197998342883,"connected_time":9680000000000,"state":"active","ping":69},{"user_id":602,"name":"Scipionemiliano","steam_id":76561198027646559,"connected_time":83000000000,"state":"active","ping":100},{"user_id":601,"name":"Estamie","steam_id":76561198058527691,"connected_time":471000000000,"state":"active","ping":61},{"user_id":549,"name":"cheriberry","steam_id":76561198093577036,"connected_time":4740000000000,"state":"active","ping":51}]},{"server_id":110,"name":"Uncletopia | Frankfurt | 2 | All Maps","name_short":"frk-2","host":"frk-1.de.uncletopia.com","port":27025,"enabled":true,"region":"eu","cc":"de","latitude":50.110924,"longitude":8.682127,"reserved":0,"last_update":"0001-01-01T00:00:00Z","name_a2s":"Uncletopia | Frankfurt | 2 | All Maps","protocol":17,"map":"cp_dustbowl","folder":"tf","game":"Team Fortress","app_id":440,"player_count":24,"max_players":24,"Bots":0,"server_type":"Dedicated","server_os":"Linux","password":true,"vac":true,"version":"7961495","steam_id":85568392924469990,"keywords":["cp","nocrits","nodmgspread","uncletopia"],"game_id":440,"stv_port":27026,"stv_name":"Uncletopia | Frankfurt | 2 | All Maps | STV","players":[{"user_id":575,"name":"bongo","steam_id":76561198015489880,"connected_time":1847000000000,"state":"active","ping":45},{"user_id":566,"name":"joachym","steam_id":76561198428579761,"connected_time":2676000000000,"state":"active","ping":51},{"user_id":574,"name":"Mr.Shpee","steam_id":76561198158701474,"connected_time":2003000000000,"state":"active","ping":82},{"user_id":594,"name":"puncake4you","steam_id":76561198366512937,"connected_time":378000000000,"state":"active","ping":52},{"user_id":562,"name":"KlomboFan","steam_id":76561198108851389,"connected_time":2807000000000,"state":"active","ping":61},{"user_id":543,"name":"yeL7owore","steam_id":76561198160173286,"connected_time":3423000000000,"state":"active","ping":86},{"user_id":595,"name":"Lemon","steam_id":76561198188535947,"connected_time":330000000000,"state":"active","ping":74},{"user_id":597,"name":"mq","steam_id":76561198091888948,"connected_time":188000000000,"state":"active","ping":48},{"user_id":580,"name":"hgvgdwa","steam_id":76561198156499356,"connected_time":1134000000000,"state":"active","ping":64},{"user_id":581,"name":"fen√≥meno","steam_id":76561198315371425,"connected_time":1125000000000,"state":"active","ping":59},{"user_id":583,"name":"Nico","steam_id":76561197984991962,"connected_time":990000000000,"state":"active","ping":108},{"user_id":494,"name":"Kriofty","steam_id":76561198811696536,"connected_time":4934000000000,"state":"active","ping":77},{"user_id":545,"name":"compact disc","steam_id":76561198154677956,"connected_time":3339000000000,"state":"active","ping":59},{"user_id":589,"name":"Grimprr","steam_id":76561198275816797,"connected_time":855000000000,"state":"active","ping":131},{"user_id":546,"name":"BL√ÖHAJ","steam_id":76561197996473698,"connected_time":3262000000000,"state":"active","ping":90},{"user_id":598,"name":"Finem Belli","steam_id":76561198227177976,"connected_time":150000000000,"state":"active","ping":52},{"user_id":586,"name":"Dekki_","steam_id":76561198285823094,"connected_time":886000000000,"state":"active","ping":76},{"user_id":496,"name":"Snowmotion","steam_id":76561198075022454,"connected_time":4920000000000,"state":"active","ping":45},{"user_id":596,"name":"wvillen2","steam_id":76561198116258209,"connected_time":318000000000,"state":"active","ping":144},{"user_id":600,"name":"Caramel","steam_id":76561198021214844,"connected_time":90000000000,"state":"spawning","ping":57},{"user_id":599,"name":"maikemi","steam_id":76561197997232219,"connected_time":144000000000,"state":"active","ping":58},{"user_id":590,"name":"Waffel","steam_id":76561198113552009,"connected_time":812000000000,"state":"active","ping":103},{"user_id":591,"name":"please do not the cat","steam_id":76561198089003514,"connected_time":802000000000,"state":"active","ping":44},{"user_id":592,"name":"kingdead4","steam_id":76561198079576655,"connected_time":791000000000,"state":"active","ping":54}]},{"server_id":308,"name":"Uncletopia | Frankfurt | 3 | All Maps","name_short":"frk-3","host":"frk-1.de.uncletopia.com","port":27035,"enabled":true,"region":"eu","cc":"de","latitude":50.110924,"longitude":8.682127,"reserved":0,"last_update":"0001-01-01T00:00:00Z","name_a2s":"Uncletopia | Frankfurt | 3 | All Maps","protocol":17,"map":"cp_steel","folder":"tf","game":"Team Fortress","app_id":440,"player_count":19,"max_players":24,"Bots":0,"server_type":"Dedicated","server_os":"Linux","password":true,"vac":true,"version":"7961495","steam_id":85568392924504274,"keywords":["cp","nocrits","nodmgspread","uncletopia"],"game_id":440,"stv_port":27036,"stv_name":"Uncletopia | Frankfurt | 3 | All Maps | STV","players":[{"user_id":315,"name":"REN","steam_id":76561198000596385,"connected_time":1313000000000,"state":"active","ping":76},{"user_id":336,"name":"optimus27000","steam_id":76561198098930550,"connected_time":136000000000,"state":"active","ping":70},{"user_id":337,"name":"Snook","steam_id":76561198086981861,"connected_time":124000000000,"state":"active","ping":78},{"user_id":338,"name":"Yoda Drunk","steam_id":76561198135719937,"connected_time":105000000000,"state":"active","ping":82},{"user_id":288,"name":"Meff","steam_id":76561197970610839,"connected_time":2972000000000,"state":"active","ping":44},{"user_id":289,"name":"jon","steam_id":76561198031544468,"connected_time":2966000000000,"state":"active","ping":90},{"user_id":319,"name":"KrAk3rs","steam_id":76561198298179344,"connected_time":1175000000000,"state":"active","ping":60},{"user_id":332,"name":"darkusio","steam_id":76561197976493695,"connected_time":580000000000,"state":"active","ping":62},{"user_id":331,"name":"Seb, Comrade","steam_id":76561198040279587,"connected_time":714000000000,"state":"active","ping":95},{"user_id":341,"name":"KLAMA  ‚ù§","steam_id":76561198351549661,"connected_time":43000000000,"state":"active","ping":60},{"user_id":339,"name":"sleepy","steam_id":76561199013314440,"connected_time":94000000000,"state":"active","ping":124},{"user_id":306,"name":"Razef","steam_id":76561198030309484,"connected_time":2393000000000,"state":"active","ping":76},{"user_id":342,"name":"Scr0b  ï·µî·¥•·µî î","steam_id":76561198100855323,"connected_time":19000000000,"state":"active","ping":56},{"user_id":321,"name":"Hann√º","steam_id":76561197969886128,"connected_time":1113000000000,"state":"active","ping":56},{"user_id":325,"name":"Arsonist","steam_id":76561199087953833,"connected_time":1070000000000,"state":"active","ping":106},{"user_id":326,"name":"LivEssense","steam_id":76561198052476979,"connected_time":1038000000000,"state":"active","ping":96},{"user_id":286,"name":"nrvvs","steam_id":76561199134714492,"connected_time":3074000000000,"state":"active","ping":152},{"user_id":327,"name":"Picolas Cage","steam_id":76561199013233409,"connected_time":1037000000000,"state":"active","ping":60},{"user_id":330,"name":"Hellheim_Prime","steam_id":76561198379799377,"connected_time":781000000000,"state":"active","ping":91}]},{"server_id":309,"name":"Uncletopia | Frankfurt | 4 | All Maps","name_short":"frk-4","host":"frk-1.de.uncletopia.com","port":27045,"enabled":true,"region":"eu","cc":"de","latitude":50.110924,"longitude":8.682127,"reserved":0,"last_update":"0001-01-01T00:00:00Z","name_a2s":"Uncletopia | Frankfurt | 4 | All Maps","protocol":17,"map":"cp_snakewater_final1","folder":"tf","game":"Team Fortress","app_id":440,"player_count":24,"max_players":24,"Bots":0,"server_type":"Dedicated","server_os":"Linux","password":true,"vac":true,"version":"7961495","steam_id":85568392924504275,"keywords":["cp","nocrits","nodmgspread","uncletopia"],"game_id":440,"stv_port":27046,"stv_name":"Uncletopia | Frankfurt | 4 | All Maps | STV","players":[{"user_id":407,"name":"Fedm","steam_id":76561199020090514,"connected_time":668000000000,"state":"active","ping":72},{"user_id":404,"name":"vk rat makes me erect","steam_id":76561198355965587,"connected_time":765000000000,"state":"active","ping":73},{"user_id":393,"name":"herbal tea","steam_id":76561197980736364,"connected_time":1343000000000,"state":"active","ping":76},{"user_id":413,"name":"Bonduelle#Savetf2","steam_id":76561199041992422,"connected_time":506000000000,"state":"active","ping":149},{"user_id":420,"name":"Sugardaddy_pep","steam_id":76561198807512589,"connected_time":350000000000,"state":"active","ping":61},{"user_id":417,"name":"Dotsya","steam_id":76561198091553935,"connected_time":431000000000,"state":"active","ping":103},{"user_id":422,"name":"Vince","steam_id":76561199103000131,"connected_time":58000000000,"state":"active","ping":59},{"user_id":408,"name":"Lelleck Maldwin","steam_id":76561198006163836,"connected_time":656000000000,"state":"active","ping":48},{"user_id":366,"name":"kenzou","steam_id":76561199180054996,"connected_time":2066000000000,"state":"active","ping":52},{"user_id":409,"name":"loadsamoney","steam_id":76561198130904722,"connected_time":649000000000,"state":"active","ping":50},{"user_id":381,"name":"Tre3","steam_id":76561198054795379,"connected_time":1814000000000,"state":"active","ping":57},{"user_id":410,"name":"beau","steam_id":76561198291822771,"connected_time":635000000000,"state":"active","ping":59},{"user_id":421,"name":"ShadowTwin","steam_id":76561198046658200,"connected_time":205000000000,"state":"active","ping":67},{"user_id":396,"name":"BriLLz","steam_id":76561198142440806,"connected_time":1029000000000,"state":"active","ping":63},{"user_id":415,"name":"135.3 dpm","steam_id":76561198072093365,"connected_time":459000000000,"state":"active","ping":45},{"user_id":416,"name":"thekoolest88","steam_id":76561199022415672,"connected_time":447000000000,"state":"active","ping":136},{"user_id":418,"name":"hide","steam_id":76561198918282467,"connected_time":427000000000,"state":"active","ping":51},{"user_id":386,"name":"jeff","steam_id":76561198272815746,"connected_time":1549000000000,"state":"active","ping":82},{"user_id":362,"name":"Isaac Boush","steam_id":76561198179746529,"connected_time":2751000000000,"state":"active","ping":61},{"user_id":419,"name":"Jnet","steam_id":76561198001282720,"connected_time":403000000000,"state":"active","ping":99},{"user_id":423,"name":"Mitea Sefu NEXUS.NEVERMORE.RO","steam_id":76561197993943996,"connected_time":39000000000,"state":"active","ping":68},{"user_id":399,"name":"Chucky.","steam_id":76561197969361063,"connected_time":936000000000,"state":"active","ping":84},{"user_id":391,"name":"TidB","steam_id":76561198055342304,"connected_time":1470000000000,"state":"active","ping":55},{"user_id":401,"name":"GogsCrunchyNuts","steam_id":76561198150599213,"connected_time":878000000000,"state":"active","ping":95}]},{"server_id":310,"name":"Uncletopia | Frankfurt | 5 | All Maps","name_short":"frk-5","host":"frk-1.de.uncletopia.com","port":27055,"enabled":true,"region":"eu","cc":"de","latitude":50.110924,"longitude":8.682127,"reserved":0,"last_update":"0001-01-01T00:00:00Z","name_a2s":"Uncletopia | Frankfurt | 5 | All Maps","protocol":17,"map":"cp_process_final","folder":"tf","game":"Team Fortress","app_id":440,"player_count":0,"max_players":24,"Bots":0,"server_type":"Dedicated","server_os":"Linux","password":true,"vac":true,"version":"7961495","steam_id":85568392924504277,"keywords":["cp","nocrits","nodmgspread","uncletopia"],"game_id":440,"stv_port":27056,"stv_name":"Uncletopia | Frankfurt | 5 | All Maps | STV","players":null},{"server_id":311,"name":"Uncletopia | Frankfurt | 6 | All Maps","name_short":"frk-6","host":"frk-1.de.uncletopia.com","port":27065,"enabled":true,"region":"eu","cc":"de","latitude":50.110924,"longitude":8.682127,"reserved":0,"last_update":"0001-01-01T00:00:00Z","name_a2s":"Uncletopia | Frankfurt | 6 | All Maps","protocol":17,"map":"cp_snakewater_final1","folder":"tf","game":"Team Fortress","app_id":440,"player_count":0,"max_players":24,"Bots":0,"server_type":"Dedicated","server_os":"Linux","password":true,"vac":true,"version":"7961495","steam_id":85568392924504278,"keywords":["cp","nocrits","nodmgspread","uncletopia"],"game_id":440,"stv_port":27066,"stv_name":"Uncletopia | Frankfurt | 6 | All Maps | STV","players":null},{"server_id":23,"name":"Uncletopia | Frankfurt | 7 | Stopwatch","name_short":"frk-7","host":"frk-1.de.uncletopia.com","port":27075,"enabled":true,"region":"eu","cc":"de","latitude":50.110924,"longitude":8.682127,"reserved":0,"last_update":"0001-01-01T00:00:00Z","name_a2s":"Uncletopia | Frankfurt | 7 | Stopwatch","protocol":17,"map":"workshop/koth_ashville_final.ugc2130459942","folder":"tf","game":"Team Fortress","app_id":440,"player_count":0,"max_players":24,"Bots":0,"server_type":"Dedicated","server_os":"Linux","password":true,"vac":true,"version":"7961495","steam_id":85568392924742827,"keywords":["cp","nocrits","nodmgspread","uncletopia"],"game_id":440,"stv_port":27076,"stv_name":"Uncletopia | Frankfurt | 7 | Stopwatch | STV","players":null},{"server_id":24,"name":"Uncletopia | Frankfurt | 8 | Community","name_short":"frk-8","host":"frk-1.de.uncletopia.com","port":27085,"enabled":true,"region":"eu","cc":"de","latitude":50.110924,"longitude":8.682127,"reserved":0,"last_update":"0001-01-01T00:00:00Z","name_a2s":"Uncletopia | Frankfurt | 8 | Community","protocol":17,"map":"workshop/pl_vigil_rc10.ugc1266210012","folder":"tf","game":"Team Fortress","app_id":440,"player_count":0,"max_players":24,"Bots":0,"server_type":"Dedicated","server_os":"Linux","password":true,"vac":true,"version":"7961495","steam_id":85568392924742828,"keywords":["nocrits","nodmgspread","payload","uncletopia"],"game_id":440,"stv_port":27086,"stv_name":"Uncletopia | Frankfurt | 8 | Community | STV","players":null},{"server_id":202,"name":"Uncletopia | Hong Kong | 1 | All Maps","name_short":"hgk-1","host":"hgk-1.hk.uncletopia.com","port":27015,"enabled":true,"region":"asia","cc":"hk","latitude":22.302711,"longitude":114.177216,"reserved":0,"last_update":"0001-01-01T00:00:00Z","name_a2s":"Uncletopia | Hong Kong | 1 | All Maps","protocol":17,"map":"koth_cascade","folder":"tf","game":"Team Fortress","app_id":440,"player_count":0,"max_players":24,"Bots":0,"server_type":"Dedicated","server_os":"Linux","password":true,"vac":true,"version":"7961495","steam_id":85568392924494504,"keywords":["cp","nocrits","nodmgspread","uncletopia"],"game_id":440,"stv_port":27016,"stv_name":"Uncletopia | Hong Kong | 1 | All Maps | STV","players":null},{"server_id":1,"name":"Uncletopia | Los Angeles | 1 | All Maps","name_short":"lax-1","host":"lax-1.us.uncletopia.com","port":27015,"enabled":true,"region":"us-west","cc":"us","latitude":33.94279,"longitude":-118.41004,"reserved":0,"last_update":"0001-01-01T00:00:00Z","name_a2s":"Uncletopia | Los Angeles | 1 | All Maps","protocol":17,"map":"cp_snakewater_final1","folder":"tf","game":"Team Fortress","app_id":440,"player_count":0,"max_players":24,"Bots":0,"server_type":"Dedicated","server_os":"Linux","password":true,"vac":true,"version":"7961495","steam_id":85568392924469991,"keywords":["cp","nocrits","nodmgspread","uncletopia"],"game_id":440,"stv_port":27016,"stv_name":"Uncletopia | Los Angeles | 1 | All Maps | STV","players":null},{"server_id":112,"name":"Uncletopia | Los Angeles | 2 | All Maps","name_short":"lax-2","host":"lax-1.us.uncletopia.com","port":27025,"enabled":true,"region":"us-west","cc":"us","latitude":33.94279,"longitude":-118.41004,"reserved":0,"last_update":"0001-01-01T00:00:00Z","name_a2s":"Uncletopia | Los Angeles | 2 | All Maps","protocol":17,"map":"koth_cascade","folder":"tf","game":"Team Fortress","app_id":440,"player_count":0,"max_players":24,"Bots":0,"server_type":"Dedicated","server_os":"Linux","password":true,"vac":true,"version":"7961495","steam_id":85568392924469992,"keywords":["cp","nocrits","nodmgspread","uncletopia"],"game_id":440,"stv_port":27026,"stv_name":"Uncletopia | Los Angeles | 2 | All Maps | STV","players":null},{"server_id":324,"name":"Uncletopia | Los Angeles | 3 | All Maps","name_short":"lax-3","host":"lax-1.us.uncletopia.com","port":27035,"enabled":true,"region":"us-west","cc":"us","latitude":33.94279,"longitude":-118.41004,"reserved":0,"last_update":"0001-01-01T00:00:00Z","name_a2s":"Uncletopia | Los Angeles | 3 | All Maps","protocol":17,"map":"pl_hoodoo_final","folder":"tf","game":"Team Fortress","app_id":440,"player_count":0,"max_players":24,"Bots":0,"server_type":"Dedicated","server_os":"Linux","password":true,"vac":true,"version":"7961495","steam_id":85568392924510198,"keywords":["nocrits","nodmgspread","payload","uncletopia"],"game_id":440,"stv_port":27036,"stv_name":"Uncletopia | Los Angeles | 3 | All Maps | STV","players":null},{"server_id":25,"name":"Uncletopia | Los Angeles | 4 | Stopwatch","name_short":"lax-4","host":"lax-1.us.uncletopia.com","port":27045,"enabled":true,"region":"us-west","cc":"us","latitude":33.94279,"longitude":-118.41004,"reserved":0,"last_update":"0001-01-01T00:00:00Z","name_a2s":"Uncletopia | Los Angeles | 4 | Stopwatch","protocol":17,"map":"pl_upward","folder":"tf","game":"Team Fortress","app_id":440,"player_count":0,"max_players":24,"Bots":0,"server_type":"Dedicated","server_os":"Linux","password":true,"vac":true,"version":"7961495","steam_id":85568392924510199,"keywords":["nocrits","nodmgspread","payload","uncletopia"],"game_id":440,"stv_port":27046,"stv_name":"Uncletopia | Los Angeles | 4 | Stopwatch | STV","players":null},{"server_id":11,"name":"Uncletopia | London | 1 | All Maps","name_short":"lon-1","host":"lon-1.uk.uncletopia.com","port":27015,"enabled":true,"region":"eu","cc":"gb","latitude":51.509865,"longitude":-0.118092,"reserved":0,"last_update":"0001-01-01T00:00:00Z","name_a2s":"Uncletopia | London | 1 | All Maps","protocol":17,"map":"cp_sunshine","folder":"tf","game":"Team Fortress","app_id":440,"player_count":21,"max_players":24,"Bots":0,"server_type":"Dedicated","server_os":"Linux","password":true,"vac":true,"version":"7961495","steam_id":85568392924367362,"keywords":["cp","nocrits","nodmgspread","uncletopia"],"game_id":440,"stv_port":27016,"stv_name":"Uncletopia | London | 1 | All Maps | STV","players":[{"user_id":712,"name":"T/5. Cernuno [16th IR]","steam_id":76561197977897110,"connected_time":28000000000,"state":"active","ping":67},{"user_id":696,"name":"YMIR","steam_id":76561198968979836,"connected_time":1702000000000,"state":"active","ping":75},{"user_id":705,"name":"Enda","steam_id":76561198202980164,"connected_time":815000000000,"state":"active","ping":88},{"user_id":698,"name":"Bobirulez","steam_id":76561198009125458,"connected_time":1631000000000,"state":"active","ping":60},{"user_id":639,"name":"t.tv/whimsybun","steam_id":76561198878171763,"connected_time":6830000000000,"state":"active","ping":53},{"user_id":713,"name":"SparkyDoodles - Artist","steam_id":76561198060128235,"connected_time":27000000000,"state":"active","ping":59},{"user_id":682,"name":"ExotiiC ‚òØ","steam_id":76561198046149866,"connected_time":2098000000000,"state":"active","ping":61},{"user_id":699,"name":"Speed-Dial","steam_id":76561198012428315,"connected_time":1314000000000,"state":"active","ping":45},{"user_id":708,"name":"‚úøaura‚úø","steam_id":76561198066258544,"connected_time":116000000000,"state":"active","ping":61},{"user_id":677,"name":"SPONGE","steam_id":76561198040933472,"connected_time":3030000000000,"state":"active","ping":60},{"user_id":690,"name":"zebulon","steam_id":76561198384683504,"connected_time":1861000000000,"state":"active","ping":75},{"user_id":714,"name":"Milk","steam_id":76561198125876588,"connected_time":21000000000,"state":"active","ping":45},{"user_id":701,"name":"Gaxkang","steam_id":76561198125768571,"connected_time":1123000000000,"state":"active","ping":46},{"user_id":687,"name":"Fat Pigeon","steam_id":76561198817940142,"connected_time":1930000000000,"state":"active","ping":46},{"user_id":603,"name":"Ullr","steam_id":76561198140547483,"connected_time":9876000000000,"state":"active","ping":40},{"user_id":654,"name":"Kahvi","steam_id":76561198723244199,"connected_time":5409000000000,"state":"active","ping":76},{"user_id":695,"name":"Purps","steam_id":76561198053886680,"connected_time":1745000000000,"state":"active","ping":45},{"user_id":703,"name":"KnugenIV","steam_id":76561198127091993,"connected_time":831000000000,"state":"active","ping":89},{"user_id":707,"name":"Mr. Hunts","steam_id":76561197981910397,"connected_time":505000000000,"state":"active","ping":60},{"user_id":671,"name":",","steam_id":76561199383437138,"connected_time":4193000000000,"state":"active","ping":117},{"user_id":684,"name":"Nittugai","steam_id":76561198067366462,"connected_time":2069000000000,"state":"active","ping":62}]},{"server_id":114,"name":"Uncletopia | London | 2 | All Maps","name_short":"lon-2","host":"lon-1.uk.uncletopia.com","port":27025,"enabled":true,"region":"eu","cc":"gb","latitude":51.509865,"longitude":-0.118092,"reserved":0,"last_update":"0001-01-01T00:00:00Z","name_a2s":"Uncletopia | London | 2 | All Maps","protocol":17,"map":"pl_upward","folder":"tf","game":"Team Fortress","app_id":440,"player_count":24,"max_players":24,"Bots":0,"server_type":"Dedicated","server_os":"Linux","password":true,"vac":true,"version":"7961495","steam_id":85568392924470941,"keywords":["nocrits","nodmgspread","payload","uncletopia"],"game_id":440,"stv_port":27026,"stv_name":"Uncletopia | London | 2 | All Maps | STV","players":[{"user_id":459,"name":"v0ddo","steam_id":76561198092745537,"connected_time":3462000000000,"state":"active","ping":48},{"user_id":497,"name":"Ethee05","steam_id":76561198221013980,"connected_time":1269000000000,"state":"active","ping":47},{"user_id":485,"name":"Silverdarlin","steam_id":76561198118540970,"connected_time":1753000000000,"state":"active","ping":55},{"user_id":510,"name":"Soyru","steam_id":76561199206153482,"connected_time":595000000000,"state":"active","ping":51},{"user_id":483,"name":"Echoz","steam_id":76561199013185901,"connected_time":1951000000000,"state":"active","ping":61},{"user_id":498,"name":"---","steam_id":76561198092283741,"connected_time":1256000000000,"state":"active","ping":55},{"user_id":490,"name":"em ‚ù§","steam_id":76561198156678840,"connected_time":1541000000000,"state":"active","ping":45},{"user_id":503,"name":"Destinys","steam_id":76561198056132894,"connected_time":672000000000,"state":"active","ping":59},{"user_id":511,"name":"tchcea","steam_id":76561198444307012,"connected_time":529000000000,"state":"active","ping":100},{"user_id":479,"name":"dsbb","steam_id":76561198199790361,"connected_time":2337000000000,"state":"active","ping":45},{"user_id":505,"name":"JamesPepega","steam_id":76561198019156154,"connected_time":640000000000,"state":"active","ping":64},{"user_id":506,"name":"ScapeGoat","steam_id":76561198137868829,"connected_time":614000000000,"state":"active","ping":45},{"user_id":502,"name":"opportunity uteliser","steam_id":76561198051685232,"connected_time":776000000000,"state":"active","ping":45},{"user_id":467,"name":"bowchika wowa #SlavaUkraine","steam_id":76561198159564550,"connected_time":3080000000000,"state":"active","ping":61},{"user_id":501,"name":"cister0","steam_id":76561198130195469,"connected_time":996000000000,"state":"active","ping":67},{"user_id":507,"name":"Kenshi","steam_id":76561198068966720,"connected_time":607000000000,"state":"active","ping":60},{"user_id":508,"name":"Binkle","steam_id":76561199184000174,"connected_time":606000000000,"state":"active","ping":43},{"user_id":509,"name":"LlamaCrazy","steam_id":76561198803427474,"connected_time":601000000000,"state":"active","ping":131},{"user_id":451,"name":"Houlles","steam_id":76561198095277383,"connected_time":3695000000000,"state":"active","ping":58},{"user_id":500,"name":"Kaza","steam_id":76561198033509686,"connected_time":1148000000000,"state":"active","ping":45},{"user_id":513,"name":"Aftiks","steam_id":76561198875182686,"connected_time":469000000000,"state":"active","ping":95},{"user_id":525,"name":"hawkblob","steam_id":76561198803720565,"connected_time":381000000000,"state":"active","ping":76},{"user_id":494,"name":"maniac-baker","steam_id":76561198076966730,"connected_time":1476000000000,"state":"active","ping":43},{"user_id":522,"name":"BepisR47","steam_id":76561198084515716,"connected_time":421000000000,"state":"active","ping":37}]},{"server_id":320,"name":"Uncletopia | London | 3 | All Maps","name_short":"lon-3","host":"lon-1.uk.uncletopia.com","port":27035,"enabled":true,"region":"eu","cc":"gb","latitude":51.509865,"longitude":-0.118092,"reserved":0,"last_update":"0001-01-01T00:00:00Z","name_a2s":"Uncletopia | London | 3 | All Maps","protocol":17,"map":"pl_thundermountain","folder":"tf","game":"Team Fortress","app_id":440,"player_count":24,"max_players":24,"Bots":0,"server_type":"Dedicated","server_os":"Linux","password":true,"vac":true,"version":"7961495","steam_id":85568392924510192,"keywords":["nocrits","nodmgspread","payload","uncletopia"],"game_id":440,"stv_port":27036,"stv_name":"Uncletopia | London | 3 | All Maps | STV","players":[{"user_id":318,"name":"Windows Vista Cruiser","steam_id":76561198064102233,"connected_time":168000000000,"state":"active","ping":46},{"user_id":292,"name":"sticks","steam_id":76561198127099299,"connected_time":1615000000000,"state":"active","ping":44},{"user_id":314,"name":"John_Fish","steam_id":76561198046587829,"connected_time":262000000000,"state":"active","ping":48},{"user_id":311,"name":"A Table","steam_id":76561198056456470,"connected_time":757000000000,"state":"active","ping":61},{"user_id":261,"name":"Pixar Cars on the PS2","steam_id":76561198079386295,"connected_time":2880000000000,"state":"active","ping":49},{"user_id":260,"name":"Burpman","steam_id":76561198022897937,"connected_time":2921000000000,"state":"active","ping":47},{"user_id":241,"name":"Viewie","steam_id":76561198280108853,"connected_time":4355000000000,"state":"active","ping":131},{"user_id":320,"name":"JujuBalu","steam_id":76561198207253071,"connected_time":159000000000,"state":"active","ping":33},{"user_id":315,"name":"Cosmic Gamer","steam_id":76561198027357981,"connected_time":233000000000,"state":"active","ping":90},{"user_id":240,"name":"Mirce","steam_id":76561198100889621,"connected_time":4374000000000,"state":"active","ping":114},{"user_id":298,"name":"≈†varcas","steam_id":76561198841646694,"connected_time":1353000000000,"state":"active","ping":75},{"user_id":300,"name":"w","steam_id":76561198037136870,"connected_time":1313000000000,"state":"active","ping":69},{"user_id":322,"name":"fernandobmwm355555","steam_id":76561198086609447,"connected_time":28000000000,"state":"active","ping":66},{"user_id":278,"name":"Sodium Inhaler","steam_id":76561198110912558,"connected_time":2293000000000,"state":"active","ping":79},{"user_id":307,"name":"xx_soy_xx","steam_id":76561198333779084,"connected_time":1086000000000,"state":"active","ping":83},{"user_id":302,"name":"Tzogi","steam_id":76561198026713260,"connected_time":1282000000000,"state":"active","ping":61},{"user_id":316,"name":"RonnieColemanSedaSayanLock","steam_id":76561198121628182,"connected_time":224000000000,"state":"active","ping":109},{"user_id":309,"name":"Violent_Raccoons","steam_id":76561199006002337,"connected_time":1017000000000,"state":"active","ping":45},{"user_id":319,"name":"Saucisse","steam_id":76561198119955969,"connected_time":167000000000,"state":"active","ping":48},{"user_id":312,"name":"WasserGurke","steam_id":76561198372482746,"connected_time":743000000000,"state":"active","ping":73},{"user_id":321,"name":"ZePequenio","steam_id":76561197968506094,"connected_time":146000000000,"state":"active","ping":52},{"user_id":281,"name":"Jussukka","steam_id":76561198122894683,"connected_time":2152000000000,"state":"active","ping":80},{"user_id":277,"name":"Jag √§r ett anka","steam_id":76561198059978438,"connected_time":2353000000000,"state":"active","ping":52},{"user_id":289,"name":"sloppy transgirl toppy","steam_id":76561198057092208,"connected_time":1982000000000,"state":"active","ping":76}]},{"server_id":321,"name":"Uncletopia | London | 4 | All Maps","name_short":"lon-4","host":"lon-1.uk.uncletopia.com","port":27045,"enabled":true,"region":"eu","cc":"gb","latitude":51.509865,"longitude":-0.118092,"reserved":0,"last_update":"0001-01-01T00:00:00Z","name_a2s":"Uncletopia | London | 4 | All Maps","protocol":17,"map":"pl_pier","folder":"tf","game":"Team Fortress","app_id":440,"player_count":24,"max_players":24,"Bots":0,"server_type":"Dedicated","server_os":"Linux","password":true,"vac":true,"version":"7961495","steam_id":85568392924510193,"keywords":["nocrits","nodmgspread","payload","uncletopia"],"game_id":440,"stv_port":27046,"stv_name":"Uncletopia | London | 4 | All Maps | STV","players":[{"user_id":339,"name":"Gen","steam_id":76561198021775885,"connected_time":342000000000,"state":"active","ping":75},{"user_id":302,"name":"kurd","steam_id":76561198116530769,"connected_time":4247000000000,"state":"active","ping":98},{"user_id":342,"name":"woople","steam_id":76561198076625889,"connected_time":225000000000,"state":"active","ping":71},{"user_id":307,"name":"H-say","steam_id":76561198177400362,"connected_time":3449000000000,"state":"active","ping":80},{"user_id":332,"name":"AI | Davidoscki","steam_id":76561198129166046,"connected_time":1929000000000,"state":"active","ping":85},{"user_id":289,"name":"LuckyHappyGuy","steam_id":76561198353023996,"connected_time":5303000000000,"state":"active","ping":66},{"user_id":340,"name":"toki","steam_id":76561198963599425,"connected_time":331000000000,"state":"active","ping":62},{"user_id":310,"name":"nug","steam_id":76561198055396568,"connected_time":3360000000000,"state":"active","ping":51},{"user_id":317,"name":"Dei Genetrix","steam_id":76561198305678122,"connected_time":2926000000000,"state":"active","ping":48},{"user_id":263,"name":"Dr. Mario","steam_id":76561198134378108,"connected_time":6745000000000,"state":"active","ping":61},{"user_id":331,"name":"SynthBox3","steam_id":76561199094075745,"connected_time":1946000000000,"state":"active","ping":103},{"user_id":243,"name":"yuno appreciator","steam_id":76561198083286511,"connected_time":8345000000000,"state":"active","ping":44},{"user_id":341,"name":"skelebin","steam_id":76561199480942903,"connected_time":305000000000,"state":"active","ping":75},{"user_id":329,"name":"CptAlex","steam_id":76561198059722457,"connected_time":2050000000000,"state":"active","ping":59},{"user_id":265,"name":"s a i","steam_id":76561197970379754,"connected_time":6710000000000,"state":"active","ping":60},{"user_id":291,"name":"H the Creator","steam_id":76561198335971475,"connected_time":5275000000000,"state":"active","ping":45},{"user_id":337,"name":"xavier","steam_id":76561198076494034,"connected_time":1229000000000,"state":"active","ping":52},{"user_id":336,"name":"The Power","steam_id":76561198060566884,"connected_time":1480000000000,"state":"active","ping":39},{"user_id":303,"name":"I sell exotic parrots","steam_id":76561199192434258,"connected_time":3932000000000,"state":"active","ping":94},{"user_id":282,"name":"lillunya ‚ô°","steam_id":76561198330418866,"connected_time":5795000000000,"state":"active","ping":62},{"user_id":306,"name":"syms","steam_id":76561198066679812,"connected_time":3541000000000,"state":"active","ping":78},{"user_id":296,"name":"Henry","steam_id":76561198108018305,"connected_time":4759000000000,"state":"active","ping":87},{"user_id":301,"name":"TreatFly","steam_id":76561198069707362,"connected_time":4367000000000,"state":"active","ping":35},{"user_id":321,"name":"Hotdogs","steam_id":76561199112737347,"connected_time":2487000000000,"state":"active","ping":56}]},{"server_id":21,"name":"Uncletopia | London | 5 | All Maps","name_short":"lon-5","host":"lon-1.uk.uncletopia.com","port":27055,"enabled":true,"region":"eu","cc":"gb","latitude":51.509865,"longitude":-0.118092,"reserved":0,"last_update":"0001-01-01T00:00:00Z","name_a2s":"Uncletopia | London | 5 | All Maps","protocol":17,"map":"pl_upward","folder":"tf","game":"Team Fortress","app_id":440,"player_count":24,"max_players":24,"Bots":0,"server_type":"Dedicated","server_os":"Linux","password":true,"vac":true,"version":"7961495","steam_id":85568392924742829,"keywords":["nocrits","nodmgspread","payload","uncletopia"],"game_id":440,"stv_port":27056,"stv_name":"Uncletopia | London | 5 | All Maps | STV","players":[{"user_id":191,"name":"Bobo","steam_id":76561198052308399,"connected_time":161000000000,"state":"active","ping":50},{"user_id":179,"name":"Sabour","steam_id":76561197963965445,"connected_time":2034000000000,"state":"active","ping":59},{"user_id":194,"name":"shenanigan","steam_id":76561198043452925,"connected_time":1000000000,"state":"spawning","ping":55},{"user_id":187,"name":"Swedde","steam_id":76561198297296440,"connected_time":1262000000000,"state":"active","ping":52},{"user_id":186,"name":"rob","steam_id":76561198122211848,"connected_time":1291000000000,"state":"active","ping":86},{"user_id":150,"name":"gaming gamer","steam_id":76561198212488780,"connected_time":4845000000000,"state":"active","ping":73},{"user_id":184,"name":"finbar","steam_id":76561198056812396,"connected_time":1327000000000,"state":"active","ping":78},{"user_id":138,"name":"ROX","steam_id":76561198272289320,"connected_time":5333000000000,"state":"active","ping":45},{"user_id":174,"name":"Zamorocian","steam_id":76561198076604017,"connected_time":2573000000000,"state":"active","ping":42},{"user_id":167,"name":":3","steam_id":76561198169471853,"connected_time":3132000000000,"state":"active","ping":55},{"user_id":175,"name":"Gibbo","steam_id":76561198021814576,"connected_time":2560000000000,"state":"active","ping":39},{"user_id":190,"name":"‚òÅ Lou1smeister ‚òÅ","steam_id":76561198004032968,"connected_time":382000000000,"state":"active","ping":75},{"user_id":164,"name":"Sicmendor Obscurox","steam_id":76561197962107049,"connected_time":3333000000000,"state":"active","ping":69},{"user_id":170,"name":"OH LAWD HE PERCHIN","steam_id":76561198247932496,"connected_time":2819000000000,"state":"active","ping":60},{"user_id":185,"name":"Stefman","steam_id":76561199025104038,"connected_time":1297000000000,"state":"active","ping":45},{"user_id":113,"name":"Hydrate","steam_id":76561198128935775,"connected_time":7242000000000,"state":"active","ping":66},{"user_id":176,"name":"Dr. Robotnik's Nice Rice Device","steam_id":76561198027393309,"connected_time":2552000000000,"state":"active","ping":43},{"user_id":188,"name":"Sparky","steam_id":76561198036754195,"connected_time":1252000000000,"state":"active","ping":46},{"user_id":178,"name":"sniper's kangaroo wife","steam_id":76561198334042273,"connected_time":2404000000000,"state":"active","ping":69},{"user_id":158,"name":"Lance Corporal Boiled Egg","steam_id":76561197989717358,"connected_time":3845000000000,"state":"active","ping":43},{"user_id":118,"name":"TurnaJ","steam_id":76561198189223495,"connected_time":6841000000000,"state":"active","ping":67},{"user_id":189,"name":"Silver\u003c3 (12k hours and trash)","steam_id":76561198022351828,"connected_time":1240000000000,"state":"active","ping":45},{"user_id":192,"name":"Wallnut","steam_id":76561198290857706,"connected_time":160000000000,"state":"active","ping":130}]},{"server_id":22,"name":"Uncletopia | London | 6 | All Maps","name_short":"lon-6","host":"lon-1.uk.uncletopia.com","port":27065,"enabled":true,"region":"eu","cc":"gb","latitude":51.509865,"longitude":-0.118092,"reserved":0,"last_update":"0001-01-01T00:00:00Z","name_a2s":"Uncletopia | London | 6 | All Maps","protocol":17,"map":"cp_sunshine","folder":"tf","game":"Team Fortress","app_id":440,"player_count":16,"max_players":24,"Bots":0,"server_type":"Dedicated","server_os":"Linux","password":true,"vac":true,"version":"7961495","steam_id":85568392924742830,"keywords":["cp","nocrits","nodmgspread","uncletopia"],"game_id":440,"stv_port":27066,"stv_name":"Uncletopia | London | 6 | All Maps | STV","players":[{"user_id":125,"name":"smiley","steam_id":76561198042245117,"connected_time":1813000000000,"state":"active","ping":50},{"user_id":142,"name":"A Wild Ferrothorn","steam_id":76561198042261828,"connected_time":1262000000000,"state":"active","ping":47},{"user_id":162,"name":"76531198198177417","steam_id":76561198086304421,"connected_time":0,"state":"spawning","ping":0},{"user_id":154,"name":"\u003cGNGWD\u003e Neonicus","steam_id":76561197992607709,"connected_time":372000000000,"state":"active","ping":60},{"user_id":155,"name":"redlix","steam_id":76561198119413461,"connected_time":323000000000,"state":"active","ping":65},{"user_id":156,"name":"*Stare*","steam_id":76561199072209884,"connected_time":284000000000,"state":"active","ping":44},{"user_id":159,"name":"Liamish11","steam_id":76561198176235318,"connected_time":104000000000,"state":"active","ping":80},{"user_id":158,"name":"Gruf√¶ldig","steam_id":76561197962444696,"connected_time":202000000000,"state":"active","ping":60},{"user_id":160,"name":"frosty","steam_id":76561198094560834,"connected_time":86000000000,"state":"active","ping":45},{"user_id":161,"name":"Agro | KritzKast","steam_id":76561197970498549,"connected_time":79000000000,"state":"active","ping":45},{"user_id":147,"name":"Pestilence","steam_id":76561198140938904,"connected_time":975000000000,"state":"active","ping":65},{"user_id":117,"name":"armadillo","steam_id":76561198324656652,"connected_time":2087000000000,"state":"active","ping":53},{"user_id":101,"name":"bilgobaggings","steam_id":76561198041520751,"connected_time":3060000000000,"state":"active","ping":83},{"user_id":140,"name":"–∫–∞—Ä–∞—Å–∏–∫","steam_id":76561197971140507,"connected_time":1331000000000,"state":"active","ping":66},{"user_id":131,"name":"N4G4S4K1 1S K4RK4L1C1OUS","steam_id":76561199031772797,"connected_time":1649000000000,"state":"active","ping":160},{"user_id":150,"name":"Paradox_Stealth","steam_id":76561198373640872,"connected_time":941000000000,"state":"active","ping":104}]},{"server_id":40,"name":"Uncletopia | London | 7 | Stopwatch","name_short":"lon-7","host":"lon-1.uk.uncletopia.com","port":27075,"enabled":true,"region":"eu","cc":"gb","latitude":51.509865,"longitude":-0.118092,"reserved":0,"last_update":"0001-01-01T00:00:00Z","name_a2s":"Uncletopia | London | 7 | Stopwatch","protocol":17,"map":"workshop/pl_badwater_pro_v12.ugc2142942074","folder":"tf","game":"Team Fortress","app_id":440,"player_count":0,"max_players":24,"Bots":0,"server_type":"Dedicated","server_os":"Linux","password":true,"vac":true,"version":"7961495","steam_id":85568392924964314,"keywords":["nocrits","nodmgspread","payload","uncletopia"],"game_id":440,"stv_port":27076,"stv_name":"Uncletopia | London | 7 | Stopwatch | STV","players":null},{"server_id":41,"name":"Uncletopia | London | 8 | Community","name_short":"lon-8","host":"lon-1.uk.uncletopia.com","port":27085,"enabled":true,"region":"eu","cc":"gb","latitude":51.509865,"longitude":-0.118092,"reserved":0,"last_update":"0001-01-01T00:00:00Z","name_a2s":"Uncletopia | London | 8 | Community","protocol":17,"map":"workshop/cp_overgrown_rc8.ugc503939302","folder":"tf","game":"Team Fortress","app_id":440,"player_count":0,"max_players":24,"Bots":0,"server_type":"Dedicated","server_os":"Linux","password":true,"vac":true,"version":"7961495","steam_id":85568392924964315,"keywords":["cp","nocrits","nodmgspread","uncletopia"],"game_id":440,"stv_port":27086,"stv_name":"Uncletopia | London | 8 | Community | STV","players":null},{"server_id":300,"name":"Uncletopia | Montr√©al | 1 | One Thousand Uncles","name_short":"mtl-1","host":"mtl-1.ca.uncletopia.com","port":27015,"enabled":true,"region":"us-east","cc":"ca","latitude":45.50889,"longitude":-73.56167,"reserved":0,"last_update":"0001-01-01T00:00:00Z","name_a2s":"Uncletopia | Montr√©al | 1 | One Thousand Uncles","protocol":17,"map":"pl_goldrush","folder":"tf","game":"Team Fortress","app_id":440,"player_count":0,"max_players":32,"Bots":0,"server_type":"Dedicated","server_os":"Linux","password":true,"vac":true,"version":"7961495","steam_id":85568392924500087,"keywords":["alltalk","danepve","increased_maxplayers","norespawntime","payload","uncletopia"],"game_id":440,"stv_port":0,"stv_name":"","players":null},{"server_id":301,"name":"Uncletopia | Montr√©al | 2 | One Thousand Uncles","name_short":"mtl-2","host":"mtl-1.ca.uncletopia.com","port":27025,"enabled":true,"region":"us-east","cc":"ca","latitude":45.50889,"longitude":-73.56167,"reserved":0,"last_update":"0001-01-01T00:00:00Z","name_a2s":"Uncletopia | Montr√©al | 2 | One Thousand Uncles","protocol":17,"map":"pl_chilly","folder":"tf","game":"Team Fortress","app_id":440,"player_count":0,"max_players":32,"Bots":0,"server_type":"Dedicated","server_os":"Linux","password":true,"vac":true,"version":"7961495","steam_id":85568392924500088,"keywords":["alltalk","danepve","increased_maxplayers","norespawntime","payload","uncletopia"],"game_id":440,"stv_port":0,"stv_name":"","players":null},{"server_id":302,"name":"Uncletopia | Montr√©al | 3 | One Thousand Uncles","name_short":"mtl-3","host":"mtl-1.ca.uncletopia.com","port":27035,"enabled":true,"region":"us-east","cc":"ca","latitude":45.50889,"longitude":-73.56167,"reserved":0,"last_update":"0001-01-01T00:00:00Z","name_a2s":"Uncletopia | Montr√©al | 3 | One Thousand Uncles","protocol":17,"map":"pl_hoodoo_final","folder":"tf","game":"Team Fortress","app_id":440,"player_count":20,"max_players":32,"Bots":16,"server_type":"Dedicated","server_os":"Linux","password":true,"vac":true,"version":"7961495","steam_id":85568392924500089,"keywords":["alltalk","bots","danepve","increased_maxplayers","norespawntime","payload","uncletopia"],"game_id":440,"stv_port":0,"stv_name":"","players":[{"user_id":118,"name":"3thernet jak","steam_id":76561198327395213,"connected_time":2669000000000,"state":"active","ping":48},{"user_id":136,"name":"Astra","steam_id":76561198040217532,"connected_time":1717000000000,"state":"active","ping":74},{"user_id":109,"name":"Why not Zoidberg?","steam_id":76561197982207556,"connected_time":5755000000000,"state":"active","ping":78},{"user_id":142,"name":"Jesse Bear","steam_id":76561198217075305,"connected_time":921000000000,"state":"active","ping":72}]},{"server_id":13,"name":"Uncletopia | New York City | 1 | All Maps","name_short":"nyc-1","host":"nyc-1.us.uncletopia.com","port":27015,"enabled":true,"region":"us-east","cc":"us","latitude":40.73061,"longitude":-73.93524,"reserved":0,"last_update":"0001-01-01T00:00:00Z","name_a2s":"Uncletopia | New York City | 1 | All Maps","protocol":17,"map":"pl_frontier_final","folder":"tf","game":"Team Fortress","app_id":440,"player_count":24,"max_players":24,"Bots":0,"server_type":"Dedicated","server_os":"Linux","password":true,"vac":true,"version":"7961495","steam_id":85568392924469993,"keywords":["nocrits","nodmgspread","payload","uncletopia"],"game_id":440,"stv_port":27016,"stv_name":"Uncletopia | New York City | 1 | All Maps | STV","players":[{"user_id":147,"name":"KrashBoomBang","steam_id":76561199002978777,"connected_time":3786000000000,"state":"active","ping":47},{"user_id":181,"name":"Tokyo_Timeshift_","steam_id":76561198048677523,"connected_time":402000000000,"state":"active","ping":65},{"user_id":166,"name":"bimbo blow up doll! \u003c3","steam_id":76561198959541006,"connected_time":1867000000000,"state":"active","ping":41},{"user_id":170,"name":"Hatty","steam_id":76561198043028227,"connected_time":1122000000000,"state":"active","ping":46},{"user_id":157,"name":"Overwatch","steam_id":76561198015324208,"connected_time":2289000000000,"state":"active","ping":88},{"user_id":99,"name":"super clickteam fusion","steam_id":76561198275101482,"connected_time":8266000000000,"state":"active","ping":131},{"user_id":160,"name":"Aurora428","steam_id":76561198412762716,"connected_time":2277000000000,"state":"active","ping":62},{"user_id":184,"name":"MaxPropaganda","steam_id":76561198860163436,"connected_time":9000000000,"state":"active","ping":63},{"user_id":129,"name":"TheGerg","steam_id":76561198257099217,"connected_time":5253000000000,"state":"active","ping":70},{"user_id":100,"name":"Matt","steam_id":76561198102154265,"connected_time":8254000000000,"state":"active","ping":119},{"user_id":149,"name":"Grazzunk","steam_id":76561198290227691,"connected_time":3610000000000,"state":"active","ping":65},{"user_id":174,"name":"proof","steam_id":76561199002403588,"connected_time":681000000000,"state":"active","ping":44},{"user_id":182,"name":"Strange Diplomat","steam_id":76561198428191920,"connected_time":185000000000,"state":"active","ping":51},{"user_id":142,"name":"celestia ludenberg","steam_id":76561199196437823,"connected_time":3913000000000,"state":"active","ping":121},{"user_id":163,"name":"A_Happy_Fellow","steam_id":76561199229475610,"connected_time":2167000000000,"state":"active","ping":105},{"user_id":168,"name":"Raizen","steam_id":76561199092445367,"connected_time":1690000000000,"state":"active","ping":61},{"user_id":180,"name":"yer_nerd","steam_id":76561199435454093,"connected_time":433000000000,"state":"active","ping":51},{"user_id":114,"name":"The Undead Knight","steam_id":76561198010654500,"connected_time":6826000000000,"state":"active","ping":76},{"user_id":171,"name":"Astro","steam_id":76561198035676106,"connected_time":769000000000,"state":"active","ping":80},{"user_id":178,"name":"Nice21","steam_id":76561199427548141,"connected_time":634000000000,"state":"active","ping":63},{"user_id":183,"name":"Bee_Pirate","steam_id":76561199000599111,"connected_time":167000000000,"state":"active","ping":68},{"user_id":165,"name":"mostly ham","steam_id":76561199479937232,"connected_time":2053000000000,"state":"active","ping":56},{"user_id":127,"name":"ndvr (femboy (REAL))","steam_id":76561199379200102,"connected_time":5412000000000,"state":"active","ping":45},{"user_id":134,"name":"theartistnathan","steam_id":76561198833787452,"connected_time":4559000000000,"state":"active","ping":79}]},{"server_id":14,"name":"Uncletopia | New York City | 2 | All Maps","name_short":"nyc-2","host":"nyc-1.us.uncletopia.com","port":27025,"enabled":true,"region":"us-east","cc":"us","latitude":40.73061,"longitude":-73.93524,"reserved":0,"last_update":"0001-01-01T00:00:00Z","name_a2s":"Uncletopia | New York City | 2 | All Maps","protocol":17,"map":"pl_badwater","folder":"tf","game":"Team Fortress","app_id":440,"player_count":23,"max_players":24,"Bots":0,"server_type":"Dedicated","server_os":"Linux","password":true,"vac":true,"version":"7961495","steam_id":85568392924469994,"keywords":["nocrits","nodmgspread","payload","uncletopia"],"game_id":440,"stv_port":27026,"stv_name":"Uncletopia | New York City | 2 | All Maps | STV","players":[{"user_id":222,"name":"loscemo","steam_id":76561197994884609,"connected_time":4907000000000,"state":"active","ping":73},{"user_id":279,"name":"emerge","steam_id":76561198186882891,"connected_time":545000000000,"state":"active","ping":68},{"user_id":238,"name":"You Don't Nomi.","steam_id":76561197969137836,"connected_time":3735000000000,"state":"active","ping":32},{"user_id":280,"name":"chunger","steam_id":76561198107931997,"connected_time":501000000000,"state":"active","ping":46},{"user_id":215,"name":"Nic0","steam_id":76561198305690218,"connected_time":5649000000000,"state":"active","ping":55},{"user_id":286,"name":"JustAnotherHuman","steam_id":76561199018122924,"connected_time":305000000000,"state":"active","ping":117},{"user_id":257,"name":"Jazz2T","steam_id":76561198154418867,"connected_time":2306000000000,"state":"active","ping":105},{"user_id":250,"name":"zeden","steam_id":76561198077567939,"connected_time":2675000000000,"state":"active","ping":58},{"user_id":287,"name":"HatManZ1","steam_id":76561199177173758,"connected_time":300000000000,"state":"active","ping":75},{"user_id":192,"name":"Jason","steam_id":76561198107058140,"connected_time":8533000000000,"state":"active","ping":47},{"user_id":288,"name":"Error","steam_id":76561199215193609,"connected_time":287000000000,"state":"active","ping":66},{"user_id":292,"name":"ÊúàË™≠","steam_id":76561198154020827,"connected_time":132000000000,"state":"active","ping":146},{"user_id":271,"name":"AndrewTron","steam_id":76561198301605457,"connected_time":1442000000000,"state":"active","ping":60},{"user_id":277,"name":"Lettuce_Plays","steam_id":76561198872255639,"connected_time":641000000000,"state":"active","ping":47},{"user_id":272,"name":"sock_vendor","steam_id":76561198059103865,"connected_time":1343000000000,"state":"active","ping":45},{"user_id":293,"name":"JimboMcJimmy","steam_id":76561198030656209,"connected_time":44000000000,"state":"active","ping":119},{"user_id":285,"name":"Lolzjay124 E¬≤r","steam_id":76561198141885851,"connected_time":355000000000,"state":"active","ping":54},{"user_id":245,"name":"boiled hotdog water","steam_id":76561198121236148,"connected_time":3108000000000,"state":"active","ping":51},{"user_id":290,"name":":o","steam_id":76561198964101426,"connected_time":249000000000,"state":"active","ping":45},{"user_id":283,"name":"Rat Queen Emily","steam_id":76561198232446788,"connected_time":485000000000,"state":"active","ping":55},{"user_id":276,"name":"bobbymcbobington","steam_id":76561199089411172,"connected_time":1042000000000,"state":"active","ping":124},{"user_id":267,"name":"Im Groot","steam_id":76561198294943420,"connected_time":2124000000000,"state":"active","ping":95},{"user_id":284,"name":"Forge","steam_id":76561198042751067,"connected_time":482000000000,"state":"active","ping":45}]},{"server_id":15,"name":"Uncletopia | New York City | 3 | Stopwatch","name_short":"nyc-3","host":"nyc-1.us.uncletopia.com","port":27035,"enabled":true,"region":"us-east","cc":"us","latitude":40.73061,"longitude":-73.93524,"reserved":0,"last_update":"0001-01-01T00:00:00Z","name_a2s":"Uncletopia | New York City | 3 | Stopwatch","protocol":17,"map":"workshop/pl_barnblitz_pro7.ugc582280235","folder":"tf","game":"Team Fortress","app_id":440,"player_count":0,"max_players":24,"Bots":0,"server_type":"Dedicated","server_os":"Linux","password":true,"vac":true,"version":"7961495","steam_id":85568392924742820,"keywords":["nocrits","nodmgspread","payload","uncletopia"],"game_id":440,"stv_port":27036,"stv_name":"Uncletopia | New York City | 3 | Stopwatch | STV","players":null},{"server_id":16,"name":"Uncletopia | New York City | 4 | Community","name_short":"nyc-4","host":"nyc-1.us.uncletopia.com","port":27045,"enabled":true,"region":"us-east","cc":"us","latitude":40.73061,"longitude":-73.93524,"reserved":0,"last_update":"0001-01-01T00:00:00Z","name_a2s":"Uncletopia | New York City | 4 | Community","protocol":17,"map":"workshop/cp_indulge.ugc528106646","folder":"tf","game":"Team Fortress","app_id":440,"player_count":0,"max_players":24,"Bots":0,"server_type":"Dedicated","server_os":"Linux","password":true,"vac":true,"version":"7961495","steam_id":85568392924742821,"keywords":["cp","nocrits","nodmgspread","uncletopia"],"game_id":440,"stv_port":27046,"stv_name":"Uncletopia | New York City | 4 | Community | STV","players":null},{"server_id":142,"name":"Uncletopia | S√£o Paulo | 1 | All Maps","name_short":"sao-1","host":"sao-1.br.uncletopia.com","port":27015,"enabled":true,"region":"sa","cc":"br","latitude":-23.533773,"longitude":-46.62529,"reserved":0,"last_update":"0001-01-01T00:00:00Z","name_a2s":"Uncletopia | S√£o Paulo | 1 | All Maps","protocol":17,"map":"koth_viaduct","folder":"tf","game":"Team Fortress","app_id":440,"player_count":0,"max_players":24,"Bots":0,"server_type":"Dedicated","server_os":"Linux","password":true,"vac":true,"version":"7961495","steam_id":85568392924469996,"keywords":["cp","nocrits","nodmgspread","uncletopia"],"game_id":440,"stv_port":27016,"stv_name":"Uncletopia | S√£o Paulo | 1 | All Maps | STV","players":null},{"server_id":143,"name":"Uncletopia | S√£o Paulo | 2 | Community","name_short":"sao-2","host":"sao-2.br.uncletopia.com","port":27015,"enabled":true,"region":"sa","cc":"br","latitude":-23.533773,"longitude":-46.62529,"reserved":0,"last_update":"0001-01-01T00:00:00Z","name_a2s":"Uncletopia | S√£o Paulo | 2 | Community","protocol":17,"map":"workshop/koth_product_final.ugc454272353","folder":"tf","game":"Team Fortress","app_id":440,"player_count":0,"max_players":24,"Bots":0,"server_type":"Dedicated","server_os":"Linux","password":true,"vac":true,"version":"7961495","steam_id":85568392924485349,"keywords":["cp","nocrits","nodmgspread","uncletopia"],"game_id":440,"stv_port":27016,"stv_name":"Uncletopia | S√£o Paulo | 2 | Community | STV","players":null},{"server_id":7,"name":"Uncletopia | Seattle | 1 | All Maps","name_short":"sea-1","host":"sea-1.us.uncletopia.com","port":27015,"enabled":true,"region":"us-west","cc":"us","latitude":47.608013,"longitude":-122.33517,"reserved":0,"last_update":"0001-01-01T00:00:00Z","name_a2s":"Uncletopia | Seattle | 1 | All Maps","protocol":17,"map":"pl_borneo","folder":"tf","game":"Team Fortress","app_id":440,"player_count":24,"max_players":24,"Bots":0,"server_type":"Dedicated","server_os":"Linux","password":true,"vac":true,"version":"7961495","steam_id":85568392924469997,"keywords":["nocrits","nodmgspread","payload","uncletopia"],"game_id":440,"stv_port":27016,"stv_name":"Uncletopia | Seattle | 1 | All Maps | STV","players":[{"user_id":350,"name":"Zobozo","steam_id":76561198028954297,"connected_time":126000000000,"state":"active","ping":77},{"user_id":353,"name":"bottom pride burger","steam_id":76561198322247602,"connected_time":116000000000,"state":"active","ping":87},{"user_id":326,"name":"Confirmed Bachelor","steam_id":76561198441041496,"connected_time":2025000000000,"state":"active","ping":42},{"user_id":354,"name":"peachy","steam_id":76561198028721790,"connected_time":110000000000,"state":"active","ping":60},{"user_id":327,"name":"a chicken","steam_id":76561198313121580,"connected_time":2024000000000,"state":"active","ping":75},{"user_id":335,"name":"2 Point Tom","steam_id":76561198087617008,"connected_time":1563000000000,"state":"active","ping":54},{"user_id":304,"name":"Wendall555","steam_id":76561198985637603,"connected_time":3686000000000,"state":"active","ping":80},{"user_id":345,"name":"Cosmo","steam_id":76561199085643398,"connected_time":345000000000,"state":"active","ping":77},{"user_id":348,"name":"Tom Buckle","steam_id":76561198870649125,"connected_time":144000000000,"state":"active","ping":83},{"user_id":342,"name":"Just a Good Friend","steam_id":76561198140052403,"connected_time":492000000000,"state":"active","ping":60},{"user_id":328,"name":"strawberry milk","steam_id":76561198025514255,"connected_time":2021000000000,"state":"active","ping":63},{"user_id":338,"name":"Username","steam_id":76561199033122306,"connected_time":1094000000000,"state":"active","ping":149},{"user_id":334,"name":"Cuno Doesn't Care!","steam_id":76561198007372782,"connected_time":1639000000000,"state":"active","ping":65},{"user_id":317,"name":"Medic Nationalism","steam_id":76561197998530400,"connected_time":3328000000000,"state":"active","ping":63},{"user_id":343,"name":"Aardappel","steam_id":76561198030894676,"connected_time":451000000000,"state":"active","ping":62},{"user_id":347,"name":"trackpad gaming | f2p","steam_id":76561198840414371,"connected_time":155000000000,"state":"active","ping":53},{"user_id":346,"name":"Mexican Elvis","steam_id":76561198165100210,"connected_time":266000000000,"state":"active","ping":85},{"user_id":339,"name":"hatred","steam_id":76561198904209270,"connected_time":544000000000,"state":"active","ping":60},{"user_id":298,"name":"X-Parasite","steam_id":76561198111178095,"connected_time":4021000000000,"state":"active","ping":89},{"user_id":341,"name":"DaBigA","steam_id":76561198326492538,"connected_time":508000000000,"state":"active","ping":44},{"user_id":306,"name":"Tmiracle","steam_id":76561198052375275,"connected_time":3685000000000,"state":"active","ping":83},{"user_id":352,"name":"Dim","steam_id":76561198061411324,"connected_time":123000000000,"state":"active","ping":130},{"user_id":285,"name":"Eden","steam_id":76561198081284664,"connected_time":5198000000000,"state":"active","ping":75},{"user_id":324,"name":"you just got dyked on","steam_id":76561198018977723,"connected_time":2046000000000,"state":"active","ping":51}]},{"server_id":119,"name":"Uncletopia | Seattle | 2 | All Maps","name_short":"sea-2","host":"sea-1.us.uncletopia.com","port":27025,"enabled":true,"region":"us-west","cc":"us","latitude":47.608013,"longitude":-122.33517,"reserved":0,"last_update":"0001-01-01T00:00:00Z","name_a2s":"Uncletopia | Seattle | 2 | All Maps","protocol":17,"map":"koth_cascade","folder":"tf","game":"Team Fortress","app_id":440,"player_count":0,"max_players":24,"Bots":0,"server_type":"Dedicated","server_os":"Linux","password":true,"vac":true,"version":"7961495","steam_id":85568392924469998,"keywords":["cp","nocrits","nodmgspread","uncletopia"],"game_id":440,"stv_port":27026,"stv_name":"Uncletopia | Seattle | 2 | All Maps | STV","players":null},{"server_id":406,"name":"Uncletopia | Seattle | 3 | Stopwatch","name_short":"sea-3","host":"sea-1.us.uncletopia.com","port":27035,"enabled":true,"region":"us-west","cc":"us","latitude":47.608013,"longitude":-122.33517,"reserved":0,"last_update":"0001-01-01T00:00:00Z","name_a2s":"Uncletopia | Seattle | 3 | Stopwatch","protocol":17,"map":"workshop/pl_summercoast_rc8e.ugc1761528829","folder":"tf","game":"Team Fortress","app_id":440,"player_count":0,"max_players":24,"Bots":0,"server_type":"Dedicated","server_os":"Linux","password":true,"vac":true,"version":"7961495","steam_id":85568392924515217,"keywords":["nocrits","nodmgspread","payload","uncletopia"],"game_id":440,"stv_port":27036,"stv_name":"Uncletopia | Seattle | 3 | Stopwatch | STV","players":null},{"server_id":17,"name":"Uncletopia | San Francisco | 1 | All Maps","name_short":"sfo-1","host":"sfo-1.us.uncletopia.com","port":27015,"enabled":true,"region":"us-west","cc":"us","latitude":37.77397,"longitude":-122.4313,"reserved":0,"last_update":"0001-01-01T00:00:00Z","name_a2s":"Uncletopia | San Francisco | 1 | All Maps","protocol":17,"map":"koth_highpass","folder":"tf","game":"Team Fortress","app_id":440,"player_count":0,"max_players":24,"Bots":0,"server_type":"Dedicated","server_os":"Linux","password":true,"vac":true,"version":"7961495","steam_id":85568392924469999,"keywords":["cp","nocrits","nodmgspread","uncletopia"],"game_id":440,"stv_port":27016,"stv_name":"Uncletopia | San Francisco | 1 | All Maps | STV","players":null},{"server_id":18,"name":"Uncletopia | San Francisco | 2 | All Maps","name_short":"sfo-2","host":"sfo-1.us.uncletopia.com","port":27025,"enabled":true,"region":"us-west","cc":"us","latitude":37.77397,"longitude":-122.4313,"reserved":0,"last_update":"0001-01-01T00:00:00Z","name_a2s":"Uncletopia | San Francisco | 2 | All Maps","protocol":17,"map":"cp_freight_final1","folder":"tf","game":"Team Fortress","app_id":440,"player_count":0,"max_players":24,"Bots":0,"server_type":"Dedicated","server_os":"Linux","password":true,"vac":true,"version":"7961495","steam_id":85568392924470000,"keywords":["cp","nocrits","nodmgspread","uncletopia"],"game_id":440,"stv_port":27026,"stv_name":"Uncletopia | San Francisco | 2 | All Maps | STV","players":null},{"server_id":19,"name":"Uncletopia | San Francisco | 3 | Stopwatch","name_short":"sfo-3","host":"sfo-1.us.uncletopia.com","port":27035,"enabled":true,"region":"us-west","cc":"us","latitude":37.77397,"longitude":-122.4313,"reserved":0,"last_update":"0001-01-01T00:00:00Z","name_a2s":"Uncletopia | San Francisco | 3 | Stopwatch","protocol":17,"map":"workshop/koth_jamram_rc1a.ugc2964065613","folder":"tf","game":"Team Fortress","app_id":440,"player_count":0,"max_players":24,"Bots":0,"server_type":"Dedicated","server_os":"Linux","password":true,"vac":true,"version":"7961495","steam_id":85568392924742824,"keywords":["cp","nocrits","nodmgspread","uncletopia"],"game_id":440,"stv_port":27036,"stv_name":"Uncletopia | San Francisco | 3 | Stopwatch | STV","players":null},{"server_id":20,"name":"Uncletopia | San Francisco | 4 | Community","name_short":"sfo-4","host":"sfo-1.us.uncletopia.com","port":27045,"enabled":true,"region":"us-west","cc":"us","latitude":37.77397,"longitude":-122.4313,"reserved":0,"last_update":"0001-01-01T00:00:00Z","name_a2s":"Uncletopia | San Francisco | 4 | Community","protocol":17,"map":"workshop/pl_cactuscanyon_redux_final2.ugc2579644293","folder":"tf","game":"Team Fortress","app_id":440,"player_count":0,"max_players":24,"Bots":0,"server_type":"Dedicated","server_os":"Linux","password":true,"vac":true,"version":"7961495","steam_id":85568392924742826,"keywords":["nocrits","nodmgspread","payload","uncletopia"],"game_id":440,"stv_port":27046,"stv_name":"Uncletopia | San Francisco | 4 | Community | STV","players":null},{"server_id":141,"name":"Uncletopia | Sydney | 1 | All Maps","name_short":"syd-1","host":"syd-1.au.uncletopia.com","port":27015,"enabled":true,"region":"au","cc":"au","latitude":-33.865143,"longitude":151.2099,"reserved":0,"last_update":"0001-01-01T00:00:00Z","name_a2s":"Uncletopia | Sydney | 1 | All Maps","protocol":17,"map":"koth_nucleus","folder":"tf","game":"Team Fortress","app_id":440,"player_count":0,"max_players":24,"Bots":0,"server_type":"Dedicated","server_os":"Linux","password":true,"vac":true,"version":"7961495","steam_id":85568392924470001,"keywords":["cp","nocrits","nodmgspread","uncletopia"],"game_id":440,"stv_port":27016,"stv_name":"Uncletopia | Sydney | 1 | All Maps | STV","players":null},{"server_id":123,"name":"Uncletopia | Sydney | 2 | All Maps","name_short":"syd-2","host":"syd-1.au.uncletopia.com","port":27025,"enabled":true,"region":"au","cc":"au","latitude":-33.865143,"longitude":151.2099,"reserved":0,"last_update":"0001-01-01T00:00:00Z","name_a2s":"Uncletopia | Sydney | 2 | All Maps","protocol":17,"map":"cp_fastlane","folder":"tf","game":"Team Fortress","app_id":440,"player_count":0,"max_players":24,"Bots":0,"server_type":"Dedicated","server_os":"Linux","password":true,"vac":true,"version":"7961495","steam_id":85568392924470002,"keywords":["cp","nocrits","nodmgspread","uncletopia"],"game_id":440,"stv_port":27026,"stv_name":"Uncletopia | Sydney | 2 | All Maps | STV","players":null},{"server_id":395,"name":"Uncletopia | Sydney | 3 | All Maps","name_short":"syd-3","host":"syd-1.au.uncletopia.com","port":27035,"enabled":true,"region":"au","cc":"au","latitude":-33.865143,"longitude":151.2099,"reserved":0,"last_update":"0001-01-01T00:00:00Z","name_a2s":"Uncletopia | Sydney | 3 | All Maps","protocol":17,"map":"cp_metalworks","folder":"tf","game":"Team Fortress","app_id":440,"player_count":0,"max_players":24,"Bots":0,"server_type":"Dedicated","server_os":"Linux","password":true,"vac":true,"version":"7961495","steam_id":85568392925194467,"keywords":["cp","nocrits","nodmgspread","uncletopia"],"game_id":440,"stv_port":27036,"stv_name":"Uncletopia | Sydney | 3 | All Maps | STV","players":null},{"server_id":396,"name":"Uncletopia | Sydney | 4 | All Maps","name_short":"syd-4","host":"syd-1.au.uncletopia.com","port":27045,"enabled":true,"region":"au","cc":"au","latitude":-33.865143,"longitude":151.2099,"reserved":0,"last_update":"0001-01-01T00:00:00Z","name_a2s":"Uncletopia | Sydney | 4 | All Maps","protocol":17,"map":"koth_cascade","folder":"tf","game":"Team Fortress","app_id":440,"player_count":0,"max_players":24,"Bots":0,"server_type":"Dedicated","server_os":"Linux","password":true,"vac":true,"version":"7961495","steam_id":85568392925397958,"keywords":["cp","nocrits","nodmgspread","uncletopia"],"game_id":440,"stv_port":27046,"stv_name":"Uncletopia | Sydney | 4 | All Maps | STV","players":null},{"server_id":58,"name":"Uncletopia | Sydney | 5 | Stopwatch","name_short":"syd-5","host":"syd-1.au.uncletopia.com","port":27055,"enabled":true,"region":"au","cc":"au","latitude":-33.865143,"longitude":151.2099,"reserved":0,"last_update":"0001-01-01T00:00:00Z","name_a2s":"Uncletopia | Sydney | 5 | Stopwatch","protocol":17,"map":"workshop/koth_product_final.ugc454272353","folder":"tf","game":"Team Fortress","app_id":440,"player_count":0,"max_players":24,"Bots":0,"server_type":"Dedicated","server_os":"Linux","password":true,"vac":true,"version":"7961495","steam_id":85568392925397959,"keywords":["cp","nocrits","nodmgspread","uncletopia"],"game_id":440,"stv_port":27056,"stv_name":"Uncletopia | Sydney | 5 | Stopwatch | STV","players":null},{"server_id":59,"name":"Uncletopia | Sydney | 6 | Community","name_short":"syd-6","host":"syd-1.au.uncletopia.com","port":27065,"enabled":true,"region":"au","cc":"au","latitude":-33.865143,"longitude":151.2099,"reserved":0,"last_update":"0001-01-01T00:00:00Z","name_a2s":"Uncletopia | Sydney | 6 | Community","protocol":17,"map":"workshop/koth_trenchfoot_ab1.ugc731436616","folder":"tf","game":"Team Fortress","app_id":440,"player_count":0,"max_players":24,"Bots":0,"server_type":"Dedicated","server_os":"Linux","password":true,"vac":true,"version":"7961495","steam_id":85568392925397960,"keywords":["cp","nocrits","nodmgspread","uncletopia"],"game_id":440,"stv_port":27066,"stv_name":"Uncletopia | Sydney | 6 | Community | STV","players":null},{"server_id":49,"name":"Uncletopia | Warsaw | 1 | One Thousand Uncles","name_short":"waw-1","host":"waw-1.pl.uncletopia.com","port":27015,"enabled":true,"region":"eu","cc":"pl","latitude":52.2297,"longitude":21.017532,"reserved":0,"last_update":"0001-01-01T00:00:00Z","name_a2s":"Uncletopia | Warsaw | 1 | One Thousand Uncles","protocol":17,"map":"cp_dustbowl","folder":"tf","game":"Team Fortress","app_id":440,"player_count":23,"max_players":32,"Bots":16,"server_type":"Dedicated","server_os":"Linux","password":true,"vac":true,"version":"7961495","steam_id":85568392925397850,"keywords":["alltalk","bots","cp","danepve","increased_maxplayers","norespawntime","uncletopia"],"game_id":440,"stv_port":0,"stv_name":"","players":[{"user_id":739,"name":"Mr.J","steam_id":76561199127439080,"connected_time":2369000000000,"state":"active","ping":93},{"user_id":733,"name":"Jared","steam_id":76561198020432651,"connected_time":2870000000000,"state":"active","ping":144},{"user_id":631,"name":"[1VS23] BAKELITE","steam_id":76561198190816499,"connected_time":7932000000000,"state":"active","ping":54},{"user_id":601,"name":"[HK]Êàë‰øÇÈ¶ôÊ∏Ø‰∫∫","steam_id":76561198165376815,"connected_time":8911000000000,"state":"active","ping":75},{"user_id":735,"name":"SHIZA69 [SGR]","steam_id":76561199104086365,"connected_time":2773000000000,"state":"active","ping":85},{"user_id":712,"name":"serbanstein","steam_id":76561199112672194,"connected_time":4018000000000,"state":"active","ping":89},{"user_id":668,"name":"Marcus","steam_id":76561198086814162,"connected_time":6502000000000,"state":"active","ping":64}]},{"server_id":50,"name":"Uncletopia | Warsaw | 2 | One Thousand Uncles","name_short":"waw-2","host":"waw-1.pl.uncletopia.com","port":27025,"enabled":true,"region":"eu","cc":"pl","latitude":52.2297,"longitude":21.017532,"reserved":0,"last_update":"0001-01-01T00:00:00Z","name_a2s":"Uncletopia | Warsaw | 2 | One Thousand Uncles","protocol":17,"map":"pl_upward","folder":"tf","game":"Team Fortress","app_id":440,"player_count":19,"max_players":32,"Bots":16,"server_type":"Dedicated","server_os":"Linux","password":true,"vac":true,"version":"7961495","steam_id":85568392925397851,"keywords":["alltalk","bots","danepve","increased_maxplayers","norespawntime","payload","uncletopia"],"game_id":440,"stv_port":0,"stv_name":"","players":[{"user_id":126,"name":"muwi","steam_id":76561198379039743,"connected_time":841000000000,"state":"active","ping":90},{"user_id":128,"name":"el gordo del choripan","steam_id":76561199191295347,"connected_time":470000000000,"state":"active","ping":312},{"user_id":88,"name":"ViPower","steam_id":76561198882928076,"connected_time":7089000000000,"state":"active","ping":63}]},{"server_id":51,"name":"Uncletopia | Warsaw | 3 | All Maps","name_short":"waw-3","host":"waw-1.pl.uncletopia.com","port":27035,"enabled":true,"region":"eu","cc":"pl","latitude":52.2297,"longitude":21.017532,"reserved":0,"last_update":"0001-01-01T00:00:00Z","name_a2s":"Uncletopia | Warsaw | 3 | All Maps","protocol":17,"map":"cp_sunshine","folder":"tf","game":"Team Fortress","app_id":440,"player_count":0,"max_players":24,"Bots":0,"server_type":"Dedicated","server_os":"Linux","password":true,"vac":true,"version":"7961495","steam_id":85568392925397852,"keywords":["cp","nocrits","nodmgspread","uncletopia"],"game_id":440,"stv_port":27036,"stv_name":"Uncletopia | Warsaw | 3 | All Maps | STV","players":null},{"server_id":52,"name":"Uncletopia | Warsaw | 4 | All Maps","name_short":"waw-4","host":"waw-1.pl.uncletopia.com","port":27045,"enabled":true,"region":"eu","cc":"pl","latitude":52.2297,"longitude":21.017532,"reserved":0,"last_update":"0001-01-01T00:00:00Z","name_a2s":"Uncletopia | Warsaw | 4 | All Maps","protocol":17,"map":"cp_snakewater_final1","folder":"tf","game":"Team Fortress","app_id":440,"player_count":0,"max_players":24,"Bots":0,"server_type":"Dedicated","server_os":"Linux","password":true,"vac":true,"version":"7961495","steam_id":85568392925397853,"keywords":["cp","nocrits","nodmgspread","uncletopia"],"game_id":440,"stv_port":27046,"stv_name":"Uncletopia | Warsaw | 4 | All Maps | STV","players":null},{"server_id":53,"name":"Uncletopia | Warsaw | 5 | Stopwatch","name_short":"waw-5","host":"waw-1.pl.uncletopia.com","port":27055,"enabled":true,"region":"eu","cc":"pl","latitude":52.2297,"longitude":21.017532,"reserved":0,"last_update":"0001-01-01T00:00:00Z","name_a2s":"Uncletopia | Warsaw | 5 | Stopwatch","protocol":17,"map":"workshop/koth_product_final.ugc454272353","folder":"tf","game":"Team Fortress","app_id":440,"player_count":0,"max_players":24,"Bots":0,"server_type":"Dedicated","server_os":"Linux","password":true,"vac":true,"version":"7961495","steam_id":85568392925397854,"keywords":["cp","nocrits","nodmgspread","uncletopia"],"game_id":440,"stv_port":27056,"stv_name":"Uncletopia | Warsaw | 5 | Stopwatch | STV","players":null},{"server_id":54,"name":"Uncletopia | Warsaw | 6 | Community","name_short":"waw-6","host":"waw-1.pl.uncletopia.com","port":27065,"enabled":true,"region":"eu","cc":"pl","latitude":52.2297,"longitude":21.017532,"reserved":0,"last_update":"0001-01-01T00:00:00Z","name_a2s":"Uncletopia | Warsaw | 6 | Community","protocol":17,"map":"workshop/cp_caldera_rc3.ugc2834196889","folder":"tf","game":"Team Fortress","app_id":440,"player_count":0,"max_players":24,"Bots":0,"server_type":"Dedicated","server_os":"Linux","password":true,"vac":true,"version":"7961495","steam_id":85568392925397856,"keywords":["cp","nocrits","nodmgspread","uncletopia"],"game_id":440,"stv_port":27066,"stv_name":"Uncletopia | Warsaw | 6 | Community | STV","players":null}]}