{"status":true,"message":"","result":[{"server_id":0,"name_short":"","name":"Uncletopia | Warsaw | 5 | Stopwatch","host":"","port":0,"enabled":false,"region":"","cc":"","latitude":0,"longitude":0,"reserved":0,"last_update":"0001-01-01T00:00:00Z","protocol":17,"map":"cp_process_final","folder":"tf","game":"Team Fortress","app_id":440,"player_count":0,"max_players":24,"Bots":0,"server_type":"Dedicated","server_os":"Linux","password":true,"vac":true,"version":"7961495","steam_id":85568392925397854,"keywords":["cp","nocrits","nodmgspread","uncletopia"],"edicts":[537,2048],"game_id":440,"stv_port":27056,"stv_name":"Uncletopia | Warsaw | 5 | Stopwatch | STV","players":null},{"server_id":0,"name_short":"","name":"Uncletopia | São Paulo | 2 | Community","host":"","port":0,"enabled":false,"region":"","cc":"","latitude":0,"longitude":0,"reserved":0,"last_update":"0001-01-01T00:00:00Z","protocol":17,"map":"koth_slaughter_rc1","folder":"tf","game":"Team Fortress","app_id":440,"player_count":0,"max_players":24,"Bots":0,"server_type":"Dedicated","server_os":"Linux","password":true,"vac":true,"version":"7961495","steam_id":85568392924485349,"keywords":["cp","nocrits","nodmgspread","uncletopia"],"edicts":[965,2048],"game_id":440,"stv_port":27016,"stv_name":"Uncletopia | São Paulo | 2 | Community | STV","players":null},{"server_id":0,"name_short":"","name":"Uncletopia | New York City | 2 | All Maps","host":"","port":0,"enabled":false,"region":"","cc":"","latitude":0,"longitude":0,"reserved":0,"last_update":"0001-01-01T00:00:00Z","protocol":17,"map":"koth_suijin","folder":"tf","game":"Team Fortress","app_id":440,"player_count":2,"max_players":24,"Bots":0,"server_type":"Dedicated","server_os":"Linux","password":true,"vac":true,"version":"7961495","steam_id":85568392924469994,"keywords":["cp","nocrits","nodmgspread","uncletopia"],"edicts":[444,2048],"game_id":440,"stv_port":27026,"stv_name":"Uncletopia | New York City | 2 | All Maps | STV","players":[{"user_id":12,"name":"Optimus Prime","steam_id":76561198848975156,"connected_time":813000000000,"state":"active","ping":139},{"user_id":14,"name":"matthewwilliams","steam_id":76561199409714228,"connected_time":755000000000,"state":"active","ping":114}]},{"server_id":0,"name_short":"","name":"Uncletopia | London | 3 | All Maps","host":"","port":0,"enabled":false,"region":"","cc":"","latitude":0,"longitude":0,"reserved":0,"last_update":"0001-01-01T00:00:00Z","protocol":17,"map":"cp_mercenarypark","folder":"tf","game":"Team Fortress","app_id":440,"player_count":24,"max_players":24,"Bots":0,"server_type":"Dedicated","server_os":"Linux","password":true,"vac":true,"version":"7961495","steam_id":85568392924510192,"keywords":["cp","nocrits","nodmgspread","uncletopia"],"edicts":[858,2048],"game_id":440,"stv_port":27036,"stv_name":"Uncletopia | London | 3 | All Maps | STV","players":[{"user_id":26,"name":"NESS","steam_id":76561197995225318,"connected_time":2760000000000,"state":"active","ping":44},{"user_id":70,"name":"Moose","steam_id":76561198352381052,"connected_time":322000000000,"state":"active","ping":103},{"user_id":52,"name":"(:","steam_id":76561198080638046,"connected_time":1014000000000,"state":"active","ping":72},{"user_id":53,"name":"Axord","steam_id":76561199289652176,"connected_time":980000000000,"state":"active","ping":54},{"user_id":68,"name":"al","steam_id":76561199101813776,"connected_time":427000000000,"state":"active","ping":54},{"user_id":63,"name":"Spinya","steam_id":76561198086653667,"connected_time":742000000000,"state":"active","ping":60},{"user_id":51,"name":"Legs","steam_id":76561198045642325,"connected_time":1066000000000,"state":"active","ping":49},{"user_id":55,"name":"METhOphetamine","steam_id":76561198068216224,"connected_time":932000000000,"state":"active","ping":60},{"user_id":56,"name":"gaming (official)","steam_id":76561198106012909,"connected_time":896000000000,"state":"active","ping":79},{"user_id":48,"name":"KhornateDoom","steam_id":76561198127530619,"connected_time":1643000000000,"state":"active","ping":64},{"user_id":67,"name":"Rezzy","steam_id":76561198410598772,"connected_time":451000000000,"state":"active","ping":46},{"user_id":62,"name":"DudeoftheRock","steam_id":76561198059401865,"connected_time":823000000000,"state":"active","ping":65},{"user_id":35,"name":"IndigoJones","steam_id":76561198050284262,"connected_time":2160000000000,"state":"active","ping":45},{"user_id":34,"name":"the quotient rule","steam_id":76561198188642265,"connected_time":2221000000000,"state":"active","ping":51},{"user_id":50,"name":"Yuval","steam_id":76561198241802390,"connected_time":1593000000000,"state":"active","ping":114},{"user_id":58,"name":"Sad!","steam_id":76561198057537774,"connected_time":883000000000,"state":"active","ping":79},{"user_id":65,"name":"EXCELdotEXE","steam_id":76561198977594319,"connected_time":714000000000,"state":"active","ping":71},{"user_id":74,"name":"King Bradley","steam_id":76561198066494938,"connected_time":86000000000,"state":"active","ping":123},{"user_id":71,"name":"Esquiloz","steam_id":76561198075645336,"connected_time":310000000000,"state":"active","ping":66},{"user_id":73,"name":"mr.resetti","steam_id":76561198974520642,"connected_time":198000000000,"state":"active","ping":73},{"user_id":60,"name":"Recheio","steam_id":76561198058673837,"connected_time":867000000000,"state":"active","ping":84},{"user_id":44,"name":"Big Mean Muther Hubbard","steam_id":76561199223016965,"connected_time":1891000000000,"state":"active","ping":43},{"user_id":45,"name":"golfmastr","steam_id":76561198993144124,"connected_time":1886000000000,"state":"active","ping":65},{"user_id":61,"name":"Femboy Butt","steam_id":76561198115496457,"connected_time":861000000000,"state":"active","ping":42}]},{"server_id":0,"name_short":"","name":"Uncletopia | Montréal | 1 | One Thousand Uncles","host":"","port":0,"enabled":false,"region":"","cc":"","latitude":0,"longitude":0,"reserved":0,"last_update":"0001-01-01T00:00:00Z","protocol":17,"map":"pl_barnblitz","folder":"tf","game":"Team Fortress","app_id":440,"player_count":0,"max_players":32,"Bots":0,"server_type":"Dedicated","server_os":"Linux","password":true,"vac":true,"version":"7961495","steam_id":85568392924500087,"keywords":["alltalk","danepve","increased_maxplayers","norespawntime","payload","uncletopia"],"edicts":[803,2048],"game_id":440,"stv_port":0,"stv_name":"","players":null},{"server_id":0,"name_short":"","name":"Uncletopia | New York City | 4 | Community","host":"","port":0,"enabled":false,"region":"","cc":"","latitude":0,"longitude":0,"reserved":0,"last_update":"0001-01-01T00:00:00Z","protocol":17,"map":"pl_cactuscanyon_redux_final2","folder":"tf","game":"Team Fortress","app_id":440,"player_count":0,"max_players":24,"Bots":0,"server_type":"Dedicated","server_os":"Linux","password":true,"vac":true,"version":"7961495","steam_id":85568392924742821,"keywords":["nocrits","nodmgspread","payload","uncletopia"],"edicts":[978,2048],"game_id":440,"stv_port":27046,"stv_name":"Uncletopia | New York City | 4 | Community | STV","players":null},{"server_id":0,"name_short":"","name":"Uncletopia | Seattle | 1 | All Maps","host":"","port":0,"enabled":false,"region":"","cc":"","latitude":0,"longitude":0,"reserved":0,"last_update":"0001-01-01T00:00:00Z","protocol":17,"map":"pl_barnblitz","folder":"tf","game":"Team Fortress","app_id":440,"player_count":24,"max_players":24,"Bots":0,"server_type":"Dedicated","server_os":"Linux","password":true,"vac":true,"version":"7961495","steam_id":85568392924469997,"keywords":["nocrits","nodmgspread","payload","uncletopia"],"edicts":[1078,2048],"game_id":440,"stv_port":27016,"stv_name":"Uncletopia | Seattle | 1 | All Maps | STV","players":[{"user_id":205,"name":"Varislay","steam_id":76561198104924108,"connected_time":1331000000000,"state":"active","ping":104},{"user_id":216,"name":"SHUSH nikoOS","steam_id":76561198180020521,"connected_time":979000000000,"state":"active","ping":156},{"user_id":221,"name":"DaddyGalaxy","steam_id":76561198139697796,"connected_time":667000000000,"state":"active","ping":60},{"user_id":215,"name":"D(b) Hell","steam_id":76561198067869016,"connected_time":1088000000000,"state":"active","ping":74},{"user_id":199,"name":"Rommel2007","steam_id":76561198041744631,"connected_time":2372000000000,"state":"active","ping":84},{"user_id":111,"name":"hearthian","steam_id":76561198113235260,"connected_time":7555000000000,"state":"active","ping":123},{"user_id":220,"name":"liamtwok10","steam_id":76561198951344626,"connected_time":848000000000,"state":"active","ping":60},{"user_id":213,"name":"gloobern","steam_id":76561198341190679,"connected_time":1150000000000,"state":"active","ping":59},{"user_id":222,"name":"TinyGayGuitar","steam_id":76561198130737316,"connected_time":529000000000,"state":"active","ping":59},{"user_id":138,"name":"L. Ron Hoyabembe","steam_id":76561198306393090,"connected_time":6040000000000,"state":"active","ping":90},{"user_id":204,"name":"Erbbew","steam_id":76561198014787195,"connected_time":1355000000000,"state":"active","ping":59},{"user_id":158,"name":"Ethanol Buttchugger","steam_id":76561199127590316,"connected_time":4985000000000,"state":"active","ping":76},{"user_id":198,"name":"Kylar","steam_id":76561198196979431,"connected_time":2482000000000,"state":"active","ping":86},{"user_id":184,"name":"rilby","steam_id":76561198132755619,"connected_time":3435000000000,"state":"active","ping":70},{"user_id":219,"name":"99dentay","steam_id":76561198135771720,"connected_time":883000000000,"state":"active","ping":60},{"user_id":210,"name":"Larry Cañonga","steam_id":76561198081053203,"connected_time":1232000000000,"state":"active","ping":98},{"user_id":202,"name":"Wolfman","steam_id":76561198095264646,"connected_time":1710000000000,"state":"active","ping":110},{"user_id":185,"name":"Gumpy","steam_id":76561198144747235,"connected_time":3398000000000,"state":"active","ping":88},{"user_id":225,"name":"Omegaman","steam_id":76561198034579579,"connected_time":316000000000,"state":"active","ping":45},{"user_id":214,"name":"potato_games","steam_id":76561199120708182,"connected_time":1147000000000,"state":"active","ping":104},{"user_id":203,"name":"choi","steam_id":76561198053669887,"connected_time":1561000000000,"state":"active","ping":83},{"user_id":191,"name":"Draco6257","steam_id":76561199147322448,"connected_time":3114000000000,"state":"active","ping":114},{"user_id":146,"name":"toes","steam_id":76561198221151676,"connected_time":5919000000000,"state":"active","ping":57},{"user_id":226,"name":"HurRhombus","steam_id":76561198080839440,"connected_time":200000000000,"state":"active","ping":88}]},{"server_id":0,"name_short":"","name":"Uncletopia | Sydney | 5 | Stopwatch","host":"","port":0,"enabled":false,"region":"","cc":"","latitude":0,"longitude":0,"reserved":0,"last_update":"0001-01-01T00:00:00Z","protocol":17,"map":"pl_swiftwater_final1","folder":"tf","game":"Team Fortress","app_id":440,"player_count":0,"max_players":24,"Bots":0,"server_type":"Dedicated","server_os":"Linux","password":true,"vac":true,"version":"7961495","steam_id":85568392925397959,"keywords":["nocrits","nodmgspread","payload","uncletopia"],"edicts":[902,2048],"game_id":440,"stv_port":27056,"stv_name":"Uncletopia | Sydney | 5 | Stopwatch | STV","players":null},{"server_id":0,"name_short":"","name":"Uncletopia | Atlanta | 1 | All Maps","host":"","port":0,"enabled":false,"region":"","cc":"","latitude":0,"longitude":0,"reserved":0,"last_update":"0001-01-01T00:00:00Z","protocol":17,"map":"pl_badwater","folder":"tf","game":"Team Fortress","app_id":440,"player_count":24,"max_players":24,"Bots":0,"server_type":"Dedicated","server_os":"Linux","password":true,"vac":true,"version":"7961495","steam_id":85568392924469982,"keywords":["nocrits","nodmgspread","payload","uncletopia"],"edicts":[993,2048],"game_id":440,"stv_port":27016,"stv_name":"Uncletopia | Atlanta | 1 | All Maps | STV","players":[{"user_id":230,"name":"ash","steam_id":76561198127890645,"connected_time":991000000000,"state":"active","ping":63},{"user_id":225,"name":"PyroTechno","steam_id":76561198060929872,"connected_time":1897000000000,"state":"active","ping":46},{"user_id":231,"name":"Bo-dee (she/they)","steam_id":76561198103230995,"connected_time":973000000000,"state":"active","ping":69},{"user_id":197,"name":"Albino Jellyfish","steam_id":76561198208561097,"connected_time":4476000000000,"state":"active","ping":51},{"user_id":179,"name":"Obelisk","steam_id":76561198049416866,"connected_time":6466000000000,"state":"active","ping":47},{"user_id":234,"name":"Thotimus Begonimus","steam_id":76561197970275938,"connected_time":924000000000,"state":"active","ping":45},{"user_id":227,"name":"Night time Dan","steam_id":76561199022178492,"connected_time":1006000000000,"state":"active","ping":54},{"user_id":218,"name":"metalfan666","steam_id":76561198386344068,"connected_time":2253000000000,"state":"active","ping":76},{"user_id":235,"name":"Pure","steam_id":76561198382134521,"connected_time":908000000000,"state":"active","ping":83},{"user_id":238,"name":"dawgamez","steam_id":76561198089293509,"connected_time":597000000000,"state":"active","ping":77},{"user_id":180,"name":"Heathcliff","steam_id":76561198044288534,"connected_time":6294000000000,"state":"active","ping":75},{"user_id":226,"name":"Xavibite","steam_id":76561198209380493,"connected_time":1264000000000,"state":"active","ping":62},{"user_id":237,"name":"IZISOO","steam_id":76561198970380577,"connected_time":848000000000,"state":"active","ping":173},{"user_id":214,"name":"He rolls his own","steam_id":76561198058162684,"connected_time":3038000000000,"state":"active","ping":76},{"user_id":239,"name":"Zeek","steam_id":76561197987204351,"connected_time":281000000000,"state":"active","ping":47},{"user_id":240,"name":"Sorbet Shark Cookie","steam_id":76561198133082665,"connected_time":109000000000,"state":"active","ping":67},{"user_id":222,"name":"FrostWare","steam_id":76561198187077534,"connected_time":2157000000000,"state":"active","ping":75},{"user_id":208,"name":"hazel","steam_id":76561198879911815,"connected_time":3819000000000,"state":"active","ping":58},{"user_id":215,"name":"Trevj1012","steam_id":76561198107906712,"connected_time":2923000000000,"state":"active","ping":70},{"user_id":241,"name":"♥ Hot Nuts ♥","steam_id":76561198347513251,"connected_time":62000000000,"state":"active","ping":59},{"user_id":211,"name":"xX_BimboSwallower_Xx","steam_id":76561198016029965,"connected_time":3591000000000,"state":"active","ping":58},{"user_id":228,"name":"tommytamsworth","steam_id":76561198082836638,"connected_time":1006000000000,"state":"active","ping":75},{"user_id":213,"name":"johnny wang","steam_id":76561198969143876,"connected_time":3082000000000,"state":"active","ping":71},{"user_id":229,"name":"Cat_Gaben","steam_id":76561198308094558,"connected_time":1006000000000,"state":"active","ping":71}]},{"server_id":0,"name_short":"","name":"Uncletopia | Atlanta | 3 | Stopwatch","host":"","port":0,"enabled":false,"region":"","cc":"","latitude":0,"longitude":0,"reserved":0,"last_update":"0001-01-01T00:00:00Z","protocol":17,"map":"cp_process_final","folder":"tf","game":"Team Fortress","app_id":440,"player_count":0,"max_players":24,"Bots":0,"server_type":"Dedicated","server_os":"Linux","password":true,"vac":true,"version":"7961495","steam_id":85568392924515187,"keywords":["cp","nocrits","nodmgspread","uncletopia"],"edicts":[537,2048],"game_id":440,"stv_port":27036,"stv_name":"Uncletopia | Atlanta | 3 | Stopwatch | STV","players":null},{"server_id":0,"name_short":"","name":"Uncletopia | Dallas | 3 | All Maps","host":"","port":0,"enabled":false,"region":"","cc":"","latitude":0,"longitude":0,"reserved":0,"last_update":"0001-01-01T00:00:00Z","protocol":17,"map":"pl_swiftwater_final1","folder":"tf","game":"Team Fortress","app_id":440,"player_count":24,"max_players":24,"Bots":0,"server_type":"Dedicated","server_os":"Linux","password":true,"vac":true,"version":"7961495","steam_id":85568392924515219,"keywords":["nocrits","nodmgspread","payload","uncletopia"],"edicts":[1174,2048],"game_id":440,"stv_port":27036,"stv_name":"Uncletopia | Dallas | 3 | All Maps | STV","players":[{"user_id":101,"name":"ded","steam_id":76561198128780622,"connected_time":660000000000,"state":"active","ping":109},{"user_id":85,"name":"Domster536","steam_id":76561198152695768,"connected_time":1286000000000,"state":"active","ping":83},{"user_id":93,"name":"DualiTea","steam_id":76561198081733870,"connected_time":978000000000,"state":"active","ping":60},{"user_id":92,"name":"upset gamer","steam_id":76561198882758067,"connected_time":1072000000000,"state":"active","ping":83},{"user_id":89,"name":"SKForm","steam_id":76561198381500437,"connected_time":1198000000000,"state":"active","ping":75},{"user_id":94,"name":"pendant","steam_id":76561198442062201,"connected_time":964000000000,"state":"active","ping":88},{"user_id":60,"name":"Harold","steam_id":76561198254879231,"connected_time":2970000000000,"state":"active","ping":93},{"user_id":83,"name":"Caoticaos","steam_id":76561198114800227,"connected_time":1553000000000,"state":"active","ping":138},{"user_id":100,"name":"MOVEMENTPLAYER bladeefan12","steam_id":76561198274959371,"connected_time":677000000000,"state":"active","ping":92},{"user_id":108,"name":"Kung fu MUNGUS","steam_id":76561198069281556,"connected_time":282000000000,"state":"active","ping":65},{"user_id":103,"name":"Mr.Smash","steam_id":76561198407700224,"connected_time":590000000000,"state":"active","ping":119},{"user_id":99,"name":"FangAlien","steam_id":76561198302694893,"connected_time":748000000000,"state":"active","ping":60},{"user_id":107,"name":"A jolly dog","steam_id":76561199088160128,"connected_time":410000000000,"state":"active","ping":73},{"user_id":104,"name":"lexi","steam_id":76561198176299759,"connected_time":581000000000,"state":"active","ping":102},{"user_id":52,"name":"Rin \"Hindwing\" Redtail","steam_id":76561199074865638,"connected_time":3356000000000,"state":"active","ping":53},{"user_id":78,"name":"considering pizza hut again","steam_id":76561198183811990,"connected_time":1719000000000,"state":"active","ping":92},{"user_id":74,"name":"henrat4","steam_id":76561199131516758,"connected_time":2164000000000,"state":"active","ping":46},{"user_id":106,"name":"Waesel","steam_id":76561198069188177,"connected_time":549000000000,"state":"active","ping":75},{"user_id":97,"name":"Generic username","steam_id":76561199053975878,"connected_time":863000000000,"state":"active","ping":67},{"user_id":91,"name":"Female Gamer","steam_id":76561199366482682,"connected_time":1175000000000,"state":"active","ping":112},{"user_id":98,"name":"toucan","steam_id":76561198016562343,"connected_time":838000000000,"state":"active","ping":85},{"user_id":105,"name":"aurro","steam_id":76561198315692300,"connected_time":580000000000,"state":"active","ping":75},{"user_id":48,"name":"pokie","steam_id":76561198799651697,"connected_time":3929000000000,"state":"active","ping":77},{"user_id":109,"name":"HUMBY","steam_id":76561198065045867,"connected_time":159000000000,"state":"active","ping":75}]},{"server_id":0,"name_short":"","name":"Uncletopia | London | 5 | All Maps","host":"","port":0,"enabled":false,"region":"","cc":"","latitude":0,"longitude":0,"reserved":0,"last_update":"0001-01-01T00:00:00Z","protocol":17,"map":"pl_borneo","folder":"tf","game":"Team Fortress","app_id":440,"player_count":24,"max_players":24,"Bots":0,"server_type":"Dedicated","server_os":"Linux","password":true,"vac":true,"version":"7961495","steam_id":85568392924742829,"keywords":["nocrits","nodmgspread","payload","uncletopia"],"edicts":[958,2048],"game_id":440,"stv_port":27056,"stv_name":"Uncletopia | London | 5 | All Maps | STV","players":[{"user_id":326,"name":"Storm's Foreshadow","steam_id":76561198098462526,"connected_time":999000000000,"state":"active","ping":75},{"user_id":319,"name":"lumiukko","steam_id":76561199103891073,"connected_time":1466000000000,"state":"active","ping":89},{"user_id":247,"name":"Edsuedi","steam_id":76561198074722832,"connected_time":3167000000000,"state":"active","ping":61},{"user_id":325,"name":"generic alias","steam_id":76561198271607226,"connected_time":1166000000000,"state":"active","ping":79},{"user_id":318,"name":"Flight of the Blonde Giraffes","steam_id":76561198451585571,"connected_time":1474000000000,"state":"active","ping":75},{"user_id":329,"name":"ashu","steam_id":76561199149307190,"connected_time":823000000000,"state":"active","ping":82},{"user_id":335,"name":"Skyrim mod addict","steam_id":76561198173218318,"connected_time":170000000000,"state":"active","ping":45},{"user_id":336,"name":"Edd Ward","steam_id":76561198323451780,"connected_time":109000000000,"state":"active","ping":71},{"user_id":246,"name":"Woman (Real)","steam_id":76561199151823932,"connected_time":3272000000000,"state":"active","ping":82},{"user_id":320,"name":"mrbeast109385079350229083479082","steam_id":76561198370687830,"connected_time":1439000000000,"state":"active","ping":123},{"user_id":323,"name":"p!ke","steam_id":76561198416081952,"connected_time":1393000000000,"state":"active","ping":65},{"user_id":250,"name":"Karol_K","steam_id":76561198101038624,"connected_time":3127000000000,"state":"active","ping":52},{"user_id":338,"name":"Nady","steam_id":76561197987691269,"connected_time":94000000000,"state":"active","ping":74},{"user_id":313,"name":"Saucisse","steam_id":76561198119955969,"connected_time":1500000000000,"state":"active","ping":59},{"user_id":324,"name":"static","steam_id":76561198836825741,"connected_time":1312000000000,"state":"active","ping":42},{"user_id":298,"name":"Spajro","steam_id":76561198257383813,"connected_time":1975000000000,"state":"active","ping":60},{"user_id":337,"name":"[HADES]Dr.Seven","steam_id":76561198206439440,"connected_time":108000000000,"state":"active","ping":61},{"user_id":258,"name":"hawkblob","steam_id":76561198803720565,"connected_time":2999000000000,"state":"active","ping":76},{"user_id":334,"name":"monikka","steam_id":76561198297003397,"connected_time":186000000000,"state":"active","ping":62},{"user_id":276,"name":"Spurt","steam_id":76561198078523852,"connected_time":2513000000000,"state":"active","ping":55},{"user_id":301,"name":"Siegmeyer","steam_id":76561198328543549,"connected_time":1880000000000,"state":"active","ping":94},{"user_id":327,"name":"redlix","steam_id":76561198119413461,"connected_time":985000000000,"state":"active","ping":65},{"user_id":314,"name":"def","steam_id":76561198857396812,"connected_time":1498000000000,"state":"active","ping":52},{"user_id":332,"name":"medick","steam_id":76561199380849468,"connected_time":389000000000,"state":"active","ping":70}]},{"server_id":0,"name_short":"","name":"Uncletopia | London | 2 | All Maps","host":"","port":0,"enabled":false,"region":"","cc":"","latitude":0,"longitude":0,"reserved":0,"last_update":"0001-01-01T00:00:00Z","protocol":17,"map":"koth_cascade","folder":"tf","game":"Team Fortress","app_id":440,"player_count":0,"max_players":24,"Bots":0,"server_type":"Dedicated","server_os":"Linux","password":true,"vac":true,"version":"7961495","steam_id":85568392924470941,"keywords":["cp","nocrits","nodmgspread","uncletopia"],"edicts":[546,2048],"game_id":440,"stv_port":27026,"stv_name":"Uncletopia | London | 2 | All Maps | STV","players":null},{"server_id":0,"name_short":"","name":"Uncletopia | Warsaw | 3 | All Maps","host":"","port":0,"enabled":false,"region":"","cc":"","latitude":0,"longitude":0,"reserved":0,"last_update":"0001-01-01T00:00:00Z","protocol":17,"map":"pl_swiftwater_final1","folder":"tf","game":"Team Fortress","app_id":440,"player_count":0,"max_players":24,"Bots":0,"server_type":"Dedicated","server_os":"Linux","password":true,"vac":true,"version":"7961495","steam_id":85568392925397852,"keywords":["nocrits","nodmgspread","payload","uncletopia"],"edicts":[902,2048],"game_id":440,"stv_port":27036,"stv_name":"Uncletopia | Warsaw | 3 | All Maps | STV","players":null},{"server_id":0,"name_short":"","name":"Uncletopia | São Paulo | 1 | All Maps","host":"","port":0,"enabled":false,"region":"","cc":"","latitude":0,"longitude":0,"reserved":0,"last_update":"0001-01-01T00:00:00Z","protocol":17,"map":"pl_upward","folder":"tf","game":"Team Fortress","app_id":440,"player_count":0,"max_players":24,"Bots":0,"server_type":"Dedicated","server_os":"Linux","password":true,"vac":true,"version":"7961495","steam_id":85568392924469996,"keywords":["nocrits","nodmgspread","payload","uncletopia"],"edicts":[659,2048],"game_id":440,"stv_port":27016,"stv_name":"Uncletopia | São Paulo | 1 | All Maps | STV","players":null},{"server_id":0,"name_short":"","name":"Uncletopia | Los Angeles | 3 | All Maps","host":"","port":0,"enabled":false,"region":"","cc":"","latitude":0,"longitude":0,"reserved":0,"last_update":"0001-01-01T00:00:00Z","protocol":17,"map":"cp_snakewater_final1","folder":"tf","game":"Team Fortress","app_id":440,"player_count":0,"max_players":24,"Bots":0,"server_type":"Dedicated","server_os":"Linux","password":true,"vac":true,"version":"7961495","steam_id":85568392924510198,"keywords":["cp","nocrits","nodmgspread","uncletopia"],"edicts":[634,2048],"game_id":440,"stv_port":27036,"stv_name":"Uncletopia | Los Angeles | 3 | All Maps | STV","players":null},{"server_id":0,"name_short":"","name":"Uncletopia | London | 6 | All Maps","host":"","port":0,"enabled":false,"region":"","cc":"","latitude":0,"longitude":0,"reserved":0,"last_update":"0001-01-01T00:00:00Z","protocol":17,"map":"pl_borneo","folder":"tf","game":"Team Fortress","app_id":440,"player_count":0,"max_players":24,"Bots":0,"server_type":"Dedicated","server_os":"Linux","password":true,"vac":true,"version":"7961495","steam_id":85568392924742830,"keywords":["nocrits","nodmgspread","payload","uncletopia"],"edicts":[724,2048],"game_id":440,"stv_port":27066,"stv_name":"Uncletopia | London | 6 | All Maps | STV","players":null},{"server_id":0,"name_short":"","name":"Uncletopia | Sydney | 4 | All Maps","host":"","port":0,"enabled":false,"region":"","cc":"","latitude":0,"longitude":0,"reserved":0,"last_update":"0001-01-01T00:00:00Z","protocol":17,"map":"koth_lakeside_final","folder":"tf","game":"Team Fortress","app_id":440,"player_count":0,"max_players":24,"Bots":0,"server_type":"Dedicated","server_os":"Linux","password":true,"vac":true,"version":"7961495","steam_id":85568392925397958,"keywords":["cp","nocrits","nodmgspread","uncletopia"],"edicts":[303,2048],"game_id":440,"stv_port":27046,"stv_name":"Uncletopia | Sydney | 4 | All Maps | STV","players":null},{"server_id":0,"name_short":"","name":"Uncletopia | Dallas | 2 | All Maps","host":"","port":0,"enabled":false,"region":"","cc":"","latitude":0,"longitude":0,"reserved":0,"last_update":"0001-01-01T00:00:00Z","protocol":17,"map":"plr_hightower","folder":"tf","game":"Team Fortress","app_id":440,"player_count":24,"max_players":24,"Bots":0,"server_type":"Dedicated","server_os":"Linux","password":true,"vac":true,"version":"7961495","steam_id":85568392924469988,"keywords":["nocrits","nodmgspread","payload","uncletopia"],"edicts":[1029,2048],"game_id":440,"stv_port":27026,"stv_name":"Uncletopia | Dallas | 2 | All Maps | STV","players":[{"user_id":265,"name":"I'm Only 4 Inches","steam_id":76561198055542546,"connected_time":1031000000000,"state":"active","ping":70},{"user_id":264,"name":"Rob","steam_id":76561199187786660,"connected_time":1117000000000,"state":"active","ping":47},{"user_id":277,"name":"prostate tickler (you are next)","steam_id":76561198095121758,"connected_time":153000000000,"state":"active","ping":97},{"user_id":278,"name":"BooGotShot","steam_id":76561198039062270,"connected_time":128000000000,"state":"active","ping":63},{"user_id":221,"name":"SCREAMS ECHO FROM THE DUNGEON","steam_id":76561198310811821,"connected_time":5325000000000,"state":"active","ping":68},{"user_id":247,"name":"Trapilicious","steam_id":76561198061430457,"connected_time":2152000000000,"state":"active","ping":47},{"user_id":267,"name":"GotenVA","steam_id":76561198307345476,"connected_time":964000000000,"state":"active","ping":92},{"user_id":268,"name":"Mellou","steam_id":76561198212048740,"connected_time":934000000000,"state":"active","ping":85},{"user_id":246,"name":"Whoopsy","steam_id":76561198128103529,"connected_time":2504000000000,"state":"active","ping":111},{"user_id":269,"name":"who ate the cheese","steam_id":76561198275408467,"connected_time":927000000000,"state":"active","ping":55},{"user_id":279,"name":"cyb3r","steam_id":76561198086851446,"connected_time":97000000000,"state":"active","ping":80},{"user_id":276,"name":"crustycheeseblock","steam_id":76561198947654861,"connected_time":284000000000,"state":"active","ping":59},{"user_id":274,"name":"GavinGame321","steam_id":76561199133341570,"connected_time":578000000000,"state":"active","ping":89},{"user_id":231,"name":"BatMatt","steam_id":76561198045910433,"connected_time":4272000000000,"state":"active","ping":48},{"user_id":252,"name":"New Mercenary","steam_id":76561198065921539,"connected_time":1943000000000,"state":"active","ping":77},{"user_id":260,"name":"NamelessBear™","steam_id":76561198014564006,"connected_time":1352000000000,"state":"active","ping":93},{"user_id":271,"name":"Bartholomew","steam_id":76561199097771720,"connected_time":859000000000,"state":"active","ping":82},{"user_id":254,"name":"dreamySylph","steam_id":76561199000573308,"connected_time":1795000000000,"state":"active","ping":67},{"user_id":281,"name":"schmuck","steam_id":76561198143789773,"connected_time":81000000000,"state":"active","ping":50},{"user_id":272,"name":"Oingo Boingo","steam_id":76561199350870177,"connected_time":853000000000,"state":"active","ping":82},{"user_id":223,"name":"name","steam_id":76561199153026367,"connected_time":5215000000000,"state":"active","ping":110},{"user_id":244,"name":"rat","steam_id":76561198272622003,"connected_time":2708000000000,"state":"active","ping":99},{"user_id":220,"name":"IchigoDolphin","steam_id":76561198319769482,"connected_time":5339000000000,"state":"active","ping":56},{"user_id":273,"name":"Biggus Wiiggus","steam_id":76561198078379719,"connected_time":814000000000,"state":"active","ping":79}]},{"server_id":0,"name_short":"","name":"Uncletopia | Frankfurt | 7 | Stopwatch","host":"","port":0,"enabled":false,"region":"","cc":"","latitude":0,"longitude":0,"reserved":0,"last_update":"0001-01-01T00:00:00Z","protocol":17,"map":"koth_lakeside_final","folder":"tf","game":"Team Fortress","app_id":440,"player_count":0,"max_players":24,"Bots":0,"server_type":"Dedicated","server_os":"Linux","password":true,"vac":true,"version":"7961495","steam_id":85568392924742827,"keywords":["cp","nocrits","nodmgspread","uncletopia"],"edicts":[303,2048],"game_id":440,"stv_port":27076,"stv_name":"Uncletopia | Frankfurt | 7 | Stopwatch | STV","players":null},{"server_id":0,"name_short":"","name":"Uncletopia | Warsaw | 1 | One Thousand Uncles","host":"","port":0,"enabled":false,"region":"","cc":"","latitude":0,"longitude":0,"reserved":0,"last_update":"0001-01-01T00:00:00Z","protocol":17,"map":"pl_badwater","folder":"tf","game":"Team Fortress","app_id":440,"player_count":30,"max_players":32,"Bots":20,"server_type":"Dedicated","server_os":"Linux","password":true,"vac":true,"version":"7961495","steam_id":85568392925397850,"keywords":["alltalk","bots","danepve","increased_maxplayers","norespawntime","payload","uncletopia"],"edicts":[1221,2048],"game_id":440,"stv_port":0,"stv_name":"","players":[{"user_id":462,"name":"Flint","steam_id":76561197995920776,"connected_time":158000000000,"state":"active","ping":55},{"user_id":447,"name":"fish","steam_id":76561199175173199,"connected_time":1739000000000,"state":"active","ping":82},{"user_id":460,"name":"bigreed7262","steam_id":76561199057298231,"connected_time":681000000000,"state":"active","ping":96},{"user_id":461,"name":"Moiseicho45","steam_id":76561199054826363,"connected_time":630000000000,"state":"active","ping":64},{"user_id":452,"name":"krembergs","steam_id":76561198329728890,"connected_time":1207000000000,"state":"active","ping":92},{"user_id":410,"name":"Rayco","steam_id":76561198048013129,"connected_time":6708000000000,"state":"active","ping":93},{"user_id":454,"name":"nigilist","steam_id":76561198388456046,"connected_time":1166000000000,"state":"active","ping":157},{"user_id":456,"name":"-KV-Michael557 [OS]","steam_id":76561198041221257,"connected_time":995000000000,"state":"active","ping":65},{"user_id":457,"name":"Ventus","steam_id":76561198998696447,"connected_time":916000000000,"state":"active","ping":181},{"user_id":458,"name":"Yoota","steam_id":76561198308280638,"connected_time":804000000000,"state":"active","ping":109}]},{"server_id":0,"name_short":"","name":"Uncletopia | New York City | 1 | All Maps","host":"","port":0,"enabled":false,"region":"","cc":"","latitude":0,"longitude":0,"reserved":0,"last_update":"0001-01-01T00:00:00Z","protocol":17,"map":"cp_process_final","folder":"tf","game":"Team Fortress","app_id":440,"player_count":0,"max_players":24,"Bots":0,"server_type":"Dedicated","server_os":"Linux","password":true,"vac":true,"version":"7961495","steam_id":85568392924469993,"keywords":["cp","nocrits","nodmgspread","uncletopia"],"edicts":[537,2048],"game_id":440,"stv_port":27016,"stv_name":"Uncletopia | New York City | 1 | All Maps | STV","players":null},{"server_id":0,"name_short":"","name":"Uncletopia | New York City | 3 | Stopwatch","host":"","port":0,"enabled":false,"region":"","cc":"","latitude":0,"longitude":0,"reserved":0,"last_update":"0001-01-01T00:00:00Z","protocol":17,"map":"koth_highpass","folder":"tf","game":"Team Fortress","app_id":440,"player_count":0,"max_players":24,"Bots":0,"server_type":"Dedicated","server_os":"Linux","password":true,"vac":true,"version":"7961495","steam_id":85568392924742820,"keywords":["cp","nocrits","nodmgspread","uncletopia"],"edicts":[415,2048],"game_id":440,"stv_port":27036,"stv_name":"Uncletopia | New York City | 3 | Stopwatch | STV","players":null},{"server_id":0,"name_short":"","name":"Uncletopia | London | 7 | Stopwatch","host":"","port":0,"enabled":false,"region":"","cc":"","latitude":0,"longitude":0,"reserved":0,"last_update":"0001-01-01T00:00:00Z","protocol":17,"map":"pl_swiftwater_final1","folder":"tf","game":"Team Fortress","app_id":440,"player_count":0,"max_players":24,"Bots":0,"server_type":"Dedicated","server_os":"Linux","password":true,"vac":true,"version":"7961495","steam_id":85568392924964314,"keywords":["nocrits","nodmgspread","payload","uncletopia"],"edicts":[902,2048],"game_id":440,"stv_port":27076,"stv_name":"Uncletopia | London | 7 | Stopwatch | STV","players":null},{"server_id":0,"name_short":"","name":"Uncletopia | Montréal | 3 | One Thousand Uncles","host":"","port":0,"enabled":false,"region":"","cc":"","latitude":0,"longitude":0,"reserved":0,"last_update":"0001-01-01T00:00:00Z","protocol":17,"map":"pl_upward","folder":"tf","game":"Team Fortress","app_id":440,"player_count":0,"max_players":32,"Bots":0,"server_type":"Dedicated","server_os":"Linux","password":true,"vac":true,"version":"7961495","steam_id":85568392924500089,"keywords":["alltalk","danepve","increased_maxplayers","norespawntime","payload","uncletopia"],"edicts":[656,2048],"game_id":440,"stv_port":0,"stv_name":"","players":null},{"server_id":0,"name_short":"","name":"Uncletopia | Los Angeles | 4 | Stopwatch","host":"","port":0,"enabled":false,"region":"","cc":"","latitude":0,"longitude":0,"reserved":0,"last_update":"0001-01-01T00:00:00Z","protocol":17,"map":"pl_upward","folder":"tf","game":"Team Fortress","app_id":440,"player_count":0,"max_players":24,"Bots":0,"server_type":"Dedicated","server_os":"Linux","password":true,"vac":true,"version":"7961495","steam_id":85568392924510199,"keywords":["nocrits","nodmgspread","payload","uncletopia"],"edicts":[659,2048],"game_id":440,"stv_port":27046,"stv_name":"Uncletopia | Los Angeles | 4 | Stopwatch | STV","players":null},{"server_id":0,"name_short":"","name":"Uncletopia | Frankfurt | 2 | All Maps","host":"","port":0,"enabled":false,"region":"","cc":"","latitude":0,"longitude":0,"reserved":0,"last_update":"0001-01-01T00:00:00Z","protocol":17,"map":"pl_upward","folder":"tf","game":"Team Fortress","app_id":440,"player_count":24,"max_players":24,"Bots":0,"server_type":"Dedicated","server_os":"Linux","password":true,"vac":true,"version":"7961495","steam_id":85568392924469990,"keywords":["nocrits","nodmgspread","payload","uncletopia"],"edicts":[940,2048],"game_id":440,"stv_port":27026,"stv_name":"Uncletopia | Frankfurt | 2 | All Maps | STV","players":[{"user_id":145,"name":"Uselss Joe","steam_id":76561198275853629,"connected_time":187000000000,"state":"active","ping":45},{"user_id":146,"name":"Owlet","steam_id":76561198065613974,"connected_time":169000000000,"state":"active","ping":67},{"user_id":132,"name":"Dr. Cox","steam_id":76561198246629218,"connected_time":1174000000000,"state":"active","ping":82},{"user_id":138,"name":"Commander Pasta","steam_id":76561198045773077,"connected_time":835000000000,"state":"active","ping":40},{"user_id":133,"name":"Volmari","steam_id":76561198054253542,"connected_time":1113000000000,"state":"active","ping":70},{"user_id":98,"name":"Milk02","steam_id":76561199484753251,"connected_time":3470000000000,"state":"active","ping":120},{"user_id":130,"name":"=OKB= P4NTH3R","steam_id":76561197999204603,"connected_time":1231000000000,"state":"active","ping":67},{"user_id":135,"name":"Jedunahoru","steam_id":76561199508744635,"connected_time":923000000000,"state":"active","ping":95},{"user_id":121,"name":"Spectral Sloth","steam_id":76561198170083139,"connected_time":1774000000000,"state":"active","ping":82},{"user_id":84,"name":"DXD Tech","steam_id":76561198358379587,"connected_time":4373000000000,"state":"active","ping":90},{"user_id":75,"name":"gio","steam_id":76561198219185620,"connected_time":5012000000000,"state":"active","ping":93},{"user_id":147,"name":"james_bondage","steam_id":76561199476062624,"connected_time":162000000000,"state":"active","ping":146},{"user_id":128,"name":"РеДаНоВеЦ ^_^","steam_id":76561199032612973,"connected_time":1488000000000,"state":"active","ping":63},{"user_id":134,"name":"Patrik","steam_id":76561198089510248,"connected_time":1049000000000,"state":"active","ping":73},{"user_id":106,"name":"Jiwi","steam_id":76561198007791101,"connected_time":2577000000000,"state":"active","ping":71},{"user_id":111,"name":"JkouvolauxxHQYT","steam_id":76561198135428304,"connected_time":2261000000000,"state":"active","ping":85},{"user_id":139,"name":"Delere","steam_id":76561198061309755,"connected_time":731000000000,"state":"active","ping":126},{"user_id":136,"name":"night.s","steam_id":76561198326287823,"connected_time":919000000000,"state":"active","ping":76},{"user_id":148,"name":"Ergas","steam_id":76561198860861032,"connected_time":133000000000,"state":"active","ping":75},{"user_id":144,"name":"Anti-Capitalist Weapon","steam_id":76561198143526071,"connected_time":320000000000,"state":"active","ping":62},{"user_id":123,"name":"OTF","steam_id":76561198117552294,"connected_time":1739000000000,"state":"active","ping":67},{"user_id":95,"name":"Vitamin Weee","steam_id":76561199183937747,"connected_time":3639000000000,"state":"active","ping":77},{"user_id":62,"name":"❤Speedbump❤","steam_id":76561198388690313,"connected_time":5591000000000,"state":"active","ping":60},{"user_id":127,"name":"Extra Soup","steam_id":76561199217973825,"connected_time":1619000000000,"state":"active","ping":137}]},{"server_id":0,"name_short":"","name":"Uncletopia | Chicago | 7 | Stopwatch","host":"","port":0,"enabled":false,"region":"","cc":"","latitude":0,"longitude":0,"reserved":0,"last_update":"0001-01-01T00:00:00Z","protocol":17,"map":"koth_product_final","folder":"tf","game":"Team Fortress","app_id":440,"player_count":2,"max_players":24,"Bots":0,"server_type":"Dedicated","server_os":"Linux","password":true,"vac":true,"version":"7961495","steam_id":85568392924866364,"keywords":["cp","nocrits","nodmgspread","uncletopia"],"edicts":[372,2048],"game_id":440,"stv_port":27036,"stv_name":"Uncletopia | Chicago | 7 | Stopwatch | STV","players":[{"user_id":4,"name":"RoboticPyroRobo","steam_id":76561198355732200,"connected_time":1688000000000,"state":"active","ping":68},{"user_id":5,"name":"spiderfat","steam_id":76561198957917221,"connected_time":1670000000000,"state":"active","ping":90}]},{"server_id":0,"name_short":"","name":"Uncletopia | San Francisco | 2 | All Maps","host":"","port":0,"enabled":false,"region":"","cc":"","latitude":0,"longitude":0,"reserved":0,"last_update":"0001-01-01T00:00:00Z","protocol":17,"map":"pl_hoodoo_final","folder":"tf","game":"Team Fortress","app_id":440,"player_count":0,"max_players":24,"Bots":0,"server_type":"Dedicated","server_os":"Linux","password":true,"vac":true,"version":"7961495","steam_id":85568392924470000,"keywords":["nocrits","nodmgspread","payload","uncletopia"],"edicts":[1122,2048],"game_id":440,"stv_port":27026,"stv_name":"Uncletopia | San Francisco | 2 | All Maps | STV","players":null},{"server_id":0,"name_short":"","name":"Uncletopia | Frankfurt | 4 | All Maps","host":"","port":0,"enabled":false,"region":"","cc":"","latitude":0,"longitude":0,"reserved":0,"last_update":"0001-01-01T00:00:00Z","protocol":17,"map":"pl_badwater","folder":"tf","game":"Team Fortress","app_id":440,"player_count":24,"max_players":24,"Bots":0,"server_type":"Dedicated","server_os":"Linux","password":true,"vac":true,"version":"7961495","steam_id":85568392924504275,"keywords":["nocrits","nodmgspread","payload","uncletopia"],"edicts":[966,2048],"game_id":440,"stv_port":27046,"stv_name":"Uncletopia | Frankfurt | 4 | All Maps | STV","players":[{"user_id":371,"name":"Hexagon","steam_id":76561198151205758,"connected_time":695000000000,"state":"active","ping":49},{"user_id":367,"name":"Skulldow","steam_id":76561198431433977,"connected_time":1235000000000,"state":"active","ping":62},{"user_id":364,"name":"Fat Pigeon","steam_id":76561198817940142,"connected_time":1587000000000,"state":"active","ping":59},{"user_id":361,"name":"Mr. Mundy","steam_id":76561198132008918,"connected_time":1622000000000,"state":"active","ping":74},{"user_id":256,"name":"tired","steam_id":76561198046838168,"connected_time":8004000000000,"state":"active","ping":47},{"user_id":373,"name":"please do not the cat","steam_id":76561198089003514,"connected_time":481000000000,"state":"active","ping":45},{"user_id":352,"name":"grim reaper","steam_id":76561199389114520,"connected_time":1915000000000,"state":"active","ping":150},{"user_id":350,"name":"Milk","steam_id":76561198125876588,"connected_time":1976000000000,"state":"active","ping":51},{"user_id":255,"name":"lugi","steam_id":76561198026903673,"connected_time":8132000000000,"state":"active","ping":56},{"user_id":344,"name":"PAN MAN","steam_id":76561199086525293,"connected_time":2164000000000,"state":"active","ping":62},{"user_id":359,"name":"Xtis","steam_id":76561198043837480,"connected_time":1682000000000,"state":"active","ping":72},{"user_id":374,"name":"shrunk","steam_id":76561198280507478,"connected_time":474000000000,"state":"active","ping":56},{"user_id":375,"name":"[KUP] RegularBiscuitBoy","steam_id":76561199066500766,"connected_time":458000000000,"state":"active","ping":71},{"user_id":205,"name":"African Animosity","steam_id":76561198094483253,"connected_time":10684000000000,"state":"active","ping":59},{"user_id":360,"name":"Nittugai","steam_id":76561198067366462,"connected_time":1672000000000,"state":"active","ping":60},{"user_id":368,"name":"zeppa114","steam_id":76561198065192734,"connected_time":1232000000000,"state":"active","ping":61},{"user_id":298,"name":"Ymir","steam_id":76561198076719730,"connected_time":5093000000000,"state":"active","ping":70},{"user_id":378,"name":"katten","steam_id":76561198163615254,"connected_time":419000000000,"state":"active","ping":59},{"user_id":379,"name":"Donete333","steam_id":76561198409266344,"connected_time":395000000000,"state":"active","ping":76},{"user_id":372,"name":"wavelength","steam_id":76561198154677956,"connected_time":488000000000,"state":"active","ping":69},{"user_id":370,"name":"bigwish | bmod.tf","steam_id":76561197997859723,"connected_time":1057000000000,"state":"active","ping":77},{"user_id":336,"name":"KajaStorm","steam_id":76561199215842872,"connected_time":2782000000000,"state":"active","ping":127},{"user_id":380,"name":"ScoutPilgrim","steam_id":76561198013007215,"connected_time":383000000000,"state":"active","ping":59},{"user_id":363,"name":"Someone","steam_id":76561199030195879,"connected_time":1612000000000,"state":"active","ping":67}]},{"server_id":0,"name_short":"","name":"Uncletopia | Hong Kong | 1 | All Maps","host":"","port":0,"enabled":false,"region":"","cc":"","latitude":0,"longitude":0,"reserved":0,"last_update":"0001-01-01T00:00:00Z","protocol":17,"map":"pl_upward","folder":"tf","game":"Team Fortress","app_id":440,"player_count":0,"max_players":24,"Bots":0,"server_type":"Dedicated","server_os":"Linux","password":true,"vac":true,"version":"7961495","steam_id":85568392924494504,"keywords":["nocrits","nodmgspread","payload","uncletopia"],"edicts":[657,2048],"game_id":440,"stv_port":27016,"stv_name":"Uncletopia | Hong Kong | 1 | All Maps | STV","players":null},{"server_id":0,"name_short":"","name":"Uncletopia | Montréal | 2 | One Thousand Uncles","host":"","port":0,"enabled":false,"region":"","cc":"","latitude":0,"longitude":0,"reserved":0,"last_update":"0001-01-01T00:00:00Z","protocol":17,"map":"cp_mossrock","folder":"tf","game":"Team Fortress","app_id":440,"player_count":0,"max_players":32,"Bots":0,"server_type":"Dedicated","server_os":"Linux","password":true,"vac":true,"version":"7961495","steam_id":85568392924500088,"keywords":["alltalk","cp","danepve","increased_maxplayers","norespawntime","uncletopia"],"edicts":[445,2048],"game_id":440,"stv_port":0,"stv_name":"","players":null},{"server_id":0,"name_short":"","name":"Uncletopia | Chicago | 5 | All Maps","host":"","port":0,"enabled":false,"region":"","cc":"","latitude":0,"longitude":0,"reserved":0,"last_update":"0001-01-01T00:00:00Z","protocol":17,"map":"cp_mercenarypark","folder":"tf","game":"Team Fortress","app_id":440,"player_count":0,"max_players":24,"Bots":0,"server_type":"Dedicated","server_os":"Linux","password":true,"vac":true,"version":"7961495","steam_id":85568392924866362,"keywords":["cp","nocrits","nodmgspread","uncletopia"],"edicts":[554,2048],"game_id":440,"stv_port":27016,"stv_name":"Uncletopia | Chicago | 5 | All Maps | STV","players":null},{"server_id":0,"name_short":"","name":"Uncletopia | Chicago | 6 | All Maps","host":"","port":0,"enabled":false,"region":"","cc":"","latitude":0,"longitude":0,"reserved":0,"last_update":"0001-01-01T00:00:00Z","protocol":17,"map":"koth_king","folder":"tf","game":"Team Fortress","app_id":440,"player_count":0,"max_players":24,"Bots":0,"server_type":"Dedicated","server_os":"Linux","password":true,"vac":true,"version":"7961495","steam_id":85568392924866363,"keywords":["cp","nocrits","nodmgspread","uncletopia"],"edicts":[466,2048],"game_id":440,"stv_port":27026,"stv_name":"Uncletopia | Chicago | 6 | All Maps | STV","players":null},{"server_id":0,"name_short":"","name":"Uncletopia | Chicago | 3 | All Maps","host":"","port":0,"enabled":false,"region":"","cc":"","latitude":0,"longitude":0,"reserved":0,"last_update":"0001-01-01T00:00:00Z","protocol":17,"map":"pl_badwater","folder":"tf","game":"Team Fortress","app_id":440,"player_count":9,"max_players":24,"Bots":0,"server_type":"Dedicated","server_os":"Linux","password":true,"vac":true,"version":"7961495","steam_id":85568392924515191,"keywords":["nocrits","nodmgspread","payload","uncletopia"],"edicts":[781,2048],"game_id":440,"stv_port":27036,"stv_name":"Uncletopia | Chicago | 3 | All Maps | STV","players":[{"user_id":7,"name":"muselk (real)","steam_id":76561199094011002,"connected_time":1332000000000,"state":"active","ping":58},{"user_id":8,"name":"MomoTheCookie","steam_id":76561198124371395,"connected_time":1228000000000,"state":"active","ping":75},{"user_id":12,"name":"Crotonga","steam_id":76561198077178900,"connected_time":258000000000,"state":"active","ping":88},{"user_id":13,"name":"zomboider","steam_id":76561198035667824,"connected_time":228000000000,"state":"active","ping":51},{"user_id":14,"name":"Lone Rider","steam_id":76561198091978968,"connected_time":199000000000,"state":"active","ping":76},{"user_id":15,"name":"Snowy","steam_id":76561199222664905,"connected_time":179000000000,"state":"active","ping":65},{"user_id":16,"name":"Domination","steam_id":76561199510356010,"connected_time":176000000000,"state":"active","ping":105},{"user_id":17,"name":"Kamerade","steam_id":76561199304736788,"connected_time":39000000000,"state":"active","ping":129},{"user_id":18,"name":"table","steam_id":76561198074995076,"connected_time":2000000000,"state":"spawning","ping":154}]},{"server_id":0,"name_short":"","name":"Uncletopia | Chicago | 1 | All Maps","host":"","port":0,"enabled":false,"region":"","cc":"","latitude":0,"longitude":0,"reserved":0,"last_update":"0001-01-01T00:00:00Z","protocol":17,"map":"koth_king","folder":"tf","game":"Team Fortress","app_id":440,"player_count":24,"max_players":24,"Bots":0,"server_type":"Dedicated","server_os":"Linux","password":true,"vac":true,"version":"7961495","steam_id":85568392924469984,"keywords":["cp","nocrits","nodmgspread","uncletopia"],"edicts":[750,2048],"game_id":440,"stv_port":27016,"stv_name":"Uncletopia | Chicago | 1 | All Maps | STV","players":[{"user_id":99,"name":"go","steam_id":76561198167390315,"connected_time":2544000000000,"state":"active","ping":49},{"user_id":174,"name":"KingCrawful","steam_id":76561198104291657,"connected_time":229000000000,"state":"active","ping":61},{"user_id":93,"name":"donatello ツ","steam_id":76561198091157081,"connected_time":2691000000000,"state":"active","ping":60},{"user_id":89,"name":"Ninjoth","steam_id":76561198038611753,"connected_time":3170000000000,"state":"active","ping":67},{"user_id":177,"name":"JelloSniffer","steam_id":76561198142770733,"connected_time":124000000000,"state":"active","ping":63},{"user_id":180,"name":"Just a Festive TimeButt","steam_id":76561198074261742,"connected_time":109000000000,"state":"active","ping":72},{"user_id":178,"name":"Windows Gangster Edition","steam_id":76561198166982558,"connected_time":123000000000,"state":"active","ping":82},{"user_id":162,"name":"Borderinvader","steam_id":76561197969809273,"connected_time":1274000000000,"state":"active","ping":57},{"user_id":95,"name":"The Idiot","steam_id":76561198049837377,"connected_time":2629000000000,"state":"active","ping":46},{"user_id":97,"name":"MetalTao","steam_id":76561198189408110,"connected_time":2599000000000,"state":"active","ping":87},{"user_id":94,"name":"SpongedSocks","steam_id":76561198374009086,"connected_time":2644000000000,"state":"active","ping":58},{"user_id":159,"name":"Fuegan Ra","steam_id":76561198287923849,"connected_time":1290000000000,"state":"active","ping":55},{"user_id":168,"name":"SpicyFingers","steam_id":76561198125489143,"connected_time":1196000000000,"state":"active","ping":62},{"user_id":102,"name":"4 Geese in a Trenchcoat","steam_id":76561198256235028,"connected_time":2367000000000,"state":"active","ping":45},{"user_id":100,"name":"ShortenedName","steam_id":76561198079337360,"connected_time":2507000000000,"state":"active","ping":67},{"user_id":101,"name":"BloodyRedstone","steam_id":76561198125332511,"connected_time":2490000000000,"state":"active","ping":45},{"user_id":181,"name":"Quark","steam_id":76561198328155605,"connected_time":109000000000,"state":"active","ping":53},{"user_id":163,"name":"Mellow Yellow","steam_id":76561198406276981,"connected_time":1272000000000,"state":"active","ping":45},{"user_id":169,"name":"mr. slippery","steam_id":76561198057076267,"connected_time":1023000000000,"state":"active","ping":89},{"user_id":183,"name":"Reed the Flame Shadow","steam_id":76561198348354629,"connected_time":81000000000,"state":"active","ping":98},{"user_id":184,"name":"kt","steam_id":76561198946374858,"connected_time":66000000000,"state":"active","ping":70},{"user_id":185,"name":"Retro","steam_id":76561198414744723,"connected_time":4000000000,"state":"spawning","ping":140},{"user_id":72,"name":"Milkmur","steam_id":76561198210043821,"connected_time":4428000000000,"state":"active","ping":54},{"user_id":175,"name":"Rein","steam_id":76561198300340427,"connected_time":217000000000,"state":"active","ping":62}]},{"server_id":0,"name_short":"","name":"Uncletopia | Chicago | 8 | Community","host":"","port":0,"enabled":false,"region":"","cc":"","latitude":0,"longitude":0,"reserved":0,"last_update":"0001-01-01T00:00:00Z","protocol":17,"map":"cp_caldera_rc3","folder":"tf","game":"Team Fortress","app_id":440,"player_count":0,"max_players":24,"Bots":0,"server_type":"Dedicated","server_os":"Linux","password":true,"vac":true,"version":"7961495","steam_id":85568392924866365,"keywords":["cp","nocrits","nodmgspread","uncletopia"],"edicts":[716,2048],"game_id":440,"stv_port":27046,"stv_name":"Uncletopia | Chicago | 8 | Community | STV","players":null},{"server_id":0,"name_short":"","name":"Uncletopia | Atlanta | 4 | Community","host":"","port":0,"enabled":false,"region":"","cc":"","latitude":0,"longitude":0,"reserved":0,"last_update":"0001-01-01T00:00:00Z","protocol":17,"map":"cp_alloy_rc3","folder":"tf","game":"Team Fortress","app_id":440,"player_count":0,"max_players":24,"Bots":0,"server_type":"Dedicated","server_os":"Linux","password":true,"vac":true,"version":"7961495","steam_id":85568392924515188,"keywords":["cp","nocrits","nodmgspread","uncletopia"],"edicts":[506,2048],"game_id":440,"stv_port":27046,"stv_name":"Uncletopia | Atlanta | 4 | Community | STV","players":null},{"server_id":0,"name_short":"","name":"Uncletopia | London | 8 | Community","host":"","port":0,"enabled":false,"region":"","cc":"","latitude":0,"longitude":0,"reserved":0,"last_update":"0001-01-01T00:00:00Z","protocol":17,"map":"cp_propaganda_b18","folder":"tf","game":"Team Fortress","app_id":440,"player_count":0,"max_players":24,"Bots":0,"server_type":"Dedicated","server_os":"Linux","password":true,"vac":true,"version":"7961495","steam_id":85568392924964315,"keywords":["cp","nocrits","nodmgspread","uncletopia"],"edicts":[412,2048],"game_id":440,"stv_port":27086,"stv_name":"Uncletopia | London | 8 | Community | STV","players":null},{"server_id":0,"name_short":"","name":"Uncletopia | Seattle | 3 | Stopwatch","host":"","port":0,"enabled":false,"region":"","cc":"","latitude":0,"longitude":0,"reserved":0,"last_update":"0001-01-01T00:00:00Z","protocol":17,"map":"koth_product_final","folder":"tf","game":"Team Fortress","app_id":440,"player_count":0,"max_players":24,"Bots":0,"server_type":"Dedicated","server_os":"Linux","password":true,"vac":true,"version":"7961495","steam_id":85568392924515217,"keywords":["cp","nocrits","nodmgspread","uncletopia"],"edicts":[352,2048],"game_id":440,"stv_port":27036,"stv_name":"Uncletopia | Seattle | 3 | Stopwatch | STV","players":null},{"server_id":0,"name_short":"","name":"Uncletopia | London | 1 | All Maps","host":"","port":0,"enabled":false,"region":"","cc":"","latitude":0,"longitude":0,"reserved":0,"last_update":"0001-01-01T00:00:00Z","protocol":17,"map":"pl_barnblitz","folder":"tf","game":"Team Fortress","app_id":440,"player_count":24,"max_players":24,"Bots":0,"server_type":"Dedicated","server_os":"Linux","password":true,"vac":true,"version":"7961495","steam_id":85568392924367362,"keywords":["nocrits","nodmgspread","payload","uncletopia"],"edicts":[1080,2048],"game_id":440,"stv_port":27016,"stv_name":"Uncletopia | London | 1 | All Maps | STV","players":[{"user_id":485,"name":"Snake-chan","steam_id":76561199044755854,"connected_time":1734000000000,"state":"active","ping":93},{"user_id":503,"name":"Dark ^^","steam_id":76561198036241064,"connected_time":619000000000,"state":"active","ping":69},{"user_id":506,"name":"T.K","steam_id":76561198085233735,"connected_time":117000000000,"state":"active","ping":52},{"user_id":495,"name":"scramble, scramble","steam_id":76561199103959197,"connected_time":1263000000000,"state":"active","ping":97},{"user_id":504,"name":"baronne","steam_id":76561198262910410,"connected_time":551000000000,"state":"active","ping":90},{"user_id":501,"name":"lark","steam_id":76561198091724522,"connected_time":757000000000,"state":"active","ping":57},{"user_id":487,"name":"Anus01","steam_id":76561198101884780,"connected_time":1683000000000,"state":"active","ping":67},{"user_id":496,"name":"Archer","steam_id":76561197994239444,"connected_time":1097000000000,"state":"active","ping":123},{"user_id":393,"name":"Carbon Monoxide Detector","steam_id":76561198055608801,"connected_time":6554000000000,"state":"active","ping":65},{"user_id":453,"name":"yush","steam_id":76561198121688934,"connected_time":4002000000000,"state":"active","ping":78},{"user_id":465,"name":"jones","steam_id":76561198044434971,"connected_time":3309000000000,"state":"active","ping":60},{"user_id":493,"name":"Saken","steam_id":76561198049075295,"connected_time":1330000000000,"state":"active","ping":60},{"user_id":476,"name":"Zamorocian","steam_id":76561198076604017,"connected_time":2294000000000,"state":"active","ping":40},{"user_id":489,"name":"GogsCrunchyNuts","steam_id":76561198150599213,"connected_time":1502000000000,"state":"active","ping":77},{"user_id":401,"name":"finn","steam_id":76561198366652456,"connected_time":5533000000000,"state":"active","ping":70},{"user_id":500,"name":"Memphis Rap Sigils","steam_id":76561198053046103,"connected_time":843000000000,"state":"active","ping":58},{"user_id":497,"name":"ch1cken™","steam_id":76561198358970573,"connected_time":931000000000,"state":"active","ping":92},{"user_id":449,"name":"Junkrat simp","steam_id":76561198134378108,"connected_time":4216000000000,"state":"active","ping":79},{"user_id":481,"name":"gamerkiddo","steam_id":76561198047380360,"connected_time":2256000000000,"state":"active","ping":60},{"user_id":475,"name":"edmund","steam_id":76561198378470149,"connected_time":2497000000000,"state":"active","ping":53},{"user_id":498,"name":"Kahvi","steam_id":76561198723244199,"connected_time":930000000000,"state":"active","ping":82},{"user_id":451,"name":"GhastlyPann","steam_id":76561198825373404,"connected_time":4154000000000,"state":"active","ping":111},{"user_id":388,"name":"SuntanPikachu","steam_id":76561198121242476,"connected_time":7033000000000,"state":"active","ping":63},{"user_id":463,"name":"SirVitek","steam_id":76561198142961758,"connected_time":3469000000000,"state":"active","ping":59}]},{"server_id":0,"name_short":"","name":"Uncletopia | London | 4 | All Maps","host":"","port":0,"enabled":false,"region":"","cc":"","latitude":0,"longitude":0,"reserved":0,"last_update":"0001-01-01T00:00:00Z","protocol":17,"map":"pl_badwater","folder":"tf","game":"Team Fortress","app_id":440,"player_count":24,"max_players":24,"Bots":0,"server_type":"Dedicated","server_os":"Linux","password":true,"vac":true,"version":"7961495","steam_id":85568392924510193,"keywords":["nocrits","nodmgspread","payload","uncletopia"],"edicts":[1004,2048],"game_id":440,"stv_port":27046,"stv_name":"Uncletopia | London | 4 | All Maps | STV","players":[{"user_id":199,"name":"mommy🖤x_x","steam_id":76561199204257697,"connected_time":5146000000000,"state":"active","ping":55},{"user_id":260,"name":"Market caber","steam_id":76561199407941086,"connected_time":1144000000000,"state":"active","ping":74},{"user_id":230,"name":"Michał","steam_id":76561198320346362,"connected_time":2881000000000,"state":"active","ping":60},{"user_id":267,"name":"sloppy transgirl toppy","steam_id":76561198057092208,"connected_time":347000000000,"state":"active","ping":67},{"user_id":216,"name":"Celemin","steam_id":76561198031814665,"connected_time":3687000000000,"state":"active","ping":68},{"user_id":248,"name":"oultimosuicida","steam_id":76561198051429942,"connected_time":2241000000000,"state":"active","ping":75},{"user_id":235,"name":"ACG_Dubsy","steam_id":76561198797308565,"connected_time":2610000000000,"state":"active","ping":60},{"user_id":268,"name":"Dictatorial Karelian","steam_id":76561198196736457,"connected_time":335000000000,"state":"active","ping":75},{"user_id":255,"name":"Ve stylu","steam_id":76561198218257120,"connected_time":1832000000000,"state":"active","ping":71},{"user_id":251,"name":"Larkos","steam_id":76561198070849213,"connected_time":2186000000000,"state":"active","ping":59},{"user_id":266,"name":"HandyLad","steam_id":76561199040138255,"connected_time":390000000000,"state":"active","ping":50},{"user_id":215,"name":"skullkid","steam_id":76561198044127589,"connected_time":3723000000000,"state":"active","ping":94},{"user_id":237,"name":"Reihenhausbewohner","steam_id":76561198049820307,"connected_time":2448000000000,"state":"active","ping":66},{"user_id":261,"name":"Weeb exterminator","steam_id":76561198078964973,"connected_time":1016000000000,"state":"active","ping":73},{"user_id":246,"name":"tapio.niemel","steam_id":76561199510641657,"connected_time":2272000000000,"state":"active","ping":87},{"user_id":151,"name":"LuckyHappyGuy","steam_id":76561198353023996,"connected_time":8283000000000,"state":"active","ping":70},{"user_id":254,"name":"silicon based life form","steam_id":76561199127121346,"connected_time":1992000000000,"state":"active","ping":54},{"user_id":258,"name":"Plep","steam_id":76561198840259819,"connected_time":1542000000000,"state":"active","ping":59},{"user_id":264,"name":"Swiss_Nostalgia","steam_id":76561199159896259,"connected_time":729000000000,"state":"active","ping":70},{"user_id":245,"name":"N5LH","steam_id":76561199112528775,"connected_time":2284000000000,"state":"active","ping":99},{"user_id":262,"name":"andy","steam_id":76561198054288197,"connected_time":955000000000,"state":"active","ping":60},{"user_id":269,"name":"WORLIII","steam_id":76561198860027061,"connected_time":5000000000,"state":"spawning","ping":90},{"user_id":249,"name":"(All Muted) Visphiric","steam_id":76561198071938027,"connected_time":2233000000000,"state":"active","ping":42},{"user_id":257,"name":"General Petrov","steam_id":76561198027204104,"connected_time":1581000000000,"state":"active","ping":84}]},{"server_id":0,"name_short":"","name":"Uncletopia | San Francisco | 1 | All Maps","host":"","port":0,"enabled":false,"region":"","cc":"","latitude":0,"longitude":0,"reserved":0,"last_update":"0001-01-01T00:00:00Z","protocol":17,"map":"cp_gullywash_final1","folder":"tf","game":"Team Fortress","app_id":440,"player_count":0,"max_players":24,"Bots":0,"server_type":"Dedicated","server_os":"Linux","password":true,"vac":true,"version":"7961495","steam_id":85568392924469999,"keywords":["cp","nocrits","nodmgspread","uncletopia"],"edicts":[544,2048],"game_id":440,"stv_port":27016,"stv_name":"Uncletopia | San Francisco | 1 | All Maps | STV","players":null},{"server_id":0,"name_short":"","name":"Uncletopia | San Francisco | 4 | Community","host":"","port":0,"enabled":false,"region":"","cc":"","latitude":0,"longitude":0,"reserved":0,"last_update":"0001-01-01T00:00:00Z","protocol":17,"map":"cp_reckoner_rc6","folder":"tf","game":"Team Fortress","app_id":440,"player_count":0,"max_players":24,"Bots":0,"server_type":"Dedicated","server_os":"Linux","password":true,"vac":true,"version":"7961495","steam_id":85568392924742826,"keywords":["cp","nocrits","nodmgspread","uncletopia"],"edicts":[657,2048],"game_id":440,"stv_port":27046,"stv_name":"Uncletopia | San Francisco | 4 | Community | STV","players":null},{"server_id":0,"name_short":"","name":"Uncletopia | Frankfurt | 1 | All Maps","host":"","port":0,"enabled":false,"region":"","cc":"","latitude":0,"longitude":0,"reserved":0,"last_update":"0001-01-01T00:00:00Z","protocol":17,"map":"pl_pier","folder":"tf","game":"Team Fortress","app_id":440,"player_count":24,"max_players":24,"Bots":0,"server_type":"Dedicated","server_os":"Linux","password":true,"vac":true,"version":"7961495","steam_id":85568392924469989,"keywords":["nocrits","nodmgspread","payload","uncletopia"],"edicts":[1247,2048],"game_id":440,"stv_port":27016,"stv_name":"Uncletopia | Frankfurt | 1 | All Maps | STV","players":[{"user_id":499,"name":"powej","steam_id":76561198056381418,"connected_time":1222000000000,"state":"active","ping":54},{"user_id":462,"name":"Egor Pomidor","steam_id":76561199175688390,"connected_time":4827000000000,"state":"active","ping":75},{"user_id":509,"name":"Rodia","steam_id":76561197968293161,"connected_time":555000000000,"state":"active","ping":59},{"user_id":503,"name":"Qdarks","steam_id":76561198013391340,"connected_time":821000000000,"state":"active","ping":145},{"user_id":512,"name":"sAmasam","steam_id":76561198114953928,"connected_time":152000000000,"state":"active","ping":57},{"user_id":494,"name":"Ace","steam_id":76561198979117577,"connected_time":1857000000000,"state":"active","ping":75},{"user_id":430,"name":"Pabs :D","steam_id":76561198000016962,"connected_time":7780000000000,"state":"active","ping":54},{"user_id":496,"name":"Michael","steam_id":76561198003146906,"connected_time":1722000000000,"state":"active","ping":56},{"user_id":505,"name":"Cem Yılmaz","steam_id":76561198059535856,"connected_time":713000000000,"state":"active","ping":166},{"user_id":510,"name":"Mr_Joergen","steam_id":76561198364713702,"connected_time":338000000000,"state":"active","ping":57},{"user_id":498,"name":"Dr. Josef","steam_id":76561198171353373,"connected_time":1704000000000,"state":"active","ping":117},{"user_id":484,"name":"Zulik92","steam_id":76561198152442373,"connected_time":2743000000000,"state":"active","ping":66},{"user_id":504,"name":"Gregor Samsa","steam_id":76561198973069177,"connected_time":733000000000,"state":"active","ping":48},{"user_id":501,"name":"bean","steam_id":76561198161013815,"connected_time":1079000000000,"state":"active","ping":59},{"user_id":506,"name":"SirClyan","steam_id":76561199196651938,"connected_time":693000000000,"state":"active","ping":94},{"user_id":445,"name":"LILY-CHAN","steam_id":76561198035085893,"connected_time":6081000000000,"state":"active","ping":85},{"user_id":502,"name":"LivEssense","steam_id":76561198052476979,"connected_time":1060000000000,"state":"active","ping":76},{"user_id":467,"name":"R8N - Obismal","steam_id":76561198007482714,"connected_time":4498000000000,"state":"active","ping":71},{"user_id":489,"name":"Xenophon","steam_id":76561198158781327,"connected_time":2571000000000,"state":"active","ping":64},{"user_id":485,"name":"Dmitry Kerman","steam_id":76561198300020540,"connected_time":2637000000000,"state":"active","ping":156},{"user_id":507,"name":"sHISSUS","steam_id":76561198211063493,"connected_time":689000000000,"state":"active","ping":59},{"user_id":490,"name":"YuraGreek","steam_id":76561198050182252,"connected_time":2346000000000,"state":"active","ping":75},{"user_id":476,"name":"DHD - Obismal","steam_id":76561198000356530,"connected_time":3381000000000,"state":"active","ping":69},{"user_id":413,"name":"тукку ирма","steam_id":76561197998715016,"connected_time":8986000000000,"state":"active","ping":63}]},{"server_id":0,"name_short":"","name":"Uncletopia | Chicago | 4 | All Maps","host":"","port":0,"enabled":false,"region":"","cc":"","latitude":0,"longitude":0,"reserved":0,"last_update":"0001-01-01T00:00:00Z","protocol":17,"map":"koth_viaduct","folder":"tf","game":"Team Fortress","app_id":440,"player_count":0,"max_players":24,"Bots":0,"server_type":"Dedicated","server_os":"Linux","password":true,"vac":true,"version":"7961495","steam_id":85568392924515193,"keywords":["cp","nocrits","nodmgspread","uncletopia"],"edicts":[215,2048],"game_id":440,"stv_port":27046,"stv_name":"Uncletopia | Chicago | 4 | All Maps | STV","players":null},{"server_id":0,"name_short":"","name":"Uncletopia | Chicago | 2 | All Maps","host":"","port":0,"enabled":false,"region":"","cc":"","latitude":0,"longitude":0,"reserved":0,"last_update":"0001-01-01T00:00:00Z","protocol":17,"map":"pl_thundermountain","folder":"tf","game":"Team Fortress","app_id":440,"player_count":24,"max_players":24,"Bots":0,"server_type":"Dedicated","server_os":"Linux","password":true,"vac":true,"version":"7961495","steam_id":85568392924469985,"keywords":["nocrits","nodmgspread","payload","uncletopia"],"edicts":[1412,2048],"game_id":440,"stv_port":27026,"stv_name":"Uncletopia | Chicago | 2 | All Maps | STV","players":[{"user_id":107,"name":"glass house resident","steam_id":76561198081220016,"connected_time":1052000000000,"state":"active","ping":45},{"user_id":92,"name":"if i miss I WILL KILL MYSELF!!!","steam_id":76561198253747839,"connected_time":2072000000000,"state":"active","ping":45},{"user_id":63,"name":"Dwanor","steam_id":76561198039571887,"connected_time":3707000000000,"state":"active","ping":67},{"user_id":86,"name":"Aztea","steam_id":76561198982089893,"connected_time":2308000000000,"state":"active","ping":82},{"user_id":118,"name":"ndvr (femboy (REAL))","steam_id":76561199379200102,"connected_time":238000000000,"state":"active","ping":62},{"user_id":106,"name":"kelvindavid121","steam_id":76561199010489413,"connected_time":1091000000000,"state":"active","ping":101},{"user_id":112,"name":"kermitcreeper(ZAZA)","steam_id":76561199222829972,"connected_time":415000000000,"state":"active","ping":49},{"user_id":109,"name":"Cynical Toast","steam_id":76561198135390893,"connected_time":978000000000,"state":"active","ping":49},{"user_id":96,"name":"Ayphi","steam_id":76561198288030412,"connected_time":1408000000000,"state":"active","ping":100},{"user_id":22,"name":"Free2Play","steam_id":76561198065920486,"connected_time":5253000000000,"state":"active","ping":63},{"user_id":113,"name":"Chairman Meow","steam_id":76561198107795169,"connected_time":403000000000,"state":"active","ping":84},{"user_id":114,"name":"TheoLynwood","steam_id":76561198079596878,"connected_time":390000000000,"state":"active","ping":68},{"user_id":68,"name":"Morgster","steam_id":76561198131697761,"connected_time":3493000000000,"state":"active","ping":75},{"user_id":58,"name":"Chadmander","steam_id":76561197974136337,"connected_time":4087000000000,"state":"active","ping":39},{"user_id":105,"name":"Brandino!","steam_id":76561198000446932,"connected_time":1107000000000,"state":"active","ping":72},{"user_id":102,"name":"Jolyne","steam_id":76561198988918229,"connected_time":1169000000000,"state":"active","ping":82},{"user_id":111,"name":"ᵐᵉᵒʷ","steam_id":76561199200969139,"connected_time":516000000000,"state":"active","ping":73},{"user_id":115,"name":"rapscallion","steam_id":76561198188722751,"connected_time":390000000000,"state":"active","ping":104},{"user_id":80,"name":"epitome","steam_id":76561198834412436,"connected_time":2670000000000,"state":"active","ping":77},{"user_id":116,"name":"MysteryFingers","steam_id":76561198139808884,"connected_time":383000000000,"state":"active","ping":65},{"user_id":117,"name":"TheBlue","steam_id":76561198363412851,"connected_time":340000000000,"state":"active","ping":47},{"user_id":39,"name":"ting ting johnson","steam_id":76561198063099828,"connected_time":5010000000000,"state":"active","ping":56},{"user_id":103,"name":"gas pump","steam_id":76561199007216815,"connected_time":1168000000000,"state":"active","ping":91},{"user_id":99,"name":"Orange","steam_id":76561198282214019,"connected_time":1375000000000,"state":"active","ping":72}]},{"server_id":0,"name_short":"","name":"Uncletopia | Warsaw | 4 | All Maps","host":"","port":0,"enabled":false,"region":"","cc":"","latitude":0,"longitude":0,"reserved":0,"last_update":"0001-01-01T00:00:00Z","protocol":17,"map":"cp_gorge","folder":"tf","game":"Team Fortress","app_id":440,"player_count":0,"max_players":24,"Bots":0,"server_type":"Dedicated","server_os":"Linux","password":true,"vac":true,"version":"7961495","steam_id":85568392925397853,"keywords":["cp","nocrits","nodmgspread","uncletopia"],"edicts":[305,2048],"game_id":440,"stv_port":27046,"stv_name":"Uncletopia | Warsaw | 4 | All Maps | STV","players":null},{"server_id":0,"name_short":"","name":"Uncletopia | Warsaw | 6 | Community","host":"","port":0,"enabled":false,"region":"","cc":"","latitude":0,"longitude":0,"reserved":0,"last_update":"0001-01-01T00:00:00Z","protocol":17,"map":"cp_glacier_rc6","folder":"tf","game":"Team Fortress","app_id":440,"player_count":0,"max_players":24,"Bots":0,"server_type":"Dedicated","server_os":"Linux","password":true,"vac":true,"version":"7961495","steam_id":85568392925397856,"keywords":["cp","nocrits","nodmgspread","uncletopia"],"edicts":[719,2048],"game_id":440,"stv_port":27066,"stv_name":"Uncletopia | Warsaw | 6 | Community | STV","players":null},{"server_id":0,"name_short":"","name":"Uncletopia | Sydney | 3 | All Maps","host":"","port":0,"enabled":false,"region":"","cc":"","latitude":0,"longitude":0,"reserved":0,"last_update":"0001-01-01T00:00:00Z","protocol":17,"map":"koth_cascade","folder":"tf","game":"Team Fortress","app_id":440,"player_count":0,"max_players":24,"Bots":0,"server_type":"Dedicated","server_os":"Linux","password":true,"vac":true,"version":"7961495","steam_id":85568392925194467,"keywords":["cp","nocrits","nodmgspread","uncletopia"],"edicts":[546,2048],"game_id":440,"stv_port":27036,"stv_name":"Uncletopia | Sydney | 3 | All Maps | STV","players":null},{"server_id":0,"name_short":"","name":"Uncletopia | Los Angeles | 1 | All Maps","host":"","port":0,"enabled":false,"region":"","cc":"","latitude":0,"longitude":0,"reserved":0,"last_update":"0001-01-01T00:00:00Z","protocol":17,"map":"koth_lakeside_final","folder":"tf","game":"Team Fortress","app_id":440,"player_count":1,"max_players":24,"Bots":0,"server_type":"Dedicated","server_os":"Linux","password":true,"vac":true,"version":"7961495","steam_id":85568392924469991,"keywords":["cp","nocrits","nodmgspread","uncletopia"],"edicts":[312,2048],"game_id":440,"stv_port":27016,"stv_name":"Uncletopia | Los Angeles | 1 | All Maps | STV","players":[{"user_id":3,"name":"Prowler","steam_id":76561198981106464,"connected_time":272000000000,"state":"active","ping":47}]},{"server_id":0,"name_short":"","name":"Uncletopia | Seattle | 2 | All Maps","host":"","port":0,"enabled":false,"region":"","cc":"","latitude":0,"longitude":0,"reserved":0,"last_update":"0001-01-01T00:00:00Z","protocol":17,"map":"pl_upward","folder":"tf","game":"Team Fortress","app_id":440,"player_count":0,"max_players":24,"Bots":0,"server_type":"Dedicated","server_os":"Linux","password":true,"vac":true,"version":"7961495","steam_id":85568392924469998,"keywords":["nocrits","nodmgspread","payload","uncletopia"],"edicts":[659,2048],"game_id":440,"stv_port":27026,"stv_name":"Uncletopia | Seattle | 2 | All Maps | STV","players":null},{"server_id":0,"name_short":"","name":"Uncletopia | San Francisco | 3 | Stopwatch","host":"","port":0,"enabled":false,"region":"","cc":"","latitude":0,"longitude":0,"reserved":0,"last_update":"0001-01-01T00:00:00Z","protocol":17,"map":"koth_clearcut_b15","folder":"tf","game":"Team Fortress","app_id":440,"player_count":0,"max_players":24,"Bots":0,"server_type":"Dedicated","server_os":"Linux","password":true,"vac":true,"version":"7961495","steam_id":85568392924742824,"keywords":["cp","nocrits","nodmgspread","uncletopia"],"edicts":[445,2048],"game_id":440,"stv_port":27036,"stv_name":"Uncletopia | San Francisco | 3 | Stopwatch | STV","players":null},{"server_id":0,"name_short":"","name":"Uncletopia | Frankfurt | 5 | All Maps","host":"","port":0,"enabled":false,"region":"","cc":"","latitude":0,"longitude":0,"reserved":0,"last_update":"0001-01-01T00:00:00Z","protocol":17,"map":"pl_upward","folder":"tf","game":"Team Fortress","app_id":440,"player_count":25,"max_players":24,"Bots":0,"server_type":"Dedicated","server_os":"Linux","password":true,"vac":true,"version":"7961495","steam_id":85568392924504277,"keywords":["nocrits","nodmgspread","payload","uncletopia"],"edicts":[939,2048],"game_id":440,"stv_port":27056,"stv_name":"Uncletopia | Frankfurt | 5 | All Maps | STV","players":[{"user_id":603,"name":"AD_1","steam_id":76561199098975910,"connected_time":835000000000,"state":"active","ping":67},{"user_id":598,"name":"crimson","steam_id":76561198378426158,"connected_time":1075000000000,"state":"active","ping":88},{"user_id":571,"name":"KALACH","steam_id":76561198028664460,"connected_time":2386000000000,"state":"active","ping":68},{"user_id":605,"name":"Flank","steam_id":76561198098731156,"connected_time":577000000000,"state":"active","ping":76},{"user_id":589,"name":"The King","steam_id":76561198117344758,"connected_time":1507000000000,"state":"active","ping":157},{"user_id":530,"name":"Nox Equites","steam_id":76561198115438449,"connected_time":6105000000000,"state":"active","ping":113},{"user_id":601,"name":"Prussian Crusader","steam_id":76561198889201823,"connected_time":902000000000,"state":"active","ping":105},{"user_id":588,"name":"AsianPersuasion","steam_id":76561198202112536,"connected_time":1517000000000,"state":"active","ping":64},{"user_id":600,"name":"♥Medical student♥","steam_id":76561199119401415,"connected_time":966000000000,"state":"active","ping":125},{"user_id":586,"name":"James Gandalfini","steam_id":76561198064123302,"connected_time":1703000000000,"state":"active","ping":48},{"user_id":604,"name":"Eme","steam_id":76561198171619442,"connected_time":681000000000,"state":"active","ping":76},{"user_id":562,"name":"Germanium_Ge","steam_id":76561198130561775,"connected_time":4053000000000,"state":"active","ping":51},{"user_id":590,"name":"pyrofightermag","steam_id":76561198089228732,"connected_time":1506000000000,"state":"active","ping":61},{"user_id":592,"name":"eep","steam_id":76561198111134021,"connected_time":1460000000000,"state":"active","ping":74},{"user_id":602,"name":"Ace","steam_id":76561198279398145,"connected_time":888000000000,"state":"active","ping":45},{"user_id":596,"name":"brazil number 1 fan","steam_id":76561198799519725,"connected_time":1230000000000,"state":"active","ping":70},{"user_id":539,"name":"Carry Krypl","steam_id":76561198136938121,"connected_time":5843000000000,"state":"active","ping":46},{"user_id":540,"name":"citronous","steam_id":76561198093290934,"connected_time":5825000000000,"state":"active","ping":53},{"user_id":581,"name":"Seb, Comrade","steam_id":76561198040279587,"connected_time":1989000000000,"state":"active","ping":116},{"user_id":593,"name":"literallyjasonx","steam_id":76561198835895387,"connected_time":1457000000000,"state":"active","ping":69},{"user_id":606,"name":"Divine","steam_id":76561198430207251,"connected_time":4000000000,"state":"spawning","ping":132},{"user_id":585,"name":"Nymph","steam_id":76561198042801329,"connected_time":1878000000000,"state":"active","ping":52},{"user_id":607,"name":"elkman steve","steam_id":76561198861519418,"connected_time":4000000000,"state":"spawning","ping":79},{"user_id":568,"name":"German Prick","steam_id":76561198181410637,"connected_time":3376000000000,"state":"active","ping":53},{"user_id":570,"name":"Sunduchek","steam_id":76561198067934157,"connected_time":3028000000000,"state":"active","ping":126}]},{"server_id":0,"name_short":"","name":"Uncletopia | Sydney | 6 | Community","host":"","port":0,"enabled":false,"region":"","cc":"","latitude":0,"longitude":0,"reserved":0,"last_update":"0001-01-01T00:00:00Z","protocol":17,"map":"koth_soot_final1","folder":"tf","game":"Team Fortress","app_id":440,"player_count":0,"max_players":24,"Bots":0,"server_type":"Dedicated","server_os":"Linux","password":true,"vac":true,"version":"7961495","steam_id":85568392925397960,"keywords":["cp","nocrits","nodmgspread","uncletopia"],"edicts":[242,2048],"game_id":440,"stv_port":27066,"stv_name":"Uncletopia | Sydney | 6 | Community | STV","players":null},{"server_id":0,"name_short":"","name":"Uncletopia | Los Angeles | 2 | All Maps","host":"","port":0,"enabled":false,"region":"","cc":"","latitude":0,"longitude":0,"reserved":0,"last_update":"0001-01-01T00:00:00Z","protocol":17,"map":"koth_lazarus","folder":"tf","game":"Team Fortress","app_id":440,"player_count":0,"max_players":24,"Bots":0,"server_type":"Dedicated","server_os":"Linux","password":true,"vac":true,"version":"7961495","steam_id":85568392924469992,"keywords":["cp","nocrits","nodmgspread","uncletopia"],"edicts":[861,2048],"game_id":440,"stv_port":27026,"stv_name":"Uncletopia | Los Angeles | 2 | All Maps | STV","players":null},{"server_id":0,"name_short":"","name":"Uncletopia | Frankfurt | 6 | All Maps","host":"","port":0,"enabled":false,"region":"","cc":"","latitude":0,"longitude":0,"reserved":0,"last_update":"0001-01-01T00:00:00Z","protocol":17,"map":"cp_snakewater_final1","folder":"tf","game":"Team Fortress","app_id":440,"player_count":0,"max_players":24,"Bots":0,"server_type":"Dedicated","server_os":"Linux","password":true,"vac":true,"version":"7961495","steam_id":85568392924504278,"keywords":["cp","nocrits","nodmgspread","uncletopia"],"edicts":[634,2048],"game_id":440,"stv_port":27066,"stv_name":"Uncletopia | Frankfurt | 6 | All Maps | STV","players":null},{"server_id":0,"name_short":"","name":"Uncletopia | Sydney | 2 | All Maps","host":"","port":0,"enabled":false,"region":"","cc":"","latitude":0,"longitude":0,"reserved":0,"last_update":"0001-01-01T00:00:00Z","protocol":17,"map":"koth_cascade","folder":"tf","game":"Team Fortress","app_id":440,"player_count":0,"max_players":24,"Bots":0,"server_type":"Dedicated","server_os":"Linux","password":true,"vac":true,"version":"7961495","steam_id":85568392924470002,"keywords":["cp","nocrits","nodmgspread","uncletopia"],"edicts":[546,2048],"game_id":440,"stv_port":27026,"stv_name":"Uncletopia | Sydney | 2 | All Maps | STV","players":null},{"server_id":0,"name_short":"","name":"Uncletopia | Atlanta | 2 | All Maps","host":"","port":0,"enabled":false,"region":"","cc":"","latitude":0,"longitude":0,"reserved":0,"last_update":"0001-01-01T00:00:00Z","protocol":17,"map":"pl_pier","folder":"tf","game":"Team Fortress","app_id":440,"player_count":24,"max_players":24,"Bots":0,"server_type":"Dedicated","server_os":"Linux","password":true,"vac":true,"version":"7961495","steam_id":85568392924469983,"keywords":["nocrits","nodmgspread","payload","uncletopia"],"edicts":[1251,2048],"game_id":440,"stv_port":27026,"stv_name":"Uncletopia | Atlanta | 2 | All Maps | STV","players":[{"user_id":9,"name":"Congcrab","steam_id":76561198078687685,"connected_time":3776000000000,"state":"active","ping":59},{"user_id":34,"name":"icm2008 #SaveTF2","steam_id":76561199277408836,"connected_time":1660000000000,"state":"active","ping":68},{"user_id":38,"name":"vastrobotmax","steam_id":76561198417110724,"connected_time":736000000000,"state":"active","ping":91},{"user_id":12,"name":"That Girl With a K","steam_id":76561198317602350,"connected_time":3552000000000,"state":"active","ping":99},{"user_id":40,"name":"sus bread_stain","steam_id":76561199230268075,"connected_time":505000000000,"state":"active","ping":61},{"user_id":51,"name":"FuriousColombian","steam_id":76561198257720165,"connected_time":242000000000,"state":"active","ping":116},{"user_id":63,"name":"Orb","steam_id":76561198353963523,"connected_time":109000000000,"state":"active","ping":96},{"user_id":52,"name":"Hawk","steam_id":76561198042292889,"connected_time":217000000000,"state":"active","ping":134},{"user_id":43,"name":"Legnarius","steam_id":76561198090842475,"connected_time":426000000000,"state":"active","ping":114},{"user_id":44,"name":"Estus, the problem maker","steam_id":76561198121661974,"connected_time":399000000000,"state":"active","ping":162},{"user_id":45,"name":"Lolxdloldx","steam_id":76561198136887125,"connected_time":396000000000,"state":"active","ping":78},{"user_id":46,"name":"jorjor wells","steam_id":76561199073429082,"connected_time":393000000000,"state":"active","ping":71},{"user_id":47,"name":"Hitmarker98","steam_id":76561198283691730,"connected_time":369000000000,"state":"active","ping":77},{"user_id":66,"name":"Stonershade","steam_id":76561198377429433,"connected_time":96000000000,"state":"active","ping":54},{"user_id":53,"name":"WitchBomb_7","steam_id":76561198247320334,"connected_time":193000000000,"state":"active","ping":51},{"user_id":50,"name":"vueko","steam_id":76561199001918194,"connected_time":301000000000,"state":"active","ping":112},{"user_id":54,"name":"Passionate Map Researcher","steam_id":76561199490508357,"connected_time":192000000000,"state":"active","ping":101},{"user_id":55,"name":"beats (16:38)","steam_id":76561199245717718,"connected_time":192000000000,"state":"active","ping":74},{"user_id":56,"name":"CyMeryy/TTV","steam_id":76561197984986540,"connected_time":191000000000,"state":"active","ping":89},{"user_id":57,"name":"Yimberly","steam_id":76561199206923109,"connected_time":184000000000,"state":"active","ping":75},{"user_id":67,"name":"BLØRG","steam_id":76561198036126673,"connected_time":91000000000,"state":"active","ping":95},{"user_id":60,"name":"Sanic_Bum","steam_id":76561198094179822,"connected_time":169000000000,"state":"active","ping":49},{"user_id":61,"name":"i will sniff the feet","steam_id":76561199181313791,"connected_time":144000000000,"state":"active","ping":87},{"user_id":65,"name":"skullface","steam_id":76561198353704776,"connected_time":99000000000,"state":"active","ping":60}]},{"server_id":0,"name_short":"","name":"Uncletopia | Dallas | 1 | All Maps","host":"","port":0,"enabled":false,"region":"","cc":"","latitude":0,"longitude":0,"reserved":0,"last_update":"0001-01-01T00:00:00Z","protocol":17,"map":"cp_process_final","folder":"tf","game":"Team Fortress","app_id":440,"player_count":0,"max_players":24,"Bots":0,"server_type":"Dedicated","server_os":"Linux","password":true,"vac":true,"version":"7961495","steam_id":85568392924469986,"keywords":["cp","nocrits","nodmgspread","uncletopia"],"edicts":[537,2048],"game_id":440,"stv_port":27016,"stv_name":"Uncletopia | Dallas | 1 | All Maps | STV","players":null},{"server_id":0,"name_short":"","name":"Uncletopia | Dallas | 4 | Community","host":"","port":0,"enabled":false,"region":"","cc":"","latitude":0,"longitude":0,"reserved":0,"last_update":"0001-01-01T00:00:00Z","protocol":17,"map":"pl_stallberg_rc3","folder":"tf","game":"Team Fortress","app_id":440,"player_count":0,"max_players":24,"Bots":0,"server_type":"Dedicated","server_os":"Linux","password":true,"vac":true,"version":"7961495","steam_id":85568392924515220,"keywords":["nocrits","nodmgspread","payload","uncletopia"],"edicts":[603,2048],"game_id":440,"stv_port":27046,"stv_name":"Uncletopia | Dallas | 4 | Community | STV","players":null},{"server_id":0,"name_short":"","name":"Uncletopia | Frankfurt | 3 | All Maps","host":"","port":0,"enabled":false,"region":"","cc":"","latitude":0,"longitude":0,"reserved":0,"last_update":"0001-01-01T00:00:00Z","protocol":17,"map":"cp_gorge","folder":"tf","game":"Team Fortress","app_id":440,"player_count":24,"max_players":24,"Bots":0,"server_type":"Dedicated","server_os":"Linux","password":true,"vac":true,"version":"7961495","steam_id":85568392924504274,"keywords":["cp","nocrits","nodmgspread","uncletopia"],"edicts":[588,2048],"game_id":440,"stv_port":27036,"stv_name":"Uncletopia | Frankfurt | 3 | All Maps | STV","players":[{"user_id":234,"name":"redditor_gaming","steam_id":76561198176507538,"connected_time":1466000000000,"state":"active","ping":75},{"user_id":249,"name":"breadbear \u003c3","steam_id":76561198036895007,"connected_time":419000000000,"state":"active","ping":76},{"user_id":238,"name":"mokau","steam_id":76561199150622722,"connected_time":1093000000000,"state":"active","ping":95},{"user_id":252,"name":"S@wKa","steam_id":76561198200160028,"connected_time":314000000000,"state":"active","ping":67},{"user_id":156,"name":"rigel_","steam_id":76561198148640847,"connected_time":6224000000000,"state":"active","ping":85},{"user_id":239,"name":"kornetov.vitalya","steam_id":76561199286034833,"connected_time":1066000000000,"state":"active","ping":90},{"user_id":250,"name":"quack","steam_id":76561198121003465,"connected_time":413000000000,"state":"active","ping":62},{"user_id":149,"name":"jorge","steam_id":76561198107460765,"connected_time":6961000000000,"state":"active","ping":45},{"user_id":180,"name":"bolsonaro","steam_id":76561198074917015,"connected_time":4571000000000,"state":"active","ping":72},{"user_id":228,"name":"usuikui","steam_id":76561198093304268,"connected_time":1563000000000,"state":"active","ping":77},{"user_id":232,"name":"Healix","steam_id":76561198130270161,"connected_time":1487000000000,"state":"active","ping":52},{"user_id":242,"name":"Draugluin","steam_id":76561199219965276,"connected_time":643000000000,"state":"active","ping":55},{"user_id":233,"name":"duckington duck","steam_id":76561199157117063,"connected_time":1476000000000,"state":"active","ping":59},{"user_id":176,"name":"naah you off the Google+ perc","steam_id":76561198190583242,"connected_time":4646000000000,"state":"active","ping":73},{"user_id":255,"name":"kris","steam_id":76561198120575694,"connected_time":63000000000,"state":"active","ping":67},{"user_id":244,"name":"Hello","steam_id":76561199216957269,"connected_time":592000000000,"state":"active","ping":99},{"user_id":247,"name":"Davido01","steam_id":76561198089406245,"connected_time":490000000000,"state":"active","ping":65},{"user_id":207,"name":"ifre3","steam_id":76561198052545817,"connected_time":2562000000000,"state":"active","ping":92},{"user_id":229,"name":"Yozeb","steam_id":76561198035000345,"connected_time":1557000000000,"state":"active","ping":76},{"user_id":245,"name":"Gillusion","steam_id":76561198138818087,"connected_time":557000000000,"state":"active","ping":56},{"user_id":230,"name":"Mr. Data","steam_id":76561198039083551,"connected_time":1536000000000,"state":"active","ping":66},{"user_id":254,"name":"A","steam_id":76561198417749002,"connected_time":284000000000,"state":"active","ping":68},{"user_id":231,"name":"Kirk","steam_id":76561198039210226,"connected_time":1533000000000,"state":"active","ping":52},{"user_id":158,"name":"eNine","steam_id":76561198890193313,"connected_time":5979000000000,"state":"active","ping":57}]},{"server_id":0,"name_short":"","name":"Uncletopia | Frankfurt | 8 | Community","host":"","port":0,"enabled":false,"region":"","cc":"","latitude":0,"longitude":0,"reserved":0,"last_update":"0001-01-01T00:00:00Z","protocol":17,"map":"pl_stallberg_rc3","folder":"tf","game":"Team Fortress","app_id":440,"player_count":0,"max_players":24,"Bots":0,"server_type":"Dedicated","server_os":"Linux","password":true,"vac":true,"version":"7961495","steam_id":85568392924742828,"keywords":["nocrits","nodmgspread","payload","uncletopia"],"edicts":[603,2048],"game_id":440,"stv_port":27086,"stv_name":"Uncletopia | Frankfurt | 8 | Community | STV","players":null},{"server_id":0,"name_short":"","name":"Uncletopia | Warsaw | 2 | One Thousand Uncles","host":"","port":0,"enabled":false,"region":"","cc":"","latitude":0,"longitude":0,"reserved":0,"last_update":"0001-01-01T00:00:00Z","protocol":17,"map":"koth_highpass","folder":"tf","game":"Team Fortress","app_id":440,"player_count":0,"max_players":32,"Bots":0,"server_type":"Dedicated","server_os":"Linux","password":true,"vac":true,"version":"7961495","steam_id":85568392925397851,"keywords":["alltalk","cp","danepve","increased_maxplayers","norespawntime","uncletopia"],"edicts":[415,2048],"game_id":440,"stv_port":0,"stv_name":"","players":null},{"server_id":0,"name_short":"","name":"Uncletopia | Sydney | 1 | All Maps","host":"","port":0,"enabled":false,"region":"","cc":"","latitude":0,"longitude":0,"reserved":0,"last_update":"0001-01-01T00:00:00Z","protocol":17,"map":"koth_viaduct","folder":"tf","game":"Team Fortress","app_id":440,"player_count":0,"max_players":24,"Bots":0,"server_type":"Dedicated","server_os":"Linux","password":true,"vac":true,"version":"7961495","steam_id":85568392924470001,"keywords":["cp","nocrits","nodmgspread","uncletopia"],"edicts":[218,2048],"game_id":440,"stv_port":27016,"stv_name":"Uncletopia | Sydney | 1 | All Maps | STV","players":null}]}