{"status":true,"message":"","result":[{"server_id":9,"name":"Uncletopia | Atlanta | 1 | All Maps","name_short":"atl-1","host":"atl-1.us.uncletopia.com","port":27015,"enabled":true,"region":"us-east","cc":"us","latitude":33.753746,"longitude":-84.38633,"reserved":0,"last_update":"0001-01-01T00:00:00Z","name_a2s":"Uncletopia | Atlanta | 1 | All Maps","protocol":17,"map":"koth_cascade","folder":"tf","game":"Team Fortress","app_id":440,"player_count":0,"max_players":24,"Bots":0,"server_type":"Dedicated","server_os":"Linux","password":true,"vac":true,"version":"7757534","steam_id":85568392924469982,"keywords":["cp","nocrits","nodmgspread","uncletopia"],"game_id":440,"stv_port":27016,"stv_name":"Uncletopia | Atlanta | 1 | All Maps | STV","players":null},{"server_id":104,"name":"Uncletopia | Atlanta | 2 | All Maps","name_short":"atl-2","host":"atl-1.us.uncletopia.com","port":27025,"enabled":true,"region":"us-east","cc":"us","latitude":33.753746,"longitude":-84.38633,"reserved":0,"last_update":"0001-01-01T00:00:00Z","name_a2s":"Uncletopia | Atlanta | 2 | All Maps","protocol":17,"map":"cp_dustbowl","folder":"tf","game":"Team Fortress","app_id":440,"player_count":0,"max_players":24,"Bots":0,"server_type":"Dedicated","server_os":"Linux","password":true,"vac":true,"version":"7757534","steam_id":85568392924469983,"keywords":["cp","nocrits","nodmgspread","uncletopia"],"game_id":440,"stv_port":27026,"stv_name":"Uncletopia | Atlanta | 2 | All Maps | STV","players":null},{"server_id":400,"name":"Uncletopia | Atlanta | 3 | Community","name_short":"atl-3","host":"atl-1.us.uncletopia.com","port":27035,"enabled":true,"region":"us-east","cc":"us","latitude":33.753746,"longitude":-84.38633,"reserved":0,"last_update":"0001-01-01T00:00:00Z","name_a2s":"Uncletopia | Atlanta | 3 | Community","protocol":17,"map":"cp_snakewater_final1","folder":"tf","game":"Team Fortress","app_id":440,"player_count":0,"max_players":24,"Bots":0,"server_type":"Dedicated","server_os":"Linux","password":true,"vac":true,"version":"7757534","steam_id":85568392924515187,"keywords":["cp","nocrits","nodmgspread","uncletopia"],"game_id":440,"stv_port":27036,"stv_name":"Uncletopia | Atlanta | 3 | Community | STV","players":null},{"server_id":401,"name":"Uncletopia | Atlanta | 4 | No Payload","name_short":"atl-4","host":"atl-1.us.uncletopia.com","port":27045,"enabled":true,"region":"us-east","cc":"us","latitude":33.753746,"longitude":-84.38633,"reserved":0,"last_update":"0001-01-01T00:00:00Z","name_a2s":"","protocol":0,"map":"","folder":"","game":"","app_id":0,"player_count":0,"max_players":0,"Bots":0,"server_type":"","server_os":"","password":false,"vac":false,"version":"","steam_id":0,"keywords":null,"game_id":0,"stv_port":0,"stv_name":"","players":null},{"server_id":2,"name":"Uncletopia | Chicago | 1 | All Maps","name_short":"chi-1","host":"chi-1.us.uncletopia.com","port":27015,"enabled":true,"region":"us-central","cc":"us","latitude":41.881832,"longitude":-87.62318,"reserved":0,"last_update":"0001-01-01T00:00:00Z","name_a2s":"Uncletopia | Chicago | 1 | All Maps","protocol":17,"map":"pl_upward","folder":"tf","game":"Team Fortress","app_id":440,"player_count":24,"max_players":24,"Bots":0,"server_type":"Dedicated","server_os":"Linux","password":true,"vac":true,"version":"7757534","steam_id":85568392924469984,"keywords":["nocrits","nodmgspread","payload","uncletopia"],"game_id":440,"stv_port":27016,"stv_name":"Uncletopia | Chicago | 1 | All Maps | STV","players":[{"user_id":954,"name":"CrystalClear","steam_id":76561198344276579,"connected_time":5372000000000,"state":"active","ping":100},{"user_id":1003,"name":"qwerg","steam_id":76561198107191794,"connected_time":1427000000000,"state":"active","ping":72},{"user_id":986,"name":"mrselfdestruct13","steam_id":76561197992054553,"connected_time":2653000000000,"state":"active","ping":73},{"user_id":1014,"name":"CheeseCake488","steam_id":76561199407617942,"connected_time":440000000000,"state":"active","ping":136},{"user_id":1013,"name":"Sentient Sandvich","steam_id":76561197995714103,"connected_time":488000000000,"state":"active","ping":105},{"user_id":956,"name":"CongorCongus","steam_id":76561198370278728,"connected_time":5344000000000,"state":"active","ping":98},{"user_id":1015,"name":"louise.sumner","steam_id":76561198997624264,"connected_time":352000000000,"state":"active","ping":94},{"user_id":1016,"name":"aqua","steam_id":76561199407709552,"connected_time":319000000000,"state":"active","ping":45},{"user_id":965,"name":"Boo! Boo I Say!","steam_id":76561198272427405,"connected_time":4637000000000,"state":"active","ping":67},{"user_id":990,"name":"Yiff Police","steam_id":76561198103938356,"connected_time":2511000000000,"state":"active","ping":86},{"user_id":1008,"name":"Inpecular","steam_id":76561198096571237,"connected_time":1119000000000,"state":"active","ping":87},{"user_id":983,"name":"Ace Attorney","steam_id":76561198133011705,"connected_time":2860000000000,"state":"active","ping":61},{"user_id":997,"name":"cici","steam_id":76561198056813294,"connected_time":2372000000000,"state":"active","ping":63},{"user_id":1009,"name":"Commie","steam_id":76561198149370115,"connected_time":1107000000000,"state":"active","ping":40},{"user_id":993,"name":"happy new year 2014","steam_id":76561198081220016,"connected_time":2445000000000,"state":"active","ping":52},{"user_id":1012,"name":"Spiderfight1","steam_id":76561199189991528,"connected_time":715000000000,"state":"active","ping":88},{"user_id":1017,"name":"LemonPoppyMuffin","steam_id":76561198044813750,"connected_time":254000000000,"state":"active","ping":73},{"user_id":1007,"name":"shawarma.lord007","steam_id":76561198115458307,"connected_time":1123000000000,"state":"active","ping":104},{"user_id":1010,"name":"ü§®","steam_id":76561199365672047,"connected_time":1086000000000,"state":"active","ping":76},{"user_id":1004,"name":"LucentOwl","steam_id":76561198140978957,"connected_time":1399000000000,"state":"active","ping":72},{"user_id":994,"name":"CreativeUsername","steam_id":76561198186045503,"connected_time":2443000000000,"state":"active","ping":48},{"user_id":996,"name":"Yummy Kabobz","steam_id":76561198067661705,"connected_time":2429000000000,"state":"active","ping":73},{"user_id":1006,"name":"trinqette","steam_id":76561198119543621,"connected_time":1265000000000,"state":"active","ping":60},{"user_id":974,"name":"mike","steam_id":76561198163265338,"connected_time":3796000000000,"state":"active","ping":90}]},{"server_id":106,"name":"Uncletopia | Chicago | 2 | All Maps","name_short":"chi-2","host":"chi-1.us.uncletopia.com","port":27025,"enabled":true,"region":"us-central","cc":"us","latitude":41.881832,"longitude":-87.62318,"reserved":0,"last_update":"0001-01-01T00:00:00Z","name_a2s":"Uncletopia | Chicago | 2 | All Maps","protocol":17,"map":"koth_viaduct","folder":"tf","game":"Team Fortress","app_id":440,"player_count":0,"max_players":24,"Bots":0,"server_type":"Dedicated","server_os":"Linux","password":true,"vac":true,"version":"7757534","steam_id":85568392924469985,"keywords":["cp","nocrits","nodmgspread","uncletopia"],"game_id":440,"stv_port":27026,"stv_name":"Uncletopia | Chicago | 2 | All Maps | STV","players":null},{"server_id":402,"name":"Uncletopia | Chicago | 3 | All Maps","name_short":"chi-3","host":"chi-1.us.uncletopia.com","port":27035,"enabled":true,"region":"us-central","cc":"us","latitude":41.881832,"longitude":-87.62318,"reserved":0,"last_update":"0001-01-01T00:00:00Z","name_a2s":"Uncletopia | Chicago | 3 | All Maps","protocol":17,"map":"cp_mountainlab","folder":"tf","game":"Team Fortress","app_id":440,"player_count":0,"max_players":24,"Bots":0,"server_type":"Dedicated","server_os":"Linux","password":true,"vac":true,"version":"7757534","steam_id":85568392924515191,"keywords":["cp","nocrits","nodmgspread","uncletopia"],"game_id":440,"stv_port":27036,"stv_name":"Uncletopia | Chicago | 3 | All Maps | STV","players":null},{"server_id":403,"name":"Uncletopia | Chicago | 4 | All Maps","name_short":"chi-4","host":"chi-1.us.uncletopia.com","port":27045,"enabled":true,"region":"us-central","cc":"us","latitude":41.881832,"longitude":-87.62318,"reserved":0,"last_update":"0001-01-01T00:00:00Z","name_a2s":"Uncletopia | Chicago | 4 | All Maps","protocol":17,"map":"cp_altitude","folder":"tf","game":"Team Fortress","app_id":440,"player_count":0,"max_players":24,"Bots":0,"server_type":"Dedicated","server_os":"Linux","password":true,"vac":true,"version":"7757534","steam_id":85568392924515193,"keywords":["cp","nocrits","nodmgspread","uncletopia"],"game_id":440,"stv_port":27046,"stv_name":"Uncletopia | Chicago | 4 | All Maps | STV","players":null},{"server_id":36,"name":"Uncletopia | Chicago | 5 | All Maps","name_short":"chi-5","host":"chi-2.us.uncletopia.com","port":27015,"enabled":true,"region":"us-central","cc":"us","latitude":41.881832,"longitude":-87.62318,"reserved":0,"last_update":"0001-01-01T00:00:00Z","name_a2s":"Uncletopia | Chicago | 5 | All Maps","protocol":17,"map":"cp_sunshine","folder":"tf","game":"Team Fortress","app_id":440,"player_count":0,"max_players":24,"Bots":0,"server_type":"Dedicated","server_os":"Linux","password":true,"vac":true,"version":"7757534","steam_id":85568392924866362,"keywords":["cp","nocrits","nodmgspread","uncletopia"],"game_id":440,"stv_port":27016,"stv_name":"Uncletopia | Chicago | 5 | All Maps | STV","players":null},{"server_id":37,"name":"Uncletopia | Chicago | 6 | All Maps","name_short":"chi-6","host":"chi-2.us.uncletopia.com","port":27025,"enabled":true,"region":"us-central","cc":"us","latitude":41.881832,"longitude":-87.62318,"reserved":0,"last_update":"0001-01-01T00:00:00Z","name_a2s":"Uncletopia | Chicago | 6 | All Maps","protocol":17,"map":"koth_highpass","folder":"tf","game":"Team Fortress","app_id":440,"player_count":0,"max_players":24,"Bots":0,"server_type":"Dedicated","server_os":"Linux","password":true,"vac":true,"version":"7757534","steam_id":85568392924866363,"keywords":["cp","nocrits","nodmgspread","uncletopia"],"game_id":440,"stv_port":27026,"stv_name":"Uncletopia | Chicago | 6 | All Maps | STV","players":null},{"server_id":38,"name":"Uncletopia | Chicago | 7 | Stopwatch Beta","name_short":"chi-7","host":"chi-2.us.uncletopia.com","port":27035,"enabled":true,"region":"us-central","cc":"us","latitude":41.881832,"longitude":-87.62318,"reserved":0,"last_update":"0001-01-01T00:00:00Z","name_a2s":"Uncletopia | Chicago | 7 | Stopwatch Beta","protocol":17,"map":"workshop/koth_clearcut_b15.ugc2107050255","folder":"tf","game":"Team Fortress","app_id":440,"player_count":0,"max_players":24,"Bots":0,"server_type":"Dedicated","server_os":"Linux","password":true,"vac":true,"version":"7757534","steam_id":85568392924866364,"keywords":["cp","nocrits","nodmgspread","uncletopia"],"game_id":440,"stv_port":27036,"stv_name":"Uncletopia | Chicago | 7 | Stopwatch Beta | STV","players":null},{"server_id":39,"name":"Uncletopia | Chicago | 8 | Community","name_short":"chi-8","host":"chi-2.us.uncletopia.com","port":27045,"enabled":true,"region":"us-central","cc":"us","latitude":41.881832,"longitude":-87.62318,"reserved":0,"last_update":"0001-01-01T00:00:00Z","name_a2s":"Uncletopia | Chicago | 8 | Community","protocol":17,"map":"workshop/cp_bruhstbowl_b5.ugc2878604990","folder":"tf","game":"Team Fortress","app_id":440,"player_count":0,"max_players":24,"Bots":0,"server_type":"Dedicated","server_os":"Linux","password":true,"vac":true,"version":"7757534","steam_id":85568392924866365,"keywords":["cp","nocrits","nodmgspread","uncletopia"],"game_id":440,"stv_port":27046,"stv_name":"Uncletopia | Chicago | 8 | Community | STV","players":null},{"server_id":8,"name":"Uncletopia | Dallas | 1 | All Maps","name_short":"dal-1","host":"dal-1.us.uncletopia.com","port":27015,"enabled":true,"region":"us-central","cc":"us","latitude":32.779167,"longitude":-96.80889,"reserved":0,"last_update":"0001-01-01T00:00:00Z","name_a2s":"Uncletopia | Dallas | 1 | All Maps","protocol":17,"map":"koth_lakeside_final","folder":"tf","game":"Team Fortress","app_id":440,"player_count":11,"max_players":24,"Bots":0,"server_type":"Dedicated","server_os":"Linux","password":true,"vac":true,"version":"7757534","steam_id":85568392924469986,"keywords":["cp","nocrits","nodmgspread","uncletopia"],"game_id":440,"stv_port":27016,"stv_name":"Uncletopia | Dallas | 1 | All Maps | STV","players":[{"user_id":836,"name":".jpegged","steam_id":76561198120078454,"connected_time":675000000000,"state":"active","ping":70},{"user_id":821,"name":"Chromix","steam_id":76561199383060168,"connected_time":2045000000000,"state":"active","ping":51},{"user_id":837,"name":"Castle of Glass","steam_id":76561198312517562,"connected_time":528000000000,"state":"active","ping":159},{"user_id":838,"name":"Captian Wobbs","steam_id":76561198142884936,"connected_time":519000000000,"state":"active","ping":53},{"user_id":840,"name":"Logan","steam_id":76561198316188991,"connected_time":33000000000,"state":"active","ping":76},{"user_id":822,"name":"Yoshimelon","steam_id":76561198253054325,"connected_time":2039000000000,"state":"active","ping":45},{"user_id":824,"name":"WorkerDave","steam_id":76561199261017507,"connected_time":2009000000000,"state":"active","ping":73},{"user_id":758,"name":"connie kins","steam_id":76561198074701151,"connected_time":7107000000000,"state":"active","ping":75},{"user_id":825,"name":"The Golden Python","steam_id":76561199250203505,"connected_time":1934000000000,"state":"active","ping":126},{"user_id":788,"name":"LtK","steam_id":76561197993180943,"connected_time":5173000000000,"state":"active","ping":40},{"user_id":800,"name":"Dairy Queen","steam_id":76561198285298576,"connected_time":4268000000000,"state":"active","ping":98}]},{"server_id":108,"name":"Uncletopia | Dallas | 2 | All Maps","name_short":"dal-2","host":"dal-1.us.uncletopia.com","port":27025,"enabled":true,"region":"us-central","cc":"us","latitude":32.779167,"longitude":-96.80889,"reserved":0,"last_update":"0001-01-01T00:00:00Z","name_a2s":"Uncletopia | Dallas | 2 | All Maps","protocol":17,"map":"pl_frontier_final","folder":"tf","game":"Team Fortress","app_id":440,"player_count":0,"max_players":24,"Bots":0,"server_type":"Dedicated","server_os":"Linux","password":true,"vac":true,"version":"7757534","steam_id":85568392924469988,"keywords":["nocrits","nodmgspread","payload","uncletopia"],"game_id":440,"stv_port":27026,"stv_name":"Uncletopia | Dallas | 2 | All Maps | STV","players":null},{"server_id":5,"name":"Uncletopia | Frankfurt | 1 | All Maps","name_short":"frk-1","host":"frk-1.de.uncletopia.com","port":27015,"enabled":true,"region":"eu","cc":"de","latitude":50.110924,"longitude":8.682127,"reserved":0,"last_update":"0001-01-01T00:00:00Z","name_a2s":"Uncletopia | Frankfurt | 1 | All Maps","protocol":17,"map":"pl_borneo","folder":"tf","game":"Team Fortress","app_id":440,"player_count":24,"max_players":24,"Bots":0,"server_type":"Dedicated","server_os":"Linux","password":true,"vac":true,"version":"7757534","steam_id":85568392924469989,"keywords":["nocrits","nodmgspread","payload","uncletopia"],"game_id":440,"stv_port":27016,"stv_name":"Uncletopia | Frankfurt | 1 | All Maps | STV","players":[{"user_id":206,"name":"murderwow","steam_id":76561198024566944,"connected_time":2298000000000,"state":"active","ping":86},{"user_id":179,"name":"mushroom","steam_id":76561198817034571,"connected_time":3714000000000,"state":"active","ping":81},{"user_id":143,"name":"Lemon","steam_id":76561198188535947,"connected_time":5970000000000,"state":"active","ping":73},{"user_id":235,"name":"hawkblob","steam_id":76561198803720565,"connected_time":31000000000,"state":"active","ping":65},{"user_id":224,"name":"Ivander","steam_id":76561198065761053,"connected_time":1019000000000,"state":"active","ping":82},{"user_id":219,"name":"ThoHost","steam_id":76561198152036600,"connected_time":1437000000000,"state":"active","ping":160},{"user_id":207,"name":"Soyboy","steam_id":76561198053885716,"connected_time":1972000000000,"state":"active","ping":89},{"user_id":233,"name":"Big John","steam_id":76561199083156893,"connected_time":71000000000,"state":"active","ping":80},{"user_id":213,"name":"soup","steam_id":76561198386933065,"connected_time":1587000000000,"state":"active","ping":59},{"user_id":191,"name":"Vidrox #savetf2","steam_id":76561199217854983,"connected_time":2787000000000,"state":"active","ping":85},{"user_id":131,"name":"DMTjoe","steam_id":76561198199804246,"connected_time":6889000000000,"state":"active","ping":106},{"user_id":229,"name":"Ember (she/her) gaymer","steam_id":76561199403820517,"connected_time":422000000000,"state":"active","ping":66},{"user_id":220,"name":"ToniGAM3S","steam_id":76561198128605351,"connected_time":1435000000000,"state":"active","ping":49},{"user_id":217,"name":"The Daniella","steam_id":76561198023075547,"connected_time":1527000000000,"state":"active","ping":67},{"user_id":227,"name":"Quartzy","steam_id":76561198313301520,"connected_time":533000000000,"state":"active","ping":56},{"user_id":222,"name":"7-Zip","steam_id":76561198099726966,"connected_time":1324000000000,"state":"active","ping":118},{"user_id":228,"name":"Kyon","steam_id":76561198024098353,"connected_time":487000000000,"state":"active","ping":146},{"user_id":218,"name":"Cars","steam_id":76561198173329977,"connected_time":1526000000000,"state":"active","ping":74},{"user_id":204,"name":"Glenn Quagmire","steam_id":76561199348527880,"connected_time":2476000000000,"state":"active","ping":81},{"user_id":223,"name":"Leibeigener","steam_id":76561199275478305,"connected_time":1083000000000,"state":"active","ping":33},{"user_id":234,"name":"justgvbe","steam_id":76561199193230375,"connected_time":69000000000,"state":"active","ping":47},{"user_id":232,"name":"Seail_M","steam_id":76561198002405605,"connected_time":199000000000,"state":"active","ping":48},{"user_id":216,"name":"BELADIT","steam_id":76561198011911501,"connected_time":1565000000000,"state":"active","ping":61},{"user_id":231,"name":"Gabys","steam_id":76561198282892553,"connected_time":266000000000,"state":"active","ping":69}]},{"server_id":110,"name":"Uncletopia | Frankfurt | 2 | All Maps","name_short":"frk-2","host":"frk-1.de.uncletopia.com","port":27025,"enabled":true,"region":"eu","cc":"de","latitude":50.110924,"longitude":8.682127,"reserved":0,"last_update":"0001-01-01T00:00:00Z","name_a2s":"Uncletopia | Frankfurt | 2 | All Maps","protocol":17,"map":"pl_pier","folder":"tf","game":"Team Fortress","app_id":440,"player_count":24,"max_players":24,"Bots":0,"server_type":"Dedicated","server_os":"Linux","password":true,"vac":true,"version":"7757534","steam_id":85568392924469990,"keywords":["nocrits","nodmgspread","payload","uncletopia"],"game_id":440,"stv_port":27026,"stv_name":"Uncletopia | Frankfurt | 2 | All Maps | STV","players":[{"user_id":162,"name":"lore","steam_id":76561198120984188,"connected_time":235000000000,"state":"active","ping":70},{"user_id":165,"name":"Shovelhalfrusty","steam_id":76561198346447513,"connected_time":18000000000,"state":"active","ping":80},{"user_id":80,"name":"spajro","steam_id":76561198257383813,"connected_time":6295000000000,"state":"active","ping":45},{"user_id":163,"name":"SaltyCupcakes","steam_id":76561198256386417,"connected_time":203000000000,"state":"active","ping":54},{"user_id":129,"name":"Chimay","steam_id":76561197999295203,"connected_time":1947000000000,"state":"active","ping":66},{"user_id":151,"name":"Hegyi tah√≥ F2P","steam_id":76561199219150356,"connected_time":881000000000,"state":"active","ping":75},{"user_id":130,"name":"LOBZIK","steam_id":76561198114830120,"connected_time":1936000000000,"state":"active","ping":77},{"user_id":140,"name":"medicinal man","steam_id":76561198202668788,"connected_time":1272000000000,"state":"active","ping":71},{"user_id":125,"name":"def","steam_id":76561198857396812,"connected_time":2252000000000,"state":"active","ping":45},{"user_id":164,"name":"(wm) Das Fleisch","steam_id":76561198001250715,"connected_time":161000000000,"state":"active","ping":54},{"user_id":134,"name":"Igames","steam_id":76561198414062544,"connected_time":1711000000000,"state":"active","ping":68},{"user_id":149,"name":"dotdotdot","steam_id":76561198057628751,"connected_time":1021000000000,"state":"active","ping":67},{"user_id":148,"name":"Dope","steam_id":76561198318858892,"connected_time":1065000000000,"state":"active","ping":68},{"user_id":111,"name":"MAKENTAKEN","steam_id":76561199127359587,"connected_time":4693000000000,"state":"active","ping":100},{"user_id":157,"name":"jesse","steam_id":76561198384440566,"connected_time":479000000000,"state":"active","ping":88},{"user_id":83,"name":"s√§kkij√§rven polkka","steam_id":76561198148115584,"connected_time":6261000000000,"state":"active","ping":81},{"user_id":61,"name":"fmdi","steam_id":76561199433879329,"connected_time":7242000000000,"state":"active","ping":60},{"user_id":154,"name":"bread","steam_id":76561198111097313,"connected_time":687000000000,"state":"active","ping":59},{"user_id":99,"name":"‡∏∏","steam_id":76561198045466919,"connected_time":5372000000000,"state":"active","ping":63},{"user_id":153,"name":"–í–∞–¥–∏–º –ö–∞–∫–∞—à–∫–∏–Ω","steam_id":76561198383509320,"connected_time":757000000000,"state":"active","ping":84},{"user_id":147,"name":"skai","steam_id":76561198184881255,"connected_time":1154000000000,"state":"active","ping":74},{"user_id":118,"name":"on1on (fried)","steam_id":76561197995304137,"connected_time":3544000000000,"state":"active","ping":63},{"user_id":52,"name":"SpookyWideTrap (sniper patrol)","steam_id":76561199195772678,"connected_time":7593000000000,"state":"active","ping":73},{"user_id":161,"name":"Spoterrrp","steam_id":76561198976862451,"connected_time":261000000000,"state":"active","ping":77}]},{"server_id":308,"name":"Uncletopia | Frankfurt | 3 | All Maps","name_short":"frk-3","host":"frk-1.de.uncletopia.com","port":27035,"enabled":true,"region":"eu","cc":"de","latitude":50.110924,"longitude":8.682127,"reserved":0,"last_update":"0001-01-01T00:00:00Z","name_a2s":"Uncletopia | Frankfurt | 3 | All Maps","protocol":17,"map":"cp_snakewater_final1","folder":"tf","game":"Team Fortress","app_id":440,"player_count":0,"max_players":24,"Bots":0,"server_type":"Dedicated","server_os":"Linux","password":true,"vac":true,"version":"7757534","steam_id":85568392924504274,"keywords":["cp","nocrits","nodmgspread","uncletopia"],"game_id":440,"stv_port":27036,"stv_name":"Uncletopia | Frankfurt | 3 | All Maps | STV","players":null},{"server_id":309,"name":"Uncletopia | Frankfurt | 4 | All Maps","name_short":"frk-4","host":"frk-1.de.uncletopia.com","port":27045,"enabled":true,"region":"eu","cc":"de","latitude":50.110924,"longitude":8.682127,"reserved":0,"last_update":"0001-01-01T00:00:00Z","name_a2s":"Uncletopia | Frankfurt | 4 | All Maps","protocol":17,"map":"koth_viaduct","folder":"tf","game":"Team Fortress","app_id":440,"player_count":0,"max_players":24,"Bots":0,"server_type":"Dedicated","server_os":"Linux","password":true,"vac":true,"version":"7757534","steam_id":85568392924504275,"keywords":["cp","nocrits","nodmgspread","uncletopia"],"game_id":440,"stv_port":27046,"stv_name":"Uncletopia | Frankfurt | 4 | All Maps | STV","players":null},{"server_id":310,"name":"Uncletopia | Frankfurt | 5 | All Maps","name_short":"frk-5","host":"frk-1.de.uncletopia.com","port":27055,"enabled":true,"region":"eu","cc":"de","latitude":50.110924,"longitude":8.682127,"reserved":0,"last_update":"0001-01-01T00:00:00Z","name_a2s":"Uncletopia | Frankfurt | 5 | All Maps","protocol":17,"map":"cp_dustbowl","folder":"tf","game":"Team Fortress","app_id":440,"player_count":24,"max_players":24,"Bots":0,"server_type":"Dedicated","server_os":"Linux","password":true,"vac":true,"version":"7757534","steam_id":85568392924504277,"keywords":["cp","nocrits","nodmgspread","uncletopia"],"game_id":440,"stv_port":27056,"stv_name":"Uncletopia | Frankfurt | 5 | All Maps | STV","players":[{"user_id":87,"name":"Qwerty","steam_id":76561198023525894,"connected_time":1654000000000,"state":"active","ping":81},{"user_id":61,"name":"BlackFireHealer","steam_id":76561198035912038,"connected_time":3008000000000,"state":"active","ping":71},{"user_id":26,"name":"Meth","steam_id":76561199300394949,"connected_time":4717000000000,"state":"active","ping":52},{"user_id":78,"name":"high af","steam_id":76561198271955247,"connected_time":2478000000000,"state":"active","ping":73},{"user_id":56,"name":"shawty","steam_id":76561198196805409,"connected_time":3667000000000,"state":"active","ping":77},{"user_id":88,"name":"unikeko","steam_id":76561199149378965,"connected_time":1647000000000,"state":"active","ping":64},{"user_id":47,"name":"kornetov.vitalya","steam_id":76561199286034833,"connected_time":4236000000000,"state":"active","ping":94},{"user_id":94,"name":"Damn fiddle!","steam_id":76561198345873608,"connected_time":1146000000000,"state":"active","ping":63},{"user_id":89,"name":"Concorde","steam_id":76561199141714627,"connected_time":1639000000000,"state":"active","ping":78},{"user_id":22,"name":"YOUR MOM GAMING","steam_id":76561199429562693,"connected_time":5063000000000,"state":"active","ping":79},{"user_id":99,"name":"Rodia","steam_id":76561197968293161,"connected_time":577000000000,"state":"active","ping":60},{"user_id":92,"name":"Chillipapricka","steam_id":76561198886660112,"connected_time":1230000000000,"state":"active","ping":66},{"user_id":93,"name":"a dollop of bird","steam_id":76561198089003514,"connected_time":1229000000000,"state":"active","ping":45},{"user_id":65,"name":"Mr. Shadow | Folfie","steam_id":76561198037028507,"connected_time":2876000000000,"state":"active","ping":59},{"user_id":66,"name":"Own Fart Enjoyer","steam_id":76561199054251054,"connected_time":2816000000000,"state":"active","ping":63},{"user_id":97,"name":"Setade","steam_id":76561198161957305,"connected_time":609000000000,"state":"active","ping":56},{"user_id":73,"name":"Yaire","steam_id":76561198017343510,"connected_time":2534000000000,"state":"active","ping":74},{"user_id":46,"name":"MoeruKurowassan","steam_id":76561198319349647,"connected_time":4304000000000,"state":"active","ping":82},{"user_id":69,"name":"emie","steam_id":76561198122380622,"connected_time":2617000000000,"state":"active","ping":80},{"user_id":95,"name":"disposablesuperbread","steam_id":76561199074703607,"connected_time":1146000000000,"state":"active","ping":69},{"user_id":90,"name":"Mind Fuzz","steam_id":76561199443547191,"connected_time":1632000000000,"state":"active","ping":69},{"user_id":42,"name":"Kaslu","steam_id":76561199058102308,"connected_time":4430000000000,"state":"active","ping":84},{"user_id":86,"name":"=PB=","steam_id":76561197999146612,"connected_time":1668000000000,"state":"active","ping":54},{"user_id":98,"name":"c","steam_id":76561198416527370,"connected_time":587000000000,"state":"active","ping":82}]},{"server_id":311,"name":"Uncletopia | Frankfurt | 6 | All Maps","name_short":"frk-6","host":"frk-1.de.uncletopia.com","port":27065,"enabled":true,"region":"eu","cc":"de","latitude":50.110924,"longitude":8.682127,"reserved":0,"last_update":"0001-01-01T00:00:00Z","name_a2s":"Uncletopia | Frankfurt | 6 | All Maps","protocol":17,"map":"pl_borneo","folder":"tf","game":"Team Fortress","app_id":440,"player_count":24,"max_players":24,"Bots":0,"server_type":"Dedicated","server_os":"Linux","password":true,"vac":true,"version":"7757534","steam_id":85568392924504278,"keywords":["nocrits","nodmgspread","payload","uncletopia"],"game_id":440,"stv_port":27066,"stv_name":"Uncletopia | Frankfurt | 6 | All Maps | STV","players":[{"user_id":77,"name":"I I | #SaveTF2","steam_id":76561199101935057,"connected_time":1373000000000,"state":"active","ping":81},{"user_id":42,"name":"Lil Ari","steam_id":76561198218178180,"connected_time":3222000000000,"state":"active","ping":85},{"user_id":85,"name":"famous spy main alt","steam_id":76561197988085026,"connected_time":966000000000,"state":"active","ping":74},{"user_id":69,"name":"\"Long\"","steam_id":76561198126398022,"connected_time":1783000000000,"state":"active","ping":70},{"user_id":79,"name":"Chrikin","steam_id":76561198416301532,"connected_time":1347000000000,"state":"active","ping":175},{"user_id":48,"name":"Ergas","steam_id":76561198860861032,"connected_time":2893000000000,"state":"active","ping":75},{"user_id":83,"name":"Andy","steam_id":76561198046918834,"connected_time":1146000000000,"state":"active","ping":71},{"user_id":14,"name":"Pies202","steam_id":76561198031772039,"connected_time":4063000000000,"state":"active","ping":80},{"user_id":89,"name":"Dark ^^ || Impersonated","steam_id":76561198036241064,"connected_time":308000000000,"state":"active","ping":56},{"user_id":71,"name":"‚úôViYs‚úô","steam_id":76561199106125142,"connected_time":1605000000000,"state":"active","ping":71},{"user_id":80,"name":"KGiorgios_Bully","steam_id":76561198825392728,"connected_time":1309000000000,"state":"active","ping":105},{"user_id":70,"name":"beer thief","steam_id":76561198126524735,"connected_time":1721000000000,"state":"active","ping":74},{"user_id":90,"name":"Le Nain","steam_id":76561198050638632,"connected_time":273000000000,"state":"active","ping":71},{"user_id":67,"name":"cracker","steam_id":76561198062107879,"connected_time":1890000000000,"state":"active","ping":86},{"user_id":93,"name":"Heavy (Team Fortress 2)","steam_id":76561198060698967,"connected_time":122000000000,"state":"active","ping":63},{"user_id":92,"name":"Egor Pomidor","steam_id":76561199175688390,"connected_time":254000000000,"state":"active","ping":76},{"user_id":88,"name":"REN","steam_id":76561198000596385,"connected_time":425000000000,"state":"active","ping":75},{"user_id":54,"name":"rz-/Atomic Punch","steam_id":76561199195508541,"connected_time":2673000000000,"state":"active","ping":82},{"user_id":82,"name":"sin","steam_id":76561198193416785,"connected_time":1248000000000,"state":"active","ping":63},{"user_id":91,"name":"Rincey-Windey","steam_id":76561198011591682,"connected_time":271000000000,"state":"active","ping":103},{"user_id":61,"name":"LIKE A G6","steam_id":76561198188676728,"connected_time":2198000000000,"state":"active","ping":90},{"user_id":44,"name":"rG gG","steam_id":76561198125010818,"connected_time":3156000000000,"state":"active","ping":81},{"user_id":73,"name":"Eme","steam_id":76561198171619442,"connected_time":1557000000000,"state":"active","ping":87},{"user_id":32,"name":"Enigmus","steam_id":76561197994063627,"connected_time":3569000000000,"state":"active","ping":90}]},{"server_id":23,"name":"Uncletopia | Frankfurt | 7 | Stopwatch Beta","name_short":"frk-7","host":"frk-1.de.uncletopia.com","port":27075,"enabled":true,"region":"eu","cc":"de","latitude":50.110924,"longitude":8.682127,"reserved":0,"last_update":"0001-01-01T00:00:00Z","name_a2s":"Uncletopia | Frankfurt | 7 | Stopwatch Beta","protocol":17,"map":"koth_lakeside_final","folder":"tf","game":"Team Fortress","app_id":440,"player_count":0,"max_players":24,"Bots":0,"server_type":"Dedicated","server_os":"Linux","password":true,"vac":true,"version":"7757534","steam_id":85568392924742827,"keywords":["cp","nocrits","nodmgspread","uncletopia"],"game_id":440,"stv_port":27076,"stv_name":"Uncletopia | Frankfurt | 7 | Stopwatch Beta | STV","players":null},{"server_id":24,"name":"Uncletopia | Frankfurt | 8 | Community","name_short":"frk-8","host":"frk-1.de.uncletopia.com","port":27085,"enabled":true,"region":"eu","cc":"de","latitude":50.110924,"longitude":8.682127,"reserved":0,"last_update":"0001-01-01T00:00:00Z","name_a2s":"Uncletopia | Frankfurt | 8 | Community","protocol":17,"map":"koth_lakeside_final","folder":"tf","game":"Team Fortress","app_id":440,"player_count":0,"max_players":24,"Bots":0,"server_type":"Dedicated","server_os":"Linux","password":true,"vac":true,"version":"7757534","steam_id":85568392924742828,"keywords":["cp","nocrits","nodmgspread","uncletopia"],"game_id":440,"stv_port":27086,"stv_name":"Uncletopia | Frankfurt | 8 | Community | STV","players":null},{"server_id":202,"name":"Uncletopia | Hong Kong | 1 | All Maps","name_short":"hgk-1","host":"hgk-1.hk.uncletopia.com","port":27015,"enabled":true,"region":"asia","cc":"hk","latitude":22.302711,"longitude":114.177216,"reserved":0,"last_update":"0001-01-01T00:00:00Z","name_a2s":"Uncletopia | Hong Kong | 1 | All Maps","protocol":17,"map":"pl_swiftwater_final1","folder":"tf","game":"Team Fortress","app_id":440,"player_count":24,"max_players":24,"Bots":0,"server_type":"Dedicated","server_os":"Linux","password":true,"vac":true,"version":"7757534","steam_id":85568392924494504,"keywords":["nocrits","nodmgspread","payload","uncletopia"],"game_id":440,"stv_port":27016,"stv_name":"Uncletopia | Hong Kong | 1 | All Maps | STV","players":[{"user_id":367,"name":"Mysterious_Network","steam_id":76561199445957166,"connected_time":784000000000,"state":"active","ping":68},{"user_id":374,"name":"I'm going to melt my balls off","steam_id":76561199244428779,"connected_time":284000000000,"state":"active","ping":136},{"user_id":354,"name":"cstr","steam_id":76561199468929890,"connected_time":1700000000000,"state":"active","ping":95},{"user_id":361,"name":"hayonsteam","steam_id":76561199438952901,"connected_time":1008000000000,"state":"active","ping":50},{"user_id":340,"name":"doom","steam_id":76561199231146887,"connected_time":2515000000000,"state":"active","ping":65},{"user_id":375,"name":"Shernox ( Can't Chat )","steam_id":76561199079307895,"connected_time":260000000000,"state":"active","ping":318},{"user_id":300,"name":"Noyour","steam_id":76561198323259830,"connected_time":5640000000000,"state":"active","ping":114},{"user_id":345,"name":"Emergency Food","steam_id":76561198449571610,"connected_time":2239000000000,"state":"active","ping":140},{"user_id":376,"name":"17","steam_id":76561198241530712,"connected_time":258000000000,"state":"active","ping":61},{"user_id":362,"name":"SPIDERBUTT","steam_id":76561198397316876,"connected_time":976000000000,"state":"active","ping":161},{"user_id":372,"name":"fish","steam_id":76561198198273477,"connected_time":534000000000,"state":"active","ping":172},{"user_id":314,"name":"Momoxhien","steam_id":76561198414997429,"connected_time":4785000000000,"state":"active","ping":56},{"user_id":378,"name":"Ivy","steam_id":76561198400698408,"connected_time":163000000000,"state":"active","ping":86},{"user_id":377,"name":"radiation","steam_id":76561198179043310,"connected_time":222000000000,"state":"active","ping":107},{"user_id":271,"name":"tiden2000","steam_id":76561198092969425,"connected_time":8373000000000,"state":"active","ping":104},{"user_id":371,"name":"Jumanji‚Ñ¢","steam_id":76561198431664383,"connected_time":575000000000,"state":"active","ping":61},{"user_id":359,"name":"cellum95","steam_id":76561198172146871,"connected_time":1227000000000,"state":"active","ping":83},{"user_id":369,"name":"Kaesaltic","steam_id":76561198023939545,"connected_time":650000000000,"state":"active","ping":129},{"user_id":370,"name":"Women Beater Simulator 2023","steam_id":76561198333809604,"connected_time":591000000000,"state":"active","ping":77},{"user_id":356,"name":"twitch.tv/vision515","steam_id":76561198065293729,"connected_time":1614000000000,"state":"active","ping":160},{"user_id":328,"name":"Cloud","steam_id":76561198272454184,"connected_time":3828000000000,"state":"active","ping":94},{"user_id":353,"name":"Ë°£ÊóßÁΩ¢‰πÖÈéèÂ≤≥ËÇÜ","steam_id":76561198083234925,"connected_time":1796000000000,"state":"active","ping":87},{"user_id":373,"name":"ChoboUnjeon","steam_id":76561198806095977,"connected_time":451000000000,"state":"active","ping":93},{"user_id":296,"name":"DoesHotter","steam_id":76561198959978678,"connected_time":6806000000000,"state":"active","ping":96}]},{"server_id":1,"name":"Uncletopia | Los Angeles | 1 | All Maps","name_short":"lax-1","host":"lax-1.us.uncletopia.com","port":27015,"enabled":true,"region":"us-west","cc":"us","latitude":33.94279,"longitude":-118.41004,"reserved":0,"last_update":"0001-01-01T00:00:00Z","name_a2s":"Uncletopia | Los Angeles | 1 | All Maps","protocol":17,"map":"plr_hightower","folder":"tf","game":"Team Fortress","app_id":440,"player_count":0,"max_players":24,"Bots":0,"server_type":"Dedicated","server_os":"Linux","password":true,"vac":true,"version":"7757534","steam_id":85568392924469991,"keywords":["nocrits","nodmgspread","payload","uncletopia"],"game_id":440,"stv_port":27016,"stv_name":"Uncletopia | Los Angeles | 1 | All Maps | STV","players":null},{"server_id":112,"name":"Uncletopia | Los Angeles | 2 | All Maps","name_short":"lax-2","host":"lax-1.us.uncletopia.com","port":27025,"enabled":true,"region":"us-west","cc":"us","latitude":33.94279,"longitude":-118.41004,"reserved":0,"last_update":"0001-01-01T00:00:00Z","name_a2s":"Uncletopia | Los Angeles | 2 | All Maps","protocol":17,"map":"pl_borneo","folder":"tf","game":"Team Fortress","app_id":440,"player_count":20,"max_players":24,"Bots":0,"server_type":"Dedicated","server_os":"Linux","password":true,"vac":true,"version":"7757534","steam_id":85568392924469992,"keywords":["nocrits","nodmgspread","payload","uncletopia"],"game_id":440,"stv_port":27026,"stv_name":"Uncletopia | Los Angeles | 2 | All Maps | STV","players":[{"user_id":605,"name":"Blustership","steam_id":76561198847636509,"connected_time":438000000000,"state":"active","ping":111},{"user_id":600,"name":"Mal'Gains","steam_id":76561198294124664,"connected_time":882000000000,"state":"active","ping":101},{"user_id":556,"name":"endo","steam_id":76561197995204381,"connected_time":4183000000000,"state":"active","ping":62},{"user_id":576,"name":"porksoda","steam_id":76561198021451377,"connected_time":2836000000000,"state":"active","ping":78},{"user_id":527,"name":"..flop","steam_id":76561197989058876,"connected_time":6303000000000,"state":"active","ping":67},{"user_id":582,"name":"Mr Beast","steam_id":76561198206922368,"connected_time":2577000000000,"state":"active","ping":61},{"user_id":599,"name":"Solifuga","steam_id":76561198119569902,"connected_time":949000000000,"state":"active","ping":76},{"user_id":555,"name":"Junkmin","steam_id":76561198152251596,"connected_time":4415000000000,"state":"active","ping":41},{"user_id":607,"name":"Chubby Monarch","steam_id":76561198027487285,"connected_time":39000000000,"state":"active","ping":147},{"user_id":561,"name":"jumbi","steam_id":76561198353456379,"connected_time":3914000000000,"state":"active","ping":81},{"user_id":601,"name":"jffmo","steam_id":76561198075943145,"connected_time":848000000000,"state":"active","ping":75},{"user_id":550,"name":"ExplosiveGamer21","steam_id":76561198132370955,"connected_time":4749000000000,"state":"active","ping":71},{"user_id":602,"name":"NamesofNick","steam_id":76561199075058481,"connected_time":794000000000,"state":"active","ping":78},{"user_id":571,"name":"David","steam_id":76561198008157353,"connected_time":3386000000000,"state":"active","ping":77},{"user_id":580,"name":"budman","steam_id":76561199059854407,"connected_time":2662000000000,"state":"active","ping":131},{"user_id":586,"name":"koncept","steam_id":76561198027812652,"connected_time":2537000000000,"state":"active","ping":48},{"user_id":604,"name":"Xylemon","steam_id":76561197965297420,"connected_time":549000000000,"state":"active","ping":80},{"user_id":590,"name":"HOODEDLAWYER285","steam_id":76561198156496197,"connected_time":2386000000000,"state":"active","ping":107},{"user_id":524,"name":"FLASH ASSANOVA","steam_id":76561197996266992,"connected_time":6501000000000,"state":"active","ping":47},{"user_id":596,"name":"DazBones","steam_id":76561198124343349,"connected_time":1492000000000,"state":"active","ping":65}]},{"server_id":324,"name":"Uncletopia | Los Angeles | 3 | All Maps","name_short":"lax-3","host":"lax-1.us.uncletopia.com","port":27035,"enabled":true,"region":"us-west","cc":"us","latitude":33.94279,"longitude":-118.41004,"reserved":0,"last_update":"0001-01-01T00:00:00Z","name_a2s":"Uncletopia | Los Angeles | 3 | All Maps","protocol":17,"map":"koth_cascade","folder":"tf","game":"Team Fortress","app_id":440,"player_count":0,"max_players":24,"Bots":0,"server_type":"Dedicated","server_os":"Linux","password":true,"vac":true,"version":"7757534","steam_id":85568392924510198,"keywords":["cp","nocrits","nodmgspread","uncletopia"],"game_id":440,"stv_port":27036,"stv_name":"Uncletopia | Los Angeles | 3 | All Maps | STV","players":null},{"server_id":25,"name":"Uncletopia | Los Angeles | 4 | Stopwatch Beta","name_short":"lax-4","host":"lax-1.us.uncletopia.com","port":27045,"enabled":true,"region":"us-west","cc":"us","latitude":33.94279,"longitude":-118.41004,"reserved":0,"last_update":"0001-01-01T00:00:00Z","name_a2s":"Uncletopia | Los Angeles | 4 | Stopwatch Beta","protocol":17,"map":"cp_sunshine","folder":"tf","game":"Team Fortress","app_id":440,"player_count":0,"max_players":24,"Bots":0,"server_type":"Dedicated","server_os":"Linux","password":true,"vac":true,"version":"7757534","steam_id":85568392924510199,"keywords":["cp","nocrits","nodmgspread","uncletopia"],"game_id":440,"stv_port":27046,"stv_name":"Uncletopia | Los Angeles | 4 | Stopwatch Beta | STV","players":null},{"server_id":11,"name":"Uncletopia | London | 1 | All Maps","name_short":"lon-1","host":"lon-1.uk.uncletopia.com","port":27015,"enabled":true,"region":"eu","cc":"gb","latitude":51.509865,"longitude":-0.118092,"reserved":0,"last_update":"0001-01-01T00:00:00Z","name_a2s":"Uncletopia | London | 1 | All Maps","protocol":17,"map":"cp_sunshine","folder":"tf","game":"Team Fortress","app_id":440,"player_count":24,"max_players":24,"Bots":0,"server_type":"Dedicated","server_os":"Linux","password":true,"vac":true,"version":"7757534","steam_id":85568392924367362,"keywords":["cp","nocrits","nodmgspread","uncletopia"],"game_id":440,"stv_port":27016,"stv_name":"Uncletopia | London | 1 | All Maps | STV","players":[{"user_id":121,"name":"vexo","steam_id":76561198186680410,"connected_time":219000000000,"state":"active","ping":45},{"user_id":111,"name":"Big Spoon","steam_id":76561199247250436,"connected_time":595000000000,"state":"active","ping":62},{"user_id":95,"name":"JOHN GAMING (depressed)","steam_id":76561199085822219,"connected_time":2001000000000,"state":"active","ping":105},{"user_id":86,"name":"1 toke 4 mars bars","steam_id":76561198056460000,"connected_time":2922000000000,"state":"active","ping":46},{"user_id":131,"name":"Aeglos","steam_id":76561198248698294,"connected_time":86000000000,"state":"active","ping":43},{"user_id":107,"name":"zaleek69","steam_id":76561198058877595,"connected_time":868000000000,"state":"active","ping":91},{"user_id":120,"name":"NLSAM","steam_id":76561199111154916,"connected_time":230000000000,"state":"active","ping":57},{"user_id":94,"name":"Garoiop","steam_id":76561198082326459,"connected_time":2229000000000,"state":"active","ping":32},{"user_id":108,"name":"sinologist","steam_id":76561198080912087,"connected_time":740000000000,"state":"active","ping":62},{"user_id":31,"name":"Roseluck","steam_id":76561198043601838,"connected_time":7051000000000,"state":"active","ping":60},{"user_id":87,"name":"chef","steam_id":76561198148975961,"connected_time":2764000000000,"state":"active","ping":71},{"user_id":26,"name":"y'all","steam_id":76561198106049954,"connected_time":7176000000000,"state":"active","ping":75},{"user_id":113,"name":"Borat","steam_id":76561198122226417,"connected_time":513000000000,"state":"active","ping":46},{"user_id":43,"name":"sape","steam_id":76561198089322416,"connected_time":6743000000000,"state":"active","ping":98},{"user_id":63,"name":"kryhu","steam_id":76561198293327713,"connected_time":5372000000000,"state":"active","ping":87},{"user_id":83,"name":"The Wolf Leader","steam_id":76561198038007462,"connected_time":3319000000000,"state":"active","ping":78},{"user_id":124,"name":"Chambersite","steam_id":76561198197022399,"connected_time":201000000000,"state":"active","ping":67},{"user_id":76,"name":"The","steam_id":76561198359311605,"connected_time":4016000000000,"state":"active","ping":76},{"user_id":126,"name":"SupMan","steam_id":76561199044123799,"connected_time":160000000000,"state":"active","ping":418},{"user_id":129,"name":"Lag","steam_id":76561198159360376,"connected_time":108000000000,"state":"active","ping":52},{"user_id":97,"name":"Wyro","steam_id":76561199176835169,"connected_time":1635000000000,"state":"active","ping":50},{"user_id":96,"name":"vroomvroom","steam_id":76561199117720299,"connected_time":1880000000000,"state":"active","ping":74},{"user_id":133,"name":"curious femboy","steam_id":76561199199388221,"connected_time":58000000000,"state":"active","ping":58},{"user_id":110,"name":"Enda","steam_id":76561198202980164,"connected_time":684000000000,"state":"active","ping":82}]},{"server_id":114,"name":"Uncletopia | London | 2 | All Maps","name_short":"lon-2","host":"lon-1.uk.uncletopia.com","port":27025,"enabled":true,"region":"eu","cc":"gb","latitude":51.509865,"longitude":-0.118092,"reserved":0,"last_update":"0001-01-01T00:00:00Z","name_a2s":"Uncletopia | London | 2 | All Maps","protocol":17,"map":"koth_viaduct","folder":"tf","game":"Team Fortress","app_id":440,"player_count":3,"max_players":24,"Bots":0,"server_type":"Dedicated","server_os":"Linux","password":true,"vac":true,"version":"7757534","steam_id":85568392924470941,"keywords":["cp","nocrits","nodmgspread","uncletopia"],"game_id":440,"stv_port":27026,"stv_name":"Uncletopia | London | 2 | All Maps | STV","players":[{"user_id":5,"name":"Truegr","steam_id":76561198811912339,"connected_time":1107000000000,"state":"active","ping":116},{"user_id":6,"name":"fried","steam_id":76561198307522022,"connected_time":1042000000000,"state":"active","ping":68},{"user_id":10,"name":"Pink Cheese","steam_id":76561198972186436,"connected_time":214000000000,"state":"active","ping":56}]},{"server_id":320,"name":"Uncletopia | London | 3 | All Maps","name_short":"lon-3","host":"lon-1.uk.uncletopia.com","port":27035,"enabled":true,"region":"eu","cc":"gb","latitude":51.509865,"longitude":-0.118092,"reserved":0,"last_update":"0001-01-01T00:00:00Z","name_a2s":"Uncletopia | London | 3 | All Maps","protocol":17,"map":"cp_dustbowl","folder":"tf","game":"Team Fortress","app_id":440,"player_count":0,"max_players":24,"Bots":0,"server_type":"Dedicated","server_os":"Linux","password":true,"vac":true,"version":"7757534","steam_id":85568392924510192,"keywords":["cp","nocrits","nodmgspread","uncletopia"],"game_id":440,"stv_port":27036,"stv_name":"Uncletopia | London | 3 | All Maps | STV","players":null},{"server_id":321,"name":"Uncletopia | London | 4 | All Maps","name_short":"lon-4","host":"lon-1.uk.uncletopia.com","port":27045,"enabled":true,"region":"eu","cc":"gb","latitude":51.509865,"longitude":-0.118092,"reserved":0,"last_update":"0001-01-01T00:00:00Z","name_a2s":"Uncletopia | London | 4 | All Maps","protocol":17,"map":"pl_upward","folder":"tf","game":"Team Fortress","app_id":440,"player_count":19,"max_players":24,"Bots":0,"server_type":"Dedicated","server_os":"Linux","password":true,"vac":true,"version":"7757534","steam_id":85568392924510193,"keywords":["nocrits","nodmgspread","payload","uncletopia"],"game_id":440,"stv_port":27046,"stv_name":"Uncletopia | London | 4 | All Maps | STV","players":[{"user_id":63,"name":"wouris","steam_id":76561198876188003,"connected_time":107000000000,"state":"active","ping":60},{"user_id":47,"name":"FingerMan","steam_id":76561198004040091,"connected_time":495000000000,"state":"active","ping":58},{"user_id":37,"name":"cantsniff","steam_id":76561198259668029,"connected_time":1144000000000,"state":"active","ping":45},{"user_id":49,"name":"DunkleG","steam_id":76561198053816186,"connected_time":461000000000,"state":"active","ping":69},{"user_id":38,"name":"Ledze Shuns Dope","steam_id":76561198049945010,"connected_time":1121000000000,"state":"active","ping":49},{"user_id":43,"name":"Ezekiel","steam_id":76561199024034022,"connected_time":633000000000,"state":"active","ping":80},{"user_id":51,"name":"clems17","steam_id":76561199420685482,"connected_time":407000000000,"state":"active","ping":69},{"user_id":44,"name":"babel","steam_id":76561198118412910,"connected_time":577000000000,"state":"active","ping":71},{"user_id":45,"name":"InsectKing","steam_id":76561199013519071,"connected_time":553000000000,"state":"active","ping":36},{"user_id":56,"name":"Stucent","steam_id":76561198147498713,"connected_time":218000000000,"state":"active","ping":69},{"user_id":52,"name":"Fames","steam_id":76561198050374123,"connected_time":404000000000,"state":"active","ping":68},{"user_id":53,"name":"Nummi","steam_id":76561198980901935,"connected_time":318000000000,"state":"active","ping":71},{"user_id":57,"name":"GMsU | Rebikas","steam_id":76561198077053764,"connected_time":201000000000,"state":"active","ping":58},{"user_id":58,"name":"GMsU | Acoul","steam_id":76561198229222992,"connected_time":200000000000,"state":"active","ping":49},{"user_id":59,"name":"GMsU | DaLuigi","steam_id":76561198054486188,"connected_time":196000000000,"state":"active","ping":48},{"user_id":60,"name":"Random stone","steam_id":76561199385931488,"connected_time":134000000000,"state":"active","ping":96},{"user_id":66,"name":"strideŒî","steam_id":76561199007826093,"connected_time":18000000000,"state":"spawning","ping":78},{"user_id":65,"name":"Constant K","steam_id":76561198037276390,"connected_time":65000000000,"state":"spawning","ping":48},{"user_id":67,"name":"Glitch","steam_id":76561198309789756,"connected_time":14000000000,"state":"active","ping":67}]},{"server_id":21,"name":"Uncletopia | London | 5 | All Maps","name_short":"lon-5","host":"lon-1.uk.uncletopia.com","port":27055,"enabled":true,"region":"eu","cc":"gb","latitude":51.509865,"longitude":-0.118092,"reserved":0,"last_update":"0001-01-01T00:00:00Z","name_a2s":"Uncletopia | London | 5 | All Maps","protocol":17,"map":"cp_altitude","folder":"tf","game":"Team Fortress","app_id":440,"player_count":0,"max_players":24,"Bots":0,"server_type":"Dedicated","server_os":"Linux","password":true,"vac":true,"version":"7757534","steam_id":85568392924742829,"keywords":["cp","nocrits","nodmgspread","uncletopia"],"game_id":440,"stv_port":27056,"stv_name":"Uncletopia | London | 5 | All Maps | STV","players":null},{"server_id":22,"name":"Uncletopia | London | 6 | All Maps","name_short":"lon-6","host":"lon-1.uk.uncletopia.com","port":27065,"enabled":true,"region":"eu","cc":"gb","latitude":51.509865,"longitude":-0.118092,"reserved":0,"last_update":"0001-01-01T00:00:00Z","name_a2s":"Uncletopia | London | 6 | All Maps","protocol":17,"map":"pl_pier","folder":"tf","game":"Team Fortress","app_id":440,"player_count":0,"max_players":24,"Bots":0,"server_type":"Dedicated","server_os":"Linux","password":true,"vac":true,"version":"7757534","steam_id":85568392924742830,"keywords":["nocrits","nodmgspread","payload","uncletopia"],"game_id":440,"stv_port":27066,"stv_name":"Uncletopia | London | 6 | All Maps | STV","players":null},{"server_id":40,"name":"Uncletopia | London | 7 | No Payload","name_short":"lon-7","host":"lon-1.uk.uncletopia.com","port":27075,"enabled":true,"region":"eu","cc":"gb","latitude":51.509865,"longitude":-0.118092,"reserved":0,"last_update":"0001-01-01T00:00:00Z","name_a2s":"Uncletopia | London | 7 | No Payload","protocol":17,"map":"cp_junction_final","folder":"tf","game":"Team Fortress","app_id":440,"player_count":0,"max_players":24,"Bots":0,"server_type":"Dedicated","server_os":"Linux","password":true,"vac":true,"version":"7757534","steam_id":85568392924964314,"keywords":["cp","nocrits","nodmgspread","uncletopia"],"game_id":440,"stv_port":27076,"stv_name":"Uncletopia | London | 7 | No Payload | STV","players":null},{"server_id":41,"name":"Uncletopia | London | 8 | Community","name_short":"lon-8","host":"lon-1.uk.uncletopia.com","port":27085,"enabled":true,"region":"eu","cc":"gb","latitude":51.509865,"longitude":-0.118092,"reserved":0,"last_update":"0001-01-01T00:00:00Z","name_a2s":"Uncletopia | London | 8 | Community","protocol":17,"map":"pl_barnblitz","folder":"tf","game":"Team Fortress","app_id":440,"player_count":0,"max_players":24,"Bots":0,"server_type":"Dedicated","server_os":"Linux","password":true,"vac":true,"version":"7757534","steam_id":85568392924964315,"keywords":["nocrits","nodmgspread","payload","uncletopia"],"game_id":440,"stv_port":27086,"stv_name":"Uncletopia | London | 8 | Community | STV","players":null},{"server_id":300,"name":"Uncletopia | Montr√©al | 1 | All Maps","name_short":"mtl-1","host":"mtl-1.ca.uncletopia.com","port":27015,"enabled":true,"region":"us-east","cc":"ca","latitude":45.50889,"longitude":-73.56167,"reserved":0,"last_update":"0001-01-01T00:00:00Z","name_a2s":"Uncletopia | Montr√©al | 1 | All Maps","protocol":17,"map":"pl_upward","folder":"tf","game":"Team Fortress","app_id":440,"player_count":0,"max_players":24,"Bots":0,"server_type":"Dedicated","server_os":"Linux","password":true,"vac":true,"version":"7757534","steam_id":85568392924500087,"keywords":["nocrits","nodmgspread","payload","uncletopia"],"game_id":440,"stv_port":27016,"stv_name":"Uncletopia | Montr√©al | 1 | All Maps | STV","players":null},{"server_id":301,"name":"Uncletopia | Montr√©al | 2 | All Maps","name_short":"mtl-2","host":"mtl-1.ca.uncletopia.com","port":27025,"enabled":true,"region":"us-east","cc":"ca","latitude":45.50889,"longitude":-73.56167,"reserved":0,"last_update":"0001-01-01T00:00:00Z","name_a2s":"Uncletopia | Montr√©al | 2 | All Maps","protocol":17,"map":"pl_snowycoast","folder":"tf","game":"Team Fortress","app_id":440,"player_count":0,"max_players":24,"Bots":0,"server_type":"Dedicated","server_os":"Linux","password":true,"vac":true,"version":"7757534","steam_id":85568392924500088,"keywords":["nocrits","nodmgspread","payload","uncletopia"],"game_id":440,"stv_port":27026,"stv_name":"Uncletopia | Montr√©al | 2 | All Maps | STV","players":null},{"server_id":302,"name":"Uncletopia | Montr√©al | 3 | All Maps","name_short":"mtl-3","host":"mtl-1.ca.uncletopia.com","port":27035,"enabled":true,"region":"us-east","cc":"ca","latitude":45.50889,"longitude":-73.56167,"reserved":0,"last_update":"0001-01-01T00:00:00Z","name_a2s":"Uncletopia | Montr√©al | 3 | All Maps","protocol":17,"map":"pl_swiftwater_final1","folder":"tf","game":"Team Fortress","app_id":440,"player_count":0,"max_players":24,"Bots":0,"server_type":"Dedicated","server_os":"Linux","password":true,"vac":true,"version":"7757534","steam_id":85568392924500089,"keywords":["nocrits","nodmgspread","payload","uncletopia"],"game_id":440,"stv_port":27036,"stv_name":"Uncletopia | Montr√©al | 3 | All Maps | STV","players":null},{"server_id":303,"name":"Uncletopia | Montr√©al | 4 | No Payload","name_short":"mtl-4","host":"mtl-1.ca.uncletopia.com","port":27045,"enabled":true,"region":"us-east","cc":"ca","latitude":45.50889,"longitude":-73.56167,"reserved":0,"last_update":"0001-01-01T00:00:00Z","name_a2s":"Uncletopia | Montr√©al | 4 | No Payload","protocol":17,"map":"pl_pier","folder":"tf","game":"Team Fortress","app_id":440,"player_count":0,"max_players":24,"Bots":0,"server_type":"Dedicated","server_os":"Linux","password":true,"vac":true,"version":"7757534","steam_id":85568392924500090,"keywords":["nocrits","nodmgspread","payload","uncletopia"],"game_id":440,"stv_port":27046,"stv_name":"Uncletopia | Montr√©al | 4 | No Payload | STV","players":null},{"server_id":13,"name":"Uncletopia | New York City | 1 | All Maps","name_short":"nyc-1","host":"nyc-1.us.uncletopia.com","port":27015,"enabled":true,"region":"us-east","cc":"us","latitude":40.73061,"longitude":-73.93524,"reserved":0,"last_update":"0001-01-01T00:00:00Z","name_a2s":"Uncletopia | New York City | 1 | All Maps","protocol":17,"map":"koth_viaduct","folder":"tf","game":"Team Fortress","app_id":440,"player_count":0,"max_players":24,"Bots":0,"server_type":"Dedicated","server_os":"Linux","password":true,"vac":true,"version":"7757534","steam_id":85568392924469993,"keywords":["cp","nocrits","nodmgspread","uncletopia"],"game_id":440,"stv_port":27016,"stv_name":"Uncletopia | New York City | 1 | All Maps | STV","players":null},{"server_id":14,"name":"Uncletopia | New York City | 2 | All Maps","name_short":"nyc-2","host":"nyc-1.us.uncletopia.com","port":27025,"enabled":true,"region":"us-east","cc":"us","latitude":40.73061,"longitude":-73.93524,"reserved":0,"last_update":"0001-01-01T00:00:00Z","name_a2s":"Uncletopia | New York City | 2 | All Maps","protocol":17,"map":"pl_badwater","folder":"tf","game":"Team Fortress","app_id":440,"player_count":0,"max_players":24,"Bots":0,"server_type":"Dedicated","server_os":"Linux","password":true,"vac":true,"version":"7757534","steam_id":85568392924469994,"keywords":["nocrits","nodmgspread","payload","uncletopia"],"game_id":440,"stv_port":27026,"stv_name":"Uncletopia | New York City | 2 | All Maps | STV","players":null},{"server_id":15,"name":"Uncletopia | New York City | 3 | Stopwatch Beta","name_short":"nyc-3","host":"nyc-1.us.uncletopia.com","port":27035,"enabled":true,"region":"us-east","cc":"us","latitude":40.73061,"longitude":-73.93524,"reserved":0,"last_update":"0001-01-01T00:00:00Z","name_a2s":"Uncletopia | New York City | 3 | Stopwatch Beta","protocol":17,"map":"pl_upward","folder":"tf","game":"Team Fortress","app_id":440,"player_count":0,"max_players":24,"Bots":0,"server_type":"Dedicated","server_os":"Linux","password":true,"vac":true,"version":"7757534","steam_id":85568392924742820,"keywords":["nocrits","nodmgspread","payload","uncletopia"],"game_id":440,"stv_port":27036,"stv_name":"Uncletopia | New York City | 3 | Stopwatch Beta | STV","players":null},{"server_id":16,"name":"Uncletopia | New York City | 4 | Community","name_short":"nyc-4","host":"nyc-1.us.uncletopia.com","port":27045,"enabled":true,"region":"us-east","cc":"us","latitude":40.73061,"longitude":-73.93524,"reserved":0,"last_update":"0001-01-01T00:00:00Z","name_a2s":"Uncletopia | New York City | 4 | Community","protocol":17,"map":"pl_swiftwater_final1","folder":"tf","game":"Team Fortress","app_id":440,"player_count":0,"max_players":24,"Bots":0,"server_type":"Dedicated","server_os":"Linux","password":true,"vac":true,"version":"7757534","steam_id":85568392924742821,"keywords":["nocrits","nodmgspread","payload","uncletopia"],"game_id":440,"stv_port":27046,"stv_name":"Uncletopia | New York City | 4 | Community | STV","players":null},{"server_id":142,"name":"Uncletopia | S√£o Paulo | 1 | All Maps","name_short":"sao-1","host":"sao-1.br.uncletopia.com","port":27015,"enabled":true,"region":"sa","cc":"br","latitude":-23.533773,"longitude":-46.62529,"reserved":0,"last_update":"0001-01-01T00:00:00Z","name_a2s":"Uncletopia | S√£o Paulo | 1 | All Maps","protocol":17,"map":"koth_lakeside_final","folder":"tf","game":"Team Fortress","app_id":440,"player_count":0,"max_players":24,"Bots":0,"server_type":"Dedicated","server_os":"Linux","password":true,"vac":true,"version":"7757534","steam_id":85568392924469996,"keywords":["cp","nocrits","nodmgspread","uncletopia"],"game_id":440,"stv_port":27016,"stv_name":"Uncletopia | S√£o Paulo | 1 | All Maps | STV","players":null},{"server_id":143,"name":"Uncletopia | S√£o Paulo | 2 | All Maps","name_short":"sao-2","host":"sao-2.br.uncletopia.com","port":27015,"enabled":true,"region":"sa","cc":"br","latitude":-23.533773,"longitude":-46.62529,"reserved":0,"last_update":"0001-01-01T00:00:00Z","name_a2s":"Uncletopia | S√£o Paulo | 2 | All Maps","protocol":17,"map":"pl_borneo","folder":"tf","game":"Team Fortress","app_id":440,"player_count":0,"max_players":24,"Bots":0,"server_type":"Dedicated","server_os":"Linux","password":true,"vac":true,"version":"7757534","steam_id":85568392924485349,"keywords":["nocrits","nodmgspread","payload","uncletopia"],"game_id":440,"stv_port":27016,"stv_name":"Uncletopia | S√£o Paulo | 2 | All Maps | STV","players":null},{"server_id":7,"name":"Uncletopia | Seattle | 1 | All Maps","name_short":"sea-1","host":"sea-1.us.uncletopia.com","port":27015,"enabled":true,"region":"us-west","cc":"us","latitude":47.608013,"longitude":-122.33517,"reserved":0,"last_update":"0001-01-01T00:00:00Z","name_a2s":"Uncletopia | Seattle | 1 | All Maps","protocol":17,"map":"plr_bananabay","folder":"tf","game":"Team Fortress","app_id":440,"player_count":23,"max_players":24,"Bots":0,"server_type":"Dedicated","server_os":"Linux","password":true,"vac":true,"version":"7757534","steam_id":85568392924469997,"keywords":["nocrits","nodmgspread","payload","uncletopia"],"game_id":440,"stv_port":27016,"stv_name":"Uncletopia | Seattle | 1 | All Maps | STV","players":[{"user_id":890,"name":"frogmiller","steam_id":76561198396124640,"connected_time":559000000000,"state":"active","ping":100},{"user_id":897,"name":"‚ñ°ZŒ£UXŒ£RO‚ñ°","steam_id":76561198109724653,"connected_time":79000000000,"state":"active","ping":209},{"user_id":888,"name":"dume","steam_id":76561199317173561,"connected_time":864000000000,"state":"active","ping":58},{"user_id":896,"name":"„Äê‚Ñ≠‚Ñ¥‚Ñ∞„ÄëAn_Apple","steam_id":76561198054324087,"connected_time":281000000000,"state":"active","ping":127},{"user_id":865,"name":"Yes.","steam_id":76561199012696743,"connected_time":2969000000000,"state":"active","ping":70},{"user_id":864,"name":"Akustin","steam_id":76561198110015463,"connected_time":2982000000000,"state":"active","ping":80},{"user_id":879,"name":"Imitation Caucasian","steam_id":76561198320536166,"connected_time":1704000000000,"state":"active","ping":93},{"user_id":821,"name":"BeansMan","steam_id":76561198349672838,"connected_time":7477000000000,"state":"active","ping":124},{"user_id":859,"name":"xX_BUTTERMILK_Xx","steam_id":76561198127660439,"connected_time":3547000000000,"state":"active","ping":85},{"user_id":840,"name":"blizz","steam_id":76561199139715539,"connected_time":5079000000000,"state":"active","ping":67},{"user_id":788,"name":"Rain","steam_id":76561198065612273,"connected_time":10647000000000,"state":"active","ping":45},{"user_id":898,"name":"peebpoob","steam_id":76561198877442432,"connected_time":0,"state":"connecting","ping":0},{"user_id":885,"name":"money laundering mike","steam_id":76561198798667624,"connected_time":924000000000,"state":"active","ping":36},{"user_id":856,"name":"Hammy","steam_id":76561198113502549,"connected_time":3629000000000,"state":"active","ping":70},{"user_id":886,"name":"touka","steam_id":76561198171521806,"connected_time":921000000000,"state":"active","ping":62},{"user_id":847,"name":"El Duderino","steam_id":76561199427900685,"connected_time":4508000000000,"state":"active","ping":93},{"user_id":882,"name":"Papa Bones","steam_id":76561198212604293,"connected_time":1598000000000,"state":"active","ping":109},{"user_id":893,"name":"faequip","steam_id":76561199072635996,"connected_time":416000000000,"state":"active","ping":100},{"user_id":894,"name":"NOT FRIENDLY","steam_id":76561198041327231,"connected_time":342000000000,"state":"active","ping":54},{"user_id":883,"name":"psy¬∑cho¬∑so¬∑cial","steam_id":76561197962696818,"connected_time":1581000000000,"state":"active","ping":120},{"user_id":768,"name":"AzuriousAlex","steam_id":76561198158026405,"connected_time":12655000000000,"state":"active","ping":79},{"user_id":891,"name":"xerro","steam_id":76561198323340524,"connected_time":517000000000,"state":"active","ping":117},{"user_id":861,"name":"They/Them Rattussy","steam_id":76561198238186628,"connected_time":3503000000000,"state":"active","ping":71}]},{"server_id":119,"name":"Uncletopia | Seattle | 2 | All Maps","name_short":"sea-2","host":"sea-1.us.uncletopia.com","port":27025,"enabled":true,"region":"us-west","cc":"us","latitude":47.608013,"longitude":-122.33517,"reserved":0,"last_update":"0001-01-01T00:00:00Z","name_a2s":"Uncletopia | Seattle | 2 | All Maps","protocol":17,"map":"pl_borneo","folder":"tf","game":"Team Fortress","app_id":440,"player_count":0,"max_players":24,"Bots":0,"server_type":"Dedicated","server_os":"Linux","password":true,"vac":true,"version":"7757534","steam_id":85568392924469998,"keywords":["nocrits","nodmgspread","payload","uncletopia"],"game_id":440,"stv_port":27026,"stv_name":"Uncletopia | Seattle | 2 | All Maps | STV","players":null},{"server_id":406,"name":"Uncletopia | Seattle | 3 | Stopwatch Beta","name_short":"sea-3","host":"sea-1.us.uncletopia.com","port":27035,"enabled":true,"region":"us-west","cc":"us","latitude":47.608013,"longitude":-122.33517,"reserved":0,"last_update":"0001-01-01T00:00:00Z","name_a2s":"Uncletopia | Seattle | 3 | Stopwatch Beta","protocol":17,"map":"workshop/pl_vigil_rc9.ugc1266210012","folder":"tf","game":"Team Fortress","app_id":440,"player_count":0,"max_players":24,"Bots":0,"server_type":"Dedicated","server_os":"Linux","password":true,"vac":true,"version":"7757534","steam_id":85568392924515217,"keywords":["nocrits","nodmgspread","payload","uncletopia"],"game_id":440,"stv_port":27036,"stv_name":"Uncletopia | Seattle | 3 | Stopwatch Beta | STV","players":null},{"server_id":17,"name":"Uncletopia | San Francisco | 1 | All Maps","name_short":"sfo-1","host":"sfo-1.us.uncletopia.com","port":27015,"enabled":true,"region":"us-west","cc":"us","latitude":37.77397,"longitude":-122.4313,"reserved":0,"last_update":"0001-01-01T00:00:00Z","name_a2s":"Uncletopia | San Francisco | 1 | All Maps","protocol":17,"map":"pl_upward","folder":"tf","game":"Team Fortress","app_id":440,"player_count":19,"max_players":24,"Bots":0,"server_type":"Dedicated","server_os":"Linux","password":true,"vac":true,"version":"7757534","steam_id":85568392924469999,"keywords":["nocrits","nodmgspread","payload","uncletopia"],"game_id":440,"stv_port":27016,"stv_name":"Uncletopia | San Francisco | 1 | All Maps | STV","players":[{"user_id":908,"name":"Fecal Lord","steam_id":76561198836563281,"connected_time":1044000000000,"state":"active","ping":65},{"user_id":902,"name":"PN","steam_id":76561198889660451,"connected_time":1431000000000,"state":"active","ping":71},{"user_id":918,"name":"Sacrificial Wormy","steam_id":76561198054539200,"connected_time":79000000000,"state":"active","ping":60},{"user_id":904,"name":"ScoundrelRed","steam_id":76561198059739733,"connected_time":1172000000000,"state":"active","ping":63},{"user_id":909,"name":"happy camper","steam_id":76561198209813328,"connected_time":802000000000,"state":"active","ping":76},{"user_id":907,"name":"maiden hell","steam_id":76561198968958854,"connected_time":1094000000000,"state":"active","ping":62},{"user_id":911,"name":"Beautiful bastard","steam_id":76561198858700490,"connected_time":705000000000,"state":"active","ping":102},{"user_id":912,"name":"Adam Sandler","steam_id":76561199247095754,"connected_time":643000000000,"state":"active","ping":78},{"user_id":914,"name":"International Mann of Mystery","steam_id":76561198149369302,"connected_time":445000000000,"state":"active","ping":114},{"user_id":850,"name":"Mak","steam_id":76561198089197922,"connected_time":6270000000000,"state":"active","ping":69},{"user_id":880,"name":"not jeff bezos","steam_id":76561198018177887,"connected_time":4522000000000,"state":"active","ping":44},{"user_id":915,"name":"gamer_devourer","steam_id":76561198973306314,"connected_time":395000000000,"state":"active","ping":52},{"user_id":899,"name":"SuperSandwichGoku","steam_id":76561198438882159,"connected_time":2132000000000,"state":"active","ping":103},{"user_id":874,"name":"Tele Guardian","steam_id":76561198071790583,"connected_time":4807000000000,"state":"active","ping":96},{"user_id":876,"name":"Spruce","steam_id":76561198081684676,"connected_time":4705000000000,"state":"active","ping":76},{"user_id":858,"name":"selvhat","steam_id":76561198114225509,"connected_time":6128000000000,"state":"active","ping":51},{"user_id":916,"name":"The Saint of Salt","steam_id":76561198061192676,"connected_time":383000000000,"state":"active","ping":85},{"user_id":917,"name":"Aircraft Carrier Princess","steam_id":76561198348354629,"connected_time":296000000000,"state":"active","ping":48},{"user_id":886,"name":"Frakelord","steam_id":76561197970316904,"connected_time":4139000000000,"state":"active","ping":65}]},{"server_id":18,"name":"Uncletopia | San Francisco | 2 | All Maps","name_short":"sfo-2","host":"sfo-1.us.uncletopia.com","port":27025,"enabled":true,"region":"us-west","cc":"us","latitude":37.77397,"longitude":-122.4313,"reserved":0,"last_update":"0001-01-01T00:00:00Z","name_a2s":"Uncletopia | San Francisco | 2 | All Maps","protocol":17,"map":"pl_snowycoast","folder":"tf","game":"Team Fortress","app_id":440,"player_count":0,"max_players":24,"Bots":0,"server_type":"Dedicated","server_os":"Linux","password":true,"vac":true,"version":"7757534","steam_id":85568392924470000,"keywords":["nocrits","nodmgspread","payload","uncletopia"],"game_id":440,"stv_port":27026,"stv_name":"Uncletopia | San Francisco | 2 | All Maps | STV","players":null},{"server_id":19,"name":"Uncletopia | San Francisco | 3 | Stopwatch Beta","name_short":"sfo-3","host":"sfo-1.us.uncletopia.com","port":27035,"enabled":true,"region":"us-west","cc":"us","latitude":37.77397,"longitude":-122.4313,"reserved":0,"last_update":"0001-01-01T00:00:00Z","name_a2s":"Uncletopia | San Francisco | 3 | Stopwatch Beta","protocol":17,"map":"workshop/pl_summercoast_rc8e.ugc1761528829","folder":"tf","game":"Team Fortress","app_id":440,"player_count":0,"max_players":24,"Bots":0,"server_type":"Dedicated","server_os":"Linux","password":true,"vac":true,"version":"7757534","steam_id":85568392924742824,"keywords":["nocrits","nodmgspread","payload","uncletopia"],"game_id":440,"stv_port":27036,"stv_name":"Uncletopia | San Francisco | 3 | Stopwatch Beta | STV","players":null},{"server_id":20,"name":"Uncletopia | San Francisco | 4 | Community","name_short":"sfo-4","host":"sfo-1.us.uncletopia.com","port":27045,"enabled":true,"region":"us-west","cc":"us","latitude":37.77397,"longitude":-122.4313,"reserved":0,"last_update":"0001-01-01T00:00:00Z","name_a2s":"Uncletopia | San Francisco | 4 | Community","protocol":17,"map":"workshop/cp_villa_b19.ugc2113052569","folder":"tf","game":"Team Fortress","app_id":440,"player_count":0,"max_players":24,"Bots":0,"server_type":"Dedicated","server_os":"Linux","password":true,"vac":true,"version":"7757534","steam_id":85568392924742826,"keywords":["cp","nocrits","nodmgspread","uncletopia"],"game_id":440,"stv_port":27046,"stv_name":"Uncletopia | San Francisco | 4 | Community | STV","players":null},{"server_id":141,"name":"Uncletopia | Sydney | 1 | All Maps","name_short":"syd-1","host":"syd-1.au.uncletopia.com","port":27015,"enabled":true,"region":"au","cc":"au","latitude":-33.865143,"longitude":151.2099,"reserved":0,"last_update":"0001-01-01T00:00:00Z","name_a2s":"Uncletopia | Sydney | 1 | All Maps","protocol":17,"map":"pl_badwater","folder":"tf","game":"Team Fortress","app_id":440,"player_count":5,"max_players":24,"Bots":0,"server_type":"Dedicated","server_os":"Linux","password":true,"vac":true,"version":"7757534","steam_id":85568392924470001,"keywords":["nocrits","nodmgspread","payload","uncletopia"],"game_id":440,"stv_port":27016,"stv_name":"Uncletopia | Sydney | 1 | All Maps | STV","players":[{"user_id":579,"name":"Rat Pope","steam_id":76561199059450243,"connected_time":1306000000000,"state":"active","ping":53},{"user_id":592,"name":"JayCatnip","steam_id":76561198125106357,"connected_time":486000000000,"state":"active","ping":85},{"user_id":595,"name":"flyingbuddy","steam_id":76561198120593551,"connected_time":73000000000,"state":"active","ping":60},{"user_id":583,"name":"Mr. Cola","steam_id":76561198847826564,"connected_time":1229000000000,"state":"active","ping":150},{"user_id":584,"name":"bangerlop","steam_id":76561199349993627,"connected_time":1219000000000,"state":"active","ping":131}]},{"server_id":123,"name":"Uncletopia | Sydney | 2 | All Maps","name_short":"syd-2","host":"syd-1.au.uncletopia.com","port":27025,"enabled":true,"region":"au","cc":"au","latitude":-33.865143,"longitude":151.2099,"reserved":0,"last_update":"0001-01-01T00:00:00Z","name_a2s":"Uncletopia | Sydney | 2 | All Maps","protocol":17,"map":"pl_barnblitz","folder":"tf","game":"Team Fortress","app_id":440,"player_count":24,"max_players":24,"Bots":0,"server_type":"Dedicated","server_os":"Linux","password":true,"vac":true,"version":"7757534","steam_id":85568392924470002,"keywords":["nocrits","nodmgspread","payload","uncletopia"],"game_id":440,"stv_port":27026,"stv_name":"Uncletopia | Sydney | 2 | All Maps | STV","players":[{"user_id":350,"name":"echidna","steam_id":76561198044514230,"connected_time":493000000000,"state":"active","ping":68},{"user_id":346,"name":"Xenix","steam_id":76561198795888766,"connected_time":682000000000,"state":"active","ping":60},{"user_id":325,"name":"bitch furry","steam_id":76561199057568663,"connected_time":1906000000000,"state":"active","ping":60},{"user_id":288,"name":"Good Australian Doctor","steam_id":76561198175470231,"connected_time":3849000000000,"state":"active","ping":103},{"user_id":340,"name":"Bill Nye","steam_id":76561198312898168,"connected_time":1276000000000,"state":"active","ping":79},{"user_id":268,"name":"Corrupt","steam_id":76561198008567328,"connected_time":5376000000000,"state":"active","ping":64},{"user_id":301,"name":"Kouler","steam_id":76561197960804719,"connected_time":3122000000000,"state":"active","ping":67},{"user_id":311,"name":"FreeBeers","steam_id":76561198095448607,"connected_time":2852000000000,"state":"active","ping":67},{"user_id":316,"name":"Captain Canadia","steam_id":76561198167967735,"connected_time":2264000000000,"state":"active","ping":50},{"user_id":330,"name":"SoundlessPlum","steam_id":76561198077872547,"connected_time":1618000000000,"state":"active","ping":50},{"user_id":347,"name":"Scrumpeh","steam_id":76561198058085957,"connected_time":607000000000,"state":"active","ping":59},{"user_id":348,"name":"Chowdermonkey","steam_id":76561198990121068,"connected_time":568000000000,"state":"active","ping":87},{"user_id":351,"name":"Diming","steam_id":76561198325584599,"connected_time":363000000000,"state":"active","ping":71},{"user_id":324,"name":"danny","steam_id":76561198086505336,"connected_time":2057000000000,"state":"active","ping":120},{"user_id":318,"name":"Sancho","steam_id":76561197995288524,"connected_time":2163000000000,"state":"active","ping":70},{"user_id":326,"name":"Top Ramen","steam_id":76561198028969833,"connected_time":1856000000000,"state":"active","ping":54},{"user_id":320,"name":"Ethos","steam_id":76561197970514852,"connected_time":2130000000000,"state":"active","ping":59},{"user_id":339,"name":"Ironsoul27","steam_id":76561198077118333,"connected_time":1312000000000,"state":"active","ping":78},{"user_id":331,"name":"IZ*","steam_id":76561198834621927,"connected_time":1616000000000,"state":"active","ping":148},{"user_id":336,"name":"homes inc","steam_id":76561198170188198,"connected_time":1479000000000,"state":"active","ping":55},{"user_id":341,"name":"mushroom","steam_id":76561197992336470,"connected_time":1159000000000,"state":"active","ping":90},{"user_id":334,"name":"Morterkai","steam_id":76561198048247068,"connected_time":1533000000000,"state":"active","ping":54},{"user_id":269,"name":"Apteryx","steam_id":76561197976460834,"connected_time":5351000000000,"state":"active","ping":63},{"user_id":349,"name":"Mbappe Oppa","steam_id":76561198344513761,"connected_time":521000000000,"state":"active","ping":43}]},{"server_id":395,"name":"Uncletopia | Sydney | 3 | All Maps","name_short":"syd-3","host":"syd-1.au.uncletopia.com","port":27035,"enabled":true,"region":"au","cc":"au","latitude":-33.865143,"longitude":151.2099,"reserved":0,"last_update":"0001-01-01T00:00:00Z","name_a2s":"Uncletopia | Sydney | 3 | All Maps","protocol":17,"map":"pl_frontier_final","folder":"tf","game":"Team Fortress","app_id":440,"player_count":0,"max_players":24,"Bots":0,"server_type":"Dedicated","server_os":"Linux","password":true,"vac":true,"version":"7757534","steam_id":85568392925194467,"keywords":["nocrits","nodmgspread","payload","uncletopia"],"game_id":440,"stv_port":27036,"stv_name":"Uncletopia | Sydney | 3 | All Maps | STV","players":null},{"server_id":396,"name":"Uncletopia | Sydney | 4 | All Maps","name_short":"syd-4","host":"syd-1.au.uncletopia.com","port":27045,"enabled":true,"region":"au","cc":"au","latitude":-33.865143,"longitude":151.2099,"reserved":0,"last_update":"0001-01-01T00:00:00Z","name_a2s":"Uncletopia | Sydney | 4 | All Maps","protocol":17,"map":"koth_cascade","folder":"tf","game":"Team Fortress","app_id":440,"player_count":0,"max_players":24,"Bots":0,"server_type":"Dedicated","server_os":"Linux","password":true,"vac":true,"version":"7757534","steam_id":85568392925397958,"keywords":["cp","nocrits","nodmgspread","uncletopia"],"game_id":440,"stv_port":27046,"stv_name":"Uncletopia | Sydney | 4 | All Maps | STV","players":null},{"server_id":58,"name":"Uncletopia | Sydney | 5 | Stopwatch Beta","name_short":"syd-5","host":"syd-1.au.uncletopia.com","port":27055,"enabled":true,"region":"au","cc":"au","latitude":-33.865143,"longitude":151.2099,"reserved":0,"last_update":"0001-01-01T00:00:00Z","name_a2s":"Uncletopia | Sydney | 5 | Stopwatch Beta","protocol":17,"map":"cp_process_final","folder":"tf","game":"Team Fortress","app_id":440,"player_count":0,"max_players":24,"Bots":0,"server_type":"Dedicated","server_os":"Linux","password":true,"vac":true,"version":"7757534","steam_id":85568392925397959,"keywords":["cp","nocrits","nodmgspread","uncletopia"],"game_id":440,"stv_port":27056,"stv_name":"Uncletopia | Sydney | 5 | Stopwatch Beta | STV","players":null},{"server_id":59,"name":"Uncletopia | Sydney | 6 | Community","name_short":"syd-6","host":"syd-1.au.uncletopia.com","port":27065,"enabled":true,"region":"au","cc":"au","latitude":-33.865143,"longitude":151.2099,"reserved":0,"last_update":"0001-01-01T00:00:00Z","name_a2s":"Uncletopia | Sydney | 6 | Community","protocol":17,"map":"workshop/cp_fulgur_rc2a.ugc2068252300","folder":"tf","game":"Team Fortress","app_id":440,"player_count":0,"max_players":24,"Bots":0,"server_type":"Dedicated","server_os":"Linux","password":true,"vac":true,"version":"7757534","steam_id":85568392925397960,"keywords":["cp","nocrits","nodmgspread","uncletopia"],"game_id":440,"stv_port":27066,"stv_name":"Uncletopia | Sydney | 6 | Community | STV","players":null},{"server_id":49,"name":"Uncletopia | Warsaw | 1 | All Maps","name_short":"waw-1","host":"waw-1.pl.uncletopia.com","port":27015,"enabled":true,"region":"eu","cc":"pl","latitude":52.2297,"longitude":21.017532,"reserved":0,"last_update":"0001-01-01T00:00:00Z","name_a2s":"","protocol":0,"map":"","folder":"","game":"","app_id":0,"player_count":0,"max_players":0,"Bots":0,"server_type":"","server_os":"","password":false,"vac":false,"version":"","steam_id":0,"keywords":null,"game_id":0,"stv_port":0,"stv_name":"","players":null},{"server_id":50,"name":"Uncletopia | Warsaw | 2 | All Maps","name_short":"waw-2","host":"waw-1.pl.uncletopia.com","port":27025,"enabled":true,"region":"eu","cc":"pl","latitude":52.2297,"longitude":21.017532,"reserved":0,"last_update":"0001-01-01T00:00:00Z","name_a2s":"Uncletopia | Warsaw | 2 | All Maps","protocol":17,"map":"koth_viaduct","folder":"tf","game":"Team Fortress","app_id":440,"player_count":0,"max_players":24,"Bots":0,"server_type":"Dedicated","server_os":"Linux","password":true,"vac":true,"version":"7757534","steam_id":85568392925397851,"keywords":["cp","nocrits","nodmgspread","uncletopia"],"game_id":440,"stv_port":27026,"stv_name":"Uncletopia | Warsaw | 2 | All Maps | STV","players":null},{"server_id":51,"name":"Uncletopia | Warsaw | 3 | All Maps","name_short":"waw-3","host":"waw-1.pl.uncletopia.com","port":27035,"enabled":true,"region":"eu","cc":"pl","latitude":52.2297,"longitude":21.017532,"reserved":0,"last_update":"0001-01-01T00:00:00Z","name_a2s":"Uncletopia | Warsaw | 3 | All Maps","protocol":17,"map":"cp_dustbowl","folder":"tf","game":"Team Fortress","app_id":440,"player_count":0,"max_players":24,"Bots":0,"server_type":"Dedicated","server_os":"Linux","password":true,"vac":true,"version":"7757534","steam_id":85568392925397852,"keywords":["cp","nocrits","nodmgspread","uncletopia"],"game_id":440,"stv_port":27036,"stv_name":"Uncletopia | Warsaw | 3 | All Maps | STV","players":null},{"server_id":52,"name":"Uncletopia | Warsaw | 4 | All Maps","name_short":"waw-4","host":"waw-1.pl.uncletopia.com","port":27045,"enabled":true,"region":"eu","cc":"pl","latitude":52.2297,"longitude":21.017532,"reserved":0,"last_update":"0001-01-01T00:00:00Z","name_a2s":"Uncletopia | Warsaw | 4 | All Maps","protocol":17,"map":"koth_lakeside_final","folder":"tf","game":"Team Fortress","app_id":440,"player_count":0,"max_players":24,"Bots":0,"server_type":"Dedicated","server_os":"Linux","password":true,"vac":true,"version":"7757534","steam_id":85568392925397853,"keywords":["cp","nocrits","nodmgspread","uncletopia"],"game_id":440,"stv_port":27046,"stv_name":"Uncletopia | Warsaw | 4 | All Maps | STV","players":null},{"server_id":53,"name":"Uncletopia | Warsaw | 5 | Stopwatch Beta","name_short":"waw-5","host":"waw-1.pl.uncletopia.com","port":27055,"enabled":true,"region":"eu","cc":"pl","latitude":52.2297,"longitude":21.017532,"reserved":0,"last_update":"0001-01-01T00:00:00Z","name_a2s":"Uncletopia | Warsaw | 5 | Stopwatch Beta","protocol":17,"map":"pl_borneo","folder":"tf","game":"Team Fortress","app_id":440,"player_count":0,"max_players":24,"Bots":0,"server_type":"Dedicated","server_os":"Linux","password":true,"vac":true,"version":"7757534","steam_id":85568392925397854,"keywords":["nocrits","nodmgspread","payload","uncletopia"],"game_id":440,"stv_port":27056,"stv_name":"Uncletopia | Warsaw | 5 | Stopwatch Beta | STV","players":null},{"server_id":54,"name":"Uncletopia | Warsaw | 6 | Community","name_short":"waw-6","host":"waw-1.pl.uncletopia.com","port":27065,"enabled":true,"region":"eu","cc":"pl","latitude":52.2297,"longitude":21.017532,"reserved":0,"last_update":"0001-01-01T00:00:00Z","name_a2s":"Uncletopia | Warsaw | 6 | Community","protocol":17,"map":"koth_lakeside_final","folder":"tf","game":"Team Fortress","app_id":440,"player_count":0,"max_players":24,"Bots":0,"server_type":"Dedicated","server_os":"Linux","password":true,"vac":true,"version":"7757534","steam_id":85568392925397856,"keywords":["cp","nocrits","nodmgspread","uncletopia"],"game_id":440,"stv_port":27066,"stv_name":"Uncletopia | Warsaw | 6 | Community | STV","players":null}]}