{"status":true,"message":"","result":[{"server_id":9,"name":"Uncletopia | Atlanta | 1 | All Maps","name_short":"atl-1","host":"atl-1.us.uncletopia.com","port":27015,"enabled":true,"region":"us-east","cc":"us","latitude":33.753746,"longitude":-84.38633,"reserved":0,"last_update":"0001-01-01T00:00:00Z","name_a2s":"Uncletopia | Atlanta | 1 | All Maps","protocol":17,"map":"pl_snowycoast","folder":"tf","game":"Team Fortress","app_id":440,"player_count":24,"max_players":24,"Bots":0,"server_type":"Dedicated","server_os":"Linux","password":true,"vac":true,"version":"7757534","steam_id":85568392924469982,"keywords":["nocrits","nodmgspread","payload","uncletopia"],"game_id":440,"stv_port":27016,"stv_name":"Uncletopia | Atlanta | 1 | All Maps | STV","players":[{"user_id":1320,"name":"iwakvra","steam_id":76561198128164970,"connected_time":2488000000000,"state":"active","ping":111},{"user_id":1317,"name":"façade","steam_id":76561199157009256,"connected_time":2633000000000,"state":"active","ping":93},{"user_id":1321,"name":"Platino","steam_id":76561198410957728,"connected_time":2485000000000,"state":"active","ping":68},{"user_id":1358,"name":"Hidden Tech","steam_id":76561198028798115,"connected_time":175000000000,"state":"active","ping":105},{"user_id":1314,"name":"Lucy","steam_id":76561198032590343,"connected_time":3392000000000,"state":"active","ping":79},{"user_id":1354,"name":"Witti","steam_id":76561198015737831,"connected_time":592000000000,"state":"active","ping":64},{"user_id":1340,"name":"Marv_L","steam_id":76561198035709541,"connected_time":1137000000000,"state":"active","ping":112},{"user_id":1328,"name":"Crazy","steam_id":76561198027519329,"connected_time":2005000000000,"state":"active","ping":75},{"user_id":1341,"name":"Zho Biden","steam_id":76561198079224101,"connected_time":1127000000000,"state":"active","ping":39},{"user_id":1342,"name":"4 life","steam_id":76561198175961598,"connected_time":1098000000000,"state":"active","ping":110},{"user_id":1355,"name":"rose","steam_id":76561198048882285,"connected_time":233000000000,"state":"active","ping":65},{"user_id":1246,"name":"Ashes!","steam_id":76561197998475441,"connected_time":6664000000000,"state":"active","ping":78},{"user_id":1357,"name":"Humble Leader","steam_id":76561198169966346,"connected_time":200000000000,"state":"active","ping":81},{"user_id":1332,"name":"toxin","steam_id":76561199083297362,"connected_time":1911000000000,"state":"active","ping":78},{"user_id":1293,"name":"floofy","steam_id":76561198389769098,"connected_time":4336000000000,"state":"active","ping":84},{"user_id":1326,"name":"Sleep Drifter","steam_id":76561198282344959,"connected_time":2085000000000,"state":"active","ping":84},{"user_id":1350,"name":"Flembrane","steam_id":76561197995328898,"connected_time":701000000000,"state":"active","ping":92},{"user_id":1335,"name":"MOAR GUN","steam_id":76561198197605493,"connected_time":1857000000000,"state":"active","ping":74},{"user_id":1336,"name":"General Grievous' Gutsack","steam_id":76561198880048511,"connected_time":1834000000000,"state":"active","ping":86},{"user_id":1359,"name":"Malkinson","steam_id":76561199101631369,"connected_time":46000000000,"state":"active","ping":99},{"user_id":1305,"name":"gamers aren't real","steam_id":76561198113748347,"connected_time":3837000000000,"state":"active","ping":95},{"user_id":1356,"name":"FemboyNate","steam_id":76561198146636410,"connected_time":221000000000,"state":"active","ping":60},{"user_id":1338,"name":"trashed","steam_id":76561199223514262,"connected_time":1643000000000,"state":"active","ping":75},{"user_id":1347,"name":"D3TRΩR3AP3R","steam_id":76561198189423917,"connected_time":996000000000,"state":"active","ping":100}]},{"server_id":400,"name":"Uncletopia | Atlanta | 3 | Community","name_short":"atl-3","host":"atl-1.us.uncletopia.com","port":27035,"enabled":true,"region":"us-east","cc":"us","latitude":33.753746,"longitude":-84.38633,"reserved":0,"last_update":"0001-01-01T00:00:00Z","name_a2s":"Uncletopia | Atlanta | 3 | Community","protocol":17,"map":"workshop/cp_alloy_rc3.ugc592805587","folder":"tf","game":"Team Fortress","app_id":440,"player_count":0,"max_players":24,"Bots":0,"server_type":"Dedicated","server_os":"Linux","password":true,"vac":true,"version":"7757534","steam_id":85568392924515187,"keywords":["cp","nocrits","nodmgspread","uncletopia"],"game_id":440,"stv_port":27036,"stv_name":"Uncletopia | Atlanta | 3 | Community | STV","players":null},{"server_id":401,"name":"Uncletopia | Atlanta | 4 | No Payload","name_short":"atl-4","host":"atl-1.us.uncletopia.com","port":27045,"enabled":true,"region":"us-east","cc":"us","latitude":33.753746,"longitude":-84.38633,"reserved":0,"last_update":"0001-01-01T00:00:00Z","name_a2s":"","protocol":0,"map":"","folder":"","game":"","app_id":0,"player_count":0,"max_players":0,"Bots":0,"server_type":"","server_os":"","password":false,"vac":false,"version":"","steam_id":0,"keywords":null,"game_id":0,"stv_port":0,"stv_name":"","players":null},{"server_id":2,"name":"Uncletopia | Chicago | 1 | All Maps","name_short":"chi-1","host":"chi-1.us.uncletopia.com","port":27015,"enabled":true,"region":"us-central","cc":"us","latitude":41.881832,"longitude":-87.62318,"reserved":0,"last_update":"0001-01-01T00:00:00Z","name_a2s":"Uncletopia | Chicago | 1 | All Maps","protocol":17,"map":"cp_process_final","folder":"tf","game":"Team Fortress","app_id":440,"player_count":0,"max_players":24,"Bots":0,"server_type":"Dedicated","server_os":"Linux","password":true,"vac":true,"version":"7757534","steam_id":85568392924469984,"keywords":["cp","nocrits","nodmgspread","uncletopia"],"game_id":440,"stv_port":27016,"stv_name":"Uncletopia | Chicago | 1 | All Maps | STV","players":null},{"server_id":106,"name":"Uncletopia | Chicago | 2 | All Maps","name_short":"chi-2","host":"chi-1.us.uncletopia.com","port":27025,"enabled":true,"region":"us-central","cc":"us","latitude":41.881832,"longitude":-87.62318,"reserved":0,"last_update":"0001-01-01T00:00:00Z","name_a2s":"Uncletopia | Chicago | 2 | All Maps","protocol":17,"map":"koth_lakeside_final","folder":"tf","game":"Team Fortress","app_id":440,"player_count":0,"max_players":24,"Bots":0,"server_type":"Dedicated","server_os":"Linux","password":true,"vac":true,"version":"7757534","steam_id":85568392924469985,"keywords":["cp","nocrits","nodmgspread","uncletopia"],"game_id":440,"stv_port":27026,"stv_name":"Uncletopia | Chicago | 2 | All Maps | STV","players":null},{"server_id":402,"name":"Uncletopia | Chicago | 3 | All Maps","name_short":"chi-3","host":"chi-1.us.uncletopia.com","port":27035,"enabled":true,"region":"us-central","cc":"us","latitude":41.881832,"longitude":-87.62318,"reserved":0,"last_update":"0001-01-01T00:00:00Z","name_a2s":"Uncletopia | Chicago | 3 | All Maps","protocol":17,"map":"pl_barnblitz","folder":"tf","game":"Team Fortress","app_id":440,"player_count":0,"max_players":24,"Bots":0,"server_type":"Dedicated","server_os":"Linux","password":true,"vac":true,"version":"7757534","steam_id":85568392924515191,"keywords":["nocrits","nodmgspread","payload","uncletopia"],"game_id":440,"stv_port":27036,"stv_name":"Uncletopia | Chicago | 3 | All Maps | STV","players":null},{"server_id":403,"name":"Uncletopia | Chicago | 4 | All Maps","name_short":"chi-4","host":"chi-1.us.uncletopia.com","port":27045,"enabled":true,"region":"us-central","cc":"us","latitude":41.881832,"longitude":-87.62318,"reserved":0,"last_update":"0001-01-01T00:00:00Z","name_a2s":"Uncletopia | Chicago | 4 | All Maps","protocol":17,"map":"pl_pier","folder":"tf","game":"Team Fortress","app_id":440,"player_count":13,"max_players":24,"Bots":0,"server_type":"Dedicated","server_os":"Linux","password":true,"vac":true,"version":"7757534","steam_id":85568392924515193,"keywords":["nocrits","nodmgspread","payload","uncletopia"],"game_id":440,"stv_port":27046,"stv_name":"Uncletopia | Chicago | 4 | All Maps | STV","players":[{"user_id":438,"name":"Genysis","steam_id":76561198142505290,"connected_time":210000000000,"state":"active","ping":93},{"user_id":430,"name":"Rango","steam_id":76561199190685448,"connected_time":879000000000,"state":"active","ping":55},{"user_id":421,"name":"beyonder","steam_id":76561198045844070,"connected_time":1368000000000,"state":"active","ping":76},{"user_id":414,"name":"fretfulcrazykyan","steam_id":76561198042206401,"connected_time":1610000000000,"state":"active","ping":62},{"user_id":422,"name":"ms. capgras","steam_id":76561199080209996,"connected_time":1120000000000,"state":"active","ping":125},{"user_id":433,"name":"vvren","steam_id":76561198182468742,"connected_time":346000000000,"state":"active","ping":60},{"user_id":441,"name":"Kako","steam_id":76561198090869132,"connected_time":93000000000,"state":"active","ping":63},{"user_id":442,"name":"Xbox_Pro_2016","steam_id":76561198176126519,"connected_time":47000000000,"state":"active","ping":72},{"user_id":434,"name":"Chief Thompson","steam_id":76561199172717761,"connected_time":346000000000,"state":"active","ping":112},{"user_id":439,"name":"dzcreeper","steam_id":76561198072250723,"connected_time":197000000000,"state":"active","ping":73},{"user_id":436,"name":"Tha_Producer","steam_id":76561198035270865,"connected_time":316000000000,"state":"active","ping":99},{"user_id":437,"name":"Pubbington","steam_id":76561198985685870,"connected_time":301000000000,"state":"active","ping":84},{"user_id":443,"name":"ᵖᵉᵇˡ","steam_id":76561198022760558,"connected_time":10000000000,"state":"spawning","ping":58}]},{"server_id":36,"name":"Uncletopia | Chicago | 5 | All Maps","name_short":"chi-5","host":"chi-2.us.uncletopia.com","port":27015,"enabled":true,"region":"us-central","cc":"us","latitude":41.881832,"longitude":-87.62318,"reserved":0,"last_update":"0001-01-01T00:00:00Z","name_a2s":"Uncletopia | Chicago | 5 | All Maps","protocol":17,"map":"pl_frontier_final","folder":"tf","game":"Team Fortress","app_id":440,"player_count":24,"max_players":24,"Bots":0,"server_type":"Dedicated","server_os":"Linux","password":true,"vac":true,"version":"7757534","steam_id":85568392924866362,"keywords":["nocrits","nodmgspread","payload","uncletopia"],"game_id":440,"stv_port":27016,"stv_name":"Uncletopia | Chicago | 5 | All Maps | STV","players":[{"user_id":403,"name":"Number_forty1","steam_id":76561198103653795,"connected_time":2111000000000,"state":"active","ping":103},{"user_id":412,"name":"Bob Margarine","steam_id":76561197974107198,"connected_time":1386000000000,"state":"active","ping":70},{"user_id":416,"name":"Tommy Coolatta","steam_id":76561198098788416,"connected_time":781000000000,"state":"active","ping":69},{"user_id":399,"name":"Ⅳ Melon","steam_id":76561198041266286,"connected_time":2826000000000,"state":"active","ping":90},{"user_id":417,"name":"LtK","steam_id":76561197993180943,"connected_time":505000000000,"state":"active","ping":60},{"user_id":348,"name":"GOD EMPEROR","steam_id":76561198089852954,"connected_time":7927000000000,"state":"active","ping":88},{"user_id":381,"name":"CARCiN","steam_id":76561198042271448,"connected_time":4350000000000,"state":"active","ping":60},{"user_id":387,"name":"luscaPUTO","steam_id":76561199037598902,"connected_time":3309000000000,"state":"active","ping":166},{"user_id":397,"name":"Riff","steam_id":76561198066921423,"connected_time":3073000000000,"state":"active","ping":71},{"user_id":331,"name":"gristle","steam_id":76561198046815360,"connected_time":9498000000000,"state":"active","ping":90},{"user_id":414,"name":"barivox","steam_id":76561197971846498,"connected_time":990000000000,"state":"active","ping":45},{"user_id":404,"name":"Born to shit, Forced to wipe","steam_id":76561198137880777,"connected_time":2103000000000,"state":"active","ping":85},{"user_id":322,"name":"social distance warrior","steam_id":76561198128992994,"connected_time":10346000000000,"state":"active","ping":87},{"user_id":410,"name":"Luxcraz","steam_id":76561198035278349,"connected_time":1769000000000,"state":"active","ping":59},{"user_id":344,"name":"domky","steam_id":76561198066114874,"connected_time":8132000000000,"state":"active","ping":105},{"user_id":345,"name":"biscuit","steam_id":76561198149443710,"connected_time":8079000000000,"state":"active","ping":105},{"user_id":419,"name":"Camfire007","steam_id":76561198077573375,"connected_time":3000000000,"state":"spawning","ping":31},{"user_id":392,"name":"Soda","steam_id":76561198219209367,"connected_time":3215000000000,"state":"active","ping":58},{"user_id":318,"name":"gerg","steam_id":76561197997127387,"connected_time":10500000000000,"state":"active","ping":96},{"user_id":411,"name":"giles, your imaginary butler","steam_id":76561198014326643,"connected_time":1392000000000,"state":"active","ping":70},{"user_id":418,"name":"blank","steam_id":76561198105529673,"connected_time":308000000000,"state":"active","ping":99},{"user_id":396,"name":"Gerg Mukbang Second Channel","steam_id":76561198872467183,"connected_time":3109000000000,"state":"active","ping":46},{"user_id":409,"name":"Rafl","steam_id":76561198055222756,"connected_time":2003000000000,"state":"active","ping":65},{"user_id":321,"name":"Mahiru Koizumi","steam_id":76561198164782653,"connected_time":10428000000000,"state":"active","ping":80}]},{"server_id":37,"name":"Uncletopia | Chicago | 6 | All Maps","name_short":"chi-6","host":"chi-2.us.uncletopia.com","port":27025,"enabled":true,"region":"us-central","cc":"us","latitude":41.881832,"longitude":-87.62318,"reserved":0,"last_update":"0001-01-01T00:00:00Z","name_a2s":"Uncletopia | Chicago | 6 | All Maps","protocol":17,"map":"cp_mountainlab","folder":"tf","game":"Team Fortress","app_id":440,"player_count":0,"max_players":24,"Bots":0,"server_type":"Dedicated","server_os":"Linux","password":true,"vac":true,"version":"7757534","steam_id":85568392924866363,"keywords":["cp","nocrits","nodmgspread","uncletopia"],"game_id":440,"stv_port":27026,"stv_name":"Uncletopia | Chicago | 6 | All Maps | STV","players":null},{"server_id":38,"name":"Uncletopia | Chicago | 7 | Stopwatch Beta","name_short":"chi-7","host":"chi-2.us.uncletopia.com","port":27035,"enabled":true,"region":"us-central","cc":"us","latitude":41.881832,"longitude":-87.62318,"reserved":0,"last_update":"0001-01-01T00:00:00Z","name_a2s":"Uncletopia | Chicago | 7 | Stopwatch Beta","protocol":17,"map":"pl_upward","folder":"tf","game":"Team Fortress","app_id":440,"player_count":0,"max_players":24,"Bots":0,"server_type":"Dedicated","server_os":"Linux","password":true,"vac":true,"version":"7757534","steam_id":85568392924866364,"keywords":["nocrits","nodmgspread","payload","uncletopia"],"game_id":440,"stv_port":27036,"stv_name":"Uncletopia | Chicago | 7 | Stopwatch Beta | STV","players":null},{"server_id":39,"name":"Uncletopia | Chicago | 8 | Community","name_short":"chi-8","host":"chi-2.us.uncletopia.com","port":27045,"enabled":true,"region":"us-central","cc":"us","latitude":41.881832,"longitude":-87.62318,"reserved":0,"last_update":"0001-01-01T00:00:00Z","name_a2s":"Uncletopia | Chicago | 8 | Community","protocol":17,"map":"workshop/rd_asteroid_redux_b1.ugc2154902912","folder":"tf","game":"Team Fortress","app_id":440,"player_count":0,"max_players":24,"Bots":0,"server_type":"Dedicated","server_os":"Linux","password":true,"vac":true,"version":"7757534","steam_id":85568392924866365,"keywords":["beta","nocrits","nodmgspread","rd","uncletopia"],"game_id":440,"stv_port":27046,"stv_name":"Uncletopia | Chicago | 8 | Community | STV","players":null},{"server_id":8,"name":"Uncletopia | Dallas | 1 | All Maps","name_short":"dal-1","host":"dal-1.us.uncletopia.com","port":27015,"enabled":true,"region":"us-central","cc":"us","latitude":32.779167,"longitude":-96.80889,"reserved":0,"last_update":"0001-01-01T00:00:00Z","name_a2s":"Uncletopia | Dallas | 1 | All Maps","protocol":17,"map":"cp_mountainlab","folder":"tf","game":"Team Fortress","app_id":440,"player_count":0,"max_players":24,"Bots":0,"server_type":"Dedicated","server_os":"Linux","password":true,"vac":true,"version":"7757534","steam_id":85568392924469986,"keywords":["cp","nocrits","nodmgspread","uncletopia"],"game_id":440,"stv_port":27016,"stv_name":"Uncletopia | Dallas | 1 | All Maps | STV","players":null},{"server_id":108,"name":"Uncletopia | Dallas | 2 | All Maps","name_short":"dal-2","host":"dal-1.us.uncletopia.com","port":27025,"enabled":true,"region":"us-central","cc":"us","latitude":32.779167,"longitude":-96.80889,"reserved":0,"last_update":"0001-01-01T00:00:00Z","name_a2s":"Uncletopia | Dallas | 2 | All Maps","protocol":17,"map":"pl_upward","folder":"tf","game":"Team Fortress","app_id":440,"player_count":24,"max_players":24,"Bots":0,"server_type":"Dedicated","server_os":"Linux","password":true,"vac":true,"version":"7757534","steam_id":85568392924469988,"keywords":["nocrits","nodmgspread","payload","uncletopia"],"game_id":440,"stv_port":27026,"stv_name":"Uncletopia | Dallas | 2 | All Maps | STV","players":[{"user_id":512,"name":"mik","steam_id":76561198268948176,"connected_time":394000000000,"state":"active","ping":92},{"user_id":510,"name":"ScoutBox","steam_id":76561198111539895,"connected_time":724000000000,"state":"active","ping":72},{"user_id":459,"name":"Arcadletus","steam_id":76561198976009938,"connected_time":3246000000000,"state":"active","ping":54},{"user_id":502,"name":"Aradia","steam_id":76561198800087430,"connected_time":934000000000,"state":"active","ping":138},{"user_id":460,"name":"Scoutroad","steam_id":76561198136564680,"connected_time":3214000000000,"state":"active","ping":59},{"user_id":511,"name":"Born 2 shit Forced 2 wipe","steam_id":76561199438197886,"connected_time":604000000000,"state":"active","ping":130},{"user_id":463,"name":"Zdrada","steam_id":76561198018693240,"connected_time":3132000000000,"state":"active","ping":67},{"user_id":458,"name":"bebza","steam_id":76561198066696440,"connected_time":3427000000000,"state":"active","ping":65},{"user_id":429,"name":"Western_dragon","steam_id":76561198130456105,"connected_time":5554000000000,"state":"active","ping":66},{"user_id":507,"name":"Milk T34","steam_id":76561198116115227,"connected_time":875000000000,"state":"active","ping":82},{"user_id":457,"name":"snive","steam_id":76561198086748674,"connected_time":3429000000000,"state":"active","ping":85},{"user_id":431,"name":"Cat I Win","steam_id":76561198261886976,"connected_time":5543000000000,"state":"active","ping":80},{"user_id":484,"name":"k8o","steam_id":76561198042481882,"connected_time":1941000000000,"state":"active","ping":65},{"user_id":497,"name":"Bloodedge the Wolf","steam_id":76561198294293780,"connected_time":1194000000000,"state":"active","ping":93},{"user_id":501,"name":"Arrythmia","steam_id":76561198093748123,"connected_time":968000000000,"state":"active","ping":105},{"user_id":180,"name":"momiji fumo","steam_id":76561198066698922,"connected_time":21258000000000,"state":"active","ping":86},{"user_id":434,"name":"hazardspacewolf","steam_id":76561198447443314,"connected_time":5474000000000,"state":"active","ping":80},{"user_id":493,"name":"邪恶的巫师","steam_id":76561198165212575,"connected_time":1647000000000,"state":"active","ping":76},{"user_id":504,"name":";-;","steam_id":76561198166889187,"connected_time":919000000000,"state":"active","ping":129},{"user_id":505,"name":"Nyarla","steam_id":76561198399402077,"connected_time":905000000000,"state":"active","ping":85},{"user_id":506,"name":"Rex","steam_id":76561198138365053,"connected_time":904000000000,"state":"active","ping":124},{"user_id":500,"name":"LusicFox","steam_id":76561198829856918,"connected_time":988000000000,"state":"active","ping":63},{"user_id":492,"name":"FrEaK","steam_id":76561197972585963,"connected_time":1711000000000,"state":"active","ping":111},{"user_id":508,"name":"Rubberhose","steam_id":76561198385679190,"connected_time":817000000000,"state":"active","ping":60}]},{"server_id":5,"name":"Uncletopia | Frankfurt | 1 | All Maps","name_short":"frk-1","host":"frk-1.de.uncletopia.com","port":27015,"enabled":true,"region":"eu","cc":"de","latitude":50.110924,"longitude":8.682127,"reserved":0,"last_update":"0001-01-01T00:00:00Z","name_a2s":"Uncletopia | Frankfurt | 1 | All Maps","protocol":17,"map":"pl_badwater","folder":"tf","game":"Team Fortress","app_id":440,"player_count":0,"max_players":24,"Bots":0,"server_type":"Dedicated","server_os":"Linux","password":true,"vac":true,"version":"7757534","steam_id":85568392924469989,"keywords":["nocrits","nodmgspread","payload","uncletopia"],"game_id":440,"stv_port":27016,"stv_name":"Uncletopia | Frankfurt | 1 | All Maps | STV","players":null},{"server_id":110,"name":"Uncletopia | Frankfurt | 2 | All Maps","name_short":"frk-2","host":"frk-1.de.uncletopia.com","port":27025,"enabled":true,"region":"eu","cc":"de","latitude":50.110924,"longitude":8.682127,"reserved":0,"last_update":"0001-01-01T00:00:00Z","name_a2s":"Uncletopia | Frankfurt | 2 | All Maps","protocol":17,"map":"cp_altitude","folder":"tf","game":"Team Fortress","app_id":440,"player_count":0,"max_players":24,"Bots":0,"server_type":"Dedicated","server_os":"Linux","password":true,"vac":true,"version":"7757534","steam_id":85568392924469990,"keywords":["cp","nocrits","nodmgspread","uncletopia"],"game_id":440,"stv_port":27026,"stv_name":"Uncletopia | Frankfurt | 2 | All Maps | STV","players":null},{"server_id":308,"name":"Uncletopia | Frankfurt | 3 | All Maps","name_short":"frk-3","host":"frk-1.de.uncletopia.com","port":27035,"enabled":true,"region":"eu","cc":"de","latitude":50.110924,"longitude":8.682127,"reserved":0,"last_update":"0001-01-01T00:00:00Z","name_a2s":"Uncletopia | Frankfurt | 3 | All Maps","protocol":17,"map":"pl_borneo","folder":"tf","game":"Team Fortress","app_id":440,"player_count":0,"max_players":24,"Bots":0,"server_type":"Dedicated","server_os":"Linux","password":true,"vac":true,"version":"7757534","steam_id":85568392924504274,"keywords":["nocrits","nodmgspread","payload","uncletopia"],"game_id":440,"stv_port":27036,"stv_name":"Uncletopia | Frankfurt | 3 | All Maps | STV","players":null},{"server_id":309,"name":"Uncletopia | Frankfurt | 4 | All Maps","name_short":"frk-4","host":"frk-1.de.uncletopia.com","port":27045,"enabled":true,"region":"eu","cc":"de","latitude":50.110924,"longitude":8.682127,"reserved":0,"last_update":"0001-01-01T00:00:00Z","name_a2s":"Uncletopia | Frankfurt | 4 | All Maps","protocol":17,"map":"pl_pier","folder":"tf","game":"Team Fortress","app_id":440,"player_count":0,"max_players":24,"Bots":0,"server_type":"Dedicated","server_os":"Linux","password":true,"vac":true,"version":"7757534","steam_id":85568392924504275,"keywords":["nocrits","nodmgspread","payload","uncletopia"],"game_id":440,"stv_port":27046,"stv_name":"Uncletopia | Frankfurt | 4 | All Maps | STV","players":null},{"server_id":310,"name":"Uncletopia | Frankfurt | 5 | All Maps","name_short":"frk-5","host":"frk-1.de.uncletopia.com","port":27055,"enabled":true,"region":"eu","cc":"de","latitude":50.110924,"longitude":8.682127,"reserved":0,"last_update":"0001-01-01T00:00:00Z","name_a2s":"Uncletopia | Frankfurt | 5 | All Maps","protocol":17,"map":"cp_altitude","folder":"tf","game":"Team Fortress","app_id":440,"player_count":0,"max_players":24,"Bots":0,"server_type":"Dedicated","server_os":"Linux","password":true,"vac":true,"version":"7757534","steam_id":85568392924504277,"keywords":["cp","nocrits","nodmgspread","uncletopia"],"game_id":440,"stv_port":27056,"stv_name":"Uncletopia | Frankfurt | 5 | All Maps | STV","players":null},{"server_id":311,"name":"Uncletopia | Frankfurt | 6 | All Maps","name_short":"frk-6","host":"frk-1.de.uncletopia.com","port":27065,"enabled":true,"region":"eu","cc":"de","latitude":50.110924,"longitude":8.682127,"reserved":0,"last_update":"0001-01-01T00:00:00Z","name_a2s":"Uncletopia | Frankfurt | 6 | All Maps","protocol":17,"map":"pl_barnblitz","folder":"tf","game":"Team Fortress","app_id":440,"player_count":0,"max_players":24,"Bots":0,"server_type":"Dedicated","server_os":"Linux","password":true,"vac":true,"version":"7757534","steam_id":85568392924504278,"keywords":["nocrits","nodmgspread","payload","uncletopia"],"game_id":440,"stv_port":27066,"stv_name":"Uncletopia | Frankfurt | 6 | All Maps | STV","players":null},{"server_id":23,"name":"Uncletopia | Frankfurt | 7 | Stopwatch Beta","name_short":"frk-7","host":"frk-1.de.uncletopia.com","port":27075,"enabled":true,"region":"eu","cc":"de","latitude":50.110924,"longitude":8.682127,"reserved":0,"last_update":"0001-01-01T00:00:00Z","name_a2s":"Uncletopia | Frankfurt | 7 | Stopwatch Beta","protocol":17,"map":"pl_borneo","folder":"tf","game":"Team Fortress","app_id":440,"player_count":0,"max_players":24,"Bots":0,"server_type":"Dedicated","server_os":"Linux","password":true,"vac":true,"version":"7757534","steam_id":85568392924742827,"keywords":["nocrits","nodmgspread","payload","uncletopia"],"game_id":440,"stv_port":27076,"stv_name":"Uncletopia | Frankfurt | 7 | Stopwatch Beta | STV","players":null},{"server_id":24,"name":"Uncletopia | Frankfurt | 8 | Community","name_short":"frk-8","host":"frk-1.de.uncletopia.com","port":27085,"enabled":true,"region":"eu","cc":"de","latitude":50.110924,"longitude":8.682127,"reserved":0,"last_update":"0001-01-01T00:00:00Z","name_a2s":"Uncletopia | Frankfurt | 8 | Community","protocol":17,"map":"workshop/cp_indulge.ugc528106646","folder":"tf","game":"Team Fortress","app_id":440,"player_count":0,"max_players":24,"Bots":0,"server_type":"Dedicated","server_os":"Linux","password":true,"vac":true,"version":"7757534","steam_id":85568392924742828,"keywords":["cp","nocrits","nodmgspread","uncletopia"],"game_id":440,"stv_port":27086,"stv_name":"Uncletopia | Frankfurt | 8 | Community | STV","players":null},{"server_id":202,"name":"Uncletopia | Hong Kong | 1 | All Maps","name_short":"hgk-1","host":"hgk-1.hk.uncletopia.com","port":27015,"enabled":true,"region":"asia","cc":"hk","latitude":22.302711,"longitude":114.177216,"reserved":0,"last_update":"0001-01-01T00:00:00Z","name_a2s":"Uncletopia | Hong Kong | 1 | All Maps","protocol":17,"map":"koth_lakeside_final","folder":"tf","game":"Team Fortress","app_id":440,"player_count":0,"max_players":24,"Bots":0,"server_type":"Dedicated","server_os":"Linux","password":true,"vac":true,"version":"7757534","steam_id":85568392924494504,"keywords":["cp","nocrits","nodmgspread","uncletopia"],"game_id":440,"stv_port":27016,"stv_name":"Uncletopia | Hong Kong | 1 | All Maps | STV","players":null},{"server_id":1,"name":"Uncletopia | Los Angeles | 1 | All Maps","name_short":"lax-1","host":"lax-1.us.uncletopia.com","port":27015,"enabled":true,"region":"us-west","cc":"us","latitude":33.94279,"longitude":-118.41004,"reserved":0,"last_update":"0001-01-01T00:00:00Z","name_a2s":"Uncletopia | Los Angeles | 1 | All Maps","protocol":17,"map":"koth_cascade","folder":"tf","game":"Team Fortress","app_id":440,"player_count":0,"max_players":24,"Bots":0,"server_type":"Dedicated","server_os":"Linux","password":true,"vac":true,"version":"7757534","steam_id":85568392924469991,"keywords":["cp","nocrits","nodmgspread","uncletopia"],"game_id":440,"stv_port":27016,"stv_name":"Uncletopia | Los Angeles | 1 | All Maps | STV","players":null},{"server_id":112,"name":"Uncletopia | Los Angeles | 2 | All Maps","name_short":"lax-2","host":"lax-1.us.uncletopia.com","port":27025,"enabled":true,"region":"us-west","cc":"us","latitude":33.94279,"longitude":-118.41004,"reserved":0,"last_update":"0001-01-01T00:00:00Z","name_a2s":"Uncletopia | Los Angeles | 2 | All Maps","protocol":17,"map":"koth_viaduct","folder":"tf","game":"Team Fortress","app_id":440,"player_count":0,"max_players":24,"Bots":0,"server_type":"Dedicated","server_os":"Linux","password":true,"vac":true,"version":"7757534","steam_id":85568392924469992,"keywords":["cp","nocrits","nodmgspread","uncletopia"],"game_id":440,"stv_port":27026,"stv_name":"Uncletopia | Los Angeles | 2 | All Maps | STV","players":null},{"server_id":324,"name":"Uncletopia | Los Angeles | 3 | All Maps","name_short":"lax-3","host":"lax-1.us.uncletopia.com","port":27035,"enabled":true,"region":"us-west","cc":"us","latitude":33.94279,"longitude":-118.41004,"reserved":0,"last_update":"0001-01-01T00:00:00Z","name_a2s":"Uncletopia | Los Angeles | 3 | All Maps","protocol":17,"map":"cp_dustbowl","folder":"tf","game":"Team Fortress","app_id":440,"player_count":0,"max_players":24,"Bots":0,"server_type":"Dedicated","server_os":"Linux","password":true,"vac":true,"version":"7757534","steam_id":85568392924510198,"keywords":["cp","nocrits","nodmgspread","uncletopia"],"game_id":440,"stv_port":27036,"stv_name":"Uncletopia | Los Angeles | 3 | All Maps | STV","players":null},{"server_id":25,"name":"Uncletopia | Los Angeles | 4 | Stopwatch Beta","name_short":"lax-4","host":"lax-1.us.uncletopia.com","port":27045,"enabled":true,"region":"us-west","cc":"us","latitude":33.94279,"longitude":-118.41004,"reserved":0,"last_update":"0001-01-01T00:00:00Z","name_a2s":"Uncletopia | Los Angeles | 4 | Stopwatch Beta","protocol":17,"map":"cp_dustbowl","folder":"tf","game":"Team Fortress","app_id":440,"player_count":0,"max_players":24,"Bots":0,"server_type":"Dedicated","server_os":"Linux","password":true,"vac":true,"version":"7757534","steam_id":85568392924510199,"keywords":["cp","nocrits","nodmgspread","uncletopia"],"game_id":440,"stv_port":27046,"stv_name":"Uncletopia | Los Angeles | 4 | Stopwatch Beta | STV","players":null},{"server_id":11,"name":"Uncletopia | London | 1 | All Maps","name_short":"lon-1","host":"lon-1.uk.uncletopia.com","port":27015,"enabled":true,"region":"eu","cc":"gb","latitude":51.509865,"longitude":-0.118092,"reserved":0,"last_update":"0001-01-01T00:00:00Z","name_a2s":"Uncletopia | London | 1 | All Maps","protocol":17,"map":"koth_lakeside_final","folder":"tf","game":"Team Fortress","app_id":440,"player_count":0,"max_players":24,"Bots":0,"server_type":"Dedicated","server_os":"Linux","password":true,"vac":true,"version":"7757534","steam_id":85568392924367362,"keywords":["cp","nocrits","nodmgspread","uncletopia"],"game_id":440,"stv_port":27016,"stv_name":"Uncletopia | London | 1 | All Maps | STV","players":null},{"server_id":114,"name":"Uncletopia | London | 2 | All Maps","name_short":"lon-2","host":"lon-1.uk.uncletopia.com","port":27025,"enabled":true,"region":"eu","cc":"gb","latitude":51.509865,"longitude":-0.118092,"reserved":0,"last_update":"0001-01-01T00:00:00Z","name_a2s":"Uncletopia | London | 2 | All Maps","protocol":17,"map":"pl_pier","folder":"tf","game":"Team Fortress","app_id":440,"player_count":0,"max_players":24,"Bots":0,"server_type":"Dedicated","server_os":"Linux","password":true,"vac":true,"version":"7757534","steam_id":85568392924470941,"keywords":["nocrits","nodmgspread","payload","uncletopia"],"game_id":440,"stv_port":27026,"stv_name":"Uncletopia | London | 2 | All Maps | STV","players":null},{"server_id":320,"name":"Uncletopia | London | 3 | All Maps","name_short":"lon-3","host":"lon-1.uk.uncletopia.com","port":27035,"enabled":true,"region":"eu","cc":"gb","latitude":51.509865,"longitude":-0.118092,"reserved":0,"last_update":"0001-01-01T00:00:00Z","name_a2s":"Uncletopia | London | 3 | All Maps","protocol":17,"map":"pl_frontier_final","folder":"tf","game":"Team Fortress","app_id":440,"player_count":24,"max_players":24,"Bots":0,"server_type":"Dedicated","server_os":"Linux","password":true,"vac":true,"version":"7757534","steam_id":85568392924510192,"keywords":["nocrits","nodmgspread","payload","uncletopia"],"game_id":440,"stv_port":27036,"stv_name":"Uncletopia | London | 3 | All Maps | STV","players":[{"user_id":101,"name":"gjhkgfkjfh","steam_id":76561198031181349,"connected_time":3798000000000,"state":"active","ping":91},{"user_id":154,"name":"Kahvi","steam_id":76561198723244199,"connected_time":1000000000,"state":"spawning","ping":43},{"user_id":153,"name":"nop 21","steam_id":76561198331641220,"connected_time":40000000000,"state":"active","ping":49},{"user_id":126,"name":"hichem","steam_id":76561198056197307,"connected_time":1556000000000,"state":"active","ping":46},{"user_id":47,"name":"mio bomba","steam_id":76561198217364720,"connected_time":7780000000000,"state":"active","ping":57},{"user_id":111,"name":".::[SerafeTTiN]::.","steam_id":76561198009471724,"connected_time":2672000000000,"state":"active","ping":96},{"user_id":145,"name":"m","steam_id":76561198883590923,"connected_time":688000000000,"state":"active","ping":97},{"user_id":112,"name":"Dzan50","steam_id":76561198059758591,"connected_time":2267000000000,"state":"active","ping":91},{"user_id":122,"name":"Parapluie","steam_id":76561197971640301,"connected_time":1824000000000,"state":"active","ping":44},{"user_id":105,"name":"Vic maher","steam_id":76561198097523768,"connected_time":3488000000000,"state":"active","ping":69},{"user_id":113,"name":"Flint","steam_id":76561197995920776,"connected_time":2265000000000,"state":"active","ping":47},{"user_id":89,"name":"Elusive","steam_id":76561198170323910,"connected_time":5371000000000,"state":"active","ping":55},{"user_id":129,"name":"ultralow B\u003eKeys ppal","steam_id":76561197982127154,"connected_time":1408000000000,"state":"active","ping":60},{"user_id":134,"name":"Disasterpiece","steam_id":76561198160639958,"connected_time":1126000000000,"state":"active","ping":67},{"user_id":78,"name":"Entomono","steam_id":76561198189172213,"connected_time":6654000000000,"state":"active","ping":40},{"user_id":131,"name":"nky","steam_id":76561198086229832,"connected_time":1255000000000,"state":"active","ping":63},{"user_id":152,"name":"Dunxle","steam_id":76561198236630276,"connected_time":235000000000,"state":"active","ping":43},{"user_id":136,"name":"avewszystkim","steam_id":76561199382492530,"connected_time":1047000000000,"state":"active","ping":74},{"user_id":143,"name":"Besten44","steam_id":76561198145140832,"connected_time":849000000000,"state":"active","ping":102},{"user_id":148,"name":"DarkFady","steam_id":76561198179099523,"connected_time":375000000000,"state":"active","ping":119},{"user_id":140,"name":"GuSkand","steam_id":76561198043775605,"connected_time":933000000000,"state":"active","ping":88},{"user_id":141,"name":"the girl of my dreams","steam_id":76561198001725703,"connected_time":930000000000,"state":"active","ping":86},{"user_id":150,"name":"Kedy","steam_id":76561198308990457,"connected_time":357000000000,"state":"active","ping":105}]},{"server_id":321,"name":"Uncletopia | London | 4 | All Maps","name_short":"lon-4","host":"lon-1.uk.uncletopia.com","port":27045,"enabled":true,"region":"eu","cc":"gb","latitude":51.509865,"longitude":-0.118092,"reserved":0,"last_update":"0001-01-01T00:00:00Z","name_a2s":"Uncletopia | London | 4 | All Maps","protocol":17,"map":"pl_barnblitz","folder":"tf","game":"Team Fortress","app_id":440,"player_count":0,"max_players":24,"Bots":0,"server_type":"Dedicated","server_os":"Linux","password":true,"vac":true,"version":"7757534","steam_id":85568392924510193,"keywords":["nocrits","nodmgspread","payload","uncletopia"],"game_id":440,"stv_port":27046,"stv_name":"Uncletopia | London | 4 | All Maps | STV","players":null},{"server_id":21,"name":"Uncletopia | London | 5 | All Maps","name_short":"lon-5","host":"lon-1.uk.uncletopia.com","port":27055,"enabled":true,"region":"eu","cc":"gb","latitude":51.509865,"longitude":-0.118092,"reserved":0,"last_update":"0001-01-01T00:00:00Z","name_a2s":"Uncletopia | London | 5 | All Maps","protocol":17,"map":"pl_pier","folder":"tf","game":"Team Fortress","app_id":440,"player_count":0,"max_players":24,"Bots":0,"server_type":"Dedicated","server_os":"Linux","password":true,"vac":true,"version":"7757534","steam_id":85568392924742829,"keywords":["nocrits","nodmgspread","payload","uncletopia"],"game_id":440,"stv_port":27056,"stv_name":"Uncletopia | London | 5 | All Maps | STV","players":null},{"server_id":22,"name":"Uncletopia | London | 6 | All Maps","name_short":"lon-6","host":"lon-1.uk.uncletopia.com","port":27065,"enabled":true,"region":"eu","cc":"gb","latitude":51.509865,"longitude":-0.118092,"reserved":0,"last_update":"0001-01-01T00:00:00Z","name_a2s":"Uncletopia | London | 6 | All Maps","protocol":17,"map":"koth_highpass","folder":"tf","game":"Team Fortress","app_id":440,"player_count":0,"max_players":24,"Bots":0,"server_type":"Dedicated","server_os":"Linux","password":true,"vac":true,"version":"7757534","steam_id":85568392924742830,"keywords":["cp","nocrits","nodmgspread","uncletopia"],"game_id":440,"stv_port":27066,"stv_name":"Uncletopia | London | 6 | All Maps | STV","players":null},{"server_id":40,"name":"Uncletopia | London | 7 | No Payload","name_short":"lon-7","host":"lon-1.uk.uncletopia.com","port":27075,"enabled":true,"region":"eu","cc":"gb","latitude":51.509865,"longitude":-0.118092,"reserved":0,"last_update":"0001-01-01T00:00:00Z","name_a2s":"Uncletopia | London | 7 | No Payload","protocol":17,"map":"koth_highpass","folder":"tf","game":"Team Fortress","app_id":440,"player_count":0,"max_players":24,"Bots":0,"server_type":"Dedicated","server_os":"Linux","password":true,"vac":true,"version":"7757534","steam_id":85568392924964314,"keywords":["cp","nocrits","nodmgspread","uncletopia"],"game_id":440,"stv_port":27076,"stv_name":"Uncletopia | London | 7 | No Payload | STV","players":null},{"server_id":41,"name":"Uncletopia | London | 8 | Community","name_short":"lon-8","host":"lon-1.uk.uncletopia.com","port":27085,"enabled":true,"region":"eu","cc":"gb","latitude":51.509865,"longitude":-0.118092,"reserved":0,"last_update":"0001-01-01T00:00:00Z","name_a2s":"Uncletopia | London | 8 | Community","protocol":17,"map":"cp_altitude","folder":"tf","game":"Team Fortress","app_id":440,"player_count":0,"max_players":24,"Bots":0,"server_type":"Dedicated","server_os":"Linux","password":true,"vac":true,"version":"7757534","steam_id":85568392924964315,"keywords":["cp","nocrits","nodmgspread","uncletopia"],"game_id":440,"stv_port":27086,"stv_name":"Uncletopia | London | 8 | Community | STV","players":null},{"server_id":300,"name":"Uncletopia | Montréal | 1 | All Maps","name_short":"mtl-1","host":"mtl-1.ca.uncletopia.com","port":27015,"enabled":true,"region":"us-east","cc":"ca","latitude":45.50889,"longitude":-73.56167,"reserved":0,"last_update":"0001-01-01T00:00:00Z","name_a2s":"Uncletopia | Montréal | 1 | All Maps","protocol":17,"map":"cp_mountainlab","folder":"tf","game":"Team Fortress","app_id":440,"player_count":0,"max_players":24,"Bots":0,"server_type":"Dedicated","server_os":"Linux","password":true,"vac":true,"version":"7757534","steam_id":85568392924500087,"keywords":["cp","nocrits","nodmgspread","uncletopia"],"game_id":440,"stv_port":27016,"stv_name":"Uncletopia | Montréal | 1 | All Maps | STV","players":null},{"server_id":301,"name":"Uncletopia | Montréal | 2 | All Maps","name_short":"mtl-2","host":"mtl-1.ca.uncletopia.com","port":27025,"enabled":true,"region":"us-east","cc":"ca","latitude":45.50889,"longitude":-73.56167,"reserved":0,"last_update":"0001-01-01T00:00:00Z","name_a2s":"Uncletopia | Montréal | 2 | All Maps","protocol":17,"map":"cp_snakewater_final1","folder":"tf","game":"Team Fortress","app_id":440,"player_count":0,"max_players":24,"Bots":0,"server_type":"Dedicated","server_os":"Linux","password":true,"vac":true,"version":"7757534","steam_id":85568392924500088,"keywords":["cp","nocrits","nodmgspread","uncletopia"],"game_id":440,"stv_port":27026,"stv_name":"Uncletopia | Montréal | 2 | All Maps | STV","players":null},{"server_id":302,"name":"Uncletopia | Montréal | 3 | All Maps","name_short":"mtl-3","host":"mtl-1.ca.uncletopia.com","port":27035,"enabled":true,"region":"us-east","cc":"ca","latitude":45.50889,"longitude":-73.56167,"reserved":0,"last_update":"0001-01-01T00:00:00Z","name_a2s":"Uncletopia | Montréal | 3 | All Maps","protocol":17,"map":"pl_frontier_final","folder":"tf","game":"Team Fortress","app_id":440,"player_count":0,"max_players":24,"Bots":0,"server_type":"Dedicated","server_os":"Linux","password":true,"vac":true,"version":"7757534","steam_id":85568392924500089,"keywords":["nocrits","nodmgspread","payload","uncletopia"],"game_id":440,"stv_port":27036,"stv_name":"Uncletopia | Montréal | 3 | All Maps | STV","players":null},{"server_id":303,"name":"Uncletopia | Montréal | 4 | No Payload","name_short":"mtl-4","host":"mtl-1.ca.uncletopia.com","port":27045,"enabled":true,"region":"us-east","cc":"ca","latitude":45.50889,"longitude":-73.56167,"reserved":0,"last_update":"0001-01-01T00:00:00Z","name_a2s":"Uncletopia | Montréal | 4 | No Payload","protocol":17,"map":"cp_coldfront","folder":"tf","game":"Team Fortress","app_id":440,"player_count":0,"max_players":24,"Bots":0,"server_type":"Dedicated","server_os":"Linux","password":true,"vac":true,"version":"7757534","steam_id":85568392924500090,"keywords":["cp","nocrits","nodmgspread","uncletopia"],"game_id":440,"stv_port":27046,"stv_name":"Uncletopia | Montréal | 4 | No Payload | STV","players":null},{"server_id":13,"name":"Uncletopia | New York City | 1 | All Maps","name_short":"nyc-1","host":"nyc-1.us.uncletopia.com","port":27015,"enabled":true,"region":"us-east","cc":"us","latitude":40.73061,"longitude":-73.93524,"reserved":0,"last_update":"0001-01-01T00:00:00Z","name_a2s":"Uncletopia | New York City | 1 | All Maps","protocol":17,"map":"cp_altitude","folder":"tf","game":"Team Fortress","app_id":440,"player_count":0,"max_players":24,"Bots":0,"server_type":"Dedicated","server_os":"Linux","password":true,"vac":true,"version":"7757534","steam_id":85568392924469993,"keywords":["cp","nocrits","nodmgspread","uncletopia"],"game_id":440,"stv_port":27016,"stv_name":"Uncletopia | New York City | 1 | All Maps | STV","players":null},{"server_id":14,"name":"Uncletopia | New York City | 2 | All Maps","name_short":"nyc-2","host":"nyc-1.us.uncletopia.com","port":27025,"enabled":true,"region":"us-east","cc":"us","latitude":40.73061,"longitude":-73.93524,"reserved":0,"last_update":"0001-01-01T00:00:00Z","name_a2s":"Uncletopia | New York City | 2 | All Maps","protocol":17,"map":"cp_dustbowl","folder":"tf","game":"Team Fortress","app_id":440,"player_count":0,"max_players":24,"Bots":0,"server_type":"Dedicated","server_os":"Linux","password":true,"vac":true,"version":"7757534","steam_id":85568392924469994,"keywords":["cp","nocrits","nodmgspread","uncletopia"],"game_id":440,"stv_port":27026,"stv_name":"Uncletopia | New York City | 2 | All Maps | STV","players":null},{"server_id":15,"name":"Uncletopia | New York City | 3 | Stopwatch Beta","name_short":"nyc-3","host":"nyc-1.us.uncletopia.com","port":27035,"enabled":true,"region":"us-east","cc":"us","latitude":40.73061,"longitude":-73.93524,"reserved":0,"last_update":"0001-01-01T00:00:00Z","name_a2s":"Uncletopia | New York City | 3 | Stopwatch Beta","protocol":17,"map":"workshop/koth_ramjam_rc1.ugc459778887","folder":"tf","game":"Team Fortress","app_id":440,"player_count":0,"max_players":24,"Bots":0,"server_type":"Dedicated","server_os":"Linux","password":true,"vac":true,"version":"7757534","steam_id":85568392924742820,"keywords":["cp","nocrits","nodmgspread","uncletopia"],"game_id":440,"stv_port":27036,"stv_name":"Uncletopia | New York City | 3 | Stopwatch Beta | STV","players":null},{"server_id":16,"name":"Uncletopia | New York City | 4 | Community","name_short":"nyc-4","host":"nyc-1.us.uncletopia.com","port":27045,"enabled":true,"region":"us-east","cc":"us","latitude":40.73061,"longitude":-73.93524,"reserved":0,"last_update":"0001-01-01T00:00:00Z","name_a2s":"Uncletopia | New York City | 4 | Community","protocol":17,"map":"workshop/rd_asteroid_redux_b1.ugc2154902912","folder":"tf","game":"Team Fortress","app_id":440,"player_count":0,"max_players":24,"Bots":0,"server_type":"Dedicated","server_os":"Linux","password":true,"vac":true,"version":"7757534","steam_id":85568392924742821,"keywords":["beta","nocrits","nodmgspread","rd","uncletopia"],"game_id":440,"stv_port":27046,"stv_name":"Uncletopia | New York City | 4 | Community | STV","players":null},{"server_id":142,"name":"Uncletopia | São Paulo | 1 | All Maps","name_short":"sao-1","host":"sao-1.br.uncletopia.com","port":27015,"enabled":true,"region":"sa","cc":"br","latitude":-23.533773,"longitude":-46.62529,"reserved":0,"last_update":"0001-01-01T00:00:00Z","name_a2s":"Uncletopia | São Paulo | 1 | All Maps","protocol":17,"map":"pl_badwater","folder":"tf","game":"Team Fortress","app_id":440,"player_count":0,"max_players":24,"Bots":0,"server_type":"Dedicated","server_os":"Linux","password":true,"vac":true,"version":"7757534","steam_id":85568392924469996,"keywords":["nocrits","nodmgspread","payload","uncletopia"],"game_id":440,"stv_port":27016,"stv_name":"Uncletopia | São Paulo | 1 | All Maps | STV","players":null},{"server_id":143,"name":"Uncletopia | São Paulo | 2 | All Maps","name_short":"sao-2","host":"sao-2.br.uncletopia.com","port":27015,"enabled":true,"region":"sa","cc":"br","latitude":-23.533773,"longitude":-46.62529,"reserved":0,"last_update":"0001-01-01T00:00:00Z","name_a2s":"Uncletopia | São Paulo | 2 | All Maps","protocol":17,"map":"koth_cascade","folder":"tf","game":"Team Fortress","app_id":440,"player_count":0,"max_players":24,"Bots":0,"server_type":"Dedicated","server_os":"Linux","password":true,"vac":true,"version":"7757534","steam_id":85568392924485349,"keywords":["cp","nocrits","nodmgspread","uncletopia"],"game_id":440,"stv_port":27016,"stv_name":"Uncletopia | São Paulo | 2 | All Maps | STV","players":null},{"server_id":7,"name":"Uncletopia | Seattle | 1 | All Maps","name_short":"sea-1","host":"sea-1.us.uncletopia.com","port":27015,"enabled":true,"region":"us-west","cc":"us","latitude":47.608013,"longitude":-122.33517,"reserved":0,"last_update":"0001-01-01T00:00:00Z","name_a2s":"Uncletopia | Seattle | 1 | All Maps","protocol":17,"map":"koth_harvest_final","folder":"tf","game":"Team Fortress","app_id":440,"player_count":23,"max_players":24,"Bots":0,"server_type":"Dedicated","server_os":"Linux","password":true,"vac":true,"version":"7757534","steam_id":85568392924469997,"keywords":["cp","nocrits","nodmgspread","uncletopia"],"game_id":440,"stv_port":27016,"stv_name":"Uncletopia | Seattle | 1 | All Maps | STV","players":[{"user_id":998,"name":"SomeFatPoptart","steam_id":76561198085433807,"connected_time":47000000000,"state":"active","ping":76},{"user_id":900,"name":"dnd sippin pilk","steam_id":76561198150281353,"connected_time":2458000000000,"state":"active","ping":58},{"user_id":955,"name":"non menthol newport","steam_id":76561198041907345,"connected_time":1006000000000,"state":"active","ping":75},{"user_id":906,"name":"rorywaspilking","steam_id":76561198065825165,"connected_time":2135000000000,"state":"active","ping":112},{"user_id":992,"name":"Ducks","steam_id":76561198130038345,"connected_time":325000000000,"state":"active","ping":69},{"user_id":901,"name":"p9 #1 pilk enjoyer","steam_id":76561198134309750,"connected_time":2447000000000,"state":"active","ping":95},{"user_id":908,"name":"glizzy inflation","steam_id":76561198046073848,"connected_time":1989000000000,"state":"active","ping":45},{"user_id":916,"name":"p9 jorts FULL of pilk","steam_id":76561199041179985,"connected_time":1681000000000,"state":"active","ping":62},{"user_id":994,"name":"louie, is patient","steam_id":76561198168084763,"connected_time":290000000000,"state":"active","ping":43},{"user_id":976,"name":"Magma","steam_id":76561198167279375,"connected_time":579000000000,"state":"active","ping":63},{"user_id":911,"name":"Luv","steam_id":76561198143209841,"connected_time":1907000000000,"state":"active","ping":57},{"user_id":912,"name":"deta \"o_O_o_O_o_O_o_O\" zeta","steam_id":76561199200757524,"connected_time":1890000000000,"state":"active","ping":81},{"user_id":919,"name":"MisterManne","steam_id":76561198106598600,"connected_time":1640000000000,"state":"active","ping":55},{"user_id":816,"name":"Aribari","steam_id":76561198117327938,"connected_time":10225000000000,"state":"active","ping":119},{"user_id":1000,"name":"mike, buying 20 barefoots","steam_id":76561198225411004,"connected_time":16000000000,"state":"active","ping":65},{"user_id":921,"name":".-.. --- ...- . / -.-- --- ..-","steam_id":76561198002483206,"connected_time":1596000000000,"state":"active","ping":89},{"user_id":964,"name":"Vortiger","steam_id":76561198275813176,"connected_time":863000000000,"state":"active","ping":79},{"user_id":925,"name":"Ltn. What's-his-Nuts","steam_id":76561198133834262,"connected_time":1536000000000,"state":"active","ping":111},{"user_id":997,"name":"p9 SUNLIT WITCH ANARCHY GATHER","steam_id":76561198131166135,"connected_time":51000000000,"state":"active","ping":35},{"user_id":951,"name":"Eevee (She/Her)","steam_id":76561198271393589,"connected_time":1044000000000,"state":"active","ping":57},{"user_id":977,"name":"Yoshimelon","steam_id":76561198253054325,"connected_time":524000000000,"state":"active","ping":91},{"user_id":928,"name":"seats","steam_id":76561197998756039,"connected_time":1520000000000,"state":"active","ping":76},{"user_id":999,"name":"ooga booga","steam_id":76561197985807310,"connected_time":44000000000,"state":"active","ping":75}]},{"server_id":119,"name":"Uncletopia | Seattle | 2 | All Maps","name_short":"sea-2","host":"sea-1.us.uncletopia.com","port":27025,"enabled":true,"region":"us-west","cc":"us","latitude":47.608013,"longitude":-122.33517,"reserved":0,"last_update":"0001-01-01T00:00:00Z","name_a2s":"Uncletopia | Seattle | 2 | All Maps","protocol":17,"map":"pl_upward","folder":"tf","game":"Team Fortress","app_id":440,"player_count":24,"max_players":24,"Bots":0,"server_type":"Dedicated","server_os":"Linux","password":true,"vac":true,"version":"7757534","steam_id":85568392924469998,"keywords":["nocrits","nodmgspread","payload","uncletopia"],"game_id":440,"stv_port":27026,"stv_name":"Uncletopia | Seattle | 2 | All Maps | STV","players":[{"user_id":956,"name":"goop","steam_id":76561198204169516,"connected_time":1706000000000,"state":"active","ping":76},{"user_id":990,"name":"self sufficient kitten","steam_id":76561197960592612,"connected_time":66000000000,"state":"active","ping":46},{"user_id":969,"name":"Quietsharp","steam_id":76561198277968438,"connected_time":890000000000,"state":"active","ping":80},{"user_id":970,"name":"ray (the based god)","steam_id":76561198311984941,"connected_time":830000000000,"state":"active","ping":106},{"user_id":959,"name":"Jade","steam_id":76561198092408457,"connected_time":1549000000000,"state":"active","ping":51},{"user_id":976,"name":"Burgie","steam_id":76561198066425198,"connected_time":493000000000,"state":"active","ping":85},{"user_id":971,"name":"Buffalo Gold","steam_id":76561198119693806,"connected_time":710000000000,"state":"active","ping":74},{"user_id":918,"name":"lettuce","steam_id":76561198133969522,"connected_time":6216000000000,"state":"active","ping":70},{"user_id":967,"name":"Latedawn","steam_id":76561198087111967,"connected_time":985000000000,"state":"active","ping":72},{"user_id":972,"name":"Titar Industries","steam_id":76561198143078476,"connected_time":704000000000,"state":"active","ping":106},{"user_id":944,"name":"Gary, 40, soul sucking 9-5","steam_id":76561198073812888,"connected_time":3880000000000,"state":"active","ping":41},{"user_id":977,"name":"A Shiny Meat Bicycle","steam_id":76561198358757709,"connected_time":471000000000,"state":"active","ping":146},{"user_id":974,"name":"danbo_","steam_id":76561198041101126,"connected_time":555000000000,"state":"active","ping":92},{"user_id":975,"name":"Jibblious","steam_id":76561198023263962,"connected_time":546000000000,"state":"active","ping":68},{"user_id":978,"name":"gazpacho","steam_id":76561198138024797,"connected_time":466000000000,"state":"active","ping":80},{"user_id":979,"name":"shoes","steam_id":76561198044104086,"connected_time":459000000000,"state":"active","ping":81},{"user_id":927,"name":"Antzen","steam_id":76561198041343470,"connected_time":6008000000000,"state":"active","ping":78},{"user_id":982,"name":"jtang","steam_id":76561197975944572,"connected_time":441000000000,"state":"active","ping":62},{"user_id":923,"name":"Neo Kojiro","steam_id":76561198000967076,"connected_time":6172000000000,"state":"active","ping":130},{"user_id":989,"name":"brhm","steam_id":76561198199604767,"connected_time":79000000000,"state":"active","ping":53},{"user_id":983,"name":"SearingGustav #tG","steam_id":76561198040560786,"connected_time":419000000000,"state":"active","ping":71},{"user_id":984,"name":"curly fries","steam_id":76561198307969698,"connected_time":403000000000,"state":"active","ping":89},{"user_id":985,"name":"mi'lord","steam_id":76561198026366927,"connected_time":403000000000,"state":"active","ping":116},{"user_id":986,"name":"VixianUwU","steam_id":76561198948815060,"connected_time":399000000000,"state":"active","ping":83}]},{"server_id":406,"name":"Uncletopia | Seattle | 3 | Stopwatch Beta","name_short":"sea-3","host":"sea-1.us.uncletopia.com","port":27035,"enabled":true,"region":"us-west","cc":"us","latitude":47.608013,"longitude":-122.33517,"reserved":0,"last_update":"0001-01-01T00:00:00Z","name_a2s":"Uncletopia | Seattle | 3 | Stopwatch Beta","protocol":17,"map":"workshop/pl_barnblitz_pro7.ugc582280235","folder":"tf","game":"Team Fortress","app_id":440,"player_count":0,"max_players":24,"Bots":0,"server_type":"Dedicated","server_os":"Linux","password":true,"vac":true,"version":"7757534","steam_id":85568392924515217,"keywords":["nocrits","nodmgspread","payload","uncletopia"],"game_id":440,"stv_port":27036,"stv_name":"Uncletopia | Seattle | 3 | Stopwatch Beta | STV","players":null},{"server_id":17,"name":"Uncletopia | San Francisco | 1 | All Maps","name_short":"sfo-1","host":"sfo-1.us.uncletopia.com","port":27015,"enabled":true,"region":"us-west","cc":"us","latitude":37.77397,"longitude":-122.4313,"reserved":0,"last_update":"0001-01-01T00:00:00Z","name_a2s":"Uncletopia | San Francisco | 1 | All Maps","protocol":17,"map":"pl_pier","folder":"tf","game":"Team Fortress","app_id":440,"player_count":0,"max_players":24,"Bots":0,"server_type":"Dedicated","server_os":"Linux","password":true,"vac":true,"version":"7757534","steam_id":85568392924469999,"keywords":["nocrits","nodmgspread","payload","uncletopia"],"game_id":440,"stv_port":27016,"stv_name":"Uncletopia | San Francisco | 1 | All Maps | STV","players":null},{"server_id":18,"name":"Uncletopia | San Francisco | 2 | All Maps","name_short":"sfo-2","host":"sfo-1.us.uncletopia.com","port":27025,"enabled":true,"region":"us-west","cc":"us","latitude":37.77397,"longitude":-122.4313,"reserved":0,"last_update":"0001-01-01T00:00:00Z","name_a2s":"Uncletopia | San Francisco | 2 | All Maps","protocol":17,"map":"pl_frontier_final","folder":"tf","game":"Team Fortress","app_id":440,"player_count":23,"max_players":24,"Bots":0,"server_type":"Dedicated","server_os":"Linux","password":true,"vac":true,"version":"7757534","steam_id":85568392924470000,"keywords":["nocrits","nodmgspread","payload","uncletopia"],"game_id":440,"stv_port":27026,"stv_name":"Uncletopia | San Francisco | 2 | All Maps | STV","players":[{"user_id":639,"name":"Viol3tOni","steam_id":76561198079208738,"connected_time":2876000000000,"state":"active","ping":75},{"user_id":686,"name":"Creature","steam_id":76561198194585781,"connected_time":178000000000,"state":"active","ping":62},{"user_id":684,"name":"HomesliceHobbes","steam_id":76561198042770895,"connected_time":596000000000,"state":"active","ping":59},{"user_id":642,"name":"solitaire","steam_id":76561198964025682,"connected_time":2809000000000,"state":"active","ping":47},{"user_id":658,"name":"Jack from Jack in The Box","steam_id":76561199083594971,"connected_time":1969000000000,"state":"active","ping":63},{"user_id":661,"name":"S9__","steam_id":76561198065339248,"connected_time":1672000000000,"state":"active","ping":46},{"user_id":681,"name":"Yuri","steam_id":76561198071522511,"connected_time":1082000000000,"state":"active","ping":143},{"user_id":659,"name":"Fargo","steam_id":76561198044703931,"connected_time":1960000000000,"state":"active","ping":75},{"user_id":687,"name":"Jhumm","steam_id":76561198107876419,"connected_time":78000000000,"state":"active","ping":48},{"user_id":675,"name":"Dragonsalt","steam_id":76561198141927559,"connected_time":1319000000000,"state":"active","ping":74},{"user_id":663,"name":"Moffein","steam_id":76561198016739296,"connected_time":1668000000000,"state":"active","ping":46},{"user_id":635,"name":"Team Fartpiss Poo","steam_id":76561199163591880,"connected_time":2956000000000,"state":"active","ping":139},{"user_id":646,"name":"Heavy","steam_id":76561198117252635,"connected_time":2730000000000,"state":"active","ping":89},{"user_id":665,"name":"Chap","steam_id":76561198294226443,"connected_time":1631000000000,"state":"active","ping":72},{"user_id":685,"name":"Godzylian","steam_id":76561198084832040,"connected_time":513000000000,"state":"active","ping":55},{"user_id":667,"name":"pro-PAIN","steam_id":76561198104544593,"connected_time":1599000000000,"state":"active","ping":55},{"user_id":647,"name":"pro spy gun professinial gun sp","steam_id":76561198353456379,"connected_time":2697000000000,"state":"active","ping":77},{"user_id":683,"name":"i push fat kids off bikes","steam_id":76561198106491249,"connected_time":799000000000,"state":"active","ping":58},{"user_id":606,"name":"L a v e n b a k a","steam_id":76561198171261101,"connected_time":4405000000000,"state":"active","ping":99},{"user_id":676,"name":"flagman21","steam_id":76561198036788143,"connected_time":1302000000000,"state":"active","ping":105},{"user_id":678,"name":"Mud (rip apetor)","steam_id":76561198356426602,"connected_time":1293000000000,"state":"active","ping":46},{"user_id":656,"name":"Watt Dafuq","steam_id":76561198194402925,"connected_time":2492000000000,"state":"active","ping":132},{"user_id":680,"name":"Poop Train Conductor","steam_id":76561198073677619,"connected_time":1217000000000,"state":"active","ping":78}]},{"server_id":19,"name":"Uncletopia | San Francisco | 3 | Stopwatch Beta","name_short":"sfo-3","host":"sfo-1.us.uncletopia.com","port":27035,"enabled":true,"region":"us-west","cc":"us","latitude":37.77397,"longitude":-122.4313,"reserved":0,"last_update":"0001-01-01T00:00:00Z","name_a2s":"Uncletopia | San Francisco | 3 | Stopwatch Beta","protocol":17,"map":"cp_snakewater_final1","folder":"tf","game":"Team Fortress","app_id":440,"player_count":0,"max_players":24,"Bots":0,"server_type":"Dedicated","server_os":"Linux","password":true,"vac":true,"version":"7757534","steam_id":85568392924742824,"keywords":["cp","nocrits","nodmgspread","uncletopia"],"game_id":440,"stv_port":27036,"stv_name":"Uncletopia | San Francisco | 3 | Stopwatch Beta | STV","players":null},{"server_id":20,"name":"Uncletopia | San Francisco | 4 | Community","name_short":"sfo-4","host":"sfo-1.us.uncletopia.com","port":27045,"enabled":true,"region":"us-west","cc":"us","latitude":37.77397,"longitude":-122.4313,"reserved":0,"last_update":"0001-01-01T00:00:00Z","name_a2s":"Uncletopia | San Francisco | 4 | Community","protocol":17,"map":"workshop/koth_synthetic_rc6a.ugc1549817316","folder":"tf","game":"Team Fortress","app_id":440,"player_count":0,"max_players":24,"Bots":0,"server_type":"Dedicated","server_os":"Linux","password":true,"vac":true,"version":"7757534","steam_id":85568392924742826,"keywords":["cp","nocrits","nodmgspread","uncletopia"],"game_id":440,"stv_port":27046,"stv_name":"Uncletopia | San Francisco | 4 | Community | STV","players":null},{"server_id":141,"name":"Uncletopia | Sydney | 1 | All Maps","name_short":"syd-1","host":"syd-1.au.uncletopia.com","port":27015,"enabled":true,"region":"au","cc":"au","latitude":-33.865143,"longitude":151.2099,"reserved":0,"last_update":"0001-01-01T00:00:00Z","name_a2s":"Uncletopia | Sydney | 1 | All Maps","protocol":17,"map":"cp_dustbowl","folder":"tf","game":"Team Fortress","app_id":440,"player_count":20,"max_players":24,"Bots":0,"server_type":"Dedicated","server_os":"Linux","password":true,"vac":true,"version":"7757534","steam_id":85568392924470001,"keywords":["cp","nocrits","nodmgspread","uncletopia"],"game_id":440,"stv_port":27016,"stv_name":"Uncletopia | Sydney | 1 | All Maps | STV","players":[{"user_id":113,"name":"Poop2Hard","steam_id":76561198099383586,"connected_time":4000000000,"state":"spawning","ping":59},{"user_id":42,"name":"Jetfire","steam_id":76561198047370036,"connected_time":4397000000000,"state":"active","ping":74},{"user_id":96,"name":"AsianSpy","steam_id":76561198374762549,"connected_time":1039000000000,"state":"active","ping":58},{"user_id":52,"name":"DragRiper","steam_id":76561198050917553,"connected_time":3687000000000,"state":"active","ping":55},{"user_id":106,"name":"Genuline","steam_id":76561198126426787,"connected_time":353000000000,"state":"active","ping":53},{"user_id":111,"name":"spicy chalupah","steam_id":76561198289873606,"connected_time":44000000000,"state":"spawning","ping":82},{"user_id":87,"name":"Caydens_world","steam_id":76561199217655212,"connected_time":1706000000000,"state":"active","ping":154},{"user_id":98,"name":"JudeTheDude","steam_id":76561198834387981,"connected_time":964000000000,"state":"active","ping":181},{"user_id":99,"name":"granson","steam_id":76561198310550094,"connected_time":957000000000,"state":"active","ping":54},{"user_id":110,"name":"EmmArrGus","steam_id":76561198106343847,"connected_time":154000000000,"state":"active","ping":56},{"user_id":66,"name":"Dupiter","steam_id":76561198108820767,"connected_time":2640000000000,"state":"active","ping":54},{"user_id":81,"name":"Owlenstein™","steam_id":76561198093983826,"connected_time":1943000000000,"state":"active","ping":131},{"user_id":69,"name":"Raypest","steam_id":76561197980678745,"connected_time":2517000000000,"state":"active","ping":42},{"user_id":91,"name":"sweet","steam_id":76561198075311236,"connected_time":1388000000000,"state":"active","ping":51},{"user_id":75,"name":"Warren","steam_id":76561198120350917,"connected_time":2220000000000,"state":"active","ping":58},{"user_id":107,"name":"mashiro","steam_id":76561198053070636,"connected_time":264000000000,"state":"active","ping":38},{"user_id":105,"name":"ToadFungus","steam_id":76561199219667039,"connected_time":429000000000,"state":"active","ping":101},{"user_id":100,"name":"vicho","steam_id":76561199447372008,"connected_time":949000000000,"state":"active","ping":56},{"user_id":101,"name":"Chocolate Lightning","steam_id":76561198213958971,"connected_time":936000000000,"state":"active","ping":90},{"user_id":112,"name":"Dad","steam_id":76561198190255859,"connected_time":43000000000,"state":"spawning","ping":46}]},{"server_id":123,"name":"Uncletopia | Sydney | 2 | All Maps","name_short":"syd-2","host":"syd-1.au.uncletopia.com","port":27025,"enabled":true,"region":"au","cc":"au","latitude":-33.865143,"longitude":151.2099,"reserved":0,"last_update":"0001-01-01T00:00:00Z","name_a2s":"Uncletopia | Sydney | 2 | All Maps","protocol":17,"map":"pl_badwater","folder":"tf","game":"Team Fortress","app_id":440,"player_count":24,"max_players":24,"Bots":0,"server_type":"Dedicated","server_os":"Linux","password":true,"vac":true,"version":"7757534","steam_id":85568392924470002,"keywords":["nocrits","nodmgspread","payload","uncletopia"],"game_id":440,"stv_port":27026,"stv_name":"Uncletopia | Sydney | 2 | All Maps | STV","players":[{"user_id":319,"name":"internetkittenz13","steam_id":76561198881042979,"connected_time":104000000000,"state":"active","ping":44},{"user_id":285,"name":"Nyk","steam_id":76561198125000580,"connected_time":2280000000000,"state":"active","ping":44},{"user_id":317,"name":"CK","steam_id":76561197965204524,"connected_time":150000000000,"state":"active","ping":164},{"user_id":302,"name":"Twink-182","steam_id":76561198090088613,"connected_time":1363000000000,"state":"active","ping":100},{"user_id":283,"name":"CypressFluff (She/Her)","steam_id":76561198174667818,"connected_time":2368000000000,"state":"active","ping":57},{"user_id":286,"name":"DÄNK D0PER$ØN","steam_id":76561198127257666,"connected_time":2274000000000,"state":"active","ping":58},{"user_id":303,"name":"badmn","steam_id":76561198056462343,"connected_time":1344000000000,"state":"active","ping":69},{"user_id":280,"name":"Bigrichard","steam_id":76561198032092945,"connected_time":2555000000000,"state":"active","ping":77},{"user_id":297,"name":"Wolffe≫","steam_id":76561198065289231,"connected_time":1957000000000,"state":"active","ping":88},{"user_id":243,"name":"JmayTheUnknown","steam_id":76561198217463552,"connected_time":6541000000000,"state":"active","ping":75},{"user_id":291,"name":"jonotan","steam_id":76561198397690561,"connected_time":2110000000000,"state":"active","ping":55},{"user_id":321,"name":"Diavolo Diablo","steam_id":76561198166295333,"connected_time":11000000000,"state":"spawning","ping":163},{"user_id":311,"name":"mmm","steam_id":76561198151416348,"connected_time":282000000000,"state":"active","ping":64},{"user_id":320,"name":"abcdef","steam_id":76561198083700749,"connected_time":34000000000,"state":"active","ping":42},{"user_id":247,"name":"Tiger_Tan","steam_id":76561198221733844,"connected_time":6320000000000,"state":"active","ping":61},{"user_id":310,"name":"Mac","steam_id":76561198063407128,"connected_time":403000000000,"state":"active","ping":45},{"user_id":294,"name":"Charm","steam_id":76561198028891054,"connected_time":2046000000000,"state":"active","ping":61},{"user_id":284,"name":"ex0dia","steam_id":76561198048349719,"connected_time":2364000000000,"state":"active","ping":57},{"user_id":312,"name":"squrrel","steam_id":76561198083429611,"connected_time":269000000000,"state":"active","ping":103},{"user_id":318,"name":"MistaRarted","steam_id":76561198973863022,"connected_time":140000000000,"state":"active","ping":64},{"user_id":308,"name":"Crab","steam_id":76561198121717806,"connected_time":861000000000,"state":"active","ping":69},{"user_id":304,"name":"Squishy","steam_id":76561198985769205,"connected_time":1336000000000,"state":"active","ping":55},{"user_id":236,"name":"Chooka","steam_id":76561197992307814,"connected_time":6991000000000,"state":"active","ping":64},{"user_id":299,"name":"Wabble Dee","steam_id":76561198966352097,"connected_time":1839000000000,"state":"active","ping":85}]},{"server_id":395,"name":"Uncletopia | Sydney | 3 | All Maps","name_short":"syd-3","host":"syd-1.au.uncletopia.com","port":27035,"enabled":true,"region":"au","cc":"au","latitude":-33.865143,"longitude":151.2099,"reserved":0,"last_update":"0001-01-01T00:00:00Z","name_a2s":"Uncletopia | Sydney | 3 | All Maps","protocol":17,"map":"pl_swiftwater_final1","folder":"tf","game":"Team Fortress","app_id":440,"player_count":4,"max_players":24,"Bots":0,"server_type":"Dedicated","server_os":"Linux","password":true,"vac":true,"version":"7757534","steam_id":85568392925194467,"keywords":["nocrits","nodmgspread","payload","uncletopia"],"game_id":440,"stv_port":27036,"stv_name":"Uncletopia | Sydney | 3 | All Maps | STV","players":[{"user_id":18,"name":"ericacummins","steam_id":76561198946280912,"connected_time":558000000000,"state":"active","ping":87},{"user_id":17,"name":"Janbric OwO","steam_id":76561199161207802,"connected_time":846000000000,"state":"active","ping":86},{"user_id":22,"name":"paradox","steam_id":76561199004442140,"connected_time":441000000000,"state":"active","ping":95},{"user_id":21,"name":"Branko","steam_id":76561199262196710,"connected_time":526000000000,"state":"active","ping":41}]},{"server_id":396,"name":"Uncletopia | Sydney | 4 | All Maps","name_short":"syd-4","host":"syd-1.au.uncletopia.com","port":27045,"enabled":true,"region":"au","cc":"au","latitude":-33.865143,"longitude":151.2099,"reserved":0,"last_update":"0001-01-01T00:00:00Z","name_a2s":"Uncletopia | Sydney | 4 | All Maps","protocol":17,"map":"cp_dustbowl","folder":"tf","game":"Team Fortress","app_id":440,"player_count":0,"max_players":24,"Bots":0,"server_type":"Dedicated","server_os":"Linux","password":true,"vac":true,"version":"7757534","steam_id":85568392925397958,"keywords":["cp","nocrits","nodmgspread","uncletopia"],"game_id":440,"stv_port":27046,"stv_name":"Uncletopia | Sydney | 4 | All Maps | STV","players":null},{"server_id":58,"name":"Uncletopia | Sydney | 5 | Stopwatch Beta","name_short":"syd-5","host":"syd-1.au.uncletopia.com","port":27055,"enabled":true,"region":"au","cc":"au","latitude":-33.865143,"longitude":151.2099,"reserved":0,"last_update":"0001-01-01T00:00:00Z","name_a2s":"Uncletopia | Sydney | 5 | Stopwatch Beta","protocol":17,"map":"workshop/koth_clearcut_b15.ugc2107050255","folder":"tf","game":"Team Fortress","app_id":440,"player_count":0,"max_players":24,"Bots":0,"server_type":"Dedicated","server_os":"Linux","password":true,"vac":true,"version":"7757534","steam_id":85568392925397959,"keywords":["cp","nocrits","nodmgspread","uncletopia"],"game_id":440,"stv_port":27056,"stv_name":"Uncletopia | Sydney | 5 | Stopwatch Beta | STV","players":null},{"server_id":59,"name":"Uncletopia | Sydney | 6 | Community","name_short":"syd-6","host":"syd-1.au.uncletopia.com","port":27065,"enabled":true,"region":"au","cc":"au","latitude":-33.865143,"longitude":151.2099,"reserved":0,"last_update":"0001-01-01T00:00:00Z","name_a2s":"Uncletopia | Sydney | 6 | Community","protocol":17,"map":"workshop/pl_emerge_rc2.ugc888027758","folder":"tf","game":"Team Fortress","app_id":440,"player_count":0,"max_players":24,"Bots":0,"server_type":"Dedicated","server_os":"Linux","password":true,"vac":true,"version":"7757534","steam_id":85568392925397960,"keywords":["nocrits","nodmgspread","payload","uncletopia"],"game_id":440,"stv_port":27066,"stv_name":"Uncletopia | Sydney | 6 | Community | STV","players":null},{"server_id":49,"name":"Uncletopia | Warsaw | 1 | All Maps","name_short":"waw-1","host":"waw-1.pl.uncletopia.com","port":27015,"enabled":true,"region":"eu","cc":"pl","latitude":52.2297,"longitude":21.017532,"reserved":0,"last_update":"0001-01-01T00:00:00Z","name_a2s":"","protocol":0,"map":"","folder":"","game":"","app_id":0,"player_count":0,"max_players":0,"Bots":0,"server_type":"","server_os":"","password":false,"vac":false,"version":"","steam_id":0,"keywords":null,"game_id":0,"stv_port":0,"stv_name":"","players":null},{"server_id":50,"name":"Uncletopia | Warsaw | 2 | All Maps","name_short":"waw-2","host":"waw-1.pl.uncletopia.com","port":27025,"enabled":true,"region":"eu","cc":"pl","latitude":52.2297,"longitude":21.017532,"reserved":0,"last_update":"0001-01-01T00:00:00Z","name_a2s":"Uncletopia | Warsaw | 2 | All Maps","protocol":17,"map":"cp_snakewater_final1","folder":"tf","game":"Team Fortress","app_id":440,"player_count":0,"max_players":24,"Bots":0,"server_type":"Dedicated","server_os":"Linux","password":true,"vac":true,"version":"7757534","steam_id":85568392925397851,"keywords":["cp","nocrits","nodmgspread","uncletopia"],"game_id":440,"stv_port":27026,"stv_name":"Uncletopia | Warsaw | 2 | All Maps | STV","players":null},{"server_id":51,"name":"Uncletopia | Warsaw | 3 | All Maps","name_short":"waw-3","host":"waw-1.pl.uncletopia.com","port":27035,"enabled":true,"region":"eu","cc":"pl","latitude":52.2297,"longitude":21.017532,"reserved":0,"last_update":"0001-01-01T00:00:00Z","name_a2s":"Uncletopia | Warsaw | 3 | All Maps","protocol":17,"map":"pl_barnblitz","folder":"tf","game":"Team Fortress","app_id":440,"player_count":0,"max_players":24,"Bots":0,"server_type":"Dedicated","server_os":"Linux","password":true,"vac":true,"version":"7757534","steam_id":85568392925397852,"keywords":["nocrits","nodmgspread","payload","uncletopia"],"game_id":440,"stv_port":27036,"stv_name":"Uncletopia | Warsaw | 3 | All Maps | STV","players":null},{"server_id":52,"name":"Uncletopia | Warsaw | 4 | All Maps","name_short":"waw-4","host":"waw-1.pl.uncletopia.com","port":27045,"enabled":true,"region":"eu","cc":"pl","latitude":52.2297,"longitude":21.017532,"reserved":0,"last_update":"0001-01-01T00:00:00Z","name_a2s":"Uncletopia | Warsaw | 4 | All Maps","protocol":17,"map":"cp_altitude","folder":"tf","game":"Team Fortress","app_id":440,"player_count":0,"max_players":24,"Bots":0,"server_type":"Dedicated","server_os":"Linux","password":true,"vac":true,"version":"7757534","steam_id":85568392925397853,"keywords":["cp","nocrits","nodmgspread","uncletopia"],"game_id":440,"stv_port":27046,"stv_name":"Uncletopia | Warsaw | 4 | All Maps | STV","players":null},{"server_id":53,"name":"Uncletopia | Warsaw | 5 | Stopwatch Beta","name_short":"waw-5","host":"waw-1.pl.uncletopia.com","port":27055,"enabled":true,"region":"eu","cc":"pl","latitude":52.2297,"longitude":21.017532,"reserved":0,"last_update":"0001-01-01T00:00:00Z","name_a2s":"Uncletopia | Warsaw | 5 | Stopwatch Beta","protocol":17,"map":"pl_pier","folder":"tf","game":"Team Fortress","app_id":440,"player_count":0,"max_players":24,"Bots":0,"server_type":"Dedicated","server_os":"Linux","password":true,"vac":true,"version":"7757534","steam_id":85568392925397854,"keywords":["nocrits","nodmgspread","payload","uncletopia"],"game_id":440,"stv_port":27056,"stv_name":"Uncletopia | Warsaw | 5 | Stopwatch Beta | STV","players":null},{"server_id":54,"name":"Uncletopia | Warsaw | 6 | Community","name_short":"waw-6","host":"waw-1.pl.uncletopia.com","port":27065,"enabled":true,"region":"eu","cc":"pl","latitude":52.2297,"longitude":21.017532,"reserved":0,"last_update":"0001-01-01T00:00:00Z","name_a2s":"Uncletopia | Warsaw | 6 | Community","protocol":17,"map":"koth_highpass","folder":"tf","game":"Team Fortress","app_id":440,"player_count":0,"max_players":24,"Bots":0,"server_type":"Dedicated","server_os":"Linux","password":true,"vac":true,"version":"7757534","steam_id":85568392925397856,"keywords":["cp","nocrits","nodmgspread","uncletopia"],"game_id":440,"stv_port":27066,"stv_name":"Uncletopia | Warsaw | 6 | Community | STV","players":null}]}