{"status":true,"message":"","result":[{"server_id":9,"name":"Uncletopia | Atlanta | 1 | All Maps","name_short":"atl-1","host":"atl-1.us.uncletopia.com","port":27015,"enabled":true,"region":"us-east","cc":"us","latitude":33.753746,"longitude":-84.38633,"reserved":0,"last_update":"0001-01-01T00:00:00Z","name_a2s":"Uncletopia | Atlanta | 1 | All Maps","protocol":17,"map":"pl_badwater","folder":"tf","game":"Team Fortress","app_id":440,"player_count":24,"max_players":24,"Bots":0,"server_type":"Dedicated","server_os":"Linux","password":true,"vac":true,"version":"7757534","steam_id":85568392924469982,"keywords":["nocrits","nodmgspread","payload","uncletopia"],"game_id":440,"stv_port":27016,"stv_name":"Uncletopia | Atlanta | 1 | All Maps | STV","players":[{"user_id":21,"name":"FreonAddict9x19","steam_id":76561198060010824,"connected_time":2451000000000,"state":"active","ping":67},{"user_id":19,"name":"minly","steam_id":76561199078991134,"connected_time":3069000000000,"state":"active","ping":52},{"user_id":6,"name":"Drygongames","steam_id":76561198250418424,"connected_time":4562000000000,"state":"active","ping":82},{"user_id":22,"name":"Cold Soup","steam_id":76561198976624870,"connected_time":2314000000000,"state":"active","ping":100},{"user_id":63,"name":"Axuze Art","steam_id":76561199382303891,"connected_time":228000000000,"state":"active","ping":58},{"user_id":58,"name":"Gary Budussy","steam_id":76561197969793969,"connected_time":850000000000,"state":"active","ping":76},{"user_id":20,"name":".jpegged","steam_id":76561198120078454,"connected_time":2688000000000,"state":"active","ping":70},{"user_id":24,"name":"chiswola","steam_id":76561198046920142,"connected_time":1983000000000,"state":"active","ping":94},{"user_id":64,"name":"Atomik","steam_id":76561199070549800,"connected_time":218000000000,"state":"active","ping":63},{"user_id":26,"name":"chaotic bug goblin creature","steam_id":76561198079437901,"connected_time":1952000000000,"state":"active","ping":72},{"user_id":54,"name":"ThisBeMe","steam_id":76561199282571894,"connected_time":973000000000,"state":"active","ping":109},{"user_id":28,"name":"LloydMann","steam_id":76561198025392778,"connected_time":1905000000000,"state":"active","ping":70},{"user_id":29,"name":"Nimdok","steam_id":76561198052213644,"connected_time":1891000000000,"state":"active","ping":79},{"user_id":30,"name":"[HAM] Stargazer","steam_id":76561198075490415,"connected_time":1864000000000,"state":"active","ping":51},{"user_id":62,"name":"Kab","steam_id":76561198073503100,"connected_time":256000000000,"state":"active","ping":67},{"user_id":55,"name":"Dawk Rawk","steam_id":76561197996027396,"connected_time":949000000000,"state":"active","ping":45},{"user_id":60,"name":"Hakn","steam_id":76561198051068084,"connected_time":773000000000,"state":"active","ping":62},{"user_id":65,"name":"barbara","steam_id":76561198072417792,"connected_time":206000000000,"state":"active","ping":109},{"user_id":61,"name":"Highphin","steam_id":76561198986584680,"connected_time":389000000000,"state":"active","ping":82},{"user_id":56,"name":"J  Man","steam_id":76561198401224356,"connected_time":947000000000,"state":"active","ping":76},{"user_id":37,"name":"creepycrawler","steam_id":76561198352016831,"connected_time":1595000000000,"state":"active","ping":77},{"user_id":66,"name":"reanimator","steam_id":76561198085830470,"connected_time":170000000000,"state":"active","ping":67},{"user_id":67,"name":"LightBulbGlue #SaveTF2","steam_id":76561198329573529,"connected_time":103000000000,"state":"active","ping":87},{"user_id":57,"name":"Titus Tyrwitt","steam_id":76561197990779673,"connected_time":947000000000,"state":"active","ping":60}]},{"server_id":104,"name":"Uncletopia | Atlanta | 2 | All Maps","name_short":"atl-2","host":"atl-1.us.uncletopia.com","port":27025,"enabled":true,"region":"us-east","cc":"us","latitude":33.753746,"longitude":-84.38633,"reserved":0,"last_update":"0001-01-01T00:00:00Z","name_a2s":"Uncletopia | Atlanta | 2 | All Maps","protocol":17,"map":"cp_dustbowl","folder":"tf","game":"Team Fortress","app_id":440,"player_count":0,"max_players":24,"Bots":0,"server_type":"Dedicated","server_os":"Linux","password":true,"vac":true,"version":"7757534","steam_id":85568392924469983,"keywords":["cp","nocrits","nodmgspread","uncletopia"],"game_id":440,"stv_port":27026,"stv_name":"Uncletopia | Atlanta | 2 | All Maps | STV","players":null},{"server_id":400,"name":"Uncletopia | Atlanta | 3 | Community","name_short":"atl-3","host":"atl-1.us.uncletopia.com","port":27035,"enabled":true,"region":"us-east","cc":"us","latitude":33.753746,"longitude":-84.38633,"reserved":0,"last_update":"0001-01-01T00:00:00Z","name_a2s":"Uncletopia | Atlanta | 3 | Community","protocol":17,"map":"cp_snakewater_final1","folder":"tf","game":"Team Fortress","app_id":440,"player_count":0,"max_players":24,"Bots":0,"server_type":"Dedicated","server_os":"Linux","password":true,"vac":true,"version":"7757534","steam_id":85568392924515187,"keywords":["cp","nocrits","nodmgspread","uncletopia"],"game_id":440,"stv_port":27036,"stv_name":"Uncletopia | Atlanta | 3 | Community | STV","players":null},{"server_id":401,"name":"Uncletopia | Atlanta | 4 | No Payload","name_short":"atl-4","host":"atl-1.us.uncletopia.com","port":27045,"enabled":true,"region":"us-east","cc":"us","latitude":33.753746,"longitude":-84.38633,"reserved":0,"last_update":"0001-01-01T00:00:00Z","name_a2s":"","protocol":0,"map":"","folder":"","game":"","app_id":0,"player_count":0,"max_players":0,"Bots":0,"server_type":"","server_os":"","password":false,"vac":false,"version":"","steam_id":0,"keywords":null,"game_id":0,"stv_port":0,"stv_name":"","players":null},{"server_id":2,"name":"Uncletopia | Chicago | 1 | All Maps","name_short":"chi-1","host":"chi-1.us.uncletopia.com","port":27015,"enabled":true,"region":"us-central","cc":"us","latitude":41.881832,"longitude":-87.62318,"reserved":0,"last_update":"0001-01-01T00:00:00Z","name_a2s":"Uncletopia | Chicago | 1 | All Maps","protocol":17,"map":"pl_upward","folder":"tf","game":"Team Fortress","app_id":440,"player_count":24,"max_players":24,"Bots":0,"server_type":"Dedicated","server_os":"Linux","password":true,"vac":true,"version":"7757534","steam_id":85568392924469984,"keywords":["nocrits","nodmgspread","payload","uncletopia"],"game_id":440,"stv_port":27016,"stv_name":"Uncletopia | Chicago | 1 | All Maps | STV","players":[{"user_id":130,"name":"DinoFan11902","steam_id":76561198260348654,"connected_time":1180000000000,"state":"active","ping":68},{"user_id":136,"name":"Demoman With One Joke","steam_id":76561197993467034,"connected_time":684000000000,"state":"active","ping":53},{"user_id":138,"name":"Dan Stan The Mr Man","steam_id":76561198017134269,"connected_time":590000000000,"state":"active","ping":170},{"user_id":137,"name":"Seller of Waffles","steam_id":76561198296018138,"connected_time":647000000000,"state":"active","ping":56},{"user_id":139,"name":"Thatguy_1029","steam_id":76561199232419803,"connected_time":548000000000,"state":"active","ping":79},{"user_id":146,"name":"Cuttle's Fish","steam_id":76561198280483257,"connected_time":323000000000,"state":"active","ping":60},{"user_id":124,"name":"Veirū Viseris","steam_id":76561197989857176,"connected_time":1440000000000,"state":"active","ping":158},{"user_id":83,"name":"bee","steam_id":76561198025553902,"connected_time":4456000000000,"state":"active","ping":45},{"user_id":112,"name":"raw chicken enjoyer","steam_id":76561198986943063,"connected_time":2285000000000,"state":"active","ping":59},{"user_id":102,"name":"Mister36","steam_id":76561198019132100,"connected_time":2459000000000,"state":"active","ping":50},{"user_id":143,"name":"Winter the Witchie","steam_id":76561198151971178,"connected_time":369000000000,"state":"active","ping":61},{"user_id":141,"name":"kallerannar","steam_id":76561199095701143,"connected_time":413000000000,"state":"active","ping":161},{"user_id":107,"name":"Ficus","steam_id":76561197994581173,"connected_time":2377000000000,"state":"active","ping":55},{"user_id":59,"name":"ground control","steam_id":76561198044265737,"connected_time":5993000000000,"state":"active","ping":46},{"user_id":122,"name":"D0VE","steam_id":76561198151618566,"connected_time":1540000000000,"state":"active","ping":103},{"user_id":111,"name":"vic vinegar","steam_id":76561198071775268,"connected_time":2289000000000,"state":"active","ping":91},{"user_id":117,"name":"KnifeScope","steam_id":76561198057632106,"connected_time":1759000000000,"state":"active","ping":77},{"user_id":133,"name":"Romo","steam_id":76561198243101572,"connected_time":863000000000,"state":"active","ping":88},{"user_id":131,"name":"capybapy","steam_id":76561198798828328,"connected_time":973000000000,"state":"active","ping":47},{"user_id":128,"name":"Vorple","steam_id":76561198068173354,"connected_time":1234000000000,"state":"active","ping":108},{"user_id":129,"name":"BroBuck3","steam_id":76561198119436987,"connected_time":1206000000000,"state":"active","ping":71},{"user_id":38,"name":"King","steam_id":76561198039763676,"connected_time":7286000000000,"state":"active","ping":65},{"user_id":144,"name":"horny femboy","steam_id":76561199480741801,"connected_time":347000000000,"state":"active","ping":149},{"user_id":145,"name":"cinnamon","steam_id":76561199061970024,"connected_time":339000000000,"state":"active","ping":98}]},{"server_id":106,"name":"Uncletopia | Chicago | 2 | All Maps","name_short":"chi-2","host":"chi-1.us.uncletopia.com","port":27025,"enabled":true,"region":"us-central","cc":"us","latitude":41.881832,"longitude":-87.62318,"reserved":0,"last_update":"0001-01-01T00:00:00Z","name_a2s":"Uncletopia | Chicago | 2 | All Maps","protocol":17,"map":"pl_swiftwater_final1","folder":"tf","game":"Team Fortress","app_id":440,"player_count":24,"max_players":24,"Bots":0,"server_type":"Dedicated","server_os":"Linux","password":true,"vac":true,"version":"7757534","steam_id":85568392924469985,"keywords":["nocrits","nodmgspread","payload","uncletopia"],"game_id":440,"stv_port":27026,"stv_name":"Uncletopia | Chicago | 2 | All Maps | STV","players":[{"user_id":181,"name":"Cruisin'","steam_id":76561199245457119,"connected_time":414000000000,"state":"active","ping":75},{"user_id":169,"name":"the nuisance","steam_id":76561198396326793,"connected_time":1631000000000,"state":"active","ping":85},{"user_id":174,"name":"MAK","steam_id":76561198089361823,"connected_time":1319000000000,"state":"active","ping":118},{"user_id":182,"name":"Jo_","steam_id":76561198142135469,"connected_time":338000000000,"state":"active","ping":62},{"user_id":180,"name":"Onyiun","steam_id":76561199124107338,"connected_time":462000000000,"state":"active","ping":97},{"user_id":142,"name":"Uncle Garrow","steam_id":76561198044092599,"connected_time":2680000000000,"state":"active","ping":60},{"user_id":148,"name":"_Lusty_","steam_id":76561198876948142,"connected_time":2297000000000,"state":"active","ping":64},{"user_id":179,"name":"Rango","steam_id":76561198067275912,"connected_time":742000000000,"state":"active","ping":119},{"user_id":173,"name":"Grease Monkey","steam_id":76561199073112578,"connected_time":1391000000000,"state":"active","ping":75},{"user_id":117,"name":"O o g","steam_id":76561199267535506,"connected_time":4192000000000,"state":"active","ping":89},{"user_id":146,"name":"Kymat","steam_id":76561198056367793,"connected_time":2460000000000,"state":"active","ping":73},{"user_id":183,"name":"craven","steam_id":76561198088191503,"connected_time":337000000000,"state":"active","ping":75},{"user_id":163,"name":"Danger Dwarf","steam_id":76561198059490571,"connected_time":1906000000000,"state":"active","ping":71},{"user_id":147,"name":"Zanartan","steam_id":76561198050528902,"connected_time":2384000000000,"state":"active","ping":182},{"user_id":187,"name":"PEPPINO SPAGHETTI","steam_id":76561198084849541,"connected_time":55000000000,"state":"spawning","ping":60},{"user_id":144,"name":"indi","steam_id":76561198045917538,"connected_time":2506000000000,"state":"active","ping":47},{"user_id":184,"name":"Legit_Jaxer","steam_id":76561198172234053,"connected_time":327000000000,"state":"active","ping":106},{"user_id":186,"name":"brunola0110#safetf2","steam_id":76561199132598729,"connected_time":179000000000,"state":"active","ping":182},{"user_id":156,"name":"tyg","steam_id":76561198056246867,"connected_time":2124000000000,"state":"active","ping":67},{"user_id":94,"name":"Noob","steam_id":76561198157087098,"connected_time":6466000000000,"state":"active","ping":54},{"user_id":185,"name":"Doc{MDW}","steam_id":76561198075049640,"connected_time":308000000000,"state":"active","ping":97},{"user_id":152,"name":"TJGSASQUATCH","steam_id":76561198077806921,"connected_time":2144000000000,"state":"active","ping":76},{"user_id":143,"name":"zzzz","steam_id":76561199413388036,"connected_time":2526000000000,"state":"active","ping":109},{"user_id":177,"name":"flanker? i hardly know her","steam_id":76561198328109873,"connected_time":985000000000,"state":"active","ping":72}]},{"server_id":402,"name":"Uncletopia | Chicago | 3 | All Maps","name_short":"chi-3","host":"chi-1.us.uncletopia.com","port":27035,"enabled":true,"region":"us-central","cc":"us","latitude":41.881832,"longitude":-87.62318,"reserved":0,"last_update":"0001-01-01T00:00:00Z","name_a2s":"Uncletopia | Chicago | 3 | All Maps","protocol":17,"map":"cp_altitude","folder":"tf","game":"Team Fortress","app_id":440,"player_count":0,"max_players":24,"Bots":0,"server_type":"Dedicated","server_os":"Linux","password":true,"vac":true,"version":"7757534","steam_id":85568392924515191,"keywords":["cp","nocrits","nodmgspread","uncletopia"],"game_id":440,"stv_port":27036,"stv_name":"Uncletopia | Chicago | 3 | All Maps | STV","players":null},{"server_id":403,"name":"Uncletopia | Chicago | 4 | All Maps","name_short":"chi-4","host":"chi-1.us.uncletopia.com","port":27045,"enabled":true,"region":"us-central","cc":"us","latitude":41.881832,"longitude":-87.62318,"reserved":0,"last_update":"0001-01-01T00:00:00Z","name_a2s":"Uncletopia | Chicago | 4 | All Maps","protocol":17,"map":"koth_viaduct","folder":"tf","game":"Team Fortress","app_id":440,"player_count":0,"max_players":24,"Bots":0,"server_type":"Dedicated","server_os":"Linux","password":true,"vac":true,"version":"7757534","steam_id":85568392924515193,"keywords":["cp","nocrits","nodmgspread","uncletopia"],"game_id":440,"stv_port":27046,"stv_name":"Uncletopia | Chicago | 4 | All Maps | STV","players":null},{"server_id":36,"name":"Uncletopia | Chicago | 5 | All Maps","name_short":"chi-5","host":"chi-2.us.uncletopia.com","port":27015,"enabled":true,"region":"us-central","cc":"us","latitude":41.881832,"longitude":-87.62318,"reserved":0,"last_update":"0001-01-01T00:00:00Z","name_a2s":"Uncletopia | Chicago | 5 | All Maps","protocol":17,"map":"koth_cascade","folder":"tf","game":"Team Fortress","app_id":440,"player_count":0,"max_players":24,"Bots":0,"server_type":"Dedicated","server_os":"Linux","password":true,"vac":true,"version":"7757534","steam_id":85568392924866362,"keywords":["cp","nocrits","nodmgspread","uncletopia"],"game_id":440,"stv_port":27016,"stv_name":"Uncletopia | Chicago | 5 | All Maps | STV","players":null},{"server_id":37,"name":"Uncletopia | Chicago | 6 | All Maps","name_short":"chi-6","host":"chi-2.us.uncletopia.com","port":27025,"enabled":true,"region":"us-central","cc":"us","latitude":41.881832,"longitude":-87.62318,"reserved":0,"last_update":"0001-01-01T00:00:00Z","name_a2s":"Uncletopia | Chicago | 6 | All Maps","protocol":17,"map":"pl_borneo","folder":"tf","game":"Team Fortress","app_id":440,"player_count":0,"max_players":24,"Bots":0,"server_type":"Dedicated","server_os":"Linux","password":true,"vac":true,"version":"7757534","steam_id":85568392924866363,"keywords":["nocrits","nodmgspread","payload","uncletopia"],"game_id":440,"stv_port":27026,"stv_name":"Uncletopia | Chicago | 6 | All Maps | STV","players":null},{"server_id":38,"name":"Uncletopia | Chicago | 7 | Stopwatch Beta","name_short":"chi-7","host":"chi-2.us.uncletopia.com","port":27035,"enabled":true,"region":"us-central","cc":"us","latitude":41.881832,"longitude":-87.62318,"reserved":0,"last_update":"0001-01-01T00:00:00Z","name_a2s":"Uncletopia | Chicago | 7 | Stopwatch Beta","protocol":17,"map":"pl_barnblitz","folder":"tf","game":"Team Fortress","app_id":440,"player_count":0,"max_players":24,"Bots":0,"server_type":"Dedicated","server_os":"Linux","password":true,"vac":true,"version":"7757534","steam_id":85568392924866364,"keywords":["nocrits","nodmgspread","payload","uncletopia"],"game_id":440,"stv_port":27036,"stv_name":"Uncletopia | Chicago | 7 | Stopwatch Beta | STV","players":null},{"server_id":39,"name":"Uncletopia | Chicago | 8 | Community","name_short":"chi-8","host":"chi-2.us.uncletopia.com","port":27045,"enabled":true,"region":"us-central","cc":"us","latitude":41.881832,"longitude":-87.62318,"reserved":0,"last_update":"0001-01-01T00:00:00Z","name_a2s":"Uncletopia | Chicago | 8 | Community","protocol":17,"map":"koth_cascade","folder":"tf","game":"Team Fortress","app_id":440,"player_count":0,"max_players":24,"Bots":0,"server_type":"Dedicated","server_os":"Linux","password":true,"vac":true,"version":"7757534","steam_id":85568392924866365,"keywords":["cp","nocrits","nodmgspread","uncletopia"],"game_id":440,"stv_port":27046,"stv_name":"Uncletopia | Chicago | 8 | Community | STV","players":null},{"server_id":8,"name":"Uncletopia | Dallas | 1 | All Maps","name_short":"dal-1","host":"dal-1.us.uncletopia.com","port":27015,"enabled":true,"region":"us-central","cc":"us","latitude":32.779167,"longitude":-96.80889,"reserved":0,"last_update":"0001-01-01T00:00:00Z","name_a2s":"Uncletopia | Dallas | 1 | All Maps","protocol":17,"map":"koth_cascade","folder":"tf","game":"Team Fortress","app_id":440,"player_count":0,"max_players":24,"Bots":0,"server_type":"Dedicated","server_os":"Linux","password":true,"vac":true,"version":"7757534","steam_id":85568392924469986,"keywords":["cp","nocrits","nodmgspread","uncletopia"],"game_id":440,"stv_port":27016,"stv_name":"Uncletopia | Dallas | 1 | All Maps | STV","players":null},{"server_id":108,"name":"Uncletopia | Dallas | 2 | All Maps","name_short":"dal-2","host":"dal-1.us.uncletopia.com","port":27025,"enabled":true,"region":"us-central","cc":"us","latitude":32.779167,"longitude":-96.80889,"reserved":0,"last_update":"0001-01-01T00:00:00Z","name_a2s":"Uncletopia | Dallas | 2 | All Maps","protocol":17,"map":"pl_borneo","folder":"tf","game":"Team Fortress","app_id":440,"player_count":0,"max_players":24,"Bots":0,"server_type":"Dedicated","server_os":"Linux","password":true,"vac":true,"version":"7757534","steam_id":85568392924469988,"keywords":["nocrits","nodmgspread","payload","uncletopia"],"game_id":440,"stv_port":27026,"stv_name":"Uncletopia | Dallas | 2 | All Maps | STV","players":null},{"server_id":5,"name":"Uncletopia | Frankfurt | 1 | All Maps","name_short":"frk-1","host":"frk-1.de.uncletopia.com","port":27015,"enabled":true,"region":"eu","cc":"de","latitude":50.110924,"longitude":8.682127,"reserved":0,"last_update":"0001-01-01T00:00:00Z","name_a2s":"Uncletopia | Frankfurt | 1 | All Maps","protocol":17,"map":"koth_viaduct","folder":"tf","game":"Team Fortress","app_id":440,"player_count":0,"max_players":24,"Bots":0,"server_type":"Dedicated","server_os":"Linux","password":true,"vac":true,"version":"7757534","steam_id":85568392924469989,"keywords":["cp","nocrits","nodmgspread","uncletopia"],"game_id":440,"stv_port":27016,"stv_name":"Uncletopia | Frankfurt | 1 | All Maps | STV","players":null},{"server_id":110,"name":"Uncletopia | Frankfurt | 2 | All Maps","name_short":"frk-2","host":"frk-1.de.uncletopia.com","port":27025,"enabled":true,"region":"eu","cc":"de","latitude":50.110924,"longitude":8.682127,"reserved":0,"last_update":"0001-01-01T00:00:00Z","name_a2s":"Uncletopia | Frankfurt | 2 | All Maps","protocol":17,"map":"pl_badwater","folder":"tf","game":"Team Fortress","app_id":440,"player_count":23,"max_players":24,"Bots":0,"server_type":"Dedicated","server_os":"Linux","password":true,"vac":true,"version":"7757534","steam_id":85568392924469990,"keywords":["nocrits","nodmgspread","payload","uncletopia"],"game_id":440,"stv_port":27026,"stv_name":"Uncletopia | Frankfurt | 2 | All Maps | STV","players":[{"user_id":201,"name":"Egtu","steam_id":76561198013757235,"connected_time":1693000000000,"state":"active","ping":69},{"user_id":197,"name":"elsuedi","steam_id":76561198074722832,"connected_time":2069000000000,"state":"active","ping":57},{"user_id":182,"name":"VanillaWoof","steam_id":76561198158343951,"connected_time":3316000000000,"state":"active","ping":51},{"user_id":223,"name":"mp1mp2mp3","steam_id":76561198088967665,"connected_time":422000000000,"state":"active","ping":102},{"user_id":230,"name":"Jyghcierest","steam_id":76561198405980575,"connected_time":225000000000,"state":"active","ping":67},{"user_id":206,"name":"that turkish mf#savetf2","steam_id":76561199352819594,"connected_time":1457000000000,"state":"active","ping":99},{"user_id":180,"name":"Tre3","steam_id":76561198054795379,"connected_time":3397000000000,"state":"active","ping":60},{"user_id":218,"name":"lunaire","steam_id":76561198163344452,"connected_time":747000000000,"state":"active","ping":79},{"user_id":156,"name":"Tec","steam_id":76561199096762480,"connected_time":5262000000000,"state":"active","ping":68},{"user_id":225,"name":"holykyckling","steam_id":76561198040661615,"connected_time":317000000000,"state":"active","ping":74},{"user_id":231,"name":"Pestdoktor","steam_id":76561198058159271,"connected_time":117000000000,"state":"active","ping":63},{"user_id":212,"name":"zek","steam_id":76561198862763731,"connected_time":1352000000000,"state":"active","ping":53},{"user_id":219,"name":"bass solo","steam_id":76561199117720299,"connected_time":679000000000,"state":"active","ping":49},{"user_id":222,"name":"pcg_","steam_id":76561198861555663,"connected_time":494000000000,"state":"active","ping":77},{"user_id":173,"name":"Magirby","steam_id":76561198818777390,"connected_time":4078000000000,"state":"active","ping":105},{"user_id":224,"name":"bad farter","steam_id":76561198261853441,"connected_time":401000000000,"state":"active","ping":60},{"user_id":193,"name":"Wranje Rovah","steam_id":76561198089003514,"connected_time":2372000000000,"state":"active","ping":45},{"user_id":134,"name":"Jeremy265","steam_id":76561199004316549,"connected_time":6965000000000,"state":"active","ping":117},{"user_id":195,"name":"LarsInABox","steam_id":76561198028329262,"connected_time":2210000000000,"state":"active","ping":76},{"user_id":200,"name":"pain train tf2","steam_id":76561198111568728,"connected_time":1747000000000,"state":"active","ping":48},{"user_id":227,"name":"『Dorarhim』","steam_id":76561198220232352,"connected_time":254000000000,"state":"active","ping":52},{"user_id":217,"name":"juju ✨","steam_id":76561198966057450,"connected_time":1133000000000,"state":"active","ping":90},{"user_id":228,"name":"Anti_Dragon","steam_id":76561198969060607,"connected_time":253000000000,"state":"active","ping":105}]},{"server_id":308,"name":"Uncletopia | Frankfurt | 3 | All Maps","name_short":"frk-3","host":"frk-1.de.uncletopia.com","port":27035,"enabled":true,"region":"eu","cc":"de","latitude":50.110924,"longitude":8.682127,"reserved":0,"last_update":"0001-01-01T00:00:00Z","name_a2s":"Uncletopia | Frankfurt | 3 | All Maps","protocol":17,"map":"pl_badwater","folder":"tf","game":"Team Fortress","app_id":440,"player_count":10,"max_players":24,"Bots":0,"server_type":"Dedicated","server_os":"Linux","password":true,"vac":true,"version":"7757534","steam_id":85568392924504274,"keywords":["nocrits","nodmgspread","payload","uncletopia"],"game_id":440,"stv_port":27036,"stv_name":"Uncletopia | Frankfurt | 3 | All Maps | STV","players":[{"user_id":104,"name":"SaltyCupcakes","steam_id":76561198256386417,"connected_time":1614000000000,"state":"active","ping":57},{"user_id":100,"name":"B.batt","steam_id":76561198998684199,"connected_time":1784000000000,"state":"active","ping":132},{"user_id":119,"name":"Garmin of Salivation","steam_id":76561197995163245,"connected_time":72000000000,"state":"active","ping":56},{"user_id":116,"name":"Setter Ball Gaul","steam_id":76561198130427881,"connected_time":116000000000,"state":"active","ping":150},{"user_id":117,"name":"Kvicha Kvaratskhelia","steam_id":76561198179339326,"connected_time":110000000000,"state":"active","ping":82},{"user_id":108,"name":"COFFEE","steam_id":76561198869355986,"connected_time":1342000000000,"state":"active","ping":67},{"user_id":118,"name":"sape (huntsman enjoyer)","steam_id":76561198089322416,"connected_time":90000000000,"state":"active","ping":104},{"user_id":107,"name":"Mecha","steam_id":76561198014927379,"connected_time":1396000000000,"state":"active","ping":160},{"user_id":93,"name":"tallen","steam_id":76561198061708595,"connected_time":2175000000000,"state":"active","ping":84},{"user_id":85,"name":"tiny_dancer","steam_id":76561198026052716,"connected_time":2480000000000,"state":"active","ping":60}]},{"server_id":309,"name":"Uncletopia | Frankfurt | 4 | All Maps","name_short":"frk-4","host":"frk-1.de.uncletopia.com","port":27045,"enabled":true,"region":"eu","cc":"de","latitude":50.110924,"longitude":8.682127,"reserved":0,"last_update":"0001-01-01T00:00:00Z","name_a2s":"Uncletopia | Frankfurt | 4 | All Maps","protocol":17,"map":"cp_altitude","folder":"tf","game":"Team Fortress","app_id":440,"player_count":23,"max_players":24,"Bots":0,"server_type":"Dedicated","server_os":"Linux","password":true,"vac":true,"version":"7757534","steam_id":85568392924504275,"keywords":["cp","nocrits","nodmgspread","uncletopia"],"game_id":440,"stv_port":27046,"stv_name":"Uncletopia | Frankfurt | 4 | All Maps | STV","players":[{"user_id":526,"name":"ran is running","steam_id":76561199443185667,"connected_time":3783000000000,"state":"active","ping":141},{"user_id":558,"name":"pizzaboob","steam_id":76561198097507847,"connected_time":1028000000000,"state":"active","ping":73},{"user_id":533,"name":"JohaTG","steam_id":76561198804468284,"connected_time":2396000000000,"state":"active","ping":56},{"user_id":529,"name":"piss man (real)","steam_id":76561198839843428,"connected_time":3640000000000,"state":"active","ping":124},{"user_id":580,"name":"gunspy","steam_id":76561198969373800,"connected_time":313000000000,"state":"active","ping":56},{"user_id":556,"name":"Is TF2 dying?","steam_id":76561198170609049,"connected_time":1054000000000,"state":"active","ping":75},{"user_id":559,"name":"kotamine","steam_id":76561198068907991,"connected_time":1019000000000,"state":"active","ping":69},{"user_id":551,"name":"KnugenIV","steam_id":76561198127091993,"connected_time":1337000000000,"state":"active","ping":56},{"user_id":539,"name":"Ramzus","steam_id":76561198012385070,"connected_time":1805000000000,"state":"active","ping":89},{"user_id":550,"name":"Der Herr Doktor","steam_id":76561198119476089,"connected_time":1373000000000,"state":"active","ping":56},{"user_id":541,"name":"PanPatrik","steam_id":76561198293331527,"connected_time":1777000000000,"state":"active","ping":50},{"user_id":578,"name":"Irme","steam_id":76561198161590299,"connected_time":359000000000,"state":"active","ping":66},{"user_id":560,"name":"flange","steam_id":76561198040182692,"connected_time":984000000000,"state":"active","ping":54},{"user_id":561,"name":"vnm","steam_id":76561197996468677,"connected_time":983000000000,"state":"active","ping":47},{"user_id":572,"name":"Saint","steam_id":76561198003296382,"connected_time":813000000000,"state":"active","ping":64},{"user_id":565,"name":"Chadrysiaque","steam_id":76561198061333310,"connected_time":887000000000,"state":"active","ping":52},{"user_id":577,"name":"Tanky","steam_id":76561199440310323,"connected_time":668000000000,"state":"active","ping":176},{"user_id":568,"name":"Chucko Kokos","steam_id":76561198112553005,"connected_time":868000000000,"state":"active","ping":65},{"user_id":569,"name":"Cheshireycat","steam_id":76561198067204908,"connected_time":867000000000,"state":"active","ping":71},{"user_id":570,"name":"Труп Володя","steam_id":76561198035718457,"connected_time":865000000000,"state":"active","ping":86},{"user_id":571,"name":"ultrawup[ITA]","steam_id":76561198099778717,"connected_time":860000000000,"state":"active","ping":83},{"user_id":573,"name":"dusty","steam_id":76561199011977567,"connected_time":810000000000,"state":"active","ping":61},{"user_id":582,"name":"www.epicCSmaps.com/cs_moshpit","steam_id":76561198067819471,"connected_time":293000000000,"state":"active","ping":60}]},{"server_id":310,"name":"Uncletopia | Frankfurt | 5 | All Maps","name_short":"frk-5","host":"frk-1.de.uncletopia.com","port":27055,"enabled":true,"region":"eu","cc":"de","latitude":50.110924,"longitude":8.682127,"reserved":0,"last_update":"0001-01-01T00:00:00Z","name_a2s":"Uncletopia | Frankfurt | 5 | All Maps","protocol":17,"map":"cp_sunshine","folder":"tf","game":"Team Fortress","app_id":440,"player_count":0,"max_players":24,"Bots":0,"server_type":"Dedicated","server_os":"Linux","password":true,"vac":true,"version":"7757534","steam_id":85568392924504277,"keywords":["cp","nocrits","nodmgspread","uncletopia"],"game_id":440,"stv_port":27056,"stv_name":"Uncletopia | Frankfurt | 5 | All Maps | STV","players":null},{"server_id":311,"name":"Uncletopia | Frankfurt | 6 | All Maps","name_short":"frk-6","host":"frk-1.de.uncletopia.com","port":27065,"enabled":true,"region":"eu","cc":"de","latitude":50.110924,"longitude":8.682127,"reserved":0,"last_update":"0001-01-01T00:00:00Z","name_a2s":"Uncletopia | Frankfurt | 6 | All Maps","protocol":17,"map":"pl_barnblitz","folder":"tf","game":"Team Fortress","app_id":440,"player_count":24,"max_players":24,"Bots":0,"server_type":"Dedicated","server_os":"Linux","password":true,"vac":true,"version":"7757534","steam_id":85568392924504278,"keywords":["nocrits","nodmgspread","payload","uncletopia"],"game_id":440,"stv_port":27066,"stv_name":"Uncletopia | Frankfurt | 6 | All Maps | STV","players":[{"user_id":124,"name":"Lord of the Thumbs","steam_id":76561198203140640,"connected_time":250000000000,"state":"active","ping":69},{"user_id":85,"name":"clouds","steam_id":76561198111134021,"connected_time":4493000000000,"state":"active","ping":77},{"user_id":107,"name":"lol","steam_id":76561198104438656,"connected_time":2610000000000,"state":"active","ping":64},{"user_id":122,"name":"Trebox78","steam_id":76561198071963357,"connected_time":1019000000000,"state":"active","ping":85},{"user_id":109,"name":"True Slavic Hardbass Boi","steam_id":76561198097276522,"connected_time":2190000000000,"state":"active","ping":70},{"user_id":123,"name":"Avast AntiPony 9445","steam_id":76561197992046533,"connected_time":672000000000,"state":"active","ping":52},{"user_id":121,"name":"British Disapproval","steam_id":76561198001375260,"connected_time":1053000000000,"state":"active","ping":70},{"user_id":105,"name":"weed fairy","steam_id":76561197998843096,"connected_time":2909000000000,"state":"active","ping":73},{"user_id":111,"name":"3þ4n","steam_id":76561198411134617,"connected_time":2110000000000,"state":"active","ping":65},{"user_id":118,"name":"decommandpro","steam_id":76561198971647041,"connected_time":1141000000000,"state":"active","ping":86},{"user_id":114,"name":"Soyboy","steam_id":76561198053885716,"connected_time":1899000000000,"state":"active","ping":77},{"user_id":67,"name":"Rezkey","steam_id":76561198206079048,"connected_time":5719000000000,"state":"active","ping":62},{"user_id":89,"name":"Homosapien","steam_id":76561197972035953,"connected_time":4127000000000,"state":"active","ping":51},{"user_id":120,"name":"Vectillion","steam_id":76561198074292454,"connected_time":1068000000000,"state":"active","ping":75},{"user_id":103,"name":"Yuzu","steam_id":76561198121694613,"connected_time":3012000000000,"state":"active","ping":59},{"user_id":69,"name":"Cosmonaut","steam_id":76561198239514504,"connected_time":5667000000000,"state":"active","ping":60},{"user_id":34,"name":"howabe","steam_id":76561197996486818,"connected_time":8792000000000,"state":"active","ping":57},{"user_id":96,"name":"PashaVerti","steam_id":76561199013963024,"connected_time":3931000000000,"state":"active","ping":79},{"user_id":98,"name":"Barack OBidoof","steam_id":76561198035142993,"connected_time":3784000000000,"state":"active","ping":149},{"user_id":92,"name":"wicked","steam_id":76561198164376035,"connected_time":4057000000000,"state":"active","ping":74},{"user_id":97,"name":"julio.gonzales2014","steam_id":76561198045278688,"connected_time":3869000000000,"state":"active","ping":57},{"user_id":72,"name":"After8","steam_id":76561198090750865,"connected_time":5579000000000,"state":"active","ping":72},{"user_id":80,"name":"NOM","steam_id":76561199059006203,"connected_time":4697000000000,"state":"active","ping":178},{"user_id":81,"name":"Yaz","steam_id":76561198110613175,"connected_time":4682000000000,"state":"active","ping":103}]},{"server_id":23,"name":"Uncletopia | Frankfurt | 7 | Stopwatch Beta","name_short":"frk-7","host":"frk-1.de.uncletopia.com","port":27075,"enabled":true,"region":"eu","cc":"de","latitude":50.110924,"longitude":8.682127,"reserved":0,"last_update":"0001-01-01T00:00:00Z","name_a2s":"Uncletopia | Frankfurt | 7 | Stopwatch Beta","protocol":17,"map":"cp_sunshine","folder":"tf","game":"Team Fortress","app_id":440,"player_count":0,"max_players":24,"Bots":0,"server_type":"Dedicated","server_os":"Linux","password":true,"vac":true,"version":"7757534","steam_id":85568392924742827,"keywords":["cp","nocrits","nodmgspread","uncletopia"],"game_id":440,"stv_port":27076,"stv_name":"Uncletopia | Frankfurt | 7 | Stopwatch Beta | STV","players":null},{"server_id":24,"name":"Uncletopia | Frankfurt | 8 | Community","name_short":"frk-8","host":"frk-1.de.uncletopia.com","port":27085,"enabled":true,"region":"eu","cc":"de","latitude":50.110924,"longitude":8.682127,"reserved":0,"last_update":"0001-01-01T00:00:00Z","name_a2s":"Uncletopia | Frankfurt | 8 | Community","protocol":17,"map":"koth_lakeside_final","folder":"tf","game":"Team Fortress","app_id":440,"player_count":0,"max_players":24,"Bots":0,"server_type":"Dedicated","server_os":"Linux","password":true,"vac":true,"version":"7757534","steam_id":85568392924742828,"keywords":["cp","nocrits","nodmgspread","uncletopia"],"game_id":440,"stv_port":27086,"stv_name":"Uncletopia | Frankfurt | 8 | Community | STV","players":null},{"server_id":202,"name":"Uncletopia | Hong Kong | 1 | All Maps","name_short":"hgk-1","host":"hgk-1.hk.uncletopia.com","port":27015,"enabled":true,"region":"asia","cc":"hk","latitude":22.302711,"longitude":114.177216,"reserved":0,"last_update":"0001-01-01T00:00:00Z","name_a2s":"Uncletopia | Hong Kong | 1 | All Maps","protocol":17,"map":"cp_process_final","folder":"tf","game":"Team Fortress","app_id":440,"player_count":0,"max_players":24,"Bots":0,"server_type":"Dedicated","server_os":"Linux","password":true,"vac":true,"version":"7757534","steam_id":85568392924494504,"keywords":["cp","nocrits","nodmgspread","uncletopia"],"game_id":440,"stv_port":27016,"stv_name":"Uncletopia | Hong Kong | 1 | All Maps | STV","players":null},{"server_id":1,"name":"Uncletopia | Los Angeles | 1 | All Maps","name_short":"lax-1","host":"lax-1.us.uncletopia.com","port":27015,"enabled":true,"region":"us-west","cc":"us","latitude":33.94279,"longitude":-118.41004,"reserved":0,"last_update":"0001-01-01T00:00:00Z","name_a2s":"Uncletopia | Los Angeles | 1 | All Maps","protocol":17,"map":"koth_lakeside_final","folder":"tf","game":"Team Fortress","app_id":440,"player_count":0,"max_players":24,"Bots":0,"server_type":"Dedicated","server_os":"Linux","password":true,"vac":true,"version":"7757534","steam_id":85568392924469991,"keywords":["cp","nocrits","nodmgspread","uncletopia"],"game_id":440,"stv_port":27016,"stv_name":"Uncletopia | Los Angeles | 1 | All Maps | STV","players":null},{"server_id":112,"name":"Uncletopia | Los Angeles | 2 | All Maps","name_short":"lax-2","host":"lax-1.us.uncletopia.com","port":27025,"enabled":true,"region":"us-west","cc":"us","latitude":33.94279,"longitude":-118.41004,"reserved":0,"last_update":"0001-01-01T00:00:00Z","name_a2s":"Uncletopia | Los Angeles | 2 | All Maps","protocol":17,"map":"pl_frontier_final","folder":"tf","game":"Team Fortress","app_id":440,"player_count":0,"max_players":24,"Bots":0,"server_type":"Dedicated","server_os":"Linux","password":true,"vac":true,"version":"7757534","steam_id":85568392924469992,"keywords":["nocrits","nodmgspread","payload","uncletopia"],"game_id":440,"stv_port":27026,"stv_name":"Uncletopia | Los Angeles | 2 | All Maps | STV","players":null},{"server_id":324,"name":"Uncletopia | Los Angeles | 3 | All Maps","name_short":"lax-3","host":"lax-1.us.uncletopia.com","port":27035,"enabled":true,"region":"us-west","cc":"us","latitude":33.94279,"longitude":-118.41004,"reserved":0,"last_update":"0001-01-01T00:00:00Z","name_a2s":"Uncletopia | Los Angeles | 3 | All Maps","protocol":17,"map":"pl_barnblitz","folder":"tf","game":"Team Fortress","app_id":440,"player_count":0,"max_players":24,"Bots":0,"server_type":"Dedicated","server_os":"Linux","password":true,"vac":true,"version":"7757534","steam_id":85568392924510198,"keywords":["nocrits","nodmgspread","payload","uncletopia"],"game_id":440,"stv_port":27036,"stv_name":"Uncletopia | Los Angeles | 3 | All Maps | STV","players":null},{"server_id":25,"name":"Uncletopia | Los Angeles | 4 | Stopwatch Beta","name_short":"lax-4","host":"lax-1.us.uncletopia.com","port":27045,"enabled":true,"region":"us-west","cc":"us","latitude":33.94279,"longitude":-118.41004,"reserved":0,"last_update":"0001-01-01T00:00:00Z","name_a2s":"Uncletopia | Los Angeles | 4 | Stopwatch Beta","protocol":17,"map":"pl_swiftwater_final1","folder":"tf","game":"Team Fortress","app_id":440,"player_count":0,"max_players":24,"Bots":0,"server_type":"Dedicated","server_os":"Linux","password":true,"vac":true,"version":"7757534","steam_id":85568392924510199,"keywords":["nocrits","nodmgspread","payload","uncletopia"],"game_id":440,"stv_port":27046,"stv_name":"Uncletopia | Los Angeles | 4 | Stopwatch Beta | STV","players":null},{"server_id":11,"name":"Uncletopia | London | 1 | All Maps","name_short":"lon-1","host":"lon-1.uk.uncletopia.com","port":27015,"enabled":true,"region":"eu","cc":"gb","latitude":51.509865,"longitude":-0.118092,"reserved":0,"last_update":"0001-01-01T00:00:00Z","name_a2s":"Uncletopia | London | 1 | All Maps","protocol":17,"map":"pl_swiftwater_final1","folder":"tf","game":"Team Fortress","app_id":440,"player_count":24,"max_players":24,"Bots":0,"server_type":"Dedicated","server_os":"Linux","password":true,"vac":true,"version":"7757534","steam_id":85568392924367362,"keywords":["nocrits","nodmgspread","payload","uncletopia"],"game_id":440,"stv_port":27016,"stv_name":"Uncletopia | London | 1 | All Maps | STV","players":[{"user_id":242,"name":"Ocelot","steam_id":76561198263386006,"connected_time":12869000000000,"state":"active","ping":120},{"user_id":382,"name":"Dummy","steam_id":76561198349741126,"connected_time":383000000000,"state":"active","ping":66},{"user_id":375,"name":"pljuga","steam_id":76561198001174470,"connected_time":1056000000000,"state":"active","ping":64},{"user_id":331,"name":"Een schaap zonder slaap","steam_id":76561198084808410,"connected_time":5312000000000,"state":"active","ping":60},{"user_id":387,"name":"goff","steam_id":76561198118989010,"connected_time":111000000000,"state":"active","ping":47},{"user_id":347,"name":"Infantile Pillock","steam_id":76561198283851362,"connected_time":3682000000000,"state":"active","ping":68},{"user_id":383,"name":"adam","steam_id":76561199024816404,"connected_time":284000000000,"state":"active","ping":89},{"user_id":122,"name":"Dastardly","steam_id":76561198028351509,"connected_time":21675000000000,"state":"active","ping":66},{"user_id":371,"name":"Schwarzschild radius(Rg=2GM/c^2","steam_id":76561198179463343,"connected_time":1425000000000,"state":"active","ping":41},{"user_id":384,"name":"Kek meister 8 mil","steam_id":76561197989904384,"connected_time":259000000000,"state":"active","ping":67},{"user_id":388,"name":"regimiro","steam_id":76561198120457008,"connected_time":68000000000,"state":"active","ping":53},{"user_id":348,"name":"Elix","steam_id":76561199072306920,"connected_time":3464000000000,"state":"active","ping":92},{"user_id":367,"name":"♥ aura ♥","steam_id":76561198066258544,"connected_time":2079000000000,"state":"active","ping":60},{"user_id":378,"name":"Hermitcrack","steam_id":76561198149216441,"connected_time":926000000000,"state":"active","ping":75},{"user_id":361,"name":"Hunter64","steam_id":76561199121947938,"connected_time":2504000000000,"state":"active","ping":55},{"user_id":373,"name":"Ferlo","steam_id":76561198095561504,"connected_time":1333000000000,"state":"active","ping":45},{"user_id":379,"name":"PIF","steam_id":76561197994712966,"connected_time":873000000000,"state":"active","ping":117},{"user_id":374,"name":"Dark ^^","steam_id":76561198036241064,"connected_time":1332000000000,"state":"active","ping":73},{"user_id":386,"name":"Nam","steam_id":76561198188110526,"connected_time":186000000000,"state":"active","ping":70},{"user_id":368,"name":"AnonTron","steam_id":76561199031895493,"connected_time":2071000000000,"state":"active","ping":154},{"user_id":377,"name":"JOHN GAMING (weezer#1fan)","steam_id":76561199085822219,"connected_time":1039000000000,"state":"active","ping":87},{"user_id":381,"name":"jimmy bob","steam_id":76561198319583692,"connected_time":492000000000,"state":"active","ping":58},{"user_id":356,"name":"Flare","steam_id":76561198039098320,"connected_time":3019000000000,"state":"active","ping":49},{"user_id":370,"name":"MasterAmongRust","steam_id":76561198010160233,"connected_time":1948000000000,"state":"active","ping":164}]},{"server_id":114,"name":"Uncletopia | London | 2 | All Maps","name_short":"lon-2","host":"lon-1.uk.uncletopia.com","port":27025,"enabled":true,"region":"eu","cc":"gb","latitude":51.509865,"longitude":-0.118092,"reserved":0,"last_update":"0001-01-01T00:00:00Z","name_a2s":"Uncletopia | London | 2 | All Maps","protocol":17,"map":"pl_badwater","folder":"tf","game":"Team Fortress","app_id":440,"player_count":24,"max_players":24,"Bots":0,"server_type":"Dedicated","server_os":"Linux","password":true,"vac":true,"version":"7757534","steam_id":85568392924470941,"keywords":["nocrits","nodmgspread","payload","uncletopia"],"game_id":440,"stv_port":27026,"stv_name":"Uncletopia | London | 2 | All Maps | STV","players":[{"user_id":75,"name":"Angelatine(slut)","steam_id":76561198101624996,"connected_time":1720000000000,"state":"active","ping":94},{"user_id":22,"name":"Egor Pomidor","steam_id":76561199175688390,"connected_time":3588000000000,"state":"active","ping":83},{"user_id":96,"name":"Scrungis","steam_id":76561198151247843,"connected_time":562000000000,"state":"active","ping":62},{"user_id":65,"name":"kojitori","steam_id":76561198838072150,"connected_time":2161000000000,"state":"active","ping":44},{"user_id":102,"name":"ogsdu","steam_id":76561197994849019,"connected_time":342000000000,"state":"active","ping":68},{"user_id":91,"name":"lore","steam_id":76561198120984188,"connected_time":618000000000,"state":"active","ping":67},{"user_id":95,"name":"Keittokapteeni","steam_id":76561198271579939,"connected_time":571000000000,"state":"active","ping":87},{"user_id":97,"name":"AfricanCommie","steam_id":76561198798803845,"connected_time":519000000000,"state":"active","ping":45},{"user_id":58,"name":"C11H15NO2","steam_id":76561198066146016,"connected_time":2543000000000,"state":"active","ping":61},{"user_id":107,"name":"true","steam_id":76561198031145243,"connected_time":127000000000,"state":"active","ping":81},{"user_id":98,"name":"Misa","steam_id":76561199480659241,"connected_time":503000000000,"state":"active","ping":73},{"user_id":81,"name":"Sabertooth","steam_id":76561198136734852,"connected_time":1217000000000,"state":"active","ping":152},{"user_id":77,"name":"ricky pee pee","steam_id":76561198152620745,"connected_time":1554000000000,"state":"active","ping":59},{"user_id":28,"name":"Nassu","steam_id":76561198147367577,"connected_time":3465000000000,"state":"active","ping":173},{"user_id":89,"name":"Arthur Morgan","steam_id":76561198273741819,"connected_time":671000000000,"state":"active","ping":90},{"user_id":68,"name":"Seron-Lowell","steam_id":76561198070291347,"connected_time":2093000000000,"state":"active","ping":59},{"user_id":82,"name":"Caliban","steam_id":76561197999696839,"connected_time":1167000000000,"state":"active","ping":112},{"user_id":69,"name":"Spinyapickle","steam_id":76561198086653667,"connected_time":2072000000000,"state":"active","ping":59},{"user_id":33,"name":"Neon","steam_id":76561198012373755,"connected_time":3376000000000,"state":"active","ping":56},{"user_id":99,"name":"Bilbo Ballbaggins","steam_id":76561198070593514,"connected_time":502000000000,"state":"active","ping":53},{"user_id":79,"name":"twitch.tv/vision515","steam_id":76561198065293729,"connected_time":1450000000000,"state":"active","ping":168},{"user_id":87,"name":"lullers","steam_id":76561198119470669,"connected_time":968000000000,"state":"active","ping":61},{"user_id":84,"name":"Wattseyy","steam_id":76561198248567360,"connected_time":1120000000000,"state":"active","ping":37},{"user_id":114,"name":"BatemanPatrick","steam_id":76561198393691611,"connected_time":0,"state":"spawning","ping":34}]},{"server_id":320,"name":"Uncletopia | London | 3 | All Maps","name_short":"lon-3","host":"lon-1.uk.uncletopia.com","port":27035,"enabled":true,"region":"eu","cc":"gb","latitude":51.509865,"longitude":-0.118092,"reserved":0,"last_update":"0001-01-01T00:00:00Z","name_a2s":"Uncletopia | London | 3 | All Maps","protocol":17,"map":"pl_upward","folder":"tf","game":"Team Fortress","app_id":440,"player_count":24,"max_players":24,"Bots":0,"server_type":"Dedicated","server_os":"Linux","password":true,"vac":true,"version":"7757534","steam_id":85568392924510192,"keywords":["nocrits","nodmgspread","payload","uncletopia"],"game_id":440,"stv_port":27036,"stv_name":"Uncletopia | London | 3 | All Maps | STV","players":[{"user_id":347,"name":"JohkupohkuXD","steam_id":76561198391108762,"connected_time":399000000000,"state":"active","ping":92},{"user_id":307,"name":"Greenmaker","steam_id":76561198060466591,"connected_time":3472000000000,"state":"active","ping":87},{"user_id":335,"name":"Davey","steam_id":76561198256879107,"connected_time":1325000000000,"state":"active","ping":75},{"user_id":345,"name":"SolidSalt","steam_id":76561198334789026,"connected_time":582000000000,"state":"active","ping":41},{"user_id":325,"name":"a straight white male","steam_id":76561198381120660,"connected_time":2500000000000,"state":"active","ping":90},{"user_id":342,"name":"Atse","steam_id":76561199019974513,"connected_time":649000000000,"state":"active","ping":107},{"user_id":332,"name":"PrimeTarget","steam_id":76561198046409289,"connected_time":1840000000000,"state":"active","ping":89},{"user_id":294,"name":"Faxter","steam_id":76561198011771605,"connected_time":4600000000000,"state":"active","ping":75},{"user_id":336,"name":"doopsuiker","steam_id":76561198025916703,"connected_time":1290000000000,"state":"active","ping":66},{"user_id":319,"name":"Whizzo","steam_id":76561198058762428,"connected_time":2970000000000,"state":"active","ping":58},{"user_id":300,"name":"MEDiUM","steam_id":76561198112328561,"connected_time":4206000000000,"state":"active","ping":84},{"user_id":343,"name":"Bob Sacamano","steam_id":76561198085610701,"connected_time":633000000000,"state":"active","ping":102},{"user_id":268,"name":"Dr. Mike Litoris","steam_id":76561197991205793,"connected_time":6684000000000,"state":"active","ping":87},{"user_id":279,"name":"john fortress","steam_id":76561198013237629,"connected_time":5811000000000,"state":"active","ping":90},{"user_id":333,"name":"Shovelhalfrusty","steam_id":76561198346447513,"connected_time":1810000000000,"state":"active","ping":70},{"user_id":309,"name":"Sambist","steam_id":76561198258401816,"connected_time":3455000000000,"state":"active","ping":87},{"user_id":339,"name":"Dungeon Keeper","steam_id":76561199475507686,"connected_time":1094000000000,"state":"active","ping":151},{"user_id":334,"name":"beheading video from 2009","steam_id":76561198834897089,"connected_time":1680000000000,"state":"active","ping":67},{"user_id":310,"name":"Erates","steam_id":76561197968707211,"connected_time":3431000000000,"state":"active","ping":56},{"user_id":344,"name":"ThatTFguy","steam_id":76561198056794321,"connected_time":603000000000,"state":"active","ping":67},{"user_id":346,"name":"Civil Melon","steam_id":76561198988309618,"connected_time":578000000000,"state":"active","ping":75},{"user_id":341,"name":"Kirb","steam_id":76561199013380960,"connected_time":710000000000,"state":"active","ping":158},{"user_id":349,"name":"maybe","steam_id":76561199028670732,"connected_time":22000000000,"state":"spawning","ping":57},{"user_id":326,"name":"you could stop at 5 or 6 stores","steam_id":76561198170928310,"connected_time":2498000000000,"state":"active","ping":133}]},{"server_id":321,"name":"Uncletopia | London | 4 | All Maps","name_short":"lon-4","host":"lon-1.uk.uncletopia.com","port":27045,"enabled":true,"region":"eu","cc":"gb","latitude":51.509865,"longitude":-0.118092,"reserved":0,"last_update":"0001-01-01T00:00:00Z","name_a2s":"Uncletopia | London | 4 | All Maps","protocol":17,"map":"pl_snowycoast","folder":"tf","game":"Team Fortress","app_id":440,"player_count":14,"max_players":24,"Bots":0,"server_type":"Dedicated","server_os":"Linux","password":true,"vac":true,"version":"7757534","steam_id":85568392924510193,"keywords":["nocrits","nodmgspread","payload","uncletopia"],"game_id":440,"stv_port":27046,"stv_name":"Uncletopia | London | 4 | All Maps | STV","players":[{"user_id":15,"name":"owlghost","steam_id":76561198834125968,"connected_time":1816000000000,"state":"active","ping":60},{"user_id":23,"name":"Desp4","steam_id":76561198040767473,"connected_time":451000000000,"state":"active","ping":76},{"user_id":22,"name":"Mozzaza","steam_id":76561198156316111,"connected_time":635000000000,"state":"active","ping":146},{"user_id":17,"name":"kanjii","steam_id":76561199434389738,"connected_time":967000000000,"state":"active","ping":79},{"user_id":20,"name":"Der Geist des Hans Rosling","steam_id":76561198049231109,"connected_time":795000000000,"state":"active","ping":63},{"user_id":10,"name":"i AM the medic gf","steam_id":76561198247284680,"connected_time":2046000000000,"state":"active","ping":75},{"user_id":11,"name":"isocuk","steam_id":76561198150391339,"connected_time":2032000000000,"state":"active","ping":31},{"user_id":14,"name":"Brallerin","steam_id":76561198060026189,"connected_time":1890000000000,"state":"active","ping":47},{"user_id":27,"name":"ypsvlq","steam_id":76561199015433909,"connected_time":388000000000,"state":"active","ping":57},{"user_id":28,"name":"YOUR MOM GAMING","steam_id":76561199429562693,"connected_time":329000000000,"state":"active","ping":71},{"user_id":30,"name":"Trans Cat GF","steam_id":76561198436817109,"connected_time":301000000000,"state":"active","ping":46},{"user_id":31,"name":"just singing in the rain","steam_id":76561198828275663,"connected_time":272000000000,"state":"active","ping":243},{"user_id":32,"name":"Jesus Enjoyer","steam_id":76561198840259819,"connected_time":182000000000,"state":"active","ping":59},{"user_id":33,"name":"Top Boffin","steam_id":76561197992232691,"connected_time":116000000000,"state":"active","ping":46}]},{"server_id":21,"name":"Uncletopia | London | 5 | All Maps","name_short":"lon-5","host":"lon-1.uk.uncletopia.com","port":27055,"enabled":true,"region":"eu","cc":"gb","latitude":51.509865,"longitude":-0.118092,"reserved":0,"last_update":"0001-01-01T00:00:00Z","name_a2s":"Uncletopia | London | 5 | All Maps","protocol":17,"map":"koth_cascade","folder":"tf","game":"Team Fortress","app_id":440,"player_count":0,"max_players":24,"Bots":0,"server_type":"Dedicated","server_os":"Linux","password":true,"vac":true,"version":"7757534","steam_id":85568392924742829,"keywords":["cp","nocrits","nodmgspread","uncletopia"],"game_id":440,"stv_port":27056,"stv_name":"Uncletopia | London | 5 | All Maps | STV","players":null},{"server_id":22,"name":"Uncletopia | London | 6 | All Maps","name_short":"lon-6","host":"lon-1.uk.uncletopia.com","port":27065,"enabled":true,"region":"eu","cc":"gb","latitude":51.509865,"longitude":-0.118092,"reserved":0,"last_update":"0001-01-01T00:00:00Z","name_a2s":"Uncletopia | London | 6 | All Maps","protocol":17,"map":"koth_viaduct","folder":"tf","game":"Team Fortress","app_id":440,"player_count":0,"max_players":24,"Bots":0,"server_type":"Dedicated","server_os":"Linux","password":true,"vac":true,"version":"7757534","steam_id":85568392924742830,"keywords":["cp","nocrits","nodmgspread","uncletopia"],"game_id":440,"stv_port":27066,"stv_name":"Uncletopia | London | 6 | All Maps | STV","players":null},{"server_id":40,"name":"Uncletopia | London | 7 | No Payload","name_short":"lon-7","host":"lon-1.uk.uncletopia.com","port":27075,"enabled":true,"region":"eu","cc":"gb","latitude":51.509865,"longitude":-0.118092,"reserved":0,"last_update":"0001-01-01T00:00:00Z","name_a2s":"Uncletopia | London | 7 | No Payload","protocol":17,"map":"pl_badwater","folder":"tf","game":"Team Fortress","app_id":440,"player_count":0,"max_players":24,"Bots":0,"server_type":"Dedicated","server_os":"Linux","password":true,"vac":true,"version":"7757534","steam_id":85568392924964314,"keywords":["nocrits","nodmgspread","payload","uncletopia"],"game_id":440,"stv_port":27076,"stv_name":"Uncletopia | London | 7 | No Payload | STV","players":null},{"server_id":41,"name":"Uncletopia | London | 8 | Community","name_short":"lon-8","host":"lon-1.uk.uncletopia.com","port":27085,"enabled":true,"region":"eu","cc":"gb","latitude":51.509865,"longitude":-0.118092,"reserved":0,"last_update":"0001-01-01T00:00:00Z","name_a2s":"Uncletopia | London | 8 | Community","protocol":17,"map":"pl_barnblitz","folder":"tf","game":"Team Fortress","app_id":440,"player_count":0,"max_players":24,"Bots":0,"server_type":"Dedicated","server_os":"Linux","password":true,"vac":true,"version":"7757534","steam_id":85568392924964315,"keywords":["nocrits","nodmgspread","payload","uncletopia"],"game_id":440,"stv_port":27086,"stv_name":"Uncletopia | London | 8 | Community | STV","players":null},{"server_id":300,"name":"Uncletopia | Montréal | 1 | All Maps","name_short":"mtl-1","host":"mtl-1.ca.uncletopia.com","port":27015,"enabled":true,"region":"us-east","cc":"ca","latitude":45.50889,"longitude":-73.56167,"reserved":0,"last_update":"0001-01-01T00:00:00Z","name_a2s":"Uncletopia | Montréal | 1 | All Maps","protocol":17,"map":"pl_upward","folder":"tf","game":"Team Fortress","app_id":440,"player_count":0,"max_players":24,"Bots":0,"server_type":"Dedicated","server_os":"Linux","password":true,"vac":true,"version":"7757534","steam_id":85568392924500087,"keywords":["nocrits","nodmgspread","payload","uncletopia"],"game_id":440,"stv_port":27016,"stv_name":"Uncletopia | Montréal | 1 | All Maps | STV","players":null},{"server_id":301,"name":"Uncletopia | Montréal | 2 | All Maps","name_short":"mtl-2","host":"mtl-1.ca.uncletopia.com","port":27025,"enabled":true,"region":"us-east","cc":"ca","latitude":45.50889,"longitude":-73.56167,"reserved":0,"last_update":"0001-01-01T00:00:00Z","name_a2s":"Uncletopia | Montréal | 2 | All Maps","protocol":17,"map":"pl_snowycoast","folder":"tf","game":"Team Fortress","app_id":440,"player_count":0,"max_players":24,"Bots":0,"server_type":"Dedicated","server_os":"Linux","password":true,"vac":true,"version":"7757534","steam_id":85568392924500088,"keywords":["nocrits","nodmgspread","payload","uncletopia"],"game_id":440,"stv_port":27026,"stv_name":"Uncletopia | Montréal | 2 | All Maps | STV","players":null},{"server_id":302,"name":"Uncletopia | Montréal | 3 | All Maps","name_short":"mtl-3","host":"mtl-1.ca.uncletopia.com","port":27035,"enabled":true,"region":"us-east","cc":"ca","latitude":45.50889,"longitude":-73.56167,"reserved":0,"last_update":"0001-01-01T00:00:00Z","name_a2s":"Uncletopia | Montréal | 3 | All Maps","protocol":17,"map":"pl_swiftwater_final1","folder":"tf","game":"Team Fortress","app_id":440,"player_count":0,"max_players":24,"Bots":0,"server_type":"Dedicated","server_os":"Linux","password":true,"vac":true,"version":"7757534","steam_id":85568392924500089,"keywords":["nocrits","nodmgspread","payload","uncletopia"],"game_id":440,"stv_port":27036,"stv_name":"Uncletopia | Montréal | 3 | All Maps | STV","players":null},{"server_id":303,"name":"Uncletopia | Montréal | 4 | No Payload","name_short":"mtl-4","host":"mtl-1.ca.uncletopia.com","port":27045,"enabled":true,"region":"us-east","cc":"ca","latitude":45.50889,"longitude":-73.56167,"reserved":0,"last_update":"0001-01-01T00:00:00Z","name_a2s":"Uncletopia | Montréal | 4 | No Payload","protocol":17,"map":"pl_pier","folder":"tf","game":"Team Fortress","app_id":440,"player_count":0,"max_players":24,"Bots":0,"server_type":"Dedicated","server_os":"Linux","password":true,"vac":true,"version":"7757534","steam_id":85568392924500090,"keywords":["nocrits","nodmgspread","payload","uncletopia"],"game_id":440,"stv_port":27046,"stv_name":"Uncletopia | Montréal | 4 | No Payload | STV","players":null},{"server_id":13,"name":"Uncletopia | New York City | 1 | All Maps","name_short":"nyc-1","host":"nyc-1.us.uncletopia.com","port":27015,"enabled":true,"region":"us-east","cc":"us","latitude":40.73061,"longitude":-73.93524,"reserved":0,"last_update":"0001-01-01T00:00:00Z","name_a2s":"Uncletopia | New York City | 1 | All Maps","protocol":17,"map":"pl_upward","folder":"tf","game":"Team Fortress","app_id":440,"player_count":24,"max_players":24,"Bots":0,"server_type":"Dedicated","server_os":"Linux","password":true,"vac":true,"version":"7757534","steam_id":85568392924469993,"keywords":["nocrits","nodmgspread","payload","uncletopia"],"game_id":440,"stv_port":27016,"stv_name":"Uncletopia | New York City | 1 | All Maps | STV","players":[{"user_id":13,"name":"The Crungo","steam_id":76561199141492981,"connected_time":3541000000000,"state":"active","ping":41},{"user_id":5,"name":"WarMace","steam_id":76561198395937853,"connected_time":4727000000000,"state":"active","ping":94},{"user_id":63,"name":"corpach","steam_id":76561198150418268,"connected_time":852000000000,"state":"active","ping":79},{"user_id":14,"name":"ror!","steam_id":76561198021227843,"connected_time":3481000000000,"state":"active","ping":70},{"user_id":60,"name":"MelioiBoi","steam_id":76561198929188491,"connected_time":1299000000000,"state":"active","ping":99},{"user_id":48,"name":"carrion goat","steam_id":76561198262064871,"connected_time":1977000000000,"state":"active","ping":32},{"user_id":75,"name":"VerdantSunset","steam_id":76561198062313478,"connected_time":245000000000,"state":"active","ping":99},{"user_id":74,"name":"Engineer","steam_id":76561199439061363,"connected_time":300000000000,"state":"active","ping":126},{"user_id":68,"name":"Don Franches","steam_id":76561198043958772,"connected_time":637000000000,"state":"active","ping":65},{"user_id":77,"name":"Moon","steam_id":76561198018809496,"connected_time":59000000000,"state":"active","ping":40},{"user_id":66,"name":"shake","steam_id":76561199064204750,"connected_time":703000000000,"state":"active","ping":67},{"user_id":22,"name":"Festive Roadside Attraction","steam_id":76561198054689784,"connected_time":3140000000000,"state":"active","ping":65},{"user_id":23,"name":"hisoka","steam_id":76561198293252496,"connected_time":3134000000000,"state":"active","ping":77},{"user_id":71,"name":"dhe_Strauss","steam_id":76561198867969251,"connected_time":567000000000,"state":"active","ping":161},{"user_id":25,"name":"Squid1562","steam_id":76561198090861689,"connected_time":3118000000000,"state":"active","ping":71},{"user_id":73,"name":"Ulrich Stern","steam_id":76561198101739682,"connected_time":384000000000,"state":"active","ping":103},{"user_id":54,"name":"Propaniac Gaming ☑","steam_id":76561198133963270,"connected_time":1825000000000,"state":"active","ping":60},{"user_id":72,"name":"Rythmiki","steam_id":76561198398952454,"connected_time":483000000000,"state":"active","ping":49},{"user_id":78,"name":"(Maj) Dr Freak","steam_id":76561198046450332,"connected_time":14000000000,"state":"active","ping":101},{"user_id":44,"name":"Chicanery","steam_id":76561198155872356,"connected_time":2289000000000,"state":"active","ping":31},{"user_id":53,"name":"XBOX 360","steam_id":76561198066590783,"connected_time":1855000000000,"state":"active","ping":61},{"user_id":70,"name":"Mury","steam_id":76561198069743049,"connected_time":582000000000,"state":"active","ping":104},{"user_id":42,"name":"footoftheday","steam_id":76561198052712449,"connected_time":2566000000000,"state":"active","ping":80},{"user_id":76,"name":"The Overmind","steam_id":76561199170229428,"connected_time":218000000000,"state":"active","ping":113}]},{"server_id":14,"name":"Uncletopia | New York City | 2 | All Maps","name_short":"nyc-2","host":"nyc-1.us.uncletopia.com","port":27025,"enabled":true,"region":"us-east","cc":"us","latitude":40.73061,"longitude":-73.93524,"reserved":0,"last_update":"0001-01-01T00:00:00Z","name_a2s":"Uncletopia | New York City | 2 | All Maps","protocol":17,"map":"koth_highpass","folder":"tf","game":"Team Fortress","app_id":440,"player_count":3,"max_players":24,"Bots":0,"server_type":"Dedicated","server_os":"Linux","password":true,"vac":true,"version":"7757534","steam_id":85568392924469994,"keywords":["cp","nocrits","nodmgspread","uncletopia"],"game_id":440,"stv_port":27026,"stv_name":"Uncletopia | New York City | 2 | All Maps | STV","players":[{"user_id":8,"name":"custodian","steam_id":76561198058793778,"connected_time":1172000000000,"state":"active","ping":52},{"user_id":9,"name":"yer_nerd","steam_id":76561199435454093,"connected_time":1043000000000,"state":"active","ping":59},{"user_id":11,"name":"TheRageOfAfrica","steam_id":76561198238243124,"connected_time":893000000000,"state":"active","ping":88}]},{"server_id":15,"name":"Uncletopia | New York City | 3 | Stopwatch Beta","name_short":"nyc-3","host":"nyc-1.us.uncletopia.com","port":27035,"enabled":true,"region":"us-east","cc":"us","latitude":40.73061,"longitude":-73.93524,"reserved":0,"last_update":"0001-01-01T00:00:00Z","name_a2s":"Uncletopia | New York City | 3 | Stopwatch Beta","protocol":17,"map":"pl_upward","folder":"tf","game":"Team Fortress","app_id":440,"player_count":0,"max_players":24,"Bots":0,"server_type":"Dedicated","server_os":"Linux","password":true,"vac":true,"version":"7757534","steam_id":85568392924742820,"keywords":["nocrits","nodmgspread","payload","uncletopia"],"game_id":440,"stv_port":27036,"stv_name":"Uncletopia | New York City | 3 | Stopwatch Beta | STV","players":null},{"server_id":16,"name":"Uncletopia | New York City | 4 | Community","name_short":"nyc-4","host":"nyc-1.us.uncletopia.com","port":27045,"enabled":true,"region":"us-east","cc":"us","latitude":40.73061,"longitude":-73.93524,"reserved":0,"last_update":"0001-01-01T00:00:00Z","name_a2s":"Uncletopia | New York City | 4 | Community","protocol":17,"map":"pl_swiftwater_final1","folder":"tf","game":"Team Fortress","app_id":440,"player_count":0,"max_players":24,"Bots":0,"server_type":"Dedicated","server_os":"Linux","password":true,"vac":true,"version":"7757534","steam_id":85568392924742821,"keywords":["nocrits","nodmgspread","payload","uncletopia"],"game_id":440,"stv_port":27046,"stv_name":"Uncletopia | New York City | 4 | Community | STV","players":null},{"server_id":142,"name":"Uncletopia | São Paulo | 1 | All Maps","name_short":"sao-1","host":"sao-1.br.uncletopia.com","port":27015,"enabled":true,"region":"sa","cc":"br","latitude":-23.533773,"longitude":-46.62529,"reserved":0,"last_update":"0001-01-01T00:00:00Z","name_a2s":"Uncletopia | São Paulo | 1 | All Maps","protocol":17,"map":"koth_lakeside_final","folder":"tf","game":"Team Fortress","app_id":440,"player_count":0,"max_players":24,"Bots":0,"server_type":"Dedicated","server_os":"Linux","password":true,"vac":true,"version":"7757534","steam_id":85568392924469996,"keywords":["cp","nocrits","nodmgspread","uncletopia"],"game_id":440,"stv_port":27016,"stv_name":"Uncletopia | São Paulo | 1 | All Maps | STV","players":null},{"server_id":143,"name":"Uncletopia | São Paulo | 2 | All Maps","name_short":"sao-2","host":"sao-2.br.uncletopia.com","port":27015,"enabled":true,"region":"sa","cc":"br","latitude":-23.533773,"longitude":-46.62529,"reserved":0,"last_update":"0001-01-01T00:00:00Z","name_a2s":"Uncletopia | São Paulo | 2 | All Maps","protocol":17,"map":"koth_cascade","folder":"tf","game":"Team Fortress","app_id":440,"player_count":0,"max_players":24,"Bots":0,"server_type":"Dedicated","server_os":"Linux","password":true,"vac":true,"version":"7757534","steam_id":85568392924485349,"keywords":["cp","nocrits","nodmgspread","uncletopia"],"game_id":440,"stv_port":27016,"stv_name":"Uncletopia | São Paulo | 2 | All Maps | STV","players":null},{"server_id":7,"name":"Uncletopia | Seattle | 1 | All Maps","name_short":"sea-1","host":"sea-1.us.uncletopia.com","port":27015,"enabled":true,"region":"us-west","cc":"us","latitude":47.608013,"longitude":-122.33517,"reserved":0,"last_update":"0001-01-01T00:00:00Z","name_a2s":"Uncletopia | Seattle | 1 | All Maps","protocol":17,"map":"cp_sunshine","folder":"tf","game":"Team Fortress","app_id":440,"player_count":24,"max_players":24,"Bots":0,"server_type":"Dedicated","server_os":"Linux","password":true,"vac":true,"version":"7757534","steam_id":85568392924469997,"keywords":["cp","nocrits","nodmgspread","uncletopia"],"game_id":440,"stv_port":27016,"stv_name":"Uncletopia | Seattle | 1 | All Maps | STV","players":[{"user_id":80,"name":"mumbles","steam_id":76561197994528974,"connected_time":1596000000000,"state":"active","ping":81},{"user_id":96,"name":"SadFapping","steam_id":76561198076651049,"connected_time":276000000000,"state":"active","ping":58},{"user_id":91,"name":"Slippery Sullivan","steam_id":76561198023659948,"connected_time":1221000000000,"state":"active","ping":48},{"user_id":62,"name":"Neo Kojiro","steam_id":76561198000967076,"connected_time":4791000000000,"state":"active","ping":132},{"user_id":92,"name":":^|","steam_id":76561198119826352,"connected_time":1181000000000,"state":"active","ping":91},{"user_id":99,"name":"A Bird","steam_id":76561197992405645,"connected_time":225000000000,"state":"active","ping":73},{"user_id":46,"name":"Highground","steam_id":76561199197544789,"connected_time":6166000000000,"state":"active","ping":158},{"user_id":79,"name":"Lime","steam_id":76561198080786408,"connected_time":1609000000000,"state":"active","ping":55},{"user_id":86,"name":"no vc no c","steam_id":76561197989503095,"connected_time":1524000000000,"state":"active","ping":151},{"user_id":88,"name":"Maho","steam_id":76561199076491805,"connected_time":1359000000000,"state":"active","ping":91},{"user_id":81,"name":"HiFivr","steam_id":76561198285190162,"connected_time":1593000000000,"state":"active","ping":60},{"user_id":100,"name":"Kick Down Door 6:00AM TUCK☃RO","steam_id":76561197976146738,"connected_time":220000000000,"state":"active","ping":133},{"user_id":66,"name":"eredyn lft","steam_id":76561198868116439,"connected_time":3840000000000,"state":"active","ping":90},{"user_id":97,"name":"mrselfdestruct13","steam_id":76561197992054553,"connected_time":274000000000,"state":"active","ping":88},{"user_id":104,"name":"Eosson","steam_id":76561198108642113,"connected_time":28000000000,"state":"active","ping":59},{"user_id":102,"name":"stboncho","steam_id":76561198172275301,"connected_time":165000000000,"state":"active","ping":77},{"user_id":101,"name":"McNamJam","steam_id":76561198028128686,"connected_time":215000000000,"state":"active","ping":70},{"user_id":22,"name":"Unicorn","steam_id":76561198119261280,"connected_time":8028000000000,"state":"active","ping":120},{"user_id":98,"name":"Webs","steam_id":76561198041705007,"connected_time":273000000000,"state":"active","ping":131},{"user_id":93,"name":"mingo","steam_id":76561198308290211,"connected_time":1134000000000,"state":"active","ping":94},{"user_id":83,"name":"HentaiHaven","steam_id":76561198453168933,"connected_time":1569000000000,"state":"active","ping":134},{"user_id":57,"name":"Ġ1 ♦ Synth","steam_id":76561198058660228,"connected_time":5561000000000,"state":"active","ping":111},{"user_id":103,"name":"tf3aflyingmouse","steam_id":76561198058134934,"connected_time":135000000000,"state":"active","ping":96},{"user_id":95,"name":"mobe","steam_id":76561198121633820,"connected_time":1024000000000,"state":"active","ping":75}]},{"server_id":119,"name":"Uncletopia | Seattle | 2 | All Maps","name_short":"sea-2","host":"sea-1.us.uncletopia.com","port":27025,"enabled":true,"region":"us-west","cc":"us","latitude":47.608013,"longitude":-122.33517,"reserved":0,"last_update":"0001-01-01T00:00:00Z","name_a2s":"Uncletopia | Seattle | 2 | All Maps","protocol":17,"map":"cp_process_final","folder":"tf","game":"Team Fortress","app_id":440,"player_count":1,"max_players":24,"Bots":0,"server_type":"Dedicated","server_os":"Linux","password":true,"vac":true,"version":"7757534","steam_id":85568392924469998,"keywords":["cp","nocrits","nodmgspread","uncletopia"],"game_id":440,"stv_port":27026,"stv_name":"Uncletopia | Seattle | 2 | All Maps | STV","players":[{"user_id":21,"name":"eggman (real)","steam_id":76561199307321693,"connected_time":210000000000,"state":"connecting","ping":0}]},{"server_id":406,"name":"Uncletopia | Seattle | 3 | Stopwatch Beta","name_short":"sea-3","host":"sea-1.us.uncletopia.com","port":27035,"enabled":true,"region":"us-west","cc":"us","latitude":47.608013,"longitude":-122.33517,"reserved":0,"last_update":"0001-01-01T00:00:00Z","name_a2s":"Uncletopia | Seattle | 3 | Stopwatch Beta","protocol":17,"map":"cp_dustbowl","folder":"tf","game":"Team Fortress","app_id":440,"player_count":0,"max_players":24,"Bots":0,"server_type":"Dedicated","server_os":"Linux","password":true,"vac":true,"version":"7757534","steam_id":85568392924515217,"keywords":["cp","nocrits","nodmgspread","uncletopia"],"game_id":440,"stv_port":27036,"stv_name":"Uncletopia | Seattle | 3 | Stopwatch Beta | STV","players":null},{"server_id":17,"name":"Uncletopia | San Francisco | 1 | All Maps","name_short":"sfo-1","host":"sfo-1.us.uncletopia.com","port":27015,"enabled":true,"region":"us-west","cc":"us","latitude":37.77397,"longitude":-122.4313,"reserved":0,"last_update":"0001-01-01T00:00:00Z","name_a2s":"Uncletopia | San Francisco | 1 | All Maps","protocol":17,"map":"cp_process_final","folder":"tf","game":"Team Fortress","app_id":440,"player_count":0,"max_players":24,"Bots":0,"server_type":"Dedicated","server_os":"Linux","password":true,"vac":true,"version":"7757534","steam_id":85568392924469999,"keywords":["cp","nocrits","nodmgspread","uncletopia"],"game_id":440,"stv_port":27016,"stv_name":"Uncletopia | San Francisco | 1 | All Maps | STV","players":null},{"server_id":18,"name":"Uncletopia | San Francisco | 2 | All Maps","name_short":"sfo-2","host":"sfo-1.us.uncletopia.com","port":27025,"enabled":true,"region":"us-west","cc":"us","latitude":37.77397,"longitude":-122.4313,"reserved":0,"last_update":"0001-01-01T00:00:00Z","name_a2s":"Uncletopia | San Francisco | 2 | All Maps","protocol":17,"map":"koth_highpass","folder":"tf","game":"Team Fortress","app_id":440,"player_count":0,"max_players":24,"Bots":0,"server_type":"Dedicated","server_os":"Linux","password":true,"vac":true,"version":"7757534","steam_id":85568392924470000,"keywords":["cp","nocrits","nodmgspread","uncletopia"],"game_id":440,"stv_port":27026,"stv_name":"Uncletopia | San Francisco | 2 | All Maps | STV","players":null},{"server_id":19,"name":"Uncletopia | San Francisco | 3 | Stopwatch Beta","name_short":"sfo-3","host":"sfo-1.us.uncletopia.com","port":27035,"enabled":true,"region":"us-west","cc":"us","latitude":37.77397,"longitude":-122.4313,"reserved":0,"last_update":"0001-01-01T00:00:00Z","name_a2s":"Uncletopia | San Francisco | 3 | Stopwatch Beta","protocol":17,"map":"koth_lakeside_final","folder":"tf","game":"Team Fortress","app_id":440,"player_count":0,"max_players":24,"Bots":0,"server_type":"Dedicated","server_os":"Linux","password":true,"vac":true,"version":"7757534","steam_id":85568392924742824,"keywords":["cp","nocrits","nodmgspread","uncletopia"],"game_id":440,"stv_port":27036,"stv_name":"Uncletopia | San Francisco | 3 | Stopwatch Beta | STV","players":null},{"server_id":20,"name":"Uncletopia | San Francisco | 4 | Community","name_short":"sfo-4","host":"sfo-1.us.uncletopia.com","port":27045,"enabled":true,"region":"us-west","cc":"us","latitude":37.77397,"longitude":-122.4313,"reserved":0,"last_update":"0001-01-01T00:00:00Z","name_a2s":"Uncletopia | San Francisco | 4 | Community","protocol":17,"map":"cp_altitude","folder":"tf","game":"Team Fortress","app_id":440,"player_count":0,"max_players":24,"Bots":0,"server_type":"Dedicated","server_os":"Linux","password":true,"vac":true,"version":"7757534","steam_id":85568392924742826,"keywords":["cp","nocrits","nodmgspread","uncletopia"],"game_id":440,"stv_port":27046,"stv_name":"Uncletopia | San Francisco | 4 | Community | STV","players":null},{"server_id":141,"name":"Uncletopia | Sydney | 1 | All Maps","name_short":"syd-1","host":"syd-1.au.uncletopia.com","port":27015,"enabled":true,"region":"au","cc":"au","latitude":-33.865143,"longitude":151.2099,"reserved":0,"last_update":"0001-01-01T00:00:00Z","name_a2s":"Uncletopia | Sydney | 1 | All Maps","protocol":17,"map":"pl_upward","folder":"tf","game":"Team Fortress","app_id":440,"player_count":0,"max_players":24,"Bots":0,"server_type":"Dedicated","server_os":"Linux","password":true,"vac":true,"version":"7757534","steam_id":85568392924470001,"keywords":["nocrits","nodmgspread","payload","uncletopia"],"game_id":440,"stv_port":27016,"stv_name":"Uncletopia | Sydney | 1 | All Maps | STV","players":null},{"server_id":123,"name":"Uncletopia | Sydney | 2 | All Maps","name_short":"syd-2","host":"syd-1.au.uncletopia.com","port":27025,"enabled":true,"region":"au","cc":"au","latitude":-33.865143,"longitude":151.2099,"reserved":0,"last_update":"0001-01-01T00:00:00Z","name_a2s":"Uncletopia | Sydney | 2 | All Maps","protocol":17,"map":"cp_sunshine","folder":"tf","game":"Team Fortress","app_id":440,"player_count":0,"max_players":24,"Bots":0,"server_type":"Dedicated","server_os":"Linux","password":true,"vac":true,"version":"7757534","steam_id":85568392924470002,"keywords":["cp","nocrits","nodmgspread","uncletopia"],"game_id":440,"stv_port":27026,"stv_name":"Uncletopia | Sydney | 2 | All Maps | STV","players":null},{"server_id":395,"name":"Uncletopia | Sydney | 3 | All Maps","name_short":"syd-3","host":"syd-1.au.uncletopia.com","port":27035,"enabled":true,"region":"au","cc":"au","latitude":-33.865143,"longitude":151.2099,"reserved":0,"last_update":"0001-01-01T00:00:00Z","name_a2s":"Uncletopia | Sydney | 3 | All Maps","protocol":17,"map":"koth_viaduct","folder":"tf","game":"Team Fortress","app_id":440,"player_count":0,"max_players":24,"Bots":0,"server_type":"Dedicated","server_os":"Linux","password":true,"vac":true,"version":"7757534","steam_id":85568392925194467,"keywords":["cp","nocrits","nodmgspread","uncletopia"],"game_id":440,"stv_port":27036,"stv_name":"Uncletopia | Sydney | 3 | All Maps | STV","players":null},{"server_id":396,"name":"Uncletopia | Sydney | 4 | All Maps","name_short":"syd-4","host":"syd-1.au.uncletopia.com","port":27045,"enabled":true,"region":"au","cc":"au","latitude":-33.865143,"longitude":151.2099,"reserved":0,"last_update":"0001-01-01T00:00:00Z","name_a2s":"Uncletopia | Sydney | 4 | All Maps","protocol":17,"map":"koth_highpass","folder":"tf","game":"Team Fortress","app_id":440,"player_count":0,"max_players":24,"Bots":0,"server_type":"Dedicated","server_os":"Linux","password":true,"vac":true,"version":"7757534","steam_id":85568392925397958,"keywords":["cp","nocrits","nodmgspread","uncletopia"],"game_id":440,"stv_port":27046,"stv_name":"Uncletopia | Sydney | 4 | All Maps | STV","players":null},{"server_id":58,"name":"Uncletopia | Sydney | 5 | Stopwatch Beta","name_short":"syd-5","host":"syd-1.au.uncletopia.com","port":27055,"enabled":true,"region":"au","cc":"au","latitude":-33.865143,"longitude":151.2099,"reserved":0,"last_update":"0001-01-01T00:00:00Z","name_a2s":"Uncletopia | Sydney | 5 | Stopwatch Beta","protocol":17,"map":"workshop/cp_reckoner_rc6.ugc674719999","folder":"tf","game":"Team Fortress","app_id":440,"player_count":0,"max_players":24,"Bots":0,"server_type":"Dedicated","server_os":"Linux","password":true,"vac":true,"version":"7757534","steam_id":85568392925397959,"keywords":["cp","nocrits","nodmgspread","uncletopia"],"game_id":440,"stv_port":27056,"stv_name":"Uncletopia | Sydney | 5 | Stopwatch Beta | STV","players":null},{"server_id":59,"name":"Uncletopia | Sydney | 6 | Community","name_short":"syd-6","host":"syd-1.au.uncletopia.com","port":27065,"enabled":true,"region":"au","cc":"au","latitude":-33.865143,"longitude":151.2099,"reserved":0,"last_update":"0001-01-01T00:00:00Z","name_a2s":"Uncletopia | Sydney | 6 | Community","protocol":17,"map":"workshop/pl_vigil_rc9.ugc1266210012","folder":"tf","game":"Team Fortress","app_id":440,"player_count":0,"max_players":24,"Bots":0,"server_type":"Dedicated","server_os":"Linux","password":true,"vac":true,"version":"7757534","steam_id":85568392925397960,"keywords":["nocrits","nodmgspread","payload","uncletopia"],"game_id":440,"stv_port":27066,"stv_name":"Uncletopia | Sydney | 6 | Community | STV","players":null},{"server_id":49,"name":"Uncletopia | Warsaw | 1 | All Maps","name_short":"waw-1","host":"waw-1.pl.uncletopia.com","port":27015,"enabled":true,"region":"eu","cc":"pl","latitude":52.2297,"longitude":21.017532,"reserved":0,"last_update":"0001-01-01T00:00:00Z","name_a2s":"","protocol":0,"map":"","folder":"","game":"","app_id":0,"player_count":0,"max_players":0,"Bots":0,"server_type":"","server_os":"","password":false,"vac":false,"version":"","steam_id":0,"keywords":null,"game_id":0,"stv_port":0,"stv_name":"","players":null},{"server_id":50,"name":"Uncletopia | Warsaw | 2 | All Maps","name_short":"waw-2","host":"waw-1.pl.uncletopia.com","port":27025,"enabled":true,"region":"eu","cc":"pl","latitude":52.2297,"longitude":21.017532,"reserved":0,"last_update":"0001-01-01T00:00:00Z","name_a2s":"Uncletopia | Warsaw | 2 | All Maps","protocol":17,"map":"koth_viaduct","folder":"tf","game":"Team Fortress","app_id":440,"player_count":3,"max_players":24,"Bots":0,"server_type":"Dedicated","server_os":"Linux","password":true,"vac":true,"version":"7757534","steam_id":85568392925397851,"keywords":["cp","nocrits","nodmgspread","uncletopia"],"game_id":440,"stv_port":27026,"stv_name":"Uncletopia | Warsaw | 2 | All Maps | STV","players":[{"user_id":10,"name":"Sneaky","steam_id":76561198069417496,"connected_time":676000000000,"state":"active","ping":85},{"user_id":11,"name":"TheFox.tf","steam_id":76561197996851702,"connected_time":606000000000,"state":"active","ping":74},{"user_id":12,"name":"result","steam_id":76561198269200388,"connected_time":604000000000,"state":"active","ping":44}]},{"server_id":51,"name":"Uncletopia | Warsaw | 3 | All Maps","name_short":"waw-3","host":"waw-1.pl.uncletopia.com","port":27035,"enabled":true,"region":"eu","cc":"pl","latitude":52.2297,"longitude":21.017532,"reserved":0,"last_update":"0001-01-01T00:00:00Z","name_a2s":"Uncletopia | Warsaw | 3 | All Maps","protocol":17,"map":"pl_badwater","folder":"tf","game":"Team Fortress","app_id":440,"player_count":0,"max_players":24,"Bots":0,"server_type":"Dedicated","server_os":"Linux","password":true,"vac":true,"version":"7757534","steam_id":85568392925397852,"keywords":["nocrits","nodmgspread","payload","uncletopia"],"game_id":440,"stv_port":27036,"stv_name":"Uncletopia | Warsaw | 3 | All Maps | STV","players":null},{"server_id":52,"name":"Uncletopia | Warsaw | 4 | All Maps","name_short":"waw-4","host":"waw-1.pl.uncletopia.com","port":27045,"enabled":true,"region":"eu","cc":"pl","latitude":52.2297,"longitude":21.017532,"reserved":0,"last_update":"0001-01-01T00:00:00Z","name_a2s":"Uncletopia | Warsaw | 4 | All Maps","protocol":17,"map":"koth_lakeside_final","folder":"tf","game":"Team Fortress","app_id":440,"player_count":0,"max_players":24,"Bots":0,"server_type":"Dedicated","server_os":"Linux","password":true,"vac":true,"version":"7757534","steam_id":85568392925397853,"keywords":["cp","nocrits","nodmgspread","uncletopia"],"game_id":440,"stv_port":27046,"stv_name":"Uncletopia | Warsaw | 4 | All Maps | STV","players":null},{"server_id":53,"name":"Uncletopia | Warsaw | 5 | Stopwatch Beta","name_short":"waw-5","host":"waw-1.pl.uncletopia.com","port":27055,"enabled":true,"region":"eu","cc":"pl","latitude":52.2297,"longitude":21.017532,"reserved":0,"last_update":"0001-01-01T00:00:00Z","name_a2s":"Uncletopia | Warsaw | 5 | Stopwatch Beta","protocol":17,"map":"pl_borneo","folder":"tf","game":"Team Fortress","app_id":440,"player_count":0,"max_players":24,"Bots":0,"server_type":"Dedicated","server_os":"Linux","password":true,"vac":true,"version":"7757534","steam_id":85568392925397854,"keywords":["nocrits","nodmgspread","payload","uncletopia"],"game_id":440,"stv_port":27056,"stv_name":"Uncletopia | Warsaw | 5 | Stopwatch Beta | STV","players":null},{"server_id":54,"name":"Uncletopia | Warsaw | 6 | Community","name_short":"waw-6","host":"waw-1.pl.uncletopia.com","port":27065,"enabled":true,"region":"eu","cc":"pl","latitude":52.2297,"longitude":21.017532,"reserved":0,"last_update":"0001-01-01T00:00:00Z","name_a2s":"Uncletopia | Warsaw | 6 | Community","protocol":17,"map":"koth_lakeside_final","folder":"tf","game":"Team Fortress","app_id":440,"player_count":0,"max_players":24,"Bots":0,"server_type":"Dedicated","server_os":"Linux","password":true,"vac":true,"version":"7757534","steam_id":85568392925397856,"keywords":["cp","nocrits","nodmgspread","uncletopia"],"game_id":440,"stv_port":27066,"stv_name":"Uncletopia | Warsaw | 6 | Community | STV","players":null}]}