{"status":true,"message":"","result":[{"server_id":9,"name":"Uncletopia | Atlanta | 1 | All Maps","name_short":"atl-1","host":"atl-1.us.uncletopia.com","port":27015,"enabled":true,"region":"us-east","cc":"us","latitude":33.753746,"longitude":-84.38633,"reserved":0,"last_update":"0001-01-01T00:00:00Z","name_a2s":"Uncletopia | Atlanta | 1 | All Maps","protocol":17,"map":"koth_viaduct","folder":"tf","game":"Team Fortress","app_id":440,"player_count":24,"max_players":24,"Bots":0,"server_type":"Dedicated","server_os":"Linux","password":true,"vac":true,"version":"7757534","steam_id":85568392924469982,"keywords":["cp","nocrits","nodmgspread","uncletopia"],"game_id":440,"stv_port":27016,"stv_name":"Uncletopia | Atlanta | 1 | All Maps | STV","players":[{"user_id":192,"name":"NewerCoke","steam_id":76561198042911847,"connected_time":2716000000000,"state":"active","ping":75},{"user_id":203,"name":"truundrscr","steam_id":76561198213525809,"connected_time":1278000000000,"state":"active","ping":122},{"user_id":186,"name":"lker","steam_id":76561197976975075,"connected_time":3073000000000,"state":"active","ping":38},{"user_id":205,"name":"RectalExam","steam_id":76561197970502312,"connected_time":1231000000000,"state":"active","ping":90},{"user_id":187,"name":"RandyPickleshoes [BEC]","steam_id":76561198064139260,"connected_time":3071000000000,"state":"active","ping":70},{"user_id":195,"name":"hatchetax","steam_id":76561199013337543,"connected_time":2150000000000,"state":"active","ping":45},{"user_id":196,"name":"Scruffin","steam_id":76561198106699645,"connected_time":1982000000000,"state":"active","ping":60},{"user_id":109,"name":"floofy","steam_id":76561198389769098,"connected_time":11829000000000,"state":"active","ping":82},{"user_id":207,"name":"Chicken Joe","steam_id":76561198278185182,"connected_time":623000000000,"state":"active","ping":77},{"user_id":197,"name":"ATL1 | Lylith!!!","steam_id":76561198386687546,"connected_time":1865000000000,"state":"active","ping":46},{"user_id":165,"name":"Vinnask","steam_id":76561199473081779,"connected_time":4790000000000,"state":"active","ping":74},{"user_id":190,"name":"Rock Kickass","steam_id":76561198450510841,"connected_time":2772000000000,"state":"active","ping":112},{"user_id":198,"name":"hierodule","steam_id":76561198023229665,"connected_time":1822000000000,"state":"active","ping":82},{"user_id":206,"name":"RED1 | snoops","steam_id":76561197986760351,"connected_time":726000000000,"state":"active","ping":75},{"user_id":200,"name":"creepycrawler","steam_id":76561198352016831,"connected_time":1782000000000,"state":"active","ping":78},{"user_id":201,"name":"chrischrischris3018@yahoo.com","steam_id":76561198137316053,"connected_time":1719000000000,"state":"active","ping":58},{"user_id":170,"name":"xZackAttack27x","steam_id":76561198035446639,"connected_time":4282000000000,"state":"active","ping":60},{"user_id":184,"name":"LtK","steam_id":76561197993180943,"connected_time":3375000000000,"state":"active","ping":59},{"user_id":123,"name":"Mage","steam_id":76561198285026879,"connected_time":10503000000000,"state":"active","ping":78},{"user_id":132,"name":"SCATTER","steam_id":76561198405168492,"connected_time":8786000000000,"state":"active","ping":97},{"user_id":204,"name":"Yukko Aioi TF2","steam_id":76561198889857835,"connected_time":1245000000000,"state":"active","ping":119},{"user_id":188,"name":"G_Bob","steam_id":76561198098133233,"connected_time":2880000000000,"state":"active","ping":54},{"user_id":193,"name":"StarManMatt","steam_id":76561198125513574,"connected_time":2355000000000,"state":"active","ping":94},{"user_id":177,"name":"MIDi","steam_id":76561198010708247,"connected_time":3821000000000,"state":"active","ping":73}]},{"server_id":400,"name":"Uncletopia | Atlanta | 3 | Community","name_short":"atl-3","host":"atl-1.us.uncletopia.com","port":27035,"enabled":true,"region":"us-east","cc":"us","latitude":33.753746,"longitude":-84.38633,"reserved":0,"last_update":"0001-01-01T00:00:00Z","name_a2s":"Uncletopia | Atlanta | 3 | Community","protocol":17,"map":"workshop/pl_vigil_rc9.ugc1266210012","folder":"tf","game":"Team Fortress","app_id":440,"player_count":0,"max_players":24,"Bots":0,"server_type":"Dedicated","server_os":"Linux","password":true,"vac":true,"version":"7757534","steam_id":85568392924515187,"keywords":["nocrits","nodmgspread","payload","uncletopia"],"game_id":440,"stv_port":27036,"stv_name":"Uncletopia | Atlanta | 3 | Community | STV","players":null},{"server_id":401,"name":"Uncletopia | Atlanta | 4 | No Payload","name_short":"atl-4","host":"atl-1.us.uncletopia.com","port":27045,"enabled":true,"region":"us-east","cc":"us","latitude":33.753746,"longitude":-84.38633,"reserved":0,"last_update":"0001-01-01T00:00:00Z","name_a2s":"","protocol":0,"map":"","folder":"","game":"","app_id":0,"player_count":0,"max_players":0,"Bots":0,"server_type":"","server_os":"","password":false,"vac":false,"version":"","steam_id":0,"keywords":null,"game_id":0,"stv_port":0,"stv_name":"","players":null},{"server_id":2,"name":"Uncletopia | Chicago | 1 | All Maps","name_short":"chi-1","host":"chi-1.us.uncletopia.com","port":27015,"enabled":true,"region":"us-central","cc":"us","latitude":41.881832,"longitude":-87.62318,"reserved":0,"last_update":"0001-01-01T00:00:00Z","name_a2s":"Uncletopia | Chicago | 1 | All Maps","protocol":17,"map":"plr_hightower","folder":"tf","game":"Team Fortress","app_id":440,"player_count":2,"max_players":24,"Bots":0,"server_type":"Dedicated","server_os":"Linux","password":true,"vac":true,"version":"7757534","steam_id":85568392924469984,"keywords":["nocrits","nodmgspread","payload","uncletopia"],"game_id":440,"stv_port":27016,"stv_name":"Uncletopia | Chicago | 1 | All Maps | STV","players":[{"user_id":173,"name":"Ediot","steam_id":76561199349494096,"connected_time":1960000000000,"state":"active","ping":106},{"user_id":174,"name":"ChuChu","steam_id":76561199443647976,"connected_time":1952000000000,"state":"active","ping":137}]},{"server_id":106,"name":"Uncletopia | Chicago | 2 | All Maps","name_short":"chi-2","host":"chi-1.us.uncletopia.com","port":27025,"enabled":true,"region":"us-central","cc":"us","latitude":41.881832,"longitude":-87.62318,"reserved":0,"last_update":"0001-01-01T00:00:00Z","name_a2s":"Uncletopia | Chicago | 2 | All Maps","protocol":17,"map":"pl_badwater","folder":"tf","game":"Team Fortress","app_id":440,"player_count":24,"max_players":24,"Bots":0,"server_type":"Dedicated","server_os":"Linux","password":true,"vac":true,"version":"7757534","steam_id":85568392924469985,"keywords":["nocrits","nodmgspread","payload","uncletopia"],"game_id":440,"stv_port":27026,"stv_name":"Uncletopia | Chicago | 2 | All Maps | STV","players":[{"user_id":280,"name":"masonramsey","steam_id":76561198235872190,"connected_time":22000000000,"state":"active","ping":113},{"user_id":261,"name":"Chara","steam_id":76561198853239207,"connected_time":218000000000,"state":"active","ping":63},{"user_id":250,"name":"Frisk","steam_id":76561198149968471,"connected_time":556000000000,"state":"active","ping":73},{"user_id":253,"name":"DeeRedPanda","steam_id":76561199101853184,"connected_time":533000000000,"state":"active","ping":169},{"user_id":257,"name":"Antwan","steam_id":76561198246200638,"connected_time":280000000000,"state":"active","ping":60},{"user_id":216,"name":"Krellah","steam_id":76561198287045069,"connected_time":3093000000000,"state":"active","ping":51},{"user_id":217,"name":"sonic1394","steam_id":76561198054636788,"connected_time":3091000000000,"state":"active","ping":70},{"user_id":258,"name":"Froakie","steam_id":76561198125261443,"connected_time":277000000000,"state":"active","ping":108},{"user_id":255,"name":"bird","steam_id":76561198413125750,"connected_time":468000000000,"state":"active","ping":66},{"user_id":256,"name":"roo the observer","steam_id":76561198120684348,"connected_time":458000000000,"state":"active","ping":59},{"user_id":259,"name":"galoomba","steam_id":76561199201917180,"connected_time":270000000000,"state":"active","ping":81},{"user_id":234,"name":"sagejay","steam_id":76561198118149530,"connected_time":2044000000000,"state":"active","ping":59},{"user_id":260,"name":"watchfull","steam_id":76561198433266742,"connected_time":240000000000,"state":"active","ping":92},{"user_id":262,"name":"Anonymous_Cletus_TTV","steam_id":76561198243740340,"connected_time":212000000000,"state":"active","ping":78},{"user_id":231,"name":"SomeFatPoptart","steam_id":76561198085433807,"connected_time":2166000000000,"state":"active","ping":80},{"user_id":263,"name":"giveit5","steam_id":76561198030815437,"connected_time":196000000000,"state":"active","ping":91},{"user_id":236,"name":"Moizturized","steam_id":76561198873850038,"connected_time":1922000000000,"state":"active","ping":75},{"user_id":245,"name":"ProbiusSC","steam_id":76561198379167322,"connected_time":1111000000000,"state":"active","ping":83},{"user_id":264,"name":"Hifumi Togo","steam_id":76561198074930636,"connected_time":185000000000,"state":"active","ping":45},{"user_id":226,"name":"*","steam_id":76561198173047169,"connected_time":2754000000000,"state":"active","ping":59},{"user_id":242,"name":"rudy","steam_id":76561198088712799,"connected_time":1792000000000,"state":"active","ping":77},{"user_id":239,"name":"howtobepker","steam_id":76561198115053865,"connected_time":1859000000000,"state":"active","ping":84},{"user_id":265,"name":"aaron","steam_id":76561198308883028,"connected_time":184000000000,"state":"active","ping":119},{"user_id":267,"name":"BaDboY6996","steam_id":76561197969386201,"connected_time":175000000000,"state":"active","ping":51}]},{"server_id":402,"name":"Uncletopia | Chicago | 3 | All Maps","name_short":"chi-3","host":"chi-1.us.uncletopia.com","port":27035,"enabled":true,"region":"us-central","cc":"us","latitude":41.881832,"longitude":-87.62318,"reserved":0,"last_update":"0001-01-01T00:00:00Z","name_a2s":"Uncletopia | Chicago | 3 | All Maps","protocol":17,"map":"koth_viaduct","folder":"tf","game":"Team Fortress","app_id":440,"player_count":0,"max_players":24,"Bots":0,"server_type":"Dedicated","server_os":"Linux","password":true,"vac":true,"version":"7757534","steam_id":85568392924515191,"keywords":["cp","nocrits","nodmgspread","uncletopia"],"game_id":440,"stv_port":27036,"stv_name":"Uncletopia | Chicago | 3 | All Maps | STV","players":null},{"server_id":403,"name":"Uncletopia | Chicago | 4 | All Maps","name_short":"chi-4","host":"chi-1.us.uncletopia.com","port":27045,"enabled":true,"region":"us-central","cc":"us","latitude":41.881832,"longitude":-87.62318,"reserved":0,"last_update":"0001-01-01T00:00:00Z","name_a2s":"Uncletopia | Chicago | 4 | All Maps","protocol":17,"map":"pl_snowycoast","folder":"tf","game":"Team Fortress","app_id":440,"player_count":0,"max_players":24,"Bots":0,"server_type":"Dedicated","server_os":"Linux","password":true,"vac":true,"version":"7757534","steam_id":85568392924515193,"keywords":["nocrits","nodmgspread","payload","uncletopia"],"game_id":440,"stv_port":27046,"stv_name":"Uncletopia | Chicago | 4 | All Maps | STV","players":null},{"server_id":36,"name":"Uncletopia | Chicago | 5 | All Maps","name_short":"chi-5","host":"chi-2.us.uncletopia.com","port":27015,"enabled":true,"region":"us-central","cc":"us","latitude":41.881832,"longitude":-87.62318,"reserved":0,"last_update":"0001-01-01T00:00:00Z","name_a2s":"Uncletopia | Chicago | 5 | All Maps","protocol":17,"map":"cp_mountainlab","folder":"tf","game":"Team Fortress","app_id":440,"player_count":13,"max_players":24,"Bots":0,"server_type":"Dedicated","server_os":"Linux","password":true,"vac":true,"version":"7757534","steam_id":85568392924866362,"keywords":["cp","nocrits","nodmgspread","uncletopia"],"game_id":440,"stv_port":27016,"stv_name":"Uncletopia | Chicago | 5 | All Maps | STV","players":[{"user_id":257,"name":"Romaioi","steam_id":76561199003172184,"connected_time":1001000000000,"state":"active","ping":194},{"user_id":254,"name":"Spooper","steam_id":76561198311552216,"connected_time":1330000000000,"state":"active","ping":66},{"user_id":255,"name":"VidzCMC","steam_id":76561198848142973,"connected_time":1319000000000,"state":"active","ping":56},{"user_id":267,"name":"MoanfulMilk","steam_id":76561199229169396,"connected_time":32000000000,"state":"active","ping":61},{"user_id":258,"name":"Jinxx","steam_id":76561199089438997,"connected_time":991000000000,"state":"active","ping":85},{"user_id":259,"name":"TaxFraudDaily","steam_id":76561199121598945,"connected_time":975000000000,"state":"active","ping":62},{"user_id":260,"name":"Hans Friedrich","steam_id":76561198350605771,"connected_time":962000000000,"state":"active","ping":81},{"user_id":261,"name":"family guy existential moments","steam_id":76561198159339442,"connected_time":901000000000,"state":"active","ping":87},{"user_id":268,"name":"Pvt. Henry","steam_id":76561198004882065,"connected_time":17000000000,"state":"active","ping":66},{"user_id":263,"name":"MEATSLUSHIE","steam_id":76561198216723177,"connected_time":795000000000,"state":"active","ping":116},{"user_id":264,"name":"Blu\u003c3","steam_id":76561198216877208,"connected_time":760000000000,"state":"active","ping":104},{"user_id":266,"name":"monstrioz","steam_id":76561199004673069,"connected_time":554000000000,"state":"active","ping":187},{"user_id":235,"name":"Skullypoo","steam_id":76561198067912022,"connected_time":2966000000000,"state":"active","ping":64}]},{"server_id":37,"name":"Uncletopia | Chicago | 6 | All Maps","name_short":"chi-6","host":"chi-2.us.uncletopia.com","port":27025,"enabled":true,"region":"us-central","cc":"us","latitude":41.881832,"longitude":-87.62318,"reserved":0,"last_update":"0001-01-01T00:00:00Z","name_a2s":"Uncletopia | Chicago | 6 | All Maps","protocol":17,"map":"koth_highpass","folder":"tf","game":"Team Fortress","app_id":440,"player_count":0,"max_players":24,"Bots":0,"server_type":"Dedicated","server_os":"Linux","password":true,"vac":true,"version":"7757534","steam_id":85568392924866363,"keywords":["cp","nocrits","nodmgspread","uncletopia"],"game_id":440,"stv_port":27026,"stv_name":"Uncletopia | Chicago | 6 | All Maps | STV","players":null},{"server_id":38,"name":"Uncletopia | Chicago | 7 | Stopwatch Beta","name_short":"chi-7","host":"chi-2.us.uncletopia.com","port":27035,"enabled":true,"region":"us-central","cc":"us","latitude":41.881832,"longitude":-87.62318,"reserved":0,"last_update":"0001-01-01T00:00:00Z","name_a2s":"Uncletopia | Chicago | 7 | Stopwatch Beta","protocol":17,"map":"koth_viaduct","folder":"tf","game":"Team Fortress","app_id":440,"player_count":0,"max_players":24,"Bots":0,"server_type":"Dedicated","server_os":"Linux","password":true,"vac":true,"version":"7757534","steam_id":85568392924866364,"keywords":["cp","nocrits","nodmgspread","uncletopia"],"game_id":440,"stv_port":27036,"stv_name":"Uncletopia | Chicago | 7 | Stopwatch Beta | STV","players":null},{"server_id":39,"name":"Uncletopia | Chicago | 8 | Community","name_short":"chi-8","host":"chi-2.us.uncletopia.com","port":27045,"enabled":true,"region":"us-central","cc":"us","latitude":41.881832,"longitude":-87.62318,"reserved":0,"last_update":"0001-01-01T00:00:00Z","name_a2s":"Uncletopia | Chicago | 8 | Community","protocol":17,"map":"workshop/koth_trenchfoot_b1a.ugc731436616","folder":"tf","game":"Team Fortress","app_id":440,"player_count":0,"max_players":24,"Bots":0,"server_type":"Dedicated","server_os":"Linux","password":true,"vac":true,"version":"7757534","steam_id":85568392924866365,"keywords":["cp","nocrits","nodmgspread","uncletopia"],"game_id":440,"stv_port":27046,"stv_name":"Uncletopia | Chicago | 8 | Community | STV","players":null},{"server_id":8,"name":"Uncletopia | Dallas | 1 | All Maps","name_short":"dal-1","host":"dal-1.us.uncletopia.com","port":27015,"enabled":true,"region":"us-central","cc":"us","latitude":32.779167,"longitude":-96.80889,"reserved":0,"last_update":"0001-01-01T00:00:00Z","name_a2s":"Uncletopia | Dallas | 1 | All Maps","protocol":17,"map":"pl_upward","folder":"tf","game":"Team Fortress","app_id":440,"player_count":24,"max_players":24,"Bots":0,"server_type":"Dedicated","server_os":"Linux","password":true,"vac":true,"version":"7757534","steam_id":85568392924469986,"keywords":["nocrits","nodmgspread","payload","uncletopia"],"game_id":440,"stv_port":27016,"stv_name":"Uncletopia | Dallas | 1 | All Maps | STV","players":[{"user_id":516,"name":"uKBr","steam_id":76561199146446082,"connected_time":1086000000000,"state":"active","ping":66},{"user_id":531,"name":"SkyFlyWhite","steam_id":76561198241383126,"connected_time":219000000000,"state":"active","ping":90},{"user_id":5,"name":"Limasio","steam_id":76561198198176191,"connected_time":21104000000000,"state":"active","ping":71},{"user_id":526,"name":"TransWomanGaming","steam_id":76561198809645656,"connected_time":678000000000,"state":"active","ping":73},{"user_id":509,"name":"Friggy","steam_id":76561198131467867,"connected_time":1283000000000,"state":"active","ping":73},{"user_id":489,"name":"Faraday","steam_id":76561198089928357,"connected_time":2978000000000,"state":"active","ping":45},{"user_id":461,"name":"Gelidus","steam_id":76561198817304634,"connected_time":3933000000000,"state":"active","ping":74},{"user_id":532,"name":"unchmiri","steam_id":76561199181659125,"connected_time":162000000000,"state":"active","ping":57},{"user_id":519,"name":"-BRH- Tangled up in Bluegrass","steam_id":76561197987181139,"connected_time":941000000000,"state":"active","ping":66},{"user_id":514,"name":"JORDO","steam_id":76561198014832479,"connected_time":1094000000000,"state":"active","ping":73},{"user_id":467,"name":"Kenku","steam_id":76561199086762926,"connected_time":3820000000000,"state":"active","ping":66},{"user_id":513,"name":"BoomieMcBoomPants","steam_id":76561198144516828,"connected_time":1096000000000,"state":"active","ping":93},{"user_id":505,"name":"BOT Positronicâ™¥June (they/she","steam_id":76561198042556857,"connected_time":1581000000000,"state":"active","ping":77},{"user_id":515,"name":"harlowng","steam_id":76561198060542928,"connected_time":1089000000000,"state":"active","ping":117},{"user_id":524,"name":"shybeing","steam_id":76561198063895364,"connected_time":796000000000,"state":"active","ping":98},{"user_id":506,"name":"FortHunter","steam_id":76561198262391126,"connected_time":1519000000000,"state":"active","ping":87},{"user_id":498,"name":"iluvtoust","steam_id":76561198869269207,"connected_time":2183000000000,"state":"active","ping":53},{"user_id":527,"name":"MoonWolf","steam_id":76561198095735033,"connected_time":447000000000,"state":"active","ping":71},{"user_id":530,"name":"DoomoPelota","steam_id":76561198326462587,"connected_time":247000000000,"state":"active","ping":90},{"user_id":495,"name":"Rin","steam_id":76561198151519157,"connected_time":2250000000000,"state":"active","ping":35},{"user_id":500,"name":"k8o","steam_id":76561198042481882,"connected_time":1769000000000,"state":"active","ping":66},{"user_id":521,"name":"Violet","steam_id":76561198055860134,"connected_time":842000000000,"state":"active","ping":75},{"user_id":528,"name":"Omni","steam_id":76561198035774007,"connected_time":320000000000,"state":"active","ping":55}]},{"server_id":108,"name":"Uncletopia | Dallas | 2 | All Maps","name_short":"dal-2","host":"dal-1.us.uncletopia.com","port":27025,"enabled":true,"region":"us-central","cc":"us","latitude":32.779167,"longitude":-96.80889,"reserved":0,"last_update":"0001-01-01T00:00:00Z","name_a2s":"Uncletopia | Dallas | 2 | All Maps","protocol":17,"map":"koth_highpass","folder":"tf","game":"Team Fortress","app_id":440,"player_count":0,"max_players":24,"Bots":0,"server_type":"Dedicated","server_os":"Linux","password":true,"vac":true,"version":"7757534","steam_id":85568392924469988,"keywords":["cp","nocrits","nodmgspread","uncletopia"],"game_id":440,"stv_port":27026,"stv_name":"Uncletopia | Dallas | 2 | All Maps | STV","players":null},{"server_id":5,"name":"Uncletopia | Frankfurt | 1 | All Maps","name_short":"frk-1","host":"frk-1.de.uncletopia.com","port":27015,"enabled":true,"region":"eu","cc":"de","latitude":50.110924,"longitude":8.682127,"reserved":0,"last_update":"0001-01-01T00:00:00Z","name_a2s":"Uncletopia | Frankfurt | 1 | All Maps","protocol":17,"map":"pl_badwater","folder":"tf","game":"Team Fortress","app_id":440,"player_count":2,"max_players":24,"Bots":0,"server_type":"Dedicated","server_os":"Linux","password":true,"vac":true,"version":"7757534","steam_id":85568392924469989,"keywords":["nocrits","nodmgspread","payload","uncletopia"],"game_id":440,"stv_port":27016,"stv_name":"Uncletopia | Frankfurt | 1 | All Maps | STV","players":[{"user_id":3,"name":"Banana Hoovy 2 9 0","steam_id":76561199167881489,"connected_time":606000000000,"state":"active","ping":97},{"user_id":4,"name":"El Presidente #savetf2","steam_id":76561198302711029,"connected_time":494000000000,"state":"active","ping":72}]},{"server_id":110,"name":"Uncletopia | Frankfurt | 2 | All Maps","name_short":"frk-2","host":"frk-1.de.uncletopia.com","port":27025,"enabled":true,"region":"eu","cc":"de","latitude":50.110924,"longitude":8.682127,"reserved":0,"last_update":"0001-01-01T00:00:00Z","name_a2s":"Uncletopia | Frankfurt | 2 | All Maps","protocol":17,"map":"pl_barnblitz","folder":"tf","game":"Team Fortress","app_id":440,"player_count":24,"max_players":24,"Bots":0,"server_type":"Dedicated","server_os":"Linux","password":true,"vac":true,"version":"7757534","steam_id":85568392924469990,"keywords":["nocrits","nodmgspread","payload","uncletopia"],"game_id":440,"stv_port":27026,"stv_name":"Uncletopia | Frankfurt | 2 | All Maps | STV","players":[{"user_id":137,"name":"Marcos","steam_id":76561198798925721,"connected_time":1519000000000,"state":"active","ping":82},{"user_id":134,"name":"ó €¡ó €¡","steam_id":76561198199523126,"connected_time":1639000000000,"state":"active","ping":60},{"user_id":61,"name":"Enigmus","steam_id":76561197994063627,"connected_time":7789000000000,"state":"active","ping":76},{"user_id":127,"name":"Bulyto","steam_id":76561198043205202,"connected_time":2176000000000,"state":"active","ping":66},{"user_id":34,"name":"glyph","steam_id":76561197980736364,"connected_time":10601000000000,"state":"active","ping":75},{"user_id":129,"name":"i n n o","steam_id":76561199230689289,"connected_time":1774000000000,"state":"active","ping":83},{"user_id":38,"name":"Corpus Christi","steam_id":76561198417999443,"connected_time":10219000000000,"state":"active","ping":98},{"user_id":130,"name":"SantiThePug #ReviveTheCaber","steam_id":76561199049615996,"connected_time":1767000000000,"state":"active","ping":77},{"user_id":131,"name":"blindcinema_","steam_id":76561198026908105,"connected_time":1747000000000,"state":"active","ping":60},{"user_id":143,"name":"DonD","steam_id":76561198061496731,"connected_time":1183000000000,"state":"active","ping":85},{"user_id":135,"name":"Heisenberg","steam_id":76561198842650212,"connected_time":1635000000000,"state":"active","ping":68},{"user_id":139,"name":"name 10 books","steam_id":76561198175433731,"connected_time":1468000000000,"state":"active","ping":83},{"user_id":133,"name":"ãƒ†ã‚¤ãƒ«ã‚¹","steam_id":76561198022403271,"connected_time":1701000000000,"state":"active","ping":45},{"user_id":144,"name":"Vad'Qua","steam_id":76561198035745632,"connected_time":677000000000,"state":"active","ping":76},{"user_id":140,"name":"Dooting","steam_id":76561199069121777,"connected_time":1445000000000,"state":"active","ping":80},{"user_id":114,"name":"Papa sniper","steam_id":76561198941117244,"connected_time":2975000000000,"state":"active","ping":101},{"user_id":147,"name":"â™«â˜…Xriaspâ˜…â™«","steam_id":76561198104721321,"connected_time":351000000000,"state":"active","ping":75},{"user_id":100,"name":"ace","steam_id":76561198335329113,"connected_time":3800000000000,"state":"active","ping":121},{"user_id":120,"name":"CouchPotato","steam_id":76561198849369915,"connected_time":2655000000000,"state":"active","ping":61},{"user_id":101,"name":"Striker","steam_id":76561198100173021,"connected_time":3800000000000,"state":"active","ping":61},{"user_id":148,"name":"T1 (ted1)","steam_id":76561199229022826,"connected_time":183000000000,"state":"active","ping":103},{"user_id":118,"name":"nky","steam_id":76561198086229832,"connected_time":2797000000000,"state":"active","ping":60},{"user_id":78,"name":"Hoks","steam_id":76561198126442242,"connected_time":6160000000000,"state":"active","ping":119},{"user_id":126,"name":"oepidus","steam_id":76561198963841479,"connected_time":2366000000000,"state":"active","ping":83}]},{"server_id":308,"name":"Uncletopia | Frankfurt | 3 | All Maps","name_short":"frk-3","host":"frk-1.de.uncletopia.com","port":27035,"enabled":true,"region":"eu","cc":"de","latitude":50.110924,"longitude":8.682127,"reserved":0,"last_update":"0001-01-01T00:00:00Z","name_a2s":"Uncletopia | Frankfurt | 3 | All Maps","protocol":17,"map":"pl_borneo","folder":"tf","game":"Team Fortress","app_id":440,"player_count":0,"max_players":24,"Bots":0,"server_type":"Dedicated","server_os":"Linux","password":true,"vac":true,"version":"7757534","steam_id":85568392924504274,"keywords":["nocrits","nodmgspread","payload","uncletopia"],"game_id":440,"stv_port":27036,"stv_name":"Uncletopia | Frankfurt | 3 | All Maps | STV","players":null},{"server_id":309,"name":"Uncletopia | Frankfurt | 4 | All Maps","name_short":"frk-4","host":"frk-1.de.uncletopia.com","port":27045,"enabled":true,"region":"eu","cc":"de","latitude":50.110924,"longitude":8.682127,"reserved":0,"last_update":"0001-01-01T00:00:00Z","name_a2s":"Uncletopia | Frankfurt | 4 | All Maps","protocol":17,"map":"pl_pier","folder":"tf","game":"Team Fortress","app_id":440,"player_count":0,"max_players":24,"Bots":0,"server_type":"Dedicated","server_os":"Linux","password":true,"vac":true,"version":"7757534","steam_id":85568392924504275,"keywords":["nocrits","nodmgspread","payload","uncletopia"],"game_id":440,"stv_port":27046,"stv_name":"Uncletopia | Frankfurt | 4 | All Maps | STV","players":null},{"server_id":310,"name":"Uncletopia | Frankfurt | 5 | All Maps","name_short":"frk-5","host":"frk-1.de.uncletopia.com","port":27055,"enabled":true,"region":"eu","cc":"de","latitude":50.110924,"longitude":8.682127,"reserved":0,"last_update":"0001-01-01T00:00:00Z","name_a2s":"Uncletopia | Frankfurt | 5 | All Maps","protocol":17,"map":"cp_altitude","folder":"tf","game":"Team Fortress","app_id":440,"player_count":0,"max_players":24,"Bots":0,"server_type":"Dedicated","server_os":"Linux","password":true,"vac":true,"version":"7757534","steam_id":85568392924504277,"keywords":["cp","nocrits","nodmgspread","uncletopia"],"game_id":440,"stv_port":27056,"stv_name":"Uncletopia | Frankfurt | 5 | All Maps | STV","players":null},{"server_id":311,"name":"Uncletopia | Frankfurt | 6 | All Maps","name_short":"frk-6","host":"frk-1.de.uncletopia.com","port":27065,"enabled":true,"region":"eu","cc":"de","latitude":50.110924,"longitude":8.682127,"reserved":0,"last_update":"0001-01-01T00:00:00Z","name_a2s":"Uncletopia | Frankfurt | 6 | All Maps","protocol":17,"map":"pl_barnblitz","folder":"tf","game":"Team Fortress","app_id":440,"player_count":0,"max_players":24,"Bots":0,"server_type":"Dedicated","server_os":"Linux","password":true,"vac":true,"version":"7757534","steam_id":85568392924504278,"keywords":["nocrits","nodmgspread","payload","uncletopia"],"game_id":440,"stv_port":27066,"stv_name":"Uncletopia | Frankfurt | 6 | All Maps | STV","players":null},{"server_id":23,"name":"Uncletopia | Frankfurt | 7 | Stopwatch Beta","name_short":"frk-7","host":"frk-1.de.uncletopia.com","port":27075,"enabled":true,"region":"eu","cc":"de","latitude":50.110924,"longitude":8.682127,"reserved":0,"last_update":"0001-01-01T00:00:00Z","name_a2s":"Uncletopia | Frankfurt | 7 | Stopwatch Beta","protocol":17,"map":"pl_borneo","folder":"tf","game":"Team Fortress","app_id":440,"player_count":0,"max_players":24,"Bots":0,"server_type":"Dedicated","server_os":"Linux","password":true,"vac":true,"version":"7757534","steam_id":85568392924742827,"keywords":["nocrits","nodmgspread","payload","uncletopia"],"game_id":440,"stv_port":27076,"stv_name":"Uncletopia | Frankfurt | 7 | Stopwatch Beta | STV","players":null},{"server_id":24,"name":"Uncletopia | Frankfurt | 8 | Community","name_short":"frk-8","host":"frk-1.de.uncletopia.com","port":27085,"enabled":true,"region":"eu","cc":"de","latitude":50.110924,"longitude":8.682127,"reserved":0,"last_update":"0001-01-01T00:00:00Z","name_a2s":"Uncletopia | Frankfurt | 8 | Community","protocol":17,"map":"koth_viaduct","folder":"tf","game":"Team Fortress","app_id":440,"player_count":0,"max_players":24,"Bots":0,"server_type":"Dedicated","server_os":"Linux","password":true,"vac":true,"version":"7757534","steam_id":85568392924742828,"keywords":["cp","nocrits","nodmgspread","uncletopia"],"game_id":440,"stv_port":27086,"stv_name":"Uncletopia | Frankfurt | 8 | Community | STV","players":null},{"server_id":202,"name":"Uncletopia | Hong Kong | 1 | All Maps","name_short":"hgk-1","host":"hgk-1.hk.uncletopia.com","port":27015,"enabled":true,"region":"asia","cc":"hk","latitude":22.302711,"longitude":114.177216,"reserved":0,"last_update":"0001-01-01T00:00:00Z","name_a2s":"Uncletopia | Hong Kong | 1 | All Maps","protocol":17,"map":"cp_dustbowl","folder":"tf","game":"Team Fortress","app_id":440,"player_count":24,"max_players":24,"Bots":0,"server_type":"Dedicated","server_os":"Linux","password":true,"vac":true,"version":"7757534","steam_id":85568392924494504,"keywords":["cp","nocrits","nodmgspread","uncletopia"],"game_id":440,"stv_port":27016,"stv_name":"Uncletopia | Hong Kong | 1 | All Maps | STV","players":[{"user_id":233,"name":"Darknight","steam_id":76561199090139287,"connected_time":1474000000000,"state":"active","ping":89},{"user_id":201,"name":"Rephex","steam_id":76561198308185574,"connected_time":4797000000000,"state":"active","ping":73},{"user_id":227,"name":"Taokaka","steam_id":76561198158666692,"connected_time":2473000000000,"state":"active","ping":44},{"user_id":208,"name":"NOPE","steam_id":76561199244543572,"connected_time":3649000000000,"state":"active","ping":67},{"user_id":150,"name":"Bepo","steam_id":76561198136685157,"connected_time":9216000000000,"state":"active","ping":59},{"user_id":231,"name":"Stupid B l #saveTF2","steam_id":76561198131423270,"connected_time":1590000000000,"state":"active","ping":103},{"user_id":229,"name":"âœ§BaKa BAzooKAâœ§(â—•â–¿â—• )","steam_id":76561198061628689,"connected_time":2124000000000,"state":"active","ping":53},{"user_id":218,"name":"ç…™æµ· | Enkai","steam_id":76561198050460825,"connected_time":2861000000000,"state":"active","ping":76},{"user_id":236,"name":"woman moment","steam_id":76561198147851090,"connected_time":1295000000000,"state":"active","ping":92},{"user_id":162,"name":"Noyour","steam_id":76561198323259830,"connected_time":8659000000000,"state":"active","ping":111},{"user_id":186,"name":"Light Rainbow","steam_id":76561198118966673,"connected_time":6062000000000,"state":"active","ping":44},{"user_id":147,"name":"linne","steam_id":76561198230213828,"connected_time":9510000000000,"state":"active","ping":61},{"user_id":230,"name":"momosneakeradventure","steam_id":76561199046440440,"connected_time":1625000000000,"state":"active","ping":45},{"user_id":240,"name":"zetwalla","steam_id":76561198166260360,"connected_time":202000000000,"state":"active","ping":122},{"user_id":207,"name":"å¸•","steam_id":76561198439343999,"connected_time":3665000000000,"state":"active","ping":80},{"user_id":217,"name":":)","steam_id":76561198437941450,"connected_time":3119000000000,"state":"active","ping":86},{"user_id":198,"name":"Floating Blocks of Death","steam_id":76561198179320563,"connected_time":5220000000000,"state":"active","ping":130},{"user_id":237,"name":"Mystery cheese ðŸ§€","steam_id":76561198304002409,"connected_time":1180000000000,"state":"active","ping":84},{"user_id":220,"name":"ThunderMoutaingame2011","steam_id":76561199187380315,"connected_time":2511000000000,"state":"active","ping":45},{"user_id":242,"name":"Lelouch","steam_id":76561198828840546,"connected_time":176000000000,"state":"active","ping":73},{"user_id":216,"name":"3wfFbdrjEze5d2G","steam_id":76561198435900451,"connected_time":3398000000000,"state":"active","ping":119},{"user_id":241,"name":"corpse_cadaver","steam_id":76561199225360457,"connected_time":199000000000,"state":"active","ping":64},{"user_id":223,"name":"Urotsuki","steam_id":76561198074339034,"connected_time":2495000000000,"state":"active","ping":78},{"user_id":143,"name":"how 2 nijika tutorial","steam_id":76561199146847474,"connected_time":10096000000000,"state":"active","ping":58}]},{"server_id":1,"name":"Uncletopia | Los Angeles | 1 | All Maps","name_short":"lax-1","host":"lax-1.us.uncletopia.com","port":27015,"enabled":true,"region":"us-west","cc":"us","latitude":33.94279,"longitude":-118.41004,"reserved":0,"last_update":"0001-01-01T00:00:00Z","name_a2s":"Uncletopia | Los Angeles | 1 | All Maps","protocol":17,"map":"pl_borneo","folder":"tf","game":"Team Fortress","app_id":440,"player_count":24,"max_players":24,"Bots":0,"server_type":"Dedicated","server_os":"Linux","password":true,"vac":true,"version":"7757534","steam_id":85568392924469991,"keywords":["nocrits","nodmgspread","payload","uncletopia"],"game_id":440,"stv_port":27016,"stv_name":"Uncletopia | Los Angeles | 1 | All Maps | STV","players":[{"user_id":231,"name":"!BonkÂ¡","steam_id":76561198998042673,"connected_time":2586000000000,"state":"active","ping":44},{"user_id":254,"name":"Ended","steam_id":76561198112214021,"connected_time":969000000000,"state":"active","ping":65},{"user_id":167,"name":"MatchMatch","steam_id":76561198048925904,"connected_time":9212000000000,"state":"active","ping":58},{"user_id":223,"name":"Amogous Supreme","steam_id":76561198025476774,"connected_time":4416000000000,"state":"active","ping":68},{"user_id":257,"name":"Bodach J","steam_id":76561197970562873,"connected_time":476000000000,"state":"active","ping":46},{"user_id":243,"name":"Jonner? I hardly know her!","steam_id":76561198424248616,"connected_time":2061000000000,"state":"active","ping":108},{"user_id":228,"name":"Phil Collins","steam_id":76561198068868644,"connected_time":3610000000000,"state":"active","ping":57},{"user_id":256,"name":"Dr. Pleasant","steam_id":76561198111945101,"connected_time":574000000000,"state":"active","ping":115},{"user_id":255,"name":"âœªUUâœªUU","steam_id":76561199389781834,"connected_time":593000000000,"state":"active","ping":63},{"user_id":234,"name":"Creature","steam_id":76561198194585781,"connected_time":2341000000000,"state":"active","ping":51},{"user_id":221,"name":"run fast fall down","steam_id":76561198167207112,"connected_time":4485000000000,"state":"active","ping":87},{"user_id":258,"name":"Assassin","steam_id":76561198321410235,"connected_time":433000000000,"state":"active","ping":31},{"user_id":259,"name":"Shamrock Shake Oct.10.2020 @8pm","steam_id":76561198833313201,"connected_time":358000000000,"state":"active","ping":53},{"user_id":248,"name":"soultheori","steam_id":76561198065538342,"connected_time":1700000000000,"state":"active","ping":79},{"user_id":155,"name":"PootisLife","steam_id":76561198074400568,"connected_time":9933000000000,"state":"active","ping":60},{"user_id":197,"name":"alpharuby","steam_id":76561198051638462,"connected_time":7145000000000,"state":"active","ping":46},{"user_id":209,"name":"nucket","steam_id":76561198028658527,"connected_time":6369000000000,"state":"active","ping":54},{"user_id":199,"name":"Joshzu","steam_id":76561198200521137,"connected_time":7107000000000,"state":"active","ping":80},{"user_id":187,"name":"waster","steam_id":76561198078395002,"connected_time":7561000000000,"state":"active","ping":106},{"user_id":240,"name":"Amadeus","steam_id":76561198160047173,"connected_time":2149000000000,"state":"active","ping":70},{"user_id":237,"name":"Flembrane","steam_id":76561197995328898,"connected_time":2328000000000,"state":"active","ping":38},{"user_id":239,"name":"Buswolley","steam_id":76561197995205571,"connected_time":2191000000000,"state":"active","ping":58},{"user_id":242,"name":"mtn.dewdrinker1999","steam_id":76561198021308963,"connected_time":2093000000000,"state":"active","ping":75},{"user_id":244,"name":"Reef","steam_id":76561199130187039,"connected_time":1990000000000,"state":"active","ping":66}]},{"server_id":112,"name":"Uncletopia | Los Angeles | 2 | All Maps","name_short":"lax-2","host":"lax-1.us.uncletopia.com","port":27025,"enabled":true,"region":"us-west","cc":"us","latitude":33.94279,"longitude":-118.41004,"reserved":0,"last_update":"0001-01-01T00:00:00Z","name_a2s":"Uncletopia | Los Angeles | 2 | All Maps","protocol":17,"map":"pl_swiftwater_final1","folder":"tf","game":"Team Fortress","app_id":440,"player_count":21,"max_players":24,"Bots":0,"server_type":"Dedicated","server_os":"Linux","password":true,"vac":true,"version":"7757534","steam_id":85568392924469992,"keywords":["nocrits","nodmgspread","payload","uncletopia"],"game_id":440,"stv_port":27026,"stv_name":"Uncletopia | Los Angeles | 2 | All Maps | STV","players":[{"user_id":281,"name":"SuaveFrenchman","steam_id":76561198043762683,"connected_time":156000000000,"state":"active","ping":45},{"user_id":195,"name":"Akkawi","steam_id":76561198203159952,"connected_time":5366000000000,"state":"active","ping":64},{"user_id":282,"name":"Grandpa Baozhai","steam_id":76561198086667725,"connected_time":112000000000,"state":"active","ping":81},{"user_id":255,"name":"Mr. Sauce","steam_id":76561198055512324,"connected_time":1694000000000,"state":"active","ping":113},{"user_id":249,"name":"Celia [ +/- ] âœ”","steam_id":76561198067164431,"connected_time":2061000000000,"state":"active","ping":31},{"user_id":231,"name":"i push fat kids off bikes","steam_id":76561198106491249,"connected_time":2783000000000,"state":"active","ping":44},{"user_id":144,"name":"Feel the bern","steam_id":76561198078824519,"connected_time":9386000000000,"state":"active","ping":46},{"user_id":266,"name":"Dagoth Ur","steam_id":76561198117028805,"connected_time":987000000000,"state":"active","ping":94},{"user_id":283,"name":"Rusted Cake","steam_id":76561198209755931,"connected_time":84000000000,"state":"active","ping":118},{"user_id":171,"name":"Altruisticailuridae","steam_id":76561198335295596,"connected_time":8251000000000,"state":"active","ping":67},{"user_id":198,"name":"rmbl","steam_id":76561198150137369,"connected_time":5299000000000,"state":"active","ping":45},{"user_id":275,"name":"organic kale","steam_id":76561198101506575,"connected_time":533000000000,"state":"active","ping":77},{"user_id":284,"name":"nella","steam_id":76561198079349621,"connected_time":32000000000,"state":"active","ping":46},{"user_id":248,"name":"a team of ants doing their best","steam_id":76561198440145948,"connected_time":2235000000000,"state":"active","ping":112},{"user_id":209,"name":"CeoVortex","steam_id":76561198035679805,"connected_time":4606000000000,"state":"active","ping":45},{"user_id":280,"name":"chikin.sauce","steam_id":76561198042464635,"connected_time":350000000000,"state":"active","ping":84},{"user_id":212,"name":"flop","steam_id":76561199230528008,"connected_time":3682000000000,"state":"active","ping":66},{"user_id":276,"name":"P.I.Staker","steam_id":76561198087096559,"connected_time":531000000000,"state":"active","ping":71},{"user_id":277,"name":"Lee","steam_id":76561198154740133,"connected_time":509000000000,"state":"active","ping":124},{"user_id":259,"name":"Vruk","steam_id":76561198116930332,"connected_time":1507000000000,"state":"active","ping":91},{"user_id":279,"name":"Five","steam_id":76561198026640473,"connected_time":473000000000,"state":"active","ping":59}]},{"server_id":324,"name":"Uncletopia | Los Angeles | 3 | All Maps","name_short":"lax-3","host":"lax-1.us.uncletopia.com","port":27035,"enabled":true,"region":"us-west","cc":"us","latitude":33.94279,"longitude":-118.41004,"reserved":0,"last_update":"0001-01-01T00:00:00Z","name_a2s":"Uncletopia | Los Angeles | 3 | All Maps","protocol":17,"map":"pl_upward","folder":"tf","game":"Team Fortress","app_id":440,"player_count":0,"max_players":24,"Bots":0,"server_type":"Dedicated","server_os":"Linux","password":true,"vac":true,"version":"7757534","steam_id":85568392924510198,"keywords":["nocrits","nodmgspread","payload","uncletopia"],"game_id":440,"stv_port":27036,"stv_name":"Uncletopia | Los Angeles | 3 | All Maps | STV","players":null},{"server_id":25,"name":"Uncletopia | Los Angeles | 4 | Stopwatch Beta","name_short":"lax-4","host":"lax-1.us.uncletopia.com","port":27045,"enabled":true,"region":"us-west","cc":"us","latitude":33.94279,"longitude":-118.41004,"reserved":0,"last_update":"0001-01-01T00:00:00Z","name_a2s":"Uncletopia | Los Angeles | 4 | Stopwatch Beta","protocol":17,"map":"cp_dustbowl","folder":"tf","game":"Team Fortress","app_id":440,"player_count":0,"max_players":24,"Bots":0,"server_type":"Dedicated","server_os":"Linux","password":true,"vac":true,"version":"7757534","steam_id":85568392924510199,"keywords":["cp","nocrits","nodmgspread","uncletopia"],"game_id":440,"stv_port":27046,"stv_name":"Uncletopia | Los Angeles | 4 | Stopwatch Beta | STV","players":null},{"server_id":11,"name":"Uncletopia | London | 1 | All Maps","name_short":"lon-1","host":"lon-1.uk.uncletopia.com","port":27015,"enabled":true,"region":"eu","cc":"gb","latitude":51.509865,"longitude":-0.118092,"reserved":0,"last_update":"0001-01-01T00:00:00Z","name_a2s":"Uncletopia | London | 1 | All Maps","protocol":17,"map":"pl_pier","folder":"tf","game":"Team Fortress","app_id":440,"player_count":0,"max_players":24,"Bots":0,"server_type":"Dedicated","server_os":"Linux","password":true,"vac":true,"version":"7757534","steam_id":85568392924367362,"keywords":["nocrits","nodmgspread","payload","uncletopia"],"game_id":440,"stv_port":27016,"stv_name":"Uncletopia | London | 1 | All Maps | STV","players":null},{"server_id":114,"name":"Uncletopia | London | 2 | All Maps","name_short":"lon-2","host":"lon-1.uk.uncletopia.com","port":27025,"enabled":true,"region":"eu","cc":"gb","latitude":51.509865,"longitude":-0.118092,"reserved":0,"last_update":"0001-01-01T00:00:00Z","name_a2s":"Uncletopia | London | 2 | All Maps","protocol":17,"map":"pl_pier","folder":"tf","game":"Team Fortress","app_id":440,"player_count":0,"max_players":24,"Bots":0,"server_type":"Dedicated","server_os":"Linux","password":true,"vac":true,"version":"7757534","steam_id":85568392924470941,"keywords":["nocrits","nodmgspread","payload","uncletopia"],"game_id":440,"stv_port":27026,"stv_name":"Uncletopia | London | 2 | All Maps | STV","players":null},{"server_id":320,"name":"Uncletopia | London | 3 | All Maps","name_short":"lon-3","host":"lon-1.uk.uncletopia.com","port":27035,"enabled":true,"region":"eu","cc":"gb","latitude":51.509865,"longitude":-0.118092,"reserved":0,"last_update":"0001-01-01T00:00:00Z","name_a2s":"Uncletopia | London | 3 | All Maps","protocol":17,"map":"pl_barnblitz","folder":"tf","game":"Team Fortress","app_id":440,"player_count":5,"max_players":24,"Bots":0,"server_type":"Dedicated","server_os":"Linux","password":true,"vac":true,"version":"7757534","steam_id":85568392924510192,"keywords":["nocrits","nodmgspread","payload","uncletopia"],"game_id":440,"stv_port":27036,"stv_name":"Uncletopia | London | 3 | All Maps | STV","players":[{"user_id":3,"name":"DarkFady","steam_id":76561198179099523,"connected_time":3158000000000,"state":"active","ping":109},{"user_id":4,"name":"Truegr","steam_id":76561198811912339,"connected_time":3136000000000,"state":"active","ping":52},{"user_id":10,"name":"Wario","steam_id":76561198356089255,"connected_time":77000000000,"state":"active","ping":167},{"user_id":7,"name":"maakgis","steam_id":76561198851703804,"connected_time":722000000000,"state":"active","ping":128},{"user_id":11,"name":"dob:cob","steam_id":76561198253323044,"connected_time":67000000000,"state":"active","ping":76}]},{"server_id":321,"name":"Uncletopia | London | 4 | All Maps","name_short":"lon-4","host":"lon-1.uk.uncletopia.com","port":27045,"enabled":true,"region":"eu","cc":"gb","latitude":51.509865,"longitude":-0.118092,"reserved":0,"last_update":"0001-01-01T00:00:00Z","name_a2s":"Uncletopia | London | 4 | All Maps","protocol":17,"map":"pl_barnblitz","folder":"tf","game":"Team Fortress","app_id":440,"player_count":0,"max_players":24,"Bots":0,"server_type":"Dedicated","server_os":"Linux","password":true,"vac":true,"version":"7757534","steam_id":85568392924510193,"keywords":["nocrits","nodmgspread","payload","uncletopia"],"game_id":440,"stv_port":27046,"stv_name":"Uncletopia | London | 4 | All Maps | STV","players":null},{"server_id":21,"name":"Uncletopia | London | 5 | All Maps","name_short":"lon-5","host":"lon-1.uk.uncletopia.com","port":27055,"enabled":true,"region":"eu","cc":"gb","latitude":51.509865,"longitude":-0.118092,"reserved":0,"last_update":"0001-01-01T00:00:00Z","name_a2s":"Uncletopia | London | 5 | All Maps","protocol":17,"map":"pl_pier","folder":"tf","game":"Team Fortress","app_id":440,"player_count":0,"max_players":24,"Bots":0,"server_type":"Dedicated","server_os":"Linux","password":true,"vac":true,"version":"7757534","steam_id":85568392924742829,"keywords":["nocrits","nodmgspread","payload","uncletopia"],"game_id":440,"stv_port":27056,"stv_name":"Uncletopia | London | 5 | All Maps | STV","players":null},{"server_id":22,"name":"Uncletopia | London | 6 | All Maps","name_short":"lon-6","host":"lon-1.uk.uncletopia.com","port":27065,"enabled":true,"region":"eu","cc":"gb","latitude":51.509865,"longitude":-0.118092,"reserved":0,"last_update":"0001-01-01T00:00:00Z","name_a2s":"Uncletopia | London | 6 | All Maps","protocol":17,"map":"koth_highpass","folder":"tf","game":"Team Fortress","app_id":440,"player_count":0,"max_players":24,"Bots":0,"server_type":"Dedicated","server_os":"Linux","password":true,"vac":true,"version":"7757534","steam_id":85568392924742830,"keywords":["cp","nocrits","nodmgspread","uncletopia"],"game_id":440,"stv_port":27066,"stv_name":"Uncletopia | London | 6 | All Maps | STV","players":null},{"server_id":40,"name":"Uncletopia | London | 7 | No Payload","name_short":"lon-7","host":"lon-1.uk.uncletopia.com","port":27075,"enabled":true,"region":"eu","cc":"gb","latitude":51.509865,"longitude":-0.118092,"reserved":0,"last_update":"0001-01-01T00:00:00Z","name_a2s":"Uncletopia | London | 7 | No Payload","protocol":17,"map":"koth_highpass","folder":"tf","game":"Team Fortress","app_id":440,"player_count":0,"max_players":24,"Bots":0,"server_type":"Dedicated","server_os":"Linux","password":true,"vac":true,"version":"7757534","steam_id":85568392924964314,"keywords":["cp","nocrits","nodmgspread","uncletopia"],"game_id":440,"stv_port":27076,"stv_name":"Uncletopia | London | 7 | No Payload | STV","players":null},{"server_id":41,"name":"Uncletopia | London | 8 | Community","name_short":"lon-8","host":"lon-1.uk.uncletopia.com","port":27085,"enabled":true,"region":"eu","cc":"gb","latitude":51.509865,"longitude":-0.118092,"reserved":0,"last_update":"0001-01-01T00:00:00Z","name_a2s":"Uncletopia | London | 8 | Community","protocol":17,"map":"cp_altitude","folder":"tf","game":"Team Fortress","app_id":440,"player_count":0,"max_players":24,"Bots":0,"server_type":"Dedicated","server_os":"Linux","password":true,"vac":true,"version":"7757534","steam_id":85568392924964315,"keywords":["cp","nocrits","nodmgspread","uncletopia"],"game_id":440,"stv_port":27086,"stv_name":"Uncletopia | London | 8 | Community | STV","players":null},{"server_id":300,"name":"Uncletopia | MontrÃ©al | 1 | All Maps","name_short":"mtl-1","host":"mtl-1.ca.uncletopia.com","port":27015,"enabled":true,"region":"us-east","cc":"ca","latitude":45.50889,"longitude":-73.56167,"reserved":0,"last_update":"0001-01-01T00:00:00Z","name_a2s":"Uncletopia | MontrÃ©al | 1 | All Maps","protocol":17,"map":"koth_highpass","folder":"tf","game":"Team Fortress","app_id":440,"player_count":0,"max_players":24,"Bots":0,"server_type":"Dedicated","server_os":"Linux","password":true,"vac":true,"version":"7757534","steam_id":85568392924500087,"keywords":["cp","nocrits","nodmgspread","uncletopia"],"game_id":440,"stv_port":27016,"stv_name":"Uncletopia | MontrÃ©al | 1 | All Maps | STV","players":null},{"server_id":301,"name":"Uncletopia | MontrÃ©al | 2 | All Maps","name_short":"mtl-2","host":"mtl-1.ca.uncletopia.com","port":27025,"enabled":true,"region":"us-east","cc":"ca","latitude":45.50889,"longitude":-73.56167,"reserved":0,"last_update":"0001-01-01T00:00:00Z","name_a2s":"Uncletopia | MontrÃ©al | 2 | All Maps","protocol":17,"map":"cp_process_final","folder":"tf","game":"Team Fortress","app_id":440,"player_count":0,"max_players":24,"Bots":0,"server_type":"Dedicated","server_os":"Linux","password":true,"vac":true,"version":"7757534","steam_id":85568392924500088,"keywords":["cp","nocrits","nodmgspread","uncletopia"],"game_id":440,"stv_port":27026,"stv_name":"Uncletopia | MontrÃ©al | 2 | All Maps | STV","players":null},{"server_id":302,"name":"Uncletopia | MontrÃ©al | 3 | All Maps","name_short":"mtl-3","host":"mtl-1.ca.uncletopia.com","port":27035,"enabled":true,"region":"us-east","cc":"ca","latitude":45.50889,"longitude":-73.56167,"reserved":0,"last_update":"0001-01-01T00:00:00Z","name_a2s":"Uncletopia | MontrÃ©al | 3 | All Maps","protocol":17,"map":"pl_frontier_final","folder":"tf","game":"Team Fortress","app_id":440,"player_count":0,"max_players":24,"Bots":0,"server_type":"Dedicated","server_os":"Linux","password":true,"vac":true,"version":"7757534","steam_id":85568392924500089,"keywords":["nocrits","nodmgspread","payload","uncletopia"],"game_id":440,"stv_port":27036,"stv_name":"Uncletopia | MontrÃ©al | 3 | All Maps | STV","players":null},{"server_id":303,"name":"Uncletopia | MontrÃ©al | 4 | No Payload","name_short":"mtl-4","host":"mtl-1.ca.uncletopia.com","port":27045,"enabled":true,"region":"us-east","cc":"ca","latitude":45.50889,"longitude":-73.56167,"reserved":0,"last_update":"0001-01-01T00:00:00Z","name_a2s":"Uncletopia | MontrÃ©al | 4 | No Payload","protocol":17,"map":"cp_steel","folder":"tf","game":"Team Fortress","app_id":440,"player_count":0,"max_players":24,"Bots":0,"server_type":"Dedicated","server_os":"Linux","password":true,"vac":true,"version":"7757534","steam_id":85568392924500090,"keywords":["cp","nocrits","nodmgspread","uncletopia"],"game_id":440,"stv_port":27046,"stv_name":"Uncletopia | MontrÃ©al | 4 | No Payload | STV","players":null},{"server_id":13,"name":"Uncletopia | New York City | 1 | All Maps","name_short":"nyc-1","host":"nyc-1.us.uncletopia.com","port":27015,"enabled":true,"region":"us-east","cc":"us","latitude":40.73061,"longitude":-73.93524,"reserved":0,"last_update":"0001-01-01T00:00:00Z","name_a2s":"Uncletopia | New York City | 1 | All Maps","protocol":17,"map":"cp_process_final","folder":"tf","game":"Team Fortress","app_id":440,"player_count":0,"max_players":24,"Bots":0,"server_type":"Dedicated","server_os":"Linux","password":true,"vac":true,"version":"7757534","steam_id":85568392924469993,"keywords":["cp","nocrits","nodmgspread","uncletopia"],"game_id":440,"stv_port":27016,"stv_name":"Uncletopia | New York City | 1 | All Maps | STV","players":null},{"server_id":14,"name":"Uncletopia | New York City | 2 | All Maps","name_short":"nyc-2","host":"nyc-1.us.uncletopia.com","port":27025,"enabled":true,"region":"us-east","cc":"us","latitude":40.73061,"longitude":-73.93524,"reserved":0,"last_update":"0001-01-01T00:00:00Z","name_a2s":"Uncletopia | New York City | 2 | All Maps","protocol":17,"map":"cp_altitude","folder":"tf","game":"Team Fortress","app_id":440,"player_count":0,"max_players":24,"Bots":0,"server_type":"Dedicated","server_os":"Linux","password":true,"vac":true,"version":"7757534","steam_id":85568392924469994,"keywords":["cp","nocrits","nodmgspread","uncletopia"],"game_id":440,"stv_port":27026,"stv_name":"Uncletopia | New York City | 2 | All Maps | STV","players":null},{"server_id":15,"name":"Uncletopia | New York City | 3 | Stopwatch Beta","name_short":"nyc-3","host":"nyc-1.us.uncletopia.com","port":27035,"enabled":true,"region":"us-east","cc":"us","latitude":40.73061,"longitude":-73.93524,"reserved":0,"last_update":"0001-01-01T00:00:00Z","name_a2s":"Uncletopia | New York City | 3 | Stopwatch Beta","protocol":17,"map":"cp_gullywash_final1","folder":"tf","game":"Team Fortress","app_id":440,"player_count":0,"max_players":24,"Bots":0,"server_type":"Dedicated","server_os":"Linux","password":true,"vac":true,"version":"7757534","steam_id":85568392924742820,"keywords":["cp","nocrits","nodmgspread","uncletopia"],"game_id":440,"stv_port":27036,"stv_name":"Uncletopia | New York City | 3 | Stopwatch Beta | STV","players":null},{"server_id":16,"name":"Uncletopia | New York City | 4 | Community","name_short":"nyc-4","host":"nyc-1.us.uncletopia.com","port":27045,"enabled":true,"region":"us-east","cc":"us","latitude":40.73061,"longitude":-73.93524,"reserved":0,"last_update":"0001-01-01T00:00:00Z","name_a2s":"Uncletopia | New York City | 4 | Community","protocol":17,"map":"workshop/koth_ashville_final.ugc2130459942","folder":"tf","game":"Team Fortress","app_id":440,"player_count":0,"max_players":24,"Bots":0,"server_type":"Dedicated","server_os":"Linux","password":true,"vac":true,"version":"7757534","steam_id":85568392924742821,"keywords":["cp","nocrits","nodmgspread","uncletopia"],"game_id":440,"stv_port":27046,"stv_name":"Uncletopia | New York City | 4 | Community | STV","players":null},{"server_id":142,"name":"Uncletopia | SÃ£o Paulo | 1 | All Maps","name_short":"sao-1","host":"sao-1.br.uncletopia.com","port":27015,"enabled":true,"region":"sa","cc":"br","latitude":-23.533773,"longitude":-46.62529,"reserved":0,"last_update":"0001-01-01T00:00:00Z","name_a2s":"Uncletopia | SÃ£o Paulo | 1 | All Maps","protocol":17,"map":"cp_altitude","folder":"tf","game":"Team Fortress","app_id":440,"player_count":0,"max_players":24,"Bots":0,"server_type":"Dedicated","server_os":"Linux","password":true,"vac":true,"version":"7757534","steam_id":85568392924469996,"keywords":["cp","nocrits","nodmgspread","uncletopia"],"game_id":440,"stv_port":27016,"stv_name":"Uncletopia | SÃ£o Paulo | 1 | All Maps | STV","players":null},{"server_id":143,"name":"Uncletopia | SÃ£o Paulo | 2 | All Maps","name_short":"sao-2","host":"sao-2.br.uncletopia.com","port":27015,"enabled":true,"region":"sa","cc":"br","latitude":-23.533773,"longitude":-46.62529,"reserved":0,"last_update":"0001-01-01T00:00:00Z","name_a2s":"Uncletopia | SÃ£o Paulo | 2 | All Maps","protocol":17,"map":"koth_viaduct","folder":"tf","game":"Team Fortress","app_id":440,"player_count":0,"max_players":24,"Bots":0,"server_type":"Dedicated","server_os":"Linux","password":true,"vac":true,"version":"7757534","steam_id":85568392924485349,"keywords":["cp","nocrits","nodmgspread","uncletopia"],"game_id":440,"stv_port":27016,"stv_name":"Uncletopia | SÃ£o Paulo | 2 | All Maps | STV","players":null},{"server_id":7,"name":"Uncletopia | Seattle | 1 | All Maps","name_short":"sea-1","host":"sea-1.us.uncletopia.com","port":27015,"enabled":true,"region":"us-west","cc":"us","latitude":47.608013,"longitude":-122.33517,"reserved":0,"last_update":"0001-01-01T00:00:00Z","name_a2s":"Uncletopia | Seattle | 1 | All Maps","protocol":17,"map":"pl_upward","folder":"tf","game":"Team Fortress","app_id":440,"player_count":24,"max_players":24,"Bots":0,"server_type":"Dedicated","server_os":"Linux","password":true,"vac":true,"version":"7757534","steam_id":85568392924469997,"keywords":["nocrits","nodmgspread","payload","uncletopia"],"game_id":440,"stv_port":27016,"stv_name":"Uncletopia | Seattle | 1 | All Maps | STV","players":[{"user_id":213,"name":"Doctorâ„¢","steam_id":76561198134309750,"connected_time":2431000000000,"state":"active","ping":99},{"user_id":215,"name":"Ghee Buttersnaps","steam_id":76561199225708271,"connected_time":2400000000000,"state":"active","ping":65},{"user_id":232,"name":"diymo","steam_id":76561198017600790,"connected_time":1206000000000,"state":"active","ping":40},{"user_id":233,"name":"Not Slavoj Å½iÅ¾ek","steam_id":76561198004619616,"connected_time":1188000000000,"state":"active","ping":85},{"user_id":222,"name":"Ma3","steam_id":76561198093319720,"connected_time":2090000000000,"state":"active","ping":103},{"user_id":244,"name":"wabba doo","steam_id":76561198867130576,"connected_time":60000000000,"state":"active","ping":75},{"user_id":242,"name":"strong and healthy gamer","steam_id":76561198049489349,"connected_time":612000000000,"state":"active","ping":56},{"user_id":227,"name":"Xanathar","steam_id":76561197985749277,"connected_time":1336000000000,"state":"active","ping":84},{"user_id":230,"name":"hart","steam_id":76561198046073848,"connected_time":1304000000000,"state":"active","ping":45},{"user_id":226,"name":"Google","steam_id":76561198857237473,"connected_time":1664000000000,"state":"active","ping":45},{"user_id":149,"name":"Arsonist Goose","steam_id":76561198147441830,"connected_time":8456000000000,"state":"active","ping":73},{"user_id":178,"name":"Panckakebro","steam_id":76561198106419992,"connected_time":5986000000000,"state":"active","ping":114},{"user_id":172,"name":"Sniff","steam_id":76561198010270922,"connected_time":6386000000000,"state":"active","ping":40},{"user_id":221,"name":"cracky","steam_id":76561197971365444,"connected_time":2128000000000,"state":"active","ping":48},{"user_id":223,"name":"hardfork","steam_id":76561197960958019,"connected_time":2050000000000,"state":"active","ping":48},{"user_id":224,"name":"jorts","steam_id":76561199041179985,"connected_time":2032000000000,"state":"active","ping":62},{"user_id":225,"name":"Alice Hiiragi","steam_id":76561198094078478,"connected_time":1998000000000,"state":"active","ping":83},{"user_id":239,"name":"Sleuth","steam_id":76561198418288939,"connected_time":824000000000,"state":"active","ping":72},{"user_id":240,"name":"Reindmoz","steam_id":76561199102502069,"connected_time":803000000000,"state":"active","ping":132},{"user_id":243,"name":"exephur","steam_id":76561198135763234,"connected_time":401000000000,"state":"active","ping":65},{"user_id":198,"name":"p9 delight","steam_id":76561197980280272,"connected_time":4109000000000,"state":"active","ping":45},{"user_id":241,"name":"Zesty Italian","steam_id":76561198117835053,"connected_time":656000000000,"state":"active","ping":61},{"user_id":237,"name":"Wall Termite","steam_id":76561198075544930,"connected_time":1164000000000,"state":"active","ping":101},{"user_id":201,"name":"Florist","steam_id":76561198009121060,"connected_time":4092000000000,"state":"active","ping":45}]},{"server_id":119,"name":"Uncletopia | Seattle | 2 | All Maps","name_short":"sea-2","host":"sea-1.us.uncletopia.com","port":27025,"enabled":true,"region":"us-west","cc":"us","latitude":47.608013,"longitude":-122.33517,"reserved":0,"last_update":"0001-01-01T00:00:00Z","name_a2s":"Uncletopia | Seattle | 2 | All Maps","protocol":17,"map":"pl_barnblitz","folder":"tf","game":"Team Fortress","app_id":440,"player_count":15,"max_players":24,"Bots":0,"server_type":"Dedicated","server_os":"Linux","password":true,"vac":true,"version":"7757534","steam_id":85568392924469998,"keywords":["nocrits","nodmgspread","payload","uncletopia"],"game_id":440,"stv_port":27026,"stv_name":"Uncletopia | Seattle | 2 | All Maps | STV","players":[{"user_id":331,"name":"help me","steam_id":76561199041547921,"connected_time":1000000000,"state":"spawning","ping":80},{"user_id":310,"name":"Camohno","steam_id":76561198283519918,"connected_time":1102000000000,"state":"active","ping":67},{"user_id":326,"name":"[Bandit]","steam_id":76561197986919852,"connected_time":62000000000,"state":"active","ping":45},{"user_id":280,"name":"Durazorn","steam_id":76561198096327396,"connected_time":4638000000000,"state":"active","ping":108},{"user_id":328,"name":"NeverAcedIt (Pinnacle -\u003e Pit)","steam_id":76561198406671743,"connected_time":38000000000,"state":"active","ping":158},{"user_id":329,"name":"Thorngot","steam_id":76561198398094468,"connected_time":32000000000,"state":"active","ping":30},{"user_id":325,"name":"RURU","steam_id":76561198039758987,"connected_time":291000000000,"state":"active","ping":55},{"user_id":282,"name":"Yuhh","steam_id":76561199112894955,"connected_time":4530000000000,"state":"active","ping":72},{"user_id":327,"name":"Captain Mac","steam_id":76561197971973906,"connected_time":58000000000,"state":"active","ping":189},{"user_id":283,"name":"b10dragon","steam_id":76561198374314985,"connected_time":4523000000000,"state":"active","ping":106},{"user_id":314,"name":"cofferhead","steam_id":76561199191108449,"connected_time":1087000000000,"state":"active","ping":88},{"user_id":315,"name":"sera","steam_id":76561198120360801,"connected_time":1080000000000,"state":"active","ping":67},{"user_id":316,"name":"jango fett wrist rocket","steam_id":76561198014920568,"connected_time":1041000000000,"state":"active","ping":122},{"user_id":287,"name":"SvicidalBug","steam_id":76561198221390504,"connected_time":4425000000000,"state":"active","ping":73},{"user_id":318,"name":"â™¥ Femboyâ™¥Ventily â™¥","steam_id":76561198157260335,"connected_time":1020000000000,"state":"active","ping":75}]},{"server_id":406,"name":"Uncletopia | Seattle | 3 | Stopwatch Beta","name_short":"sea-3","host":"sea-1.us.uncletopia.com","port":27035,"enabled":true,"region":"us-west","cc":"us","latitude":47.608013,"longitude":-122.33517,"reserved":0,"last_update":"0001-01-01T00:00:00Z","name_a2s":"Uncletopia | Seattle | 3 | Stopwatch Beta","protocol":17,"map":"pl_swiftwater_final1","folder":"tf","game":"Team Fortress","app_id":440,"player_count":0,"max_players":24,"Bots":0,"server_type":"Dedicated","server_os":"Linux","password":true,"vac":true,"version":"7757534","steam_id":85568392924515217,"keywords":["nocrits","nodmgspread","payload","uncletopia"],"game_id":440,"stv_port":27036,"stv_name":"Uncletopia | Seattle | 3 | Stopwatch Beta | STV","players":null},{"server_id":17,"name":"Uncletopia | San Francisco | 1 | All Maps","name_short":"sfo-1","host":"sfo-1.us.uncletopia.com","port":27015,"enabled":true,"region":"us-west","cc":"us","latitude":37.77397,"longitude":-122.4313,"reserved":0,"last_update":"0001-01-01T00:00:00Z","name_a2s":"Uncletopia | San Francisco | 1 | All Maps","protocol":17,"map":"koth_viaduct","folder":"tf","game":"Team Fortress","app_id":440,"player_count":23,"max_players":24,"Bots":0,"server_type":"Dedicated","server_os":"Linux","password":true,"vac":true,"version":"7757534","steam_id":85568392924469999,"keywords":["cp","nocrits","nodmgspread","uncletopia"],"game_id":440,"stv_port":27016,"stv_name":"Uncletopia | San Francisco | 1 | All Maps | STV","players":[{"user_id":382,"name":"gwy","steam_id":76561198277458653,"connected_time":504000000000,"state":"active","ping":55},{"user_id":393,"name":"Apex","steam_id":76561199058954656,"connected_time":0,"state":"spawning","ping":0},{"user_id":388,"name":"Sonata","steam_id":76561198088165440,"connected_time":144000000000,"state":"active","ping":60},{"user_id":385,"name":"POGTRONAS","steam_id":76561198061214216,"connected_time":365000000000,"state":"active","ping":66},{"user_id":390,"name":"The bacon epic","steam_id":76561198004882625,"connected_time":54000000000,"state":"active","ping":55},{"user_id":380,"name":"Eggineer Gamingâ„¢","steam_id":76561198850153403,"connected_time":627000000000,"state":"active","ping":93},{"user_id":373,"name":"Chief Thompson","steam_id":76561199172717761,"connected_time":1607000000000,"state":"active","ping":89},{"user_id":389,"name":"eggplantgirlâ™¥","steam_id":76561198811515692,"connected_time":117000000000,"state":"active","ping":34},{"user_id":391,"name":"mommy","steam_id":76561198129195009,"connected_time":41000000000,"state":"active","ping":88},{"user_id":392,"name":"bâ™¥bb[Y!]","steam_id":76561198029549729,"connected_time":23000000000,"state":"active","ping":66},{"user_id":360,"name":"Saggy","steam_id":76561198166706479,"connected_time":2475000000000,"state":"active","ping":114},{"user_id":325,"name":"Orange Toaster","steam_id":76561198013397599,"connected_time":4620000000000,"state":"active","ping":64},{"user_id":341,"name":"azureglxy","steam_id":76561198861388315,"connected_time":4119000000000,"state":"active","ping":50},{"user_id":342,"name":"Killer Fish From San Diego","steam_id":76561199037594575,"connected_time":4114000000000,"state":"active","ping":94},{"user_id":367,"name":"NWABA","steam_id":76561198073699764,"connected_time":1737000000000,"state":"active","ping":85},{"user_id":377,"name":"me","steam_id":76561199468285784,"connected_time":1063000000000,"state":"active","ping":44},{"user_id":376,"name":"SpringIvan","steam_id":76561199133179509,"connected_time":1177000000000,"state":"active","ping":43},{"user_id":370,"name":"NecroticHealer","steam_id":76561198031329332,"connected_time":1687000000000,"state":"active","ping":105},{"user_id":378,"name":"The Assistant Regional Manager","steam_id":76561199221484936,"connected_time":934000000000,"state":"active","ping":71},{"user_id":371,"name":"Stinky Lizard","steam_id":76561198109983320,"connected_time":1683000000000,"state":"active","ping":98},{"user_id":372,"name":"Ping","steam_id":76561198072947773,"connected_time":1656000000000,"state":"active","ping":98},{"user_id":374,"name":"Gabe","steam_id":76561198081153719,"connected_time":1607000000000,"state":"active","ping":60},{"user_id":375,"name":"roger roger","steam_id":76561198130032444,"connected_time":1592000000000,"state":"active","ping":71}]},{"server_id":18,"name":"Uncletopia | San Francisco | 2 | All Maps","name_short":"sfo-2","host":"sfo-1.us.uncletopia.com","port":27025,"enabled":true,"region":"us-west","cc":"us","latitude":37.77397,"longitude":-122.4313,"reserved":0,"last_update":"0001-01-01T00:00:00Z","name_a2s":"Uncletopia | San Francisco | 2 | All Maps","protocol":17,"map":"pl_swiftwater_final1","folder":"tf","game":"Team Fortress","app_id":440,"player_count":0,"max_players":24,"Bots":0,"server_type":"Dedicated","server_os":"Linux","password":true,"vac":true,"version":"7757534","steam_id":85568392924470000,"keywords":["nocrits","nodmgspread","payload","uncletopia"],"game_id":440,"stv_port":27026,"stv_name":"Uncletopia | San Francisco | 2 | All Maps | STV","players":null},{"server_id":19,"name":"Uncletopia | San Francisco | 3 | Stopwatch Beta","name_short":"sfo-3","host":"sfo-1.us.uncletopia.com","port":27035,"enabled":true,"region":"us-west","cc":"us","latitude":37.77397,"longitude":-122.4313,"reserved":0,"last_update":"0001-01-01T00:00:00Z","name_a2s":"Uncletopia | San Francisco | 3 | Stopwatch Beta","protocol":17,"map":"workshop/koth_ramjam_rc1.ugc459778887","folder":"tf","game":"Team Fortress","app_id":440,"player_count":0,"max_players":24,"Bots":0,"server_type":"Dedicated","server_os":"Linux","password":true,"vac":true,"version":"7757534","steam_id":85568392924742824,"keywords":["cp","nocrits","nodmgspread","uncletopia"],"game_id":440,"stv_port":27036,"stv_name":"Uncletopia | San Francisco | 3 | Stopwatch Beta | STV","players":null},{"server_id":20,"name":"Uncletopia | San Francisco | 4 | Community","name_short":"sfo-4","host":"sfo-1.us.uncletopia.com","port":27045,"enabled":true,"region":"us-west","cc":"us","latitude":37.77397,"longitude":-122.4313,"reserved":0,"last_update":"0001-01-01T00:00:00Z","name_a2s":"Uncletopia | San Francisco | 4 | Community","protocol":17,"map":"workshop/cp_overgrown_rc7b.ugc503939302","folder":"tf","game":"Team Fortress","app_id":440,"player_count":0,"max_players":24,"Bots":0,"server_type":"Dedicated","server_os":"Linux","password":true,"vac":true,"version":"7757534","steam_id":85568392924742826,"keywords":["cp","nocrits","nodmgspread","uncletopia"],"game_id":440,"stv_port":27046,"stv_name":"Uncletopia | San Francisco | 4 | Community | STV","players":null},{"server_id":141,"name":"Uncletopia | Sydney | 1 | All Maps","name_short":"syd-1","host":"syd-1.au.uncletopia.com","port":27015,"enabled":true,"region":"au","cc":"au","latitude":-33.865143,"longitude":151.2099,"reserved":0,"last_update":"0001-01-01T00:00:00Z","name_a2s":"Uncletopia | Sydney | 1 | All Maps","protocol":17,"map":"pl_barnblitz","folder":"tf","game":"Team Fortress","app_id":440,"player_count":7,"max_players":24,"Bots":0,"server_type":"Dedicated","server_os":"Linux","password":true,"vac":true,"version":"7757534","steam_id":85568392924470001,"keywords":["nocrits","nodmgspread","payload","uncletopia"],"game_id":440,"stv_port":27016,"stv_name":"Uncletopia | Sydney | 1 | All Maps | STV","players":[{"user_id":39,"name":"Ticklish Demoman","steam_id":76561198955569441,"connected_time":750000000000,"state":"active","ping":59},{"user_id":32,"name":"AmethystDragon10","steam_id":76561198412979983,"connected_time":1289000000000,"state":"active","ping":82},{"user_id":42,"name":"SCHEFF","steam_id":76561198078226216,"connected_time":667000000000,"state":"active","ping":57},{"user_id":20,"name":"Putramandela","steam_id":76561199373932400,"connected_time":3596000000000,"state":"active","ping":222},{"user_id":21,"name":"dinxie","steam_id":76561199448765541,"connected_time":3555000000000,"state":"active","ping":67},{"user_id":35,"name":"NoodlesFade","steam_id":76561198207940839,"connected_time":1072000000000,"state":"active","ping":83},{"user_id":38,"name":"ToadFungus","steam_id":76561199219667039,"connected_time":862000000000,"state":"active","ping":100}]},{"server_id":123,"name":"Uncletopia | Sydney | 2 | All Maps","name_short":"syd-2","host":"syd-1.au.uncletopia.com","port":27025,"enabled":true,"region":"au","cc":"au","latitude":-33.865143,"longitude":151.2099,"reserved":0,"last_update":"0001-01-01T00:00:00Z","name_a2s":"Uncletopia | Sydney | 2 | All Maps","protocol":17,"map":"pl_pier","folder":"tf","game":"Team Fortress","app_id":440,"player_count":24,"max_players":24,"Bots":0,"server_type":"Dedicated","server_os":"Linux","password":true,"vac":true,"version":"7757534","steam_id":85568392924470002,"keywords":["nocrits","nodmgspread","payload","uncletopia"],"game_id":440,"stv_port":27026,"stv_name":"Uncletopia | Sydney | 2 | All Maps | STV","players":[{"user_id":299,"name":"korn","steam_id":76561198022563294,"connected_time":2893000000000,"state":"active","ping":96},{"user_id":281,"name":"DragRiper","steam_id":76561198050917553,"connected_time":4857000000000,"state":"active","ping":59},{"user_id":332,"name":"OOO EEE AH AH TING TANG","steam_id":76561199174449723,"connected_time":680000000000,"state":"active","ping":156},{"user_id":336,"name":"Rags","steam_id":76561198179481430,"connected_time":499000000000,"state":"active","ping":90},{"user_id":316,"name":"RubyPilot","steam_id":76561198042429921,"connected_time":2100000000000,"state":"active","ping":63},{"user_id":315,"name":"Hally","steam_id":76561198045236233,"connected_time":2406000000000,"state":"active","ping":57},{"user_id":320,"name":"Charm","steam_id":76561198028891054,"connected_time":1502000000000,"state":"active","ping":60},{"user_id":306,"name":"[TÃK] KeRpaL","steam_id":76561197974427061,"connected_time":2659000000000,"state":"active","ping":56},{"user_id":330,"name":"Rat Pope","steam_id":76561199059450243,"connected_time":697000000000,"state":"active","ping":55},{"user_id":274,"name":"Paula","steam_id":76561198010688399,"connected_time":5408000000000,"state":"active","ping":100},{"user_id":321,"name":"CypressFluff (She/Her)","steam_id":76561198174667818,"connected_time":1490000000000,"state":"active","ping":65},{"user_id":337,"name":"NineSixSix","steam_id":76561198059014834,"connected_time":289000000000,"state":"spawning","ping":108},{"user_id":339,"name":"carrot monster","steam_id":76561199056025092,"connected_time":184000000000,"state":"active","ping":49},{"user_id":329,"name":"SkoKiE","steam_id":76561198283542986,"connected_time":746000000000,"state":"active","ping":69},{"user_id":323,"name":"Mouse Balls","steam_id":76561199037470627,"connected_time":1245000000000,"state":"active","ping":99},{"user_id":317,"name":"Snake101","steam_id":76561198418910767,"connected_time":1953000000000,"state":"active","ping":56},{"user_id":218,"name":"Zilvera","steam_id":76561198065801850,"connected_time":10202000000000,"state":"active","ping":45},{"user_id":266,"name":"zore","steam_id":76561198016233021,"connected_time":5837000000000,"state":"active","ping":106},{"user_id":307,"name":"monocrumb","steam_id":76561199126588682,"connected_time":2539000000000,"state":"active","ping":61},{"user_id":318,"name":"BigChickenLover","steam_id":76561198168390852,"connected_time":1935000000000,"state":"active","ping":84},{"user_id":325,"name":"The Fesh Pince Of Blair","steam_id":76561198124442611,"connected_time":1129000000000,"state":"active","ping":81},{"user_id":301,"name":"LightningBlock","steam_id":76561198289997742,"connected_time":2882000000000,"state":"active","ping":37},{"user_id":328,"name":"Atlas","steam_id":76561198069332870,"connected_time":750000000000,"state":"active","ping":50},{"user_id":335,"name":"cunning chris","steam_id":76561197972510204,"connected_time":610000000000,"state":"active","ping":59}]},{"server_id":395,"name":"Uncletopia | Sydney | 3 | All Maps","name_short":"syd-3","host":"syd-1.au.uncletopia.com","port":27035,"enabled":true,"region":"au","cc":"au","latitude":-33.865143,"longitude":151.2099,"reserved":0,"last_update":"0001-01-01T00:00:00Z","name_a2s":"Uncletopia | Sydney | 3 | All Maps","protocol":17,"map":"pl_barnblitz","folder":"tf","game":"Team Fortress","app_id":440,"player_count":0,"max_players":24,"Bots":0,"server_type":"Dedicated","server_os":"Linux","password":true,"vac":true,"version":"7757534","steam_id":85568392925194467,"keywords":["nocrits","nodmgspread","payload","uncletopia"],"game_id":440,"stv_port":27036,"stv_name":"Uncletopia | Sydney | 3 | All Maps | STV","players":null},{"server_id":396,"name":"Uncletopia | Sydney | 4 | All Maps","name_short":"syd-4","host":"syd-1.au.uncletopia.com","port":27045,"enabled":true,"region":"au","cc":"au","latitude":-33.865143,"longitude":151.2099,"reserved":0,"last_update":"0001-01-01T00:00:00Z","name_a2s":"Uncletopia | Sydney | 4 | All Maps","protocol":17,"map":"koth_viaduct","folder":"tf","game":"Team Fortress","app_id":440,"player_count":0,"max_players":24,"Bots":0,"server_type":"Dedicated","server_os":"Linux","password":true,"vac":true,"version":"7757534","steam_id":85568392925397958,"keywords":["cp","nocrits","nodmgspread","uncletopia"],"game_id":440,"stv_port":27046,"stv_name":"Uncletopia | Sydney | 4 | All Maps | STV","players":null},{"server_id":58,"name":"Uncletopia | Sydney | 5 | Stopwatch Beta","name_short":"syd-5","host":"syd-1.au.uncletopia.com","port":27055,"enabled":true,"region":"au","cc":"au","latitude":-33.865143,"longitude":151.2099,"reserved":0,"last_update":"0001-01-01T00:00:00Z","name_a2s":"Uncletopia | Sydney | 5 | Stopwatch Beta","protocol":17,"map":"koth_cascade","folder":"tf","game":"Team Fortress","app_id":440,"player_count":0,"max_players":24,"Bots":0,"server_type":"Dedicated","server_os":"Linux","password":true,"vac":true,"version":"7757534","steam_id":85568392925397959,"keywords":["cp","nocrits","nodmgspread","uncletopia"],"game_id":440,"stv_port":27056,"stv_name":"Uncletopia | Sydney | 5 | Stopwatch Beta | STV","players":null},{"server_id":59,"name":"Uncletopia | Sydney | 6 | Community","name_short":"syd-6","host":"syd-1.au.uncletopia.com","port":27065,"enabled":true,"region":"au","cc":"au","latitude":-33.865143,"longitude":151.2099,"reserved":0,"last_update":"0001-01-01T00:00:00Z","name_a2s":"Uncletopia | Sydney | 6 | Community","protocol":17,"map":"pl_badwater","folder":"tf","game":"Team Fortress","app_id":440,"player_count":0,"max_players":24,"Bots":0,"server_type":"Dedicated","server_os":"Linux","password":true,"vac":true,"version":"7757534","steam_id":85568392925397960,"keywords":["nocrits","nodmgspread","payload","uncletopia"],"game_id":440,"stv_port":27066,"stv_name":"Uncletopia | Sydney | 6 | Community | STV","players":null},{"server_id":49,"name":"Uncletopia | Warsaw | 1 | All Maps","name_short":"waw-1","host":"waw-1.pl.uncletopia.com","port":27015,"enabled":true,"region":"eu","cc":"pl","latitude":52.2297,"longitude":21.017532,"reserved":0,"last_update":"0001-01-01T00:00:00Z","name_a2s":"","protocol":0,"map":"","folder":"","game":"","app_id":0,"player_count":0,"max_players":0,"Bots":0,"server_type":"","server_os":"","password":false,"vac":false,"version":"","steam_id":0,"keywords":null,"game_id":0,"stv_port":0,"stv_name":"","players":null},{"server_id":50,"name":"Uncletopia | Warsaw | 2 | All Maps","name_short":"waw-2","host":"waw-1.pl.uncletopia.com","port":27025,"enabled":true,"region":"eu","cc":"pl","latitude":52.2297,"longitude":21.017532,"reserved":0,"last_update":"0001-01-01T00:00:00Z","name_a2s":"Uncletopia | Warsaw | 2 | All Maps","protocol":17,"map":"pl_upward","folder":"tf","game":"Team Fortress","app_id":440,"player_count":0,"max_players":24,"Bots":0,"server_type":"Dedicated","server_os":"Linux","password":true,"vac":true,"version":"7757534","steam_id":85568392925397851,"keywords":["nocrits","nodmgspread","payload","uncletopia"],"game_id":440,"stv_port":27026,"stv_name":"Uncletopia | Warsaw | 2 | All Maps | STV","players":null},{"server_id":51,"name":"Uncletopia | Warsaw | 3 | All Maps","name_short":"waw-3","host":"waw-1.pl.uncletopia.com","port":27035,"enabled":true,"region":"eu","cc":"pl","latitude":52.2297,"longitude":21.017532,"reserved":0,"last_update":"0001-01-01T00:00:00Z","name_a2s":"Uncletopia | Warsaw | 3 | All Maps","protocol":17,"map":"pl_barnblitz","folder":"tf","game":"Team Fortress","app_id":440,"player_count":0,"max_players":24,"Bots":0,"server_type":"Dedicated","server_os":"Linux","password":true,"vac":true,"version":"7757534","steam_id":85568392925397852,"keywords":["nocrits","nodmgspread","payload","uncletopia"],"game_id":440,"stv_port":27036,"stv_name":"Uncletopia | Warsaw | 3 | All Maps | STV","players":null},{"server_id":52,"name":"Uncletopia | Warsaw | 4 | All Maps","name_short":"waw-4","host":"waw-1.pl.uncletopia.com","port":27045,"enabled":true,"region":"eu","cc":"pl","latitude":52.2297,"longitude":21.017532,"reserved":0,"last_update":"0001-01-01T00:00:00Z","name_a2s":"Uncletopia | Warsaw | 4 | All Maps","protocol":17,"map":"cp_altitude","folder":"tf","game":"Team Fortress","app_id":440,"player_count":0,"max_players":24,"Bots":0,"server_type":"Dedicated","server_os":"Linux","password":true,"vac":true,"version":"7757534","steam_id":85568392925397853,"keywords":["cp","nocrits","nodmgspread","uncletopia"],"game_id":440,"stv_port":27046,"stv_name":"Uncletopia | Warsaw | 4 | All Maps | STV","players":null},{"server_id":53,"name":"Uncletopia | Warsaw | 5 | Stopwatch Beta","name_short":"waw-5","host":"waw-1.pl.uncletopia.com","port":27055,"enabled":true,"region":"eu","cc":"pl","latitude":52.2297,"longitude":21.017532,"reserved":0,"last_update":"0001-01-01T00:00:00Z","name_a2s":"Uncletopia | Warsaw | 5 | Stopwatch Beta","protocol":17,"map":"pl_pier","folder":"tf","game":"Team Fortress","app_id":440,"player_count":0,"max_players":24,"Bots":0,"server_type":"Dedicated","server_os":"Linux","password":true,"vac":true,"version":"7757534","steam_id":85568392925397854,"keywords":["nocrits","nodmgspread","payload","uncletopia"],"game_id":440,"stv_port":27056,"stv_name":"Uncletopia | Warsaw | 5 | Stopwatch Beta | STV","players":null},{"server_id":54,"name":"Uncletopia | Warsaw | 6 | Community","name_short":"waw-6","host":"waw-1.pl.uncletopia.com","port":27065,"enabled":true,"region":"eu","cc":"pl","latitude":52.2297,"longitude":21.017532,"reserved":0,"last_update":"0001-01-01T00:00:00Z","name_a2s":"Uncletopia | Warsaw | 6 | Community","protocol":17,"map":"koth_highpass","folder":"tf","game":"Team Fortress","app_id":440,"player_count":0,"max_players":24,"Bots":0,"server_type":"Dedicated","server_os":"Linux","password":true,"vac":true,"version":"7757534","steam_id":85568392925397856,"keywords":["cp","nocrits","nodmgspread","uncletopia"],"game_id":440,"stv_port":27066,"stv_name":"Uncletopia | Warsaw | 6 | Community | STV","players":null}]}