{"status":true,"message":"","result":[{"server_id":2,"name":"Uncletopia | Chicago | 1 | All Maps","name_short":"chi-1","host":"chi-1.us.uncletopia.com","port":27015,"enabled":true,"region":"us-central","cc":"us","latitude":41.881832,"longitude":-87.62318,"reserved":0,"last_update":"0001-01-01T00:00:00Z","name_a2s":"Uncletopia | Chicago | 1 | All Maps","protocol":17,"map":"pl_frontier_final","folder":"tf","game":"Team Fortress","app_id":440,"player_count":24,"max_players":24,"Bots":0,"server_type":"Dedicated","server_os":"Linux","password":true,"vac":true,"version":"7932396","steam_id":85568392924469984,"keywords":["nocrits","nodmgspread","payload","uncletopia"],"game_id":440,"stv_port":27016,"stv_name":"Uncletopia | Chicago | 1 | All Maps | STV","players":[{"user_id":3,"name":"kermitcreeper(ZAZA)","steam_id":76561199222829972,"connected_time":9764000000000,"state":"active","ping":58},{"user_id":147,"name":"Â≠´Â≠ê","steam_id":76561198083112681,"connected_time":2517000000000,"state":"active","ping":54},{"user_id":89,"name":"Ojen","steam_id":76561197998414482,"connected_time":7798000000000,"state":"active","ping":60},{"user_id":68,"name":"Obelisk","steam_id":76561198049416866,"connected_time":8311000000000,"state":"active","ping":76},{"user_id":165,"name":"Mog","steam_id":76561198025575870,"connected_time":1372000000000,"state":"active","ping":59},{"user_id":166,"name":"!mute","steam_id":76561198219209367,"connected_time":1332000000000,"state":"active","ping":62},{"user_id":159,"name":"Dart Vadoor","steam_id":76561198336030917,"connected_time":1823000000000,"state":"active","ping":89},{"user_id":116,"name":"PocketTieAMPLFY","steam_id":76561199080485881,"connected_time":5782000000000,"state":"active","ping":109},{"user_id":176,"name":"Wren","steam_id":76561198071109787,"connected_time":546000000000,"state":"active","ping":103},{"user_id":177,"name":"Kedata","steam_id":76561198047750050,"connected_time":465000000000,"state":"active","ping":45},{"user_id":128,"name":"ùí•ùëúùìáùìâùìà","steam_id":76561198111878431,"connected_time":4142000000000,"state":"active","ping":112},{"user_id":178,"name":"–ê–¥–≤–æ–∫–∞—Ç","steam_id":76561198883195641,"connected_time":442000000000,"state":"active","ping":159},{"user_id":148,"name":"Borgir","steam_id":76561198325390265,"connected_time":2279000000000,"state":"active","ping":96},{"user_id":157,"name":"Mixomin","steam_id":76561198295061570,"connected_time":1856000000000,"state":"active","ping":51},{"user_id":175,"name":"asbestos","steam_id":76561198079178866,"connected_time":672000000000,"state":"active","ping":68},{"user_id":169,"name":"999 HIT COMBO","steam_id":76561197995620232,"connected_time":1190000000000,"state":"active","ping":53},{"user_id":181,"name":"Pneumo.","steam_id":76561197987911883,"connected_time":173000000000,"state":"active","ping":123},{"user_id":135,"name":"Rappitor","steam_id":76561198105613110,"connected_time":3018000000000,"state":"active","ping":51},{"user_id":99,"name":"Fletcher","steam_id":76561198317846538,"connected_time":7322000000000,"state":"active","ping":62},{"user_id":179,"name":"draculaura (g3)","steam_id":76561198982584470,"connected_time":437000000000,"state":"active","ping":90},{"user_id":160,"name":"turingsghost","steam_id":76561198029318657,"connected_time":1813000000000,"state":"active","ping":61},{"user_id":27,"name":"Asmodeus","steam_id":76561198072923642,"connected_time":9714000000000,"state":"active","ping":77},{"user_id":180,"name":"Plasmoklo","steam_id":76561199071571167,"connected_time":417000000000,"state":"active","ping":85},{"user_id":174,"name":"firstlastmcgee","steam_id":76561198170187989,"connected_time":722000000000,"state":"active","ping":69}]},{"server_id":106,"name":"Uncletopia | Chicago | 2 | All Maps","name_short":"chi-2","host":"chi-1.us.uncletopia.com","port":27025,"enabled":true,"region":"us-central","cc":"us","latitude":41.881832,"longitude":-87.62318,"reserved":0,"last_update":"0001-01-01T00:00:00Z","name_a2s":"Uncletopia | Chicago | 2 | All Maps","protocol":17,"map":"pl_snowycoast","folder":"tf","game":"Team Fortress","app_id":440,"player_count":0,"max_players":24,"Bots":0,"server_type":"Dedicated","server_os":"Linux","password":true,"vac":true,"version":"7932396","steam_id":85568392924469985,"keywords":["nocrits","nodmgspread","payload","uncletopia"],"game_id":440,"stv_port":27026,"stv_name":"Uncletopia | Chicago | 2 | All Maps | STV","players":null},{"server_id":402,"name":"Uncletopia | Chicago | 3 | All Maps","name_short":"chi-3","host":"chi-1.us.uncletopia.com","port":27035,"enabled":true,"region":"us-central","cc":"us","latitude":41.881832,"longitude":-87.62318,"reserved":0,"last_update":"0001-01-01T00:00:00Z","name_a2s":"Uncletopia | Chicago | 3 | All Maps","protocol":17,"map":"pl_swiftwater_final1","folder":"tf","game":"Team Fortress","app_id":440,"player_count":0,"max_players":24,"Bots":0,"server_type":"Dedicated","server_os":"Linux","password":true,"vac":true,"version":"7932396","steam_id":85568392924515191,"keywords":["nocrits","nodmgspread","payload","uncletopia"],"game_id":440,"stv_port":27036,"stv_name":"Uncletopia | Chicago | 3 | All Maps | STV","players":null},{"server_id":403,"name":"Uncletopia | Chicago | 4 | All Maps","name_short":"chi-4","host":"chi-1.us.uncletopia.com","port":27045,"enabled":true,"region":"us-central","cc":"us","latitude":41.881832,"longitude":-87.62318,"reserved":0,"last_update":"0001-01-01T00:00:00Z","name_a2s":"Uncletopia | Chicago | 4 | All Maps","protocol":17,"map":"cp_process_final","folder":"tf","game":"Team Fortress","app_id":440,"player_count":0,"max_players":24,"Bots":0,"server_type":"Dedicated","server_os":"Linux","password":true,"vac":true,"version":"7932396","steam_id":85568392924515193,"keywords":["cp","nocrits","nodmgspread","uncletopia"],"game_id":440,"stv_port":27046,"stv_name":"Uncletopia | Chicago | 4 | All Maps | STV","players":null},{"server_id":36,"name":"Uncletopia | Chicago | 5 | All Maps","name_short":"chi-5","host":"chi-2.us.uncletopia.com","port":27015,"enabled":true,"region":"us-central","cc":"us","latitude":41.881832,"longitude":-87.62318,"reserved":0,"last_update":"0001-01-01T00:00:00Z","name_a2s":"Uncletopia | Chicago | 5 | All Maps","protocol":17,"map":"cp_altitude","folder":"tf","game":"Team Fortress","app_id":440,"player_count":0,"max_players":24,"Bots":0,"server_type":"Dedicated","server_os":"Linux","password":true,"vac":true,"version":"7932396","steam_id":85568392924866362,"keywords":["cp","nocrits","nodmgspread","uncletopia"],"game_id":440,"stv_port":27016,"stv_name":"Uncletopia | Chicago | 5 | All Maps | STV","players":null},{"server_id":37,"name":"Uncletopia | Chicago | 6 | All Maps","name_short":"chi-6","host":"chi-2.us.uncletopia.com","port":27025,"enabled":true,"region":"us-central","cc":"us","latitude":41.881832,"longitude":-87.62318,"reserved":0,"last_update":"0001-01-01T00:00:00Z","name_a2s":"Uncletopia | Chicago | 6 | All Maps","protocol":17,"map":"koth_viaduct","folder":"tf","game":"Team Fortress","app_id":440,"player_count":0,"max_players":24,"Bots":0,"server_type":"Dedicated","server_os":"Linux","password":true,"vac":true,"version":"7932396","steam_id":85568392924866363,"keywords":["cp","nocrits","nodmgspread","uncletopia"],"game_id":440,"stv_port":27026,"stv_name":"Uncletopia | Chicago | 6 | All Maps | STV","players":null},{"server_id":38,"name":"Uncletopia | Chicago | 7 | Stopwatch Beta","name_short":"chi-7","host":"chi-2.us.uncletopia.com","port":27035,"enabled":true,"region":"us-central","cc":"us","latitude":41.881832,"longitude":-87.62318,"reserved":0,"last_update":"0001-01-01T00:00:00Z","name_a2s":"Uncletopia | Chicago | 7 | Stopwatch Beta","protocol":17,"map":"pl_borneo","folder":"tf","game":"Team Fortress","app_id":440,"player_count":0,"max_players":24,"Bots":0,"server_type":"Dedicated","server_os":"Linux","password":true,"vac":true,"version":"7932396","steam_id":85568392924866364,"keywords":["nocrits","nodmgspread","payload","uncletopia"],"game_id":440,"stv_port":27036,"stv_name":"Uncletopia | Chicago | 7 | Stopwatch Beta | STV","players":null},{"server_id":39,"name":"Uncletopia | Chicago | 8 | Community","name_short":"chi-8","host":"chi-2.us.uncletopia.com","port":27045,"enabled":true,"region":"us-central","cc":"us","latitude":41.881832,"longitude":-87.62318,"reserved":0,"last_update":"0001-01-01T00:00:00Z","name_a2s":"Uncletopia | Chicago | 8 | Community","protocol":17,"map":"koth_viaduct","folder":"tf","game":"Team Fortress","app_id":440,"player_count":0,"max_players":24,"Bots":0,"server_type":"Dedicated","server_os":"Linux","password":true,"vac":true,"version":"7932396","steam_id":85568392924866365,"keywords":["cp","nocrits","nodmgspread","uncletopia"],"game_id":440,"stv_port":27046,"stv_name":"Uncletopia | Chicago | 8 | Community | STV","players":null},{"server_id":8,"name":"Uncletopia | Dallas | 1 | All Maps","name_short":"dal-1","host":"dal-1.us.uncletopia.com","port":27015,"enabled":true,"region":"us-central","cc":"us","latitude":32.779167,"longitude":-96.80889,"reserved":0,"last_update":"0001-01-01T00:00:00Z","name_a2s":"Uncletopia | Dallas | 1 | All Maps","protocol":17,"map":"cp_snakewater_final1","folder":"tf","game":"Team Fortress","app_id":440,"player_count":0,"max_players":24,"Bots":0,"server_type":"Dedicated","server_os":"Linux","password":true,"vac":true,"version":"7932396","steam_id":85568392924469986,"keywords":["cp","nocrits","nodmgspread","uncletopia"],"game_id":440,"stv_port":27016,"stv_name":"Uncletopia | Dallas | 1 | All Maps | STV","players":null},{"server_id":108,"name":"Uncletopia | Dallas | 2 | All Maps","name_short":"dal-2","host":"dal-1.us.uncletopia.com","port":27025,"enabled":true,"region":"us-central","cc":"us","latitude":32.779167,"longitude":-96.80889,"reserved":0,"last_update":"0001-01-01T00:00:00Z","name_a2s":"Uncletopia | Dallas | 2 | All Maps","protocol":17,"map":"cp_snakewater_final1","folder":"tf","game":"Team Fortress","app_id":440,"player_count":0,"max_players":24,"Bots":0,"server_type":"Dedicated","server_os":"Linux","password":true,"vac":true,"version":"7932396","steam_id":85568392924469988,"keywords":["cp","nocrits","nodmgspread","uncletopia"],"game_id":440,"stv_port":27026,"stv_name":"Uncletopia | Dallas | 2 | All Maps | STV","players":null},{"server_id":5,"name":"Uncletopia | Frankfurt | 1 | All Maps","name_short":"frk-1","host":"frk-1.de.uncletopia.com","port":27015,"enabled":true,"region":"eu","cc":"de","latitude":50.110924,"longitude":8.682127,"reserved":0,"last_update":"0001-01-01T00:00:00Z","name_a2s":"Uncletopia | Frankfurt | 1 | All Maps","protocol":17,"map":"pl_pier","folder":"tf","game":"Team Fortress","app_id":440,"player_count":24,"max_players":24,"Bots":0,"server_type":"Dedicated","server_os":"Linux","password":true,"vac":true,"version":"7932396","steam_id":85568392924469989,"keywords":["nocrits","nodmgspread","payload","uncletopia"],"game_id":440,"stv_port":27016,"stv_name":"Uncletopia | Frankfurt | 1 | All Maps | STV","players":[{"user_id":47,"name":"Poggito","steam_id":76561198838001276,"connected_time":2734000000000,"state":"active","ping":56},{"user_id":87,"name":"Veir≈´ Viseris","steam_id":76561197989857176,"connected_time":1107000000000,"state":"active","ping":67},{"user_id":35,"name":"Paladin","steam_id":76561198042593027,"connected_time":3422000000000,"state":"active","ping":89},{"user_id":98,"name":"Jesus Christ himself","steam_id":76561199063249691,"connected_time":153000000000,"state":"active","ping":106},{"user_id":95,"name":"Popop","steam_id":76561198004793795,"connected_time":390000000000,"state":"active","ping":46},{"user_id":29,"name":"Pa(i)n","steam_id":76561198285357256,"connected_time":3830000000000,"state":"active","ping":101},{"user_id":94,"name":"maty10","steam_id":76561198031411453,"connected_time":401000000000,"state":"active","ping":55},{"user_id":99,"name":"Jonno","steam_id":76561198023443744,"connected_time":98000000000,"state":"active","ping":62},{"user_id":88,"name":"please do not the cat","steam_id":76561198089003514,"connected_time":712000000000,"state":"active","ping":45},{"user_id":84,"name":"minn","steam_id":76561198099101232,"connected_time":1342000000000,"state":"active","ping":64},{"user_id":77,"name":"FuntimeGoose","steam_id":76561198893252155,"connected_time":1513000000000,"state":"active","ping":60},{"user_id":44,"name":"Krefa12","steam_id":76561198268375393,"connected_time":2836000000000,"state":"active","ping":75},{"user_id":90,"name":"Umbro","steam_id":76561198087930438,"connected_time":621000000000,"state":"active","ping":75},{"user_id":100,"name":"Ander Escobar","steam_id":76561198335366902,"connected_time":21000000000,"state":"active","ping":98},{"user_id":96,"name":"voco","steam_id":76561198179250642,"connected_time":229000000000,"state":"active","ping":125},{"user_id":59,"name":"Uckfrog","steam_id":76561198987232417,"connected_time":2432000000000,"state":"active","ping":84},{"user_id":92,"name":"TaroPlant","steam_id":76561198122927374,"connected_time":429000000000,"state":"active","ping":71},{"user_id":97,"name":"imthegerman","steam_id":76561198053401077,"connected_time":182000000000,"state":"active","ping":100},{"user_id":60,"name":"JanChr98","steam_id":76561198256239784,"connected_time":2415000000000,"state":"active","ping":104},{"user_id":52,"name":"Boom Boom Boom","steam_id":76561198216171336,"connected_time":2602000000000,"state":"active","ping":75},{"user_id":91,"name":"Andy","steam_id":76561198136364381,"connected_time":522000000000,"state":"active","ping":64},{"user_id":93,"name":"jt7","steam_id":76561198073655162,"connected_time":428000000000,"state":"active","ping":68},{"user_id":55,"name":"Virtahep0","steam_id":76561198837846241,"connected_time":2555000000000,"state":"active","ping":87},{"user_id":63,"name":"Will","steam_id":76561198173329977,"connected_time":2315000000000,"state":"active","ping":75}]},{"server_id":110,"name":"Uncletopia | Frankfurt | 2 | All Maps","name_short":"frk-2","host":"frk-1.de.uncletopia.com","port":27025,"enabled":true,"region":"eu","cc":"de","latitude":50.110924,"longitude":8.682127,"reserved":0,"last_update":"0001-01-01T00:00:00Z","name_a2s":"Uncletopia | Frankfurt | 2 | All Maps","protocol":17,"map":"koth_harvest_final","folder":"tf","game":"Team Fortress","app_id":440,"player_count":2,"max_players":24,"Bots":0,"server_type":"Dedicated","server_os":"Linux","password":true,"vac":true,"version":"7932396","steam_id":85568392924469990,"keywords":["cp","nocrits","nodmgspread","uncletopia"],"game_id":440,"stv_port":27026,"stv_name":"Uncletopia | Frankfurt | 2 | All Maps | STV","players":[{"user_id":6,"name":"TonTon","steam_id":76561198145468895,"connected_time":3865000000000,"state":"active","ping":51},{"user_id":7,"name":"HwK!","steam_id":76561198287835588,"connected_time":3849000000000,"state":"active","ping":82}]},{"server_id":308,"name":"Uncletopia | Frankfurt | 3 | All Maps","name_short":"frk-3","host":"frk-1.de.uncletopia.com","port":27035,"enabled":true,"region":"eu","cc":"de","latitude":50.110924,"longitude":8.682127,"reserved":0,"last_update":"0001-01-01T00:00:00Z","name_a2s":"Uncletopia | Frankfurt | 3 | All Maps","protocol":17,"map":"pl_swiftwater_final1","folder":"tf","game":"Team Fortress","app_id":440,"player_count":24,"max_players":24,"Bots":0,"server_type":"Dedicated","server_os":"Linux","password":true,"vac":true,"version":"7932396","steam_id":85568392924504274,"keywords":["nocrits","nodmgspread","payload","uncletopia"],"game_id":440,"stv_port":27036,"stv_name":"Uncletopia | Frankfurt | 3 | All Maps | STV","players":[{"user_id":220,"name":"cuddle","steam_id":76561198805181599,"connected_time":5606000000000,"state":"active","ping":67},{"user_id":253,"name":"Lightboom","steam_id":76561198104645103,"connected_time":2061000000000,"state":"active","ping":85},{"user_id":260,"name":"Doriian","steam_id":76561198071438810,"connected_time":1047000000000,"state":"active","ping":79},{"user_id":261,"name":"Wattoz","steam_id":76561198127779511,"connected_time":1025000000000,"state":"active","ping":71},{"user_id":247,"name":"–ë–∞—Ä—Ö–∞—Ç–Ω—ã–µ —Ç—è–≥–∏, –ö","steam_id":76561198214926087,"connected_time":2389000000000,"state":"active","ping":85},{"user_id":269,"name":"kubanamaxa","steam_id":76561198154315656,"connected_time":370000000000,"state":"active","ping":88},{"user_id":258,"name":"RedFog","steam_id":76561198284713081,"connected_time":1086000000000,"state":"active","ping":39},{"user_id":262,"name":"Hamstericu","steam_id":76561198363337431,"connected_time":982000000000,"state":"active","ping":97},{"user_id":175,"name":"Teathling","steam_id":76561198061580505,"connected_time":8370000000000,"state":"active","ping":56},{"user_id":263,"name":"in the balls","steam_id":76561199121717685,"connected_time":974000000000,"state":"active","ping":83},{"user_id":158,"name":"Cuthbert","steam_id":76561198204649481,"connected_time":9981000000000,"state":"active","ping":93},{"user_id":240,"name":"Jerry Cotton","steam_id":76561198089991130,"connected_time":3478000000000,"state":"active","ping":56},{"user_id":235,"name":"‚ò≠TheDevilsEye‚ò≠","steam_id":76561198017379398,"connected_time":4108000000000,"state":"active","ping":78},{"user_id":270,"name":"SHPC skai","steam_id":76561198184881255,"connected_time":111000000000,"state":"active","ping":73},{"user_id":250,"name":"Lernix","steam_id":76561198382328645,"connected_time":2146000000000,"state":"active","ping":58},{"user_id":238,"name":"Electro","steam_id":76561198891588213,"connected_time":3813000000000,"state":"active","ping":58},{"user_id":204,"name":"show the wrench up my ass","steam_id":76561198084128305,"connected_time":6491000000000,"state":"active","ping":72},{"user_id":267,"name":"RiX","steam_id":76561197969053733,"connected_time":509000000000,"state":"active","ping":65},{"user_id":228,"name":"Sir P. P. Cumsalot","steam_id":76561198006549800,"connected_time":4861000000000,"state":"active","ping":126},{"user_id":257,"name":"ƒêesmond","steam_id":76561198097676225,"connected_time":1090000000000,"state":"active","ping":60},{"user_id":265,"name":"Wire  Bash","steam_id":76561198033268371,"connected_time":943000000000,"state":"active","ping":60},{"user_id":266,"name":"Charles Darwin","steam_id":76561197973496139,"connected_time":928000000000,"state":"active","ping":60},{"user_id":232,"name":"Kurage","steam_id":76561198021221288,"connected_time":4341000000000,"state":"active","ping":59},{"user_id":268,"name":"xiiski","steam_id":76561198152387747,"connected_time":477000000000,"state":"active","ping":95}]},{"server_id":309,"name":"Uncletopia | Frankfurt | 4 | All Maps","name_short":"frk-4","host":"frk-1.de.uncletopia.com","port":27045,"enabled":true,"region":"eu","cc":"de","latitude":50.110924,"longitude":8.682127,"reserved":0,"last_update":"0001-01-01T00:00:00Z","name_a2s":"Uncletopia | Frankfurt | 4 | All Maps","protocol":17,"map":"pl_pier","folder":"tf","game":"Team Fortress","app_id":440,"player_count":24,"max_players":24,"Bots":0,"server_type":"Dedicated","server_os":"Linux","password":true,"vac":true,"version":"7932396","steam_id":85568392924504275,"keywords":["nocrits","nodmgspread","payload","uncletopia"],"game_id":440,"stv_port":27046,"stv_name":"Uncletopia | Frankfurt | 4 | All Maps | STV","players":[{"user_id":77,"name":"puuksu_mees7","steam_id":76561198022616643,"connected_time":3126000000000,"state":"active","ping":77},{"user_id":115,"name":"[ALT_F4]dottor_cacabula_m8","steam_id":76561198173192267,"connected_time":1063000000000,"state":"active","ping":75},{"user_id":104,"name":"hsn‚Åß‚Åß741","steam_id":76561198307602421,"connected_time":1985000000000,"state":"active","ping":83},{"user_id":107,"name":"zeppa114","steam_id":76561198065192734,"connected_time":1941000000000,"state":"active","ping":61},{"user_id":120,"name":"depressed","steam_id":76561198336523288,"connected_time":138000000000,"state":"active","ping":122},{"user_id":113,"name":"Spy is Sapping my Sandwich","steam_id":76561198011840096,"connected_time":1353000000000,"state":"active","ping":60},{"user_id":108,"name":"–ë–æ–µ–≤–æ–π –∫–æ–º–∞—Ä","steam_id":76561198796564094,"connected_time":1892000000000,"state":"active","ping":79},{"user_id":85,"name":"ympo","steam_id":76561198202441870,"connected_time":2733000000000,"state":"active","ping":60},{"user_id":72,"name":"C11H15NO2","steam_id":76561198066146016,"connected_time":3509000000000,"state":"active","ping":72},{"user_id":109,"name":"Evil Activities","steam_id":76561198093170043,"connected_time":1872000000000,"state":"active","ping":63},{"user_id":121,"name":"leafknoll","steam_id":76561199218984132,"connected_time":105000000000,"state":"active","ping":88},{"user_id":18,"name":"Psychicpie","steam_id":76561198126065206,"connected_time":5538000000000,"state":"active","ping":48},{"user_id":59,"name":"MpJens","steam_id":76561198000347669,"connected_time":4161000000000,"state":"active","ping":46},{"user_id":87,"name":"--","steam_id":76561198365098582,"connected_time":2709000000000,"state":"active","ping":145},{"user_id":110,"name":"fasty","steam_id":76561199243229769,"connected_time":1867000000000,"state":"active","ping":150},{"user_id":114,"name":"Rai","steam_id":76561199408923294,"connected_time":1180000000000,"state":"active","ping":69},{"user_id":117,"name":"nevim","steam_id":76561199120843402,"connected_time":667000000000,"state":"active","ping":56},{"user_id":116,"name":"I Don't Know","steam_id":76561198841011430,"connected_time":1058000000000,"state":"active","ping":76},{"user_id":57,"name":"Ed","steam_id":76561198184360615,"connected_time":4175000000000,"state":"active","ping":90},{"user_id":91,"name":"dumb idiot moron","steam_id":76561198053929269,"connected_time":2664000000000,"state":"active","ping":92},{"user_id":111,"name":"Greenmaker","steam_id":76561198060466591,"connected_time":1804000000000,"state":"active","ping":81},{"user_id":119,"name":"galad.game","steam_id":76561198336324159,"connected_time":395000000000,"state":"active","ping":70},{"user_id":112,"name":"PrimeTarget","steam_id":76561198046409289,"connected_time":1695000000000,"state":"active","ping":75},{"user_id":76,"name":"El`Capitano Flex","steam_id":76561198061813730,"connected_time":3242000000000,"state":"active","ping":68}]},{"server_id":310,"name":"Uncletopia | Frankfurt | 5 | All Maps","name_short":"frk-5","host":"frk-1.de.uncletopia.com","port":27055,"enabled":true,"region":"eu","cc":"de","latitude":50.110924,"longitude":8.682127,"reserved":0,"last_update":"0001-01-01T00:00:00Z","name_a2s":"Uncletopia | Frankfurt | 5 | All Maps","protocol":17,"map":"koth_cascade","folder":"tf","game":"Team Fortress","app_id":440,"player_count":0,"max_players":24,"Bots":0,"server_type":"Dedicated","server_os":"Linux","password":true,"vac":true,"version":"7932396","steam_id":85568392924504277,"keywords":["cp","nocrits","nodmgspread","uncletopia"],"game_id":440,"stv_port":27056,"stv_name":"Uncletopia | Frankfurt | 5 | All Maps | STV","players":null},{"server_id":311,"name":"Uncletopia | Frankfurt | 6 | All Maps","name_short":"frk-6","host":"frk-1.de.uncletopia.com","port":27065,"enabled":true,"region":"eu","cc":"de","latitude":50.110924,"longitude":8.682127,"reserved":0,"last_update":"0001-01-01T00:00:00Z","name_a2s":"Uncletopia | Frankfurt | 6 | All Maps","protocol":17,"map":"koth_viaduct","folder":"tf","game":"Team Fortress","app_id":440,"player_count":0,"max_players":24,"Bots":0,"server_type":"Dedicated","server_os":"Linux","password":true,"vac":true,"version":"7932396","steam_id":85568392924504278,"keywords":["cp","nocrits","nodmgspread","uncletopia"],"game_id":440,"stv_port":27066,"stv_name":"Uncletopia | Frankfurt | 6 | All Maps | STV","players":null},{"server_id":23,"name":"Uncletopia | Frankfurt | 7 | Stopwatch Beta","name_short":"frk-7","host":"frk-1.de.uncletopia.com","port":27075,"enabled":true,"region":"eu","cc":"de","latitude":50.110924,"longitude":8.682127,"reserved":0,"last_update":"0001-01-01T00:00:00Z","name_a2s":"Uncletopia | Frankfurt | 7 | Stopwatch Beta","protocol":17,"map":"pl_snowycoast","folder":"tf","game":"Team Fortress","app_id":440,"player_count":0,"max_players":24,"Bots":0,"server_type":"Dedicated","server_os":"Linux","password":true,"vac":true,"version":"7932396","steam_id":85568392924742827,"keywords":["nocrits","nodmgspread","payload","uncletopia"],"game_id":440,"stv_port":27076,"stv_name":"Uncletopia | Frankfurt | 7 | Stopwatch Beta | STV","players":null},{"server_id":24,"name":"Uncletopia | Frankfurt | 8 | Community","name_short":"frk-8","host":"frk-1.de.uncletopia.com","port":27085,"enabled":true,"region":"eu","cc":"de","latitude":50.110924,"longitude":8.682127,"reserved":0,"last_update":"0001-01-01T00:00:00Z","name_a2s":"Uncletopia | Frankfurt | 8 | Community","protocol":17,"map":"workshop/koth_bagel_rc6.ugc2514036946","folder":"tf","game":"Team Fortress","app_id":440,"player_count":0,"max_players":24,"Bots":0,"server_type":"Dedicated","server_os":"Linux","password":true,"vac":true,"version":"7932396","steam_id":85568392924742828,"keywords":["cp","nocrits","nodmgspread","uncletopia"],"game_id":440,"stv_port":27086,"stv_name":"Uncletopia | Frankfurt | 8 | Community | STV","players":null},{"server_id":202,"name":"Uncletopia | Hong Kong | 1 | All Maps","name_short":"hgk-1","host":"hgk-1.hk.uncletopia.com","port":27015,"enabled":true,"region":"asia","cc":"hk","latitude":22.302711,"longitude":114.177216,"reserved":0,"last_update":"0001-01-01T00:00:00Z","name_a2s":"Uncletopia | Hong Kong | 1 | All Maps","protocol":17,"map":"pl_badwater","folder":"tf","game":"Team Fortress","app_id":440,"player_count":24,"max_players":24,"Bots":0,"server_type":"Dedicated","server_os":"Linux","password":true,"vac":true,"version":"7932396","steam_id":85568392924494504,"keywords":["nocrits","nodmgspread","payload","uncletopia"],"game_id":440,"stv_port":27016,"stv_name":"Uncletopia | Hong Kong | 1 | All Maps | STV","players":[{"user_id":212,"name":"Headmouth","steam_id":76561198019789855,"connected_time":2879000000000,"state":"active","ping":124},{"user_id":218,"name":"MINUS-","steam_id":76561199000623263,"connected_time":2306000000000,"state":"active","ping":91},{"user_id":207,"name":"P","steam_id":76561198304514505,"connected_time":3587000000000,"state":"active","ping":74},{"user_id":230,"name":"SECT","steam_id":76561199122367855,"connected_time":912000000000,"state":"active","ping":78},{"user_id":231,"name":"Ham Man","steam_id":76561198174102269,"connected_time":207000000000,"state":"active","ping":83},{"user_id":171,"name":"Human cannonball enjoyer","steam_id":76561198074762858,"connected_time":5346000000000,"state":"active","ping":160},{"user_id":223,"name":"sierra","steam_id":76561197969873415,"connected_time":1697000000000,"state":"active","ping":100},{"user_id":225,"name":"Stan","steam_id":76561198065671595,"connected_time":940000000000,"state":"active","ping":39},{"user_id":175,"name":"Morningstar_","steam_id":76561198065756804,"connected_time":5084000000000,"state":"active","ping":74},{"user_id":193,"name":"tfolz","steam_id":76561199044900678,"connected_time":4192000000000,"state":"active","ping":129},{"user_id":178,"name":"obama boss fight simulator 3D","steam_id":76561199209331489,"connected_time":5020000000000,"state":"active","ping":100},{"user_id":191,"name":"paper boat","steam_id":76561198046558051,"connected_time":4271000000000,"state":"active","ping":100},{"user_id":195,"name":"Cock Gobbler [F2P]","steam_id":76561199205335227,"connected_time":4068000000000,"state":"active","ping":61},{"user_id":213,"name":"TomCat","steam_id":76561198133744053,"connected_time":2719000000000,"state":"active","ping":120},{"user_id":198,"name":"Asshole Gamer","steam_id":76561199233580320,"connected_time":3909000000000,"state":"active","ping":94},{"user_id":199,"name":"Vitali-T","steam_id":76561199257091003,"connected_time":3874000000000,"state":"active","ping":81},{"user_id":215,"name":"Ïø†ÌÇ§","steam_id":76561197997220367,"connected_time":2409000000000,"state":"active","ping":52},{"user_id":219,"name":"ObscuroLucem","steam_id":76561198875037943,"connected_time":2179000000000,"state":"active","ping":97},{"user_id":214,"name":"Stewb","steam_id":76561198131423270,"connected_time":2688000000000,"state":"active","ping":66},{"user_id":217,"name":"nanau","steam_id":76561199166938276,"connected_time":2389000000000,"state":"active","ping":72},{"user_id":226,"name":"CEO of Cope","steam_id":76561198867766385,"connected_time":939000000000,"state":"active","ping":87},{"user_id":206,"name":"Pillboi","steam_id":76561198011172886,"connected_time":3666000000000,"state":"active","ping":42},{"user_id":222,"name":"Preman Cyber Dua Ribu Tujuh7","steam_id":76561198829336322,"connected_time":1833000000000,"state":"active","ping":88},{"user_id":227,"name":"I LOVE FRANK OCEAN","steam_id":76561198400698408,"connected_time":939000000000,"state":"active","ping":95}]},{"server_id":1,"name":"Uncletopia | Los Angeles | 1 | All Maps","name_short":"lax-1","host":"lax-1.us.uncletopia.com","port":27015,"enabled":true,"region":"us-west","cc":"us","latitude":33.94279,"longitude":-118.41004,"reserved":0,"last_update":"0001-01-01T00:00:00Z","name_a2s":"Uncletopia | Los Angeles | 1 | All Maps","protocol":17,"map":"cp_process_final","folder":"tf","game":"Team Fortress","app_id":440,"player_count":0,"max_players":24,"Bots":0,"server_type":"Dedicated","server_os":"Linux","password":true,"vac":true,"version":"7932396","steam_id":85568392924469991,"keywords":["cp","nocrits","nodmgspread","uncletopia"],"game_id":440,"stv_port":27016,"stv_name":"Uncletopia | Los Angeles | 1 | All Maps | STV","players":null},{"server_id":112,"name":"Uncletopia | Los Angeles | 2 | All Maps","name_short":"lax-2","host":"lax-1.us.uncletopia.com","port":27025,"enabled":true,"region":"us-west","cc":"us","latitude":33.94279,"longitude":-118.41004,"reserved":0,"last_update":"0001-01-01T00:00:00Z","name_a2s":"Uncletopia | Los Angeles | 2 | All Maps","protocol":17,"map":"pl_borneo","folder":"tf","game":"Team Fortress","app_id":440,"player_count":0,"max_players":24,"Bots":0,"server_type":"Dedicated","server_os":"Linux","password":true,"vac":true,"version":"7932396","steam_id":85568392924469992,"keywords":["nocrits","nodmgspread","payload","uncletopia"],"game_id":440,"stv_port":27026,"stv_name":"Uncletopia | Los Angeles | 2 | All Maps | STV","players":null},{"server_id":324,"name":"Uncletopia | Los Angeles | 3 | All Maps","name_short":"lax-3","host":"lax-1.us.uncletopia.com","port":27035,"enabled":true,"region":"us-west","cc":"us","latitude":33.94279,"longitude":-118.41004,"reserved":0,"last_update":"0001-01-01T00:00:00Z","name_a2s":"Uncletopia | Los Angeles | 3 | All Maps","protocol":17,"map":"pl_borneo","folder":"tf","game":"Team Fortress","app_id":440,"player_count":0,"max_players":24,"Bots":0,"server_type":"Dedicated","server_os":"Linux","password":true,"vac":true,"version":"7932396","steam_id":85568392924510198,"keywords":["nocrits","nodmgspread","payload","uncletopia"],"game_id":440,"stv_port":27036,"stv_name":"Uncletopia | Los Angeles | 3 | All Maps | STV","players":null},{"server_id":25,"name":"Uncletopia | Los Angeles | 4 | Stopwatch Beta","name_short":"lax-4","host":"lax-1.us.uncletopia.com","port":27045,"enabled":true,"region":"us-west","cc":"us","latitude":33.94279,"longitude":-118.41004,"reserved":0,"last_update":"0001-01-01T00:00:00Z","name_a2s":"Uncletopia | Los Angeles | 4 | Stopwatch Beta","protocol":17,"map":"cp_altitude","folder":"tf","game":"Team Fortress","app_id":440,"player_count":0,"max_players":24,"Bots":0,"server_type":"Dedicated","server_os":"Linux","password":true,"vac":true,"version":"7932396","steam_id":85568392924510199,"keywords":["cp","nocrits","nodmgspread","uncletopia"],"game_id":440,"stv_port":27046,"stv_name":"Uncletopia | Los Angeles | 4 | Stopwatch Beta | STV","players":null},{"server_id":11,"name":"Uncletopia | London | 1 | All Maps","name_short":"lon-1","host":"lon-1.uk.uncletopia.com","port":27015,"enabled":true,"region":"eu","cc":"gb","latitude":51.509865,"longitude":-0.118092,"reserved":0,"last_update":"0001-01-01T00:00:00Z","name_a2s":"Uncletopia | London | 1 | All Maps","protocol":17,"map":"cp_steel","folder":"tf","game":"Team Fortress","app_id":440,"player_count":17,"max_players":24,"Bots":0,"server_type":"Dedicated","server_os":"Linux","password":true,"vac":true,"version":"7932396","steam_id":85568392924367362,"keywords":["cp","nocrits","nodmgspread","uncletopia"],"game_id":440,"stv_port":27016,"stv_name":"Uncletopia | London | 1 | All Maps | STV","players":[{"user_id":32,"name":"germinator","steam_id":76561199387893648,"connected_time":754000000000,"state":"active","ping":109},{"user_id":17,"name":"sub class?","steam_id":76561199184873889,"connected_time":3239000000000,"state":"active","ping":65},{"user_id":18,"name":"Artificer","steam_id":76561198840591678,"connected_time":2953000000000,"state":"active","ping":89},{"user_id":28,"name":"elyas","steam_id":76561198964639269,"connected_time":1155000000000,"state":"active","ping":167},{"user_id":42,"name":"rungameid","steam_id":76561198394533585,"connected_time":547000000000,"state":"active","ping":162},{"user_id":26,"name":"Kirov Reporting","steam_id":76561198815127418,"connected_time":1438000000000,"state":"active","ping":99},{"user_id":33,"name":"Geoff the Oracle","steam_id":76561198053759965,"connected_time":736000000000,"state":"active","ping":57},{"user_id":29,"name":"skille","steam_id":76561198005794325,"connected_time":944000000000,"state":"active","ping":68},{"user_id":34,"name":"Daniel","steam_id":76561198358104049,"connected_time":710000000000,"state":"active","ping":136},{"user_id":43,"name":"pond","steam_id":76561198214849363,"connected_time":405000000000,"state":"active","ping":86},{"user_id":35,"name":"xpitipitx","steam_id":76561198343333412,"connected_time":707000000000,"state":"active","ping":104},{"user_id":44,"name":"_SniP_","steam_id":76561199188398280,"connected_time":361000000000,"state":"active","ping":70},{"user_id":45,"name":"Brinier","steam_id":76561199012604288,"connected_time":168000000000,"state":"active","ping":62},{"user_id":38,"name":"ignitor \u003c3","steam_id":76561198218996844,"connected_time":651000000000,"state":"active","ping":59},{"user_id":40,"name":"L√∏bbeh","steam_id":76561198071861251,"connected_time":614000000000,"state":"active","ping":69},{"user_id":46,"name":"Enkloth!","steam_id":76561198115106008,"connected_time":12000000000,"state":"spawning","ping":54},{"user_id":47,"name":"Homicidal Tendencies","steam_id":76561198828681043,"connected_time":5000000000,"state":"spawning","ping":33}]},{"server_id":114,"name":"Uncletopia | London | 2 | All Maps","name_short":"lon-2","host":"lon-1.uk.uncletopia.com","port":27025,"enabled":true,"region":"eu","cc":"gb","latitude":51.509865,"longitude":-0.118092,"reserved":0,"last_update":"0001-01-01T00:00:00Z","name_a2s":"Uncletopia | London | 2 | All Maps","protocol":17,"map":"koth_highpass","folder":"tf","game":"Team Fortress","app_id":440,"player_count":0,"max_players":24,"Bots":0,"server_type":"Dedicated","server_os":"Linux","password":true,"vac":true,"version":"7932396","steam_id":85568392924470941,"keywords":["cp","nocrits","nodmgspread","uncletopia"],"game_id":440,"stv_port":27026,"stv_name":"Uncletopia | London | 2 | All Maps | STV","players":null},{"server_id":320,"name":"Uncletopia | London | 3 | All Maps","name_short":"lon-3","host":"lon-1.uk.uncletopia.com","port":27035,"enabled":true,"region":"eu","cc":"gb","latitude":51.509865,"longitude":-0.118092,"reserved":0,"last_update":"0001-01-01T00:00:00Z","name_a2s":"Uncletopia | London | 3 | All Maps","protocol":17,"map":"pl_borneo","folder":"tf","game":"Team Fortress","app_id":440,"player_count":0,"max_players":24,"Bots":0,"server_type":"Dedicated","server_os":"Linux","password":true,"vac":true,"version":"7932396","steam_id":85568392924510192,"keywords":["nocrits","nodmgspread","payload","uncletopia"],"game_id":440,"stv_port":27036,"stv_name":"Uncletopia | London | 3 | All Maps | STV","players":null},{"server_id":321,"name":"Uncletopia | London | 4 | All Maps","name_short":"lon-4","host":"lon-1.uk.uncletopia.com","port":27045,"enabled":true,"region":"eu","cc":"gb","latitude":51.509865,"longitude":-0.118092,"reserved":0,"last_update":"0001-01-01T00:00:00Z","name_a2s":"Uncletopia | London | 4 | All Maps","protocol":17,"map":"koth_highpass","folder":"tf","game":"Team Fortress","app_id":440,"player_count":0,"max_players":24,"Bots":0,"server_type":"Dedicated","server_os":"Linux","password":true,"vac":true,"version":"7932396","steam_id":85568392924510193,"keywords":["cp","nocrits","nodmgspread","uncletopia"],"game_id":440,"stv_port":27046,"stv_name":"Uncletopia | London | 4 | All Maps | STV","players":null},{"server_id":21,"name":"Uncletopia | London | 5 | All Maps","name_short":"lon-5","host":"lon-1.uk.uncletopia.com","port":27055,"enabled":true,"region":"eu","cc":"gb","latitude":51.509865,"longitude":-0.118092,"reserved":0,"last_update":"0001-01-01T00:00:00Z","name_a2s":"Uncletopia | London | 5 | All Maps","protocol":17,"map":"pl_badwater","folder":"tf","game":"Team Fortress","app_id":440,"player_count":23,"max_players":24,"Bots":0,"server_type":"Dedicated","server_os":"Linux","password":true,"vac":true,"version":"7932396","steam_id":85568392924742829,"keywords":["nocrits","nodmgspread","payload","uncletopia"],"game_id":440,"stv_port":27056,"stv_name":"Uncletopia | London | 5 | All Maps | STV","players":[{"user_id":174,"name":"fence_","steam_id":76561198150386379,"connected_time":323000000000,"state":"active","ping":46},{"user_id":138,"name":"MEOWMEOWMEOWMEOWMEOWMEOWMEOWMEO","steam_id":76561198723244199,"connected_time":3343000000000,"state":"active","ping":76},{"user_id":164,"name":"hisham","steam_id":76561198414437290,"connected_time":1564000000000,"state":"active","ping":117},{"user_id":112,"name":"wal","steam_id":76561198066043883,"connected_time":4785000000000,"state":"active","ping":53},{"user_id":113,"name":"CAR DOOR","steam_id":76561198055283295,"connected_time":4652000000000,"state":"active","ping":55},{"user_id":114,"name":"Naix","steam_id":76561198053893077,"connected_time":4633000000000,"state":"active","ping":53},{"user_id":169,"name":"ComradeFloppy","steam_id":76561198295671740,"connected_time":963000000000,"state":"active","ping":46},{"user_id":39,"name":"gravity displeases me","steam_id":76561198342570528,"connected_time":10550000000000,"state":"active","ping":73},{"user_id":172,"name":"Mirage","steam_id":76561199013190566,"connected_time":561000000000,"state":"active","ping":54},{"user_id":142,"name":"Web","steam_id":76561198187663954,"connected_time":3218000000000,"state":"active","ping":38},{"user_id":148,"name":"‚ô£–ì–µ–Ω—Å–µ–∫ –ü–æ–Ω–æ—Å–∞","steam_id":76561198796404149,"connected_time":2516000000000,"state":"active","ping":117},{"user_id":166,"name":"shablool","steam_id":76561199192795613,"connected_time":1113000000000,"state":"active","ping":90},{"user_id":38,"name":"Bun","steam_id":76561197989239999,"connected_time":10854000000000,"state":"active","ping":57},{"user_id":170,"name":"Oak","steam_id":76561198067315672,"connected_time":859000000000,"state":"active","ping":46},{"user_id":165,"name":"Hexagon","steam_id":76561198151205758,"connected_time":1439000000000,"state":"active","ping":59},{"user_id":133,"name":"Meow For Mommy \u003c3","steam_id":76561198981401067,"connected_time":3716000000000,"state":"active","ping":127},{"user_id":153,"name":"Deacon Dracul","steam_id":76561198046880663,"connected_time":2056000000000,"state":"active","ping":86},{"user_id":118,"name":"Fabrioche","steam_id":76561198257070533,"connected_time":4582000000000,"state":"active","ping":60},{"user_id":177,"name":"laza's boy","steam_id":76561199074095198,"connected_time":288000000000,"state":"active","ping":105},{"user_id":163,"name":"Elix","steam_id":76561199072306920,"connected_time":1683000000000,"state":"active","ping":110},{"user_id":135,"name":"Leonic","steam_id":76561198067699203,"connected_time":3604000000000,"state":"active","ping":35},{"user_id":141,"name":"‚ôÇ Animan ‚ôÇ Studios ‚ôÇ","steam_id":76561198308302932,"connected_time":3288000000000,"state":"active","ping":105},{"user_id":176,"name":"Varsk","steam_id":76561198061398890,"connected_time":321000000000,"state":"active","ping":37}]},{"server_id":22,"name":"Uncletopia | London | 6 | All Maps","name_short":"lon-6","host":"lon-1.uk.uncletopia.com","port":27065,"enabled":true,"region":"eu","cc":"gb","latitude":51.509865,"longitude":-0.118092,"reserved":0,"last_update":"0001-01-01T00:00:00Z","name_a2s":"Uncletopia | London | 6 | All Maps","protocol":17,"map":"koth_viaduct","folder":"tf","game":"Team Fortress","app_id":440,"player_count":0,"max_players":24,"Bots":0,"server_type":"Dedicated","server_os":"Linux","password":true,"vac":true,"version":"7932396","steam_id":85568392924742830,"keywords":["cp","nocrits","nodmgspread","uncletopia"],"game_id":440,"stv_port":27066,"stv_name":"Uncletopia | London | 6 | All Maps | STV","players":null},{"server_id":40,"name":"Uncletopia | London | 7 | No Payload","name_short":"lon-7","host":"lon-1.uk.uncletopia.com","port":27075,"enabled":true,"region":"eu","cc":"gb","latitude":51.509865,"longitude":-0.118092,"reserved":0,"last_update":"0001-01-01T00:00:00Z","name_a2s":"Uncletopia | London | 7 | No Payload","protocol":17,"map":"cp_sunshine","folder":"tf","game":"Team Fortress","app_id":440,"player_count":16,"max_players":24,"Bots":0,"server_type":"Dedicated","server_os":"Linux","password":true,"vac":true,"version":"7932396","steam_id":85568392924964314,"keywords":["cp","nocrits","nodmgspread","uncletopia"],"game_id":440,"stv_port":27076,"stv_name":"Uncletopia | London | 7 | No Payload | STV","players":[{"user_id":296,"name":"KnugenIV","steam_id":76561198127091993,"connected_time":1554000000000,"state":"active","ping":56},{"user_id":316,"name":"Spinya","steam_id":76561198086653667,"connected_time":645000000000,"state":"active","ping":58},{"user_id":324,"name":"Bulwyrk","steam_id":76561198303210240,"connected_time":292000000000,"state":"active","ping":148},{"user_id":272,"name":"Juanseparra564","steam_id":76561198176662903,"connected_time":2530000000000,"state":"active","ping":179},{"user_id":325,"name":"Spun","steam_id":76561198836870405,"connected_time":139000000000,"state":"active","ping":83},{"user_id":311,"name":"MagentaDystopia","steam_id":76561198330977433,"connected_time":907000000000,"state":"active","ping":70},{"user_id":318,"name":"fecal incident","steam_id":76561198086770023,"connected_time":607000000000,"state":"active","ping":60},{"user_id":293,"name":"Birdseye","steam_id":76561198025852216,"connected_time":1725000000000,"state":"active","ping":45},{"user_id":294,"name":"Pixie","steam_id":76561198044038797,"connected_time":1576000000000,"state":"active","ping":85},{"user_id":286,"name":"i wish i smoked cigarettes","steam_id":76561198105978107,"connected_time":2064000000000,"state":"active","ping":84},{"user_id":276,"name":"Flare","steam_id":76561198039098320,"connected_time":2286000000000,"state":"active","ping":50},{"user_id":297,"name":"Space","steam_id":76561198021572167,"connected_time":1376000000000,"state":"active","ping":45},{"user_id":319,"name":"Bubu","steam_id":76561198019261813,"connected_time":588000000000,"state":"active","ping":78},{"user_id":283,"name":"DIANDO","steam_id":76561199044769924,"connected_time":2116000000000,"state":"active","ping":136},{"user_id":313,"name":"Kibby","steam_id":76561197990056450,"connected_time":764000000000,"state":"active","ping":52},{"user_id":288,"name":"TheEmeraldStar","steam_id":76561198072942529,"connected_time":2035000000000,"state":"active","ping":73}]},{"server_id":41,"name":"Uncletopia | London | 8 | Community","name_short":"lon-8","host":"lon-1.uk.uncletopia.com","port":27085,"enabled":true,"region":"eu","cc":"gb","latitude":51.509865,"longitude":-0.118092,"reserved":0,"last_update":"0001-01-01T00:00:00Z","name_a2s":"Uncletopia | London | 8 | Community","protocol":17,"map":"workshop/pl_cashworks_final1.ugc2904065412","folder":"tf","game":"Team Fortress","app_id":440,"player_count":7,"max_players":24,"Bots":0,"server_type":"Dedicated","server_os":"Linux","password":true,"vac":true,"version":"7932396","steam_id":85568392924964315,"keywords":["nocrits","nodmgspread","payload","uncletopia"],"game_id":440,"stv_port":27086,"stv_name":"Uncletopia | London | 8 | Community | STV","players":[{"user_id":5,"name":"mesŒª","steam_id":76561198324582918,"connected_time":3092000000000,"state":"active","ping":93},{"user_id":7,"name":"veto vuyisio","steam_id":76561199101145470,"connected_time":2620000000000,"state":"active","ping":77},{"user_id":8,"name":"Rare bulldog owner","steam_id":76561199407941086,"connected_time":2286000000000,"state":"active","ping":67},{"user_id":9,"name":"Nickel","steam_id":76561199037745941,"connected_time":1901000000000,"state":"active","ping":138},{"user_id":10,"name":"Niko","steam_id":76561199006295285,"connected_time":1572000000000,"state":"active","ping":76},{"user_id":14,"name":"Magirby","steam_id":76561198818777390,"connected_time":504000000000,"state":"active","ping":111},{"user_id":16,"name":"Iron_Dave_Qc","steam_id":76561198159325213,"connected_time":238000000000,"state":"active","ping":122}]},{"server_id":300,"name":"Uncletopia | Montr√©al | 1 | All Maps","name_short":"mtl-1","host":"mtl-1.ca.uncletopia.com","port":27015,"enabled":true,"region":"us-east","cc":"ca","latitude":45.50889,"longitude":-73.56167,"reserved":0,"last_update":"0001-01-01T00:00:00Z","name_a2s":"Uncletopia | Montr√©al | 1 | All Maps","protocol":17,"map":"cp_altitude","folder":"tf","game":"Team Fortress","app_id":440,"player_count":0,"max_players":24,"Bots":0,"server_type":"Dedicated","server_os":"Linux","password":true,"vac":true,"version":"7932396","steam_id":85568392924500087,"keywords":["cp","nocrits","nodmgspread","uncletopia"],"game_id":440,"stv_port":27016,"stv_name":"Uncletopia | Montr√©al | 1 | All Maps | STV","players":null},{"server_id":301,"name":"Uncletopia | Montr√©al | 2 | All Maps","name_short":"mtl-2","host":"mtl-1.ca.uncletopia.com","port":27025,"enabled":true,"region":"us-east","cc":"ca","latitude":45.50889,"longitude":-73.56167,"reserved":0,"last_update":"0001-01-01T00:00:00Z","name_a2s":"Uncletopia | Montr√©al | 2 | All Maps","protocol":17,"map":"koth_lakeside_final","folder":"tf","game":"Team Fortress","app_id":440,"player_count":0,"max_players":24,"Bots":0,"server_type":"Dedicated","server_os":"Linux","password":true,"vac":true,"version":"7932396","steam_id":85568392924500088,"keywords":["cp","nocrits","nodmgspread","uncletopia"],"game_id":440,"stv_port":27026,"stv_name":"Uncletopia | Montr√©al | 2 | All Maps | STV","players":null},{"server_id":302,"name":"Uncletopia | Montr√©al | 3 | All Maps","name_short":"mtl-3","host":"mtl-1.ca.uncletopia.com","port":27035,"enabled":true,"region":"us-east","cc":"ca","latitude":45.50889,"longitude":-73.56167,"reserved":0,"last_update":"0001-01-01T00:00:00Z","name_a2s":"Uncletopia | Montr√©al | 3 | All Maps","protocol":17,"map":"cp_process_final","folder":"tf","game":"Team Fortress","app_id":440,"player_count":0,"max_players":24,"Bots":0,"server_type":"Dedicated","server_os":"Linux","password":true,"vac":true,"version":"7932396","steam_id":85568392924500089,"keywords":["cp","nocrits","nodmgspread","uncletopia"],"game_id":440,"stv_port":27036,"stv_name":"Uncletopia | Montr√©al | 3 | All Maps | STV","players":null},{"server_id":303,"name":"Uncletopia | Montr√©al | 4 | No Payload","name_short":"mtl-4","host":"mtl-1.ca.uncletopia.com","port":27045,"enabled":true,"region":"us-east","cc":"ca","latitude":45.50889,"longitude":-73.56167,"reserved":0,"last_update":"0001-01-01T00:00:00Z","name_a2s":"Uncletopia | Montr√©al | 4 | No Payload","protocol":17,"map":"cp_snakewater_final1","folder":"tf","game":"Team Fortress","app_id":440,"player_count":0,"max_players":24,"Bots":0,"server_type":"Dedicated","server_os":"Linux","password":true,"vac":true,"version":"7932396","steam_id":85568392924500090,"keywords":["cp","nocrits","nodmgspread","uncletopia"],"game_id":440,"stv_port":27046,"stv_name":"Uncletopia | Montr√©al | 4 | No Payload | STV","players":null},{"server_id":13,"name":"Uncletopia | New York City | 1 | All Maps","name_short":"nyc-1","host":"nyc-1.us.uncletopia.com","port":27015,"enabled":true,"region":"us-east","cc":"us","latitude":40.73061,"longitude":-73.93524,"reserved":0,"last_update":"0001-01-01T00:00:00Z","name_a2s":"Uncletopia | New York City | 1 | All Maps","protocol":17,"map":"cp_dustbowl","folder":"tf","game":"Team Fortress","app_id":440,"player_count":0,"max_players":24,"Bots":0,"server_type":"Dedicated","server_os":"Linux","password":true,"vac":true,"version":"7932396","steam_id":85568392924469993,"keywords":["cp","nocrits","nodmgspread","uncletopia"],"game_id":440,"stv_port":27016,"stv_name":"Uncletopia | New York City | 1 | All Maps | STV","players":null},{"server_id":14,"name":"Uncletopia | New York City | 2 | All Maps","name_short":"nyc-2","host":"nyc-1.us.uncletopia.com","port":27025,"enabled":true,"region":"us-east","cc":"us","latitude":40.73061,"longitude":-73.93524,"reserved":0,"last_update":"0001-01-01T00:00:00Z","name_a2s":"Uncletopia | New York City | 2 | All Maps","protocol":17,"map":"koth_lakeside_final","folder":"tf","game":"Team Fortress","app_id":440,"player_count":0,"max_players":24,"Bots":0,"server_type":"Dedicated","server_os":"Linux","password":true,"vac":true,"version":"7932396","steam_id":85568392924469994,"keywords":["cp","nocrits","nodmgspread","uncletopia"],"game_id":440,"stv_port":27026,"stv_name":"Uncletopia | New York City | 2 | All Maps | STV","players":null},{"server_id":15,"name":"Uncletopia | New York City | 3 | Stopwatch Beta","name_short":"nyc-3","host":"nyc-1.us.uncletopia.com","port":27035,"enabled":true,"region":"us-east","cc":"us","latitude":40.73061,"longitude":-73.93524,"reserved":0,"last_update":"0001-01-01T00:00:00Z","name_a2s":"Uncletopia | New York City | 3 | Stopwatch Beta","protocol":17,"map":"cp_sunshine","folder":"tf","game":"Team Fortress","app_id":440,"player_count":0,"max_players":24,"Bots":0,"server_type":"Dedicated","server_os":"Linux","password":true,"vac":true,"version":"7932396","steam_id":85568392924742820,"keywords":["cp","nocrits","nodmgspread","uncletopia"],"game_id":440,"stv_port":27036,"stv_name":"Uncletopia | New York City | 3 | Stopwatch Beta | STV","players":null},{"server_id":16,"name":"Uncletopia | New York City | 4 | Community","name_short":"nyc-4","host":"nyc-1.us.uncletopia.com","port":27045,"enabled":true,"region":"us-east","cc":"us","latitude":40.73061,"longitude":-73.93524,"reserved":0,"last_update":"0001-01-01T00:00:00Z","name_a2s":"Uncletopia | New York City | 4 | Community","protocol":17,"map":"pl_barnblitz","folder":"tf","game":"Team Fortress","app_id":440,"player_count":0,"max_players":24,"Bots":0,"server_type":"Dedicated","server_os":"Linux","password":true,"vac":true,"version":"7932396","steam_id":85568392924742821,"keywords":["nocrits","nodmgspread","payload","uncletopia"],"game_id":440,"stv_port":27046,"stv_name":"Uncletopia | New York City | 4 | Community | STV","players":null},{"server_id":142,"name":"Uncletopia | S√£o Paulo | 1 | All Maps","name_short":"sao-1","host":"sao-1.br.uncletopia.com","port":27015,"enabled":true,"region":"sa","cc":"br","latitude":-23.533773,"longitude":-46.62529,"reserved":0,"last_update":"0001-01-01T00:00:00Z","name_a2s":"Uncletopia | S√£o Paulo | 1 | All Maps","protocol":17,"map":"cp_mountainlab","folder":"tf","game":"Team Fortress","app_id":440,"player_count":0,"max_players":24,"Bots":0,"server_type":"Dedicated","server_os":"Linux","password":true,"vac":true,"version":"7932396","steam_id":85568392924469996,"keywords":["cp","nocrits","nodmgspread","uncletopia"],"game_id":440,"stv_port":27016,"stv_name":"Uncletopia | S√£o Paulo | 1 | All Maps | STV","players":null},{"server_id":143,"name":"Uncletopia | S√£o Paulo | 2 | All Maps","name_short":"sao-2","host":"sao-2.br.uncletopia.com","port":27015,"enabled":true,"region":"sa","cc":"br","latitude":-23.533773,"longitude":-46.62529,"reserved":0,"last_update":"0001-01-01T00:00:00Z","name_a2s":"Uncletopia | S√£o Paulo | 2 | All Maps","protocol":17,"map":"pl_swiftwater_final1","folder":"tf","game":"Team Fortress","app_id":440,"player_count":0,"max_players":24,"Bots":0,"server_type":"Dedicated","server_os":"Linux","password":true,"vac":true,"version":"7932396","steam_id":85568392924485349,"keywords":["nocrits","nodmgspread","payload","uncletopia"],"game_id":440,"stv_port":27016,"stv_name":"Uncletopia | S√£o Paulo | 2 | All Maps | STV","players":null},{"server_id":7,"name":"Uncletopia | Seattle | 1 | All Maps","name_short":"sea-1","host":"sea-1.us.uncletopia.com","port":27015,"enabled":true,"region":"us-west","cc":"us","latitude":47.608013,"longitude":-122.33517,"reserved":0,"last_update":"0001-01-01T00:00:00Z","name_a2s":"Uncletopia | Seattle | 1 | All Maps","protocol":17,"map":"pl_barnblitz","folder":"tf","game":"Team Fortress","app_id":440,"player_count":18,"max_players":24,"Bots":0,"server_type":"Dedicated","server_os":"Linux","password":true,"vac":true,"version":"7932396","steam_id":85568392924469997,"keywords":["nocrits","nodmgspread","payload","uncletopia"],"game_id":440,"stv_port":27016,"stv_name":"Uncletopia | Seattle | 1 | All Maps | STV","players":[{"user_id":53,"name":"Kirsk","steam_id":76561198084397649,"connected_time":10000000000,"state":"spawning","ping":336},{"user_id":28,"name":"Christian Bonnie","steam_id":76561199194702127,"connected_time":1736000000000,"state":"active","ping":107},{"user_id":52,"name":"Sparky","steam_id":76561198086845464,"connected_time":37000000000,"state":"active","ping":101},{"user_id":27,"name":"Mattacam","steam_id":76561198862289471,"connected_time":1818000000000,"state":"active","ping":116},{"user_id":48,"name":"Morkmindy","steam_id":76561198065017954,"connected_time":429000000000,"state":"active","ping":132},{"user_id":49,"name":"IMM0RTAL","steam_id":76561198013747901,"connected_time":394000000000,"state":"active","ping":111},{"user_id":9,"name":"Mythical Lag","steam_id":76561198347031281,"connected_time":2557000000000,"state":"active","ping":106},{"user_id":10,"name":"Hot dog guy","steam_id":76561198159339442,"connected_time":2553000000000,"state":"active","ping":123},{"user_id":46,"name":"puffy","steam_id":76561198411347037,"connected_time":548000000000,"state":"active","ping":119},{"user_id":36,"name":"Wheaty","steam_id":76561198003553412,"connected_time":1103000000000,"state":"active","ping":49},{"user_id":47,"name":"Reague","steam_id":76561199092175631,"connected_time":522000000000,"state":"active","ping":103},{"user_id":16,"name":"Winter the Witchie","steam_id":76561198151971178,"connected_time":2496000000000,"state":"active","ping":94},{"user_id":17,"name":"MEDTheProtogen","steam_id":76561198863984364,"connected_time":2422000000000,"state":"active","ping":89},{"user_id":50,"name":"ƒ†1 ‚ô¶ Synth","steam_id":76561198058660228,"connected_time":314000000000,"state":"active","ping":105},{"user_id":51,"name":"CFGU || RAWRWAFL","steam_id":76561198032118386,"connected_time":260000000000,"state":"active","ping":134},{"user_id":25,"name":"Flippityflop","steam_id":76561198086692908,"connected_time":1933000000000,"state":"active","ping":128},{"user_id":26,"name":"donut","steam_id":76561198076635466,"connected_time":1881000000000,"state":"active","ping":114},{"user_id":32,"name":"uhoh","steam_id":76561198136967934,"connected_time":1563000000000,"state":"active","ping":82}]},{"server_id":119,"name":"Uncletopia | Seattle | 2 | All Maps","name_short":"sea-2","host":"sea-1.us.uncletopia.com","port":27025,"enabled":true,"region":"us-west","cc":"us","latitude":47.608013,"longitude":-122.33517,"reserved":0,"last_update":"0001-01-01T00:00:00Z","name_a2s":"Uncletopia | Seattle | 2 | All Maps","protocol":17,"map":"cp_dustbowl","folder":"tf","game":"Team Fortress","app_id":440,"player_count":0,"max_players":24,"Bots":0,"server_type":"Dedicated","server_os":"Linux","password":true,"vac":true,"version":"7932396","steam_id":85568392924469998,"keywords":["cp","nocrits","nodmgspread","uncletopia"],"game_id":440,"stv_port":27026,"stv_name":"Uncletopia | Seattle | 2 | All Maps | STV","players":null},{"server_id":406,"name":"Uncletopia | Seattle | 3 | Stopwatch Beta","name_short":"sea-3","host":"sea-1.us.uncletopia.com","port":27035,"enabled":true,"region":"us-west","cc":"us","latitude":47.608013,"longitude":-122.33517,"reserved":0,"last_update":"0001-01-01T00:00:00Z","name_a2s":"Uncletopia | Seattle | 3 | Stopwatch Beta","protocol":17,"map":"cp_mountainlab","folder":"tf","game":"Team Fortress","app_id":440,"player_count":0,"max_players":24,"Bots":0,"server_type":"Dedicated","server_os":"Linux","password":true,"vac":true,"version":"7932396","steam_id":85568392924515217,"keywords":["cp","nocrits","nodmgspread","uncletopia"],"game_id":440,"stv_port":27036,"stv_name":"Uncletopia | Seattle | 3 | Stopwatch Beta | STV","players":null},{"server_id":17,"name":"Uncletopia | San Francisco | 1 | All Maps","name_short":"sfo-1","host":"sfo-1.us.uncletopia.com","port":27015,"enabled":true,"region":"us-west","cc":"us","latitude":37.77397,"longitude":-122.4313,"reserved":0,"last_update":"0001-01-01T00:00:00Z","name_a2s":"Uncletopia | San Francisco | 1 | All Maps","protocol":17,"map":"pl_frontier_final","folder":"tf","game":"Team Fortress","app_id":440,"player_count":0,"max_players":24,"Bots":0,"server_type":"Dedicated","server_os":"Linux","password":true,"vac":true,"version":"7932396","steam_id":85568392924469999,"keywords":["nocrits","nodmgspread","payload","uncletopia"],"game_id":440,"stv_port":27016,"stv_name":"Uncletopia | San Francisco | 1 | All Maps | STV","players":null},{"server_id":18,"name":"Uncletopia | San Francisco | 2 | All Maps","name_short":"sfo-2","host":"sfo-1.us.uncletopia.com","port":27025,"enabled":true,"region":"us-west","cc":"us","latitude":37.77397,"longitude":-122.4313,"reserved":0,"last_update":"0001-01-01T00:00:00Z","name_a2s":"Uncletopia | San Francisco | 2 | All Maps","protocol":17,"map":"cp_snakewater_final1","folder":"tf","game":"Team Fortress","app_id":440,"player_count":0,"max_players":24,"Bots":0,"server_type":"Dedicated","server_os":"Linux","password":true,"vac":true,"version":"7932396","steam_id":85568392924470000,"keywords":["cp","nocrits","nodmgspread","uncletopia"],"game_id":440,"stv_port":27026,"stv_name":"Uncletopia | San Francisco | 2 | All Maps | STV","players":null},{"server_id":19,"name":"Uncletopia | San Francisco | 3 | Stopwatch Beta","name_short":"sfo-3","host":"sfo-1.us.uncletopia.com","port":27035,"enabled":true,"region":"us-west","cc":"us","latitude":37.77397,"longitude":-122.4313,"reserved":0,"last_update":"0001-01-01T00:00:00Z","name_a2s":"Uncletopia | San Francisco | 3 | Stopwatch Beta","protocol":17,"map":"koth_lakeside_final","folder":"tf","game":"Team Fortress","app_id":440,"player_count":0,"max_players":24,"Bots":0,"server_type":"Dedicated","server_os":"Linux","password":true,"vac":true,"version":"7932396","steam_id":85568392924742824,"keywords":["cp","nocrits","nodmgspread","uncletopia"],"game_id":440,"stv_port":27036,"stv_name":"Uncletopia | San Francisco | 3 | Stopwatch Beta | STV","players":null},{"server_id":20,"name":"Uncletopia | San Francisco | 4 | Community","name_short":"sfo-4","host":"sfo-1.us.uncletopia.com","port":27045,"enabled":true,"region":"us-west","cc":"us","latitude":37.77397,"longitude":-122.4313,"reserved":0,"last_update":"0001-01-01T00:00:00Z","name_a2s":"Uncletopia | San Francisco | 4 | Community","protocol":17,"map":"pl_borneo","folder":"tf","game":"Team Fortress","app_id":440,"player_count":0,"max_players":24,"Bots":0,"server_type":"Dedicated","server_os":"Linux","password":true,"vac":true,"version":"7932396","steam_id":85568392924742826,"keywords":["nocrits","nodmgspread","payload","uncletopia"],"game_id":440,"stv_port":27046,"stv_name":"Uncletopia | San Francisco | 4 | Community | STV","players":null},{"server_id":141,"name":"Uncletopia | Sydney | 1 | All Maps","name_short":"syd-1","host":"syd-1.au.uncletopia.com","port":27015,"enabled":true,"region":"au","cc":"au","latitude":-33.865143,"longitude":151.2099,"reserved":0,"last_update":"0001-01-01T00:00:00Z","name_a2s":"Uncletopia | Sydney | 1 | All Maps","protocol":17,"map":"koth_viaduct","folder":"tf","game":"Team Fortress","app_id":440,"player_count":0,"max_players":24,"Bots":0,"server_type":"Dedicated","server_os":"Linux","password":true,"vac":true,"version":"7932396","steam_id":85568392924470001,"keywords":["cp","nocrits","nodmgspread","uncletopia"],"game_id":440,"stv_port":27016,"stv_name":"Uncletopia | Sydney | 1 | All Maps | STV","players":null},{"server_id":123,"name":"Uncletopia | Sydney | 2 | All Maps","name_short":"syd-2","host":"syd-1.au.uncletopia.com","port":27025,"enabled":true,"region":"au","cc":"au","latitude":-33.865143,"longitude":151.2099,"reserved":0,"last_update":"0001-01-01T00:00:00Z","name_a2s":"Uncletopia | Sydney | 2 | All Maps","protocol":17,"map":"koth_lakeside_final","folder":"tf","game":"Team Fortress","app_id":440,"player_count":24,"max_players":24,"Bots":0,"server_type":"Dedicated","server_os":"Linux","password":true,"vac":true,"version":"7932396","steam_id":85568392924470002,"keywords":["cp","nocrits","nodmgspread","uncletopia"],"game_id":440,"stv_port":27026,"stv_name":"Uncletopia | Sydney | 2 | All Maps | STV","players":[{"user_id":127,"name":"Autistic Raptor","steam_id":76561198354523762,"connected_time":7875000000000,"state":"active","ping":59},{"user_id":199,"name":"former romeo","steam_id":76561198031293430,"connected_time":2333000000000,"state":"active","ping":82},{"user_id":211,"name":"wom","steam_id":76561199375834537,"connected_time":364000000000,"state":"active","ping":147},{"user_id":203,"name":"Noble Chernobyl","steam_id":76561198011803825,"connected_time":1250000000000,"state":"active","ping":53},{"user_id":169,"name":"horrid webbon ·òõ‚ÅêÃ§·ïê·ê∑","steam_id":76561198061998379,"connected_time":5171000000000,"state":"active","ping":51},{"user_id":186,"name":"beastmode goer","steam_id":76561198025099660,"connected_time":3480000000000,"state":"active","ping":32},{"user_id":198,"name":"Fyre Rose","steam_id":76561198000527551,"connected_time":2404000000000,"state":"active","ping":71},{"user_id":206,"name":"engineer helping goblin","steam_id":76561198325870666,"connected_time":576000000000,"state":"active","ping":69},{"user_id":202,"name":"‚ô• BILL!!! ‚ô•","steam_id":76561198066726621,"connected_time":1371000000000,"state":"active","ping":46},{"user_id":145,"name":"Jakko","steam_id":76561198008901871,"connected_time":6776000000000,"state":"active","ping":92},{"user_id":167,"name":"Edgar's can't be choosers","steam_id":76561198301282416,"connected_time":5188000000000,"state":"active","ping":57},{"user_id":207,"name":"UrAvgDMG","steam_id":76561199214859141,"connected_time":540000000000,"state":"active","ping":141},{"user_id":183,"name":"the taco bell tolls for thee","steam_id":76561198079351541,"connected_time":3563000000000,"state":"active","ping":50},{"user_id":165,"name":"EyeBallin'","steam_id":76561198027001491,"connected_time":5671000000000,"state":"active","ping":54},{"user_id":172,"name":"anti-fun activist","steam_id":76561198048064049,"connected_time":4858000000000,"state":"active","ping":85},{"user_id":213,"name":"robor","steam_id":76561198084686835,"connected_time":349000000000,"state":"active","ping":68},{"user_id":195,"name":"Abraham Lincoln","steam_id":76561198095292515,"connected_time":2526000000000,"state":"active","ping":65},{"user_id":217,"name":"ItsSnakey","steam_id":76561199187623513,"connected_time":13000000000,"state":"active","ping":71},{"user_id":214,"name":"conniving frenchman","steam_id":76561198122259040,"connected_time":342000000000,"state":"active","ping":45},{"user_id":205,"name":"Frog Friend","steam_id":76561198054505772,"connected_time":772000000000,"state":"active","ping":61},{"user_id":176,"name":"Fleetfoot","steam_id":76561198072845816,"connected_time":4774000000000,"state":"active","ping":63},{"user_id":159,"name":"voxii","steam_id":76561198099698281,"connected_time":6245000000000,"state":"active","ping":72},{"user_id":201,"name":"Zeraki","steam_id":76561198004276062,"connected_time":2164000000000,"state":"active","ping":72},{"user_id":193,"name":"Matt VII (7) (seven)","steam_id":76561198065340795,"connected_time":2740000000000,"state":"active","ping":53}]},{"server_id":395,"name":"Uncletopia | Sydney | 3 | All Maps","name_short":"syd-3","host":"syd-1.au.uncletopia.com","port":27035,"enabled":true,"region":"au","cc":"au","latitude":-33.865143,"longitude":151.2099,"reserved":0,"last_update":"0001-01-01T00:00:00Z","name_a2s":"Uncletopia | Sydney | 3 | All Maps","protocol":17,"map":"koth_cascade","folder":"tf","game":"Team Fortress","app_id":440,"player_count":0,"max_players":24,"Bots":0,"server_type":"Dedicated","server_os":"Linux","password":true,"vac":true,"version":"7932396","steam_id":85568392925194467,"keywords":["cp","nocrits","nodmgspread","uncletopia"],"game_id":440,"stv_port":27036,"stv_name":"Uncletopia | Sydney | 3 | All Maps | STV","players":null},{"server_id":396,"name":"Uncletopia | Sydney | 4 | All Maps","name_short":"syd-4","host":"syd-1.au.uncletopia.com","port":27045,"enabled":true,"region":"au","cc":"au","latitude":-33.865143,"longitude":151.2099,"reserved":0,"last_update":"0001-01-01T00:00:00Z","name_a2s":"Uncletopia | Sydney | 4 | All Maps","protocol":17,"map":"koth_cascade","folder":"tf","game":"Team Fortress","app_id":440,"player_count":0,"max_players":24,"Bots":0,"server_type":"Dedicated","server_os":"Linux","password":true,"vac":true,"version":"7932396","steam_id":85568392925397958,"keywords":["cp","nocrits","nodmgspread","uncletopia"],"game_id":440,"stv_port":27046,"stv_name":"Uncletopia | Sydney | 4 | All Maps | STV","players":null},{"server_id":58,"name":"Uncletopia | Sydney | 5 | Stopwatch Beta","name_short":"syd-5","host":"syd-1.au.uncletopia.com","port":27055,"enabled":true,"region":"au","cc":"au","latitude":-33.865143,"longitude":151.2099,"reserved":0,"last_update":"0001-01-01T00:00:00Z","name_a2s":"Uncletopia | Sydney | 5 | Stopwatch Beta","protocol":17,"map":"pl_borneo","folder":"tf","game":"Team Fortress","app_id":440,"player_count":0,"max_players":24,"Bots":0,"server_type":"Dedicated","server_os":"Linux","password":true,"vac":true,"version":"7932396","steam_id":85568392925397959,"keywords":["nocrits","nodmgspread","payload","uncletopia"],"game_id":440,"stv_port":27056,"stv_name":"Uncletopia | Sydney | 5 | Stopwatch Beta | STV","players":null},{"server_id":59,"name":"Uncletopia | Sydney | 6 | Community","name_short":"syd-6","host":"syd-1.au.uncletopia.com","port":27065,"enabled":true,"region":"au","cc":"au","latitude":-33.865143,"longitude":151.2099,"reserved":0,"last_update":"0001-01-01T00:00:00Z","name_a2s":"Uncletopia | Sydney | 6 | Community","protocol":17,"map":"workshop/cp_glacier_rc6.ugc2905735376","folder":"tf","game":"Team Fortress","app_id":440,"player_count":0,"max_players":24,"Bots":0,"server_type":"Dedicated","server_os":"Linux","password":true,"vac":true,"version":"7932396","steam_id":85568392925397960,"keywords":["cp","nocrits","nodmgspread","uncletopia"],"game_id":440,"stv_port":27066,"stv_name":"Uncletopia | Sydney | 6 | Community | STV","players":null},{"server_id":49,"name":"Uncletopia | Warsaw | 1 | All Maps","name_short":"waw-1","host":"waw-1.pl.uncletopia.com","port":27015,"enabled":true,"region":"eu","cc":"pl","latitude":52.2297,"longitude":21.017532,"reserved":0,"last_update":"0001-01-01T00:00:00Z","name_a2s":"","protocol":0,"map":"","folder":"","game":"","app_id":0,"player_count":0,"max_players":0,"Bots":0,"server_type":"","server_os":"","password":false,"vac":false,"version":"","steam_id":0,"keywords":null,"game_id":0,"stv_port":0,"stv_name":"","players":null},{"server_id":50,"name":"Uncletopia | Warsaw | 2 | All Maps","name_short":"waw-2","host":"waw-1.pl.uncletopia.com","port":27025,"enabled":true,"region":"eu","cc":"pl","latitude":52.2297,"longitude":21.017532,"reserved":0,"last_update":"0001-01-01T00:00:00Z","name_a2s":"Uncletopia | Warsaw | 2 | All Maps","protocol":17,"map":"pl_badwater","folder":"tf","game":"Team Fortress","app_id":440,"player_count":0,"max_players":24,"Bots":0,"server_type":"Dedicated","server_os":"Linux","password":true,"vac":true,"version":"7932396","steam_id":85568392925397851,"keywords":["nocrits","nodmgspread","payload","uncletopia"],"game_id":440,"stv_port":27026,"stv_name":"Uncletopia | Warsaw | 2 | All Maps | STV","players":null},{"server_id":51,"name":"Uncletopia | Warsaw | 3 | All Maps","name_short":"waw-3","host":"waw-1.pl.uncletopia.com","port":27035,"enabled":true,"region":"eu","cc":"pl","latitude":52.2297,"longitude":21.017532,"reserved":0,"last_update":"0001-01-01T00:00:00Z","name_a2s":"Uncletopia | Warsaw | 3 | All Maps","protocol":17,"map":"koth_lakeside_final","folder":"tf","game":"Team Fortress","app_id":440,"player_count":0,"max_players":24,"Bots":0,"server_type":"Dedicated","server_os":"Linux","password":true,"vac":true,"version":"7932396","steam_id":85568392925397852,"keywords":["cp","nocrits","nodmgspread","uncletopia"],"game_id":440,"stv_port":27036,"stv_name":"Uncletopia | Warsaw | 3 | All Maps | STV","players":null},{"server_id":52,"name":"Uncletopia | Warsaw | 4 | All Maps","name_short":"waw-4","host":"waw-1.pl.uncletopia.com","port":27045,"enabled":true,"region":"eu","cc":"pl","latitude":52.2297,"longitude":21.017532,"reserved":0,"last_update":"0001-01-01T00:00:00Z","name_a2s":"Uncletopia | Warsaw | 4 | All Maps","protocol":17,"map":"pl_swiftwater_final1","folder":"tf","game":"Team Fortress","app_id":440,"player_count":0,"max_players":24,"Bots":0,"server_type":"Dedicated","server_os":"Linux","password":true,"vac":true,"version":"7932396","steam_id":85568392925397853,"keywords":["nocrits","nodmgspread","payload","uncletopia"],"game_id":440,"stv_port":27046,"stv_name":"Uncletopia | Warsaw | 4 | All Maps | STV","players":null},{"server_id":53,"name":"Uncletopia | Warsaw | 5 | Stopwatch Beta","name_short":"waw-5","host":"waw-1.pl.uncletopia.com","port":27055,"enabled":true,"region":"eu","cc":"pl","latitude":52.2297,"longitude":21.017532,"reserved":0,"last_update":"0001-01-01T00:00:00Z","name_a2s":"Uncletopia | Warsaw | 5 | Stopwatch Beta","protocol":17,"map":"koth_highpass","folder":"tf","game":"Team Fortress","app_id":440,"player_count":0,"max_players":24,"Bots":0,"server_type":"Dedicated","server_os":"Linux","password":true,"vac":true,"version":"7932396","steam_id":85568392925397854,"keywords":["cp","nocrits","nodmgspread","uncletopia"],"game_id":440,"stv_port":27056,"stv_name":"Uncletopia | Warsaw | 5 | Stopwatch Beta | STV","players":null},{"server_id":54,"name":"Uncletopia | Warsaw | 6 | Community","name_short":"waw-6","host":"waw-1.pl.uncletopia.com","port":27065,"enabled":true,"region":"eu","cc":"pl","latitude":52.2297,"longitude":21.017532,"reserved":0,"last_update":"0001-01-01T00:00:00Z","name_a2s":"Uncletopia | Warsaw | 6 | Community","protocol":17,"map":"pl_upward","folder":"tf","game":"Team Fortress","app_id":440,"player_count":0,"max_players":24,"Bots":0,"server_type":"Dedicated","server_os":"Linux","password":true,"vac":true,"version":"7932396","steam_id":85568392925397856,"keywords":["nocrits","nodmgspread","payload","uncletopia"],"game_id":440,"stv_port":27066,"stv_name":"Uncletopia | Warsaw | 6 | Community | STV","players":null}]}