{"status":true,"message":"","result":[{"server_id":9,"name":"Uncletopia | Atlanta | 1 | All Maps","name_short":"atl-1","host":"atl-1.us.uncletopia.com","port":27015,"enabled":true,"region":"us-east","cc":"us","latitude":33.753746,"longitude":-84.38633,"reserved":0,"last_update":"0001-01-01T00:00:00Z","name_a2s":"Uncletopia | Atlanta | 1 | All Maps","protocol":17,"map":"pl_upward","folder":"tf","game":"Team Fortress","app_id":440,"player_count":24,"max_players":24,"Bots":0,"server_type":"Dedicated","server_os":"Linux","password":true,"vac":true,"version":"7961495","steam_id":85568392924469982,"keywords":["nocrits","nodmgspread","payload","uncletopia"],"game_id":440,"stv_port":27016,"stv_name":"Uncletopia | Atlanta | 1 | All Maps | STV","players":null},{"server_id":104,"name":"Uncletopia | Atlanta | 2 | All Maps","name_short":"atl-2","host":"atl-1.us.uncletopia.com","port":27025,"enabled":true,"region":"us-east","cc":"us","latitude":33.753746,"longitude":-84.38633,"reserved":0,"last_update":"0001-01-01T00:00:00Z","name_a2s":"Uncletopia | Atlanta | 2 | All Maps","protocol":17,"map":"pl_frontier_final","folder":"tf","game":"Team Fortress","app_id":440,"player_count":0,"max_players":24,"Bots":0,"server_type":"Dedicated","server_os":"Linux","password":true,"vac":true,"version":"7961495","steam_id":85568392924469983,"keywords":["nocrits","nodmgspread","payload","uncletopia"],"game_id":440,"stv_port":27026,"stv_name":"Uncletopia | Atlanta | 2 | All Maps | STV","players":null},{"server_id":400,"name":"Uncletopia | Atlanta | 3 | All Maps","name_short":"atl-3","host":"atl-1.us.uncletopia.com","port":27035,"enabled":true,"region":"us-east","cc":"us","latitude":33.753746,"longitude":-84.38633,"reserved":0,"last_update":"0001-01-01T00:00:00Z","name_a2s":"Uncletopia | Atlanta | 3 | All Maps","protocol":17,"map":"pl_pier","folder":"tf","game":"Team Fortress","app_id":440,"player_count":24,"max_players":24,"Bots":0,"server_type":"Dedicated","server_os":"Linux","password":true,"vac":true,"version":"7961495","steam_id":85568392924515187,"keywords":["nocrits","nodmgspread","payload","uncletopia"],"game_id":440,"stv_port":27036,"stv_name":"Uncletopia | Atlanta | 3 | All Maps | STV","players":null},{"server_id":401,"name":"Uncletopia | Atlanta | 4 | Community","name_short":"atl-4","host":"atl-1.us.uncletopia.com","port":27045,"enabled":true,"region":"us-east","cc":"us","latitude":33.753746,"longitude":-84.38633,"reserved":0,"last_update":"0001-01-01T00:00:00Z","name_a2s":"Uncletopia | Atlanta | 4 | Community","protocol":17,"map":"cp_villa_b19","folder":"tf","game":"Team Fortress","app_id":440,"player_count":0,"max_players":24,"Bots":0,"server_type":"Dedicated","server_os":"Linux","password":true,"vac":true,"version":"7961495","steam_id":85568392924515188,"keywords":["cp","nocrits","nodmgspread","uncletopia"],"game_id":440,"stv_port":27046,"stv_name":"Uncletopia | Atlanta | 4 | Community | STV","players":null},{"server_id":2,"name":"Uncletopia | Chicago | 1 | All Maps","name_short":"chi-1","host":"chi-1.us.uncletopia.com","port":27015,"enabled":true,"region":"us-central","cc":"us","latitude":41.881832,"longitude":-87.62318,"reserved":0,"last_update":"0001-01-01T00:00:00Z","name_a2s":"Uncletopia | Chicago | 1 | All Maps","protocol":17,"map":"pl_borneo","folder":"tf","game":"Team Fortress","app_id":440,"player_count":24,"max_players":24,"Bots":0,"server_type":"Dedicated","server_os":"Linux","password":true,"vac":true,"version":"7961495","steam_id":85568392924469984,"keywords":["nocrits","nodmgspread","payload","uncletopia"],"game_id":440,"stv_port":27016,"stv_name":"Uncletopia | Chicago | 1 | All Maps | STV","players":[{"user_id":301,"name":"brandon vougghhnn hoesli","steam_id":76561198156333207,"connected_time":8537000000000,"state":"active","ping":100},{"user_id":359,"name":"xiii","steam_id":76561198079416036,"connected_time":5755000000000,"state":"active","ping":44},{"user_id":314,"name":"DuckMann","steam_id":76561198197058638,"connected_time":7445000000000,"state":"active","ping":61},{"user_id":420,"name":"Packer5do","steam_id":76561199260849362,"connected_time":115000000000,"state":"active","ping":100},{"user_id":344,"name":"Peepster","steam_id":76561198297854733,"connected_time":6732000000000,"state":"active","ping":72},{"user_id":410,"name":"Your Local Queer Librarian","steam_id":76561198013077080,"connected_time":1082000000000,"state":"active","ping":55},{"user_id":423,"name":"my name jeff","steam_id":76561198179816898,"connected_time":9000000000,"state":"active","ping":104},{"user_id":407,"name":"Astoriae!","steam_id":76561199090168858,"connected_time":1722000000000,"state":"active","ping":66},{"user_id":396,"name":"MUSHROOM MONSTER","steam_id":76561198067697879,"connected_time":2716000000000,"state":"active","ping":55},{"user_id":405,"name":"D0g","steam_id":76561198165312893,"connected_time":2109000000000,"state":"active","ping":71},{"user_id":404,"name":".JIFF","steam_id":76561198045181760,"connected_time":2143000000000,"state":"active","ping":55},{"user_id":372,"name":"unicornCatLili","steam_id":76561199391478575,"connected_time":4296000000000,"state":"active","ping":104},{"user_id":415,"name":"Tyco","steam_id":76561197978414167,"connected_time":734000000000,"state":"active","ping":73},{"user_id":421,"name":"Cthulwho?","steam_id":76561198165550810,"connected_time":103000000000,"state":"active","ping":61},{"user_id":416,"name":"GREG","steam_id":76561198073021168,"connected_time":517000000000,"state":"active","ping":66},{"user_id":368,"name":"HarryjusttHarry","steam_id":76561198982810452,"connected_time":4557000000000,"state":"active","ping":69},{"user_id":382,"name":"PhaserLazer","steam_id":76561198407341298,"connected_time":3938000000000,"state":"active","ping":74},{"user_id":422,"name":"Banes","steam_id":76561198083485876,"connected_time":52000000000,"state":"active","ping":78},{"user_id":412,"name":"Bob","steam_id":76561198008953177,"connected_time":846000000000,"state":"active","ping":72},{"user_id":419,"name":"sam","steam_id":76561198045707908,"connected_time":189000000000,"state":"active","ping":61},{"user_id":350,"name":"ApertureCity","steam_id":76561198004153607,"connected_time":6235000000000,"state":"active","ping":85},{"user_id":399,"name":"Shigu","steam_id":76561199489391928,"connected_time":2547000000000,"state":"active","ping":46},{"user_id":411,"name":"Lancer Fan Club","steam_id":76561198355495948,"connected_time":861000000000,"state":"active","ping":73},{"user_id":341,"name":"freyjaaaaaaaaaaaaaaaaaaaaaaaaaa","steam_id":76561198249206656,"connected_time":7022000000000,"state":"active","ping":78}]},{"server_id":106,"name":"Uncletopia | Chicago | 2 | All Maps","name_short":"chi-2","host":"chi-1.us.uncletopia.com","port":27025,"enabled":true,"region":"us-central","cc":"us","latitude":41.881832,"longitude":-87.62318,"reserved":0,"last_update":"0001-01-01T00:00:00Z","name_a2s":"Uncletopia | Chicago | 2 | All Maps","protocol":17,"map":"cp_steel","folder":"tf","game":"Team Fortress","app_id":440,"player_count":24,"max_players":24,"Bots":0,"server_type":"Dedicated","server_os":"Linux","password":true,"vac":true,"version":"7961495","steam_id":85568392924469985,"keywords":["cp","nocrits","nodmgspread","uncletopia"],"game_id":440,"stv_port":27026,"stv_name":"Uncletopia | Chicago | 2 | All Maps | STV","players":[{"user_id":240,"name":"P4RLMNT","steam_id":76561198054361045,"connected_time":2585000000000,"state":"active","ping":95},{"user_id":247,"name":"Wolbey","steam_id":76561198042148095,"connected_time":2115000000000,"state":"active","ping":48},{"user_id":277,"name":"Random Person","steam_id":76561198990531385,"connected_time":58000000000,"state":"active","ping":75},{"user_id":227,"name":"Ultimate Cookie","steam_id":76561198011297674,"connected_time":3608000000000,"state":"active","ping":46},{"user_id":230,"name":"Retro","steam_id":76561198414744723,"connected_time":3231000000000,"state":"active","ping":162},{"user_id":263,"name":"Daehypeels","steam_id":76561198268981599,"connected_time":964000000000,"state":"active","ping":72},{"user_id":260,"name":"the blunz","steam_id":76561198420227358,"connected_time":1003000000000,"state":"active","ping":75},{"user_id":152,"name":"TacoMan","steam_id":76561198049405741,"connected_time":8429000000000,"state":"active","ping":91},{"user_id":274,"name":"B R O W N","steam_id":76561198047340813,"connected_time":180000000000,"state":"active","ping":45},{"user_id":259,"name":"Skendiesel","steam_id":76561198015497676,"connected_time":1044000000000,"state":"active","ping":49},{"user_id":229,"name":"jon.cinnamon","steam_id":76561198127316418,"connected_time":3277000000000,"state":"active","ping":69},{"user_id":271,"name":"MondoDong","steam_id":76561197991400109,"connected_time":291000000000,"state":"active","ping":69},{"user_id":254,"name":"derz","steam_id":76561198010742216,"connected_time":1820000000000,"state":"active","ping":56},{"user_id":276,"name":"idk man","steam_id":76561198065543771,"connected_time":135000000000,"state":"active","ping":69},{"user_id":261,"name":"Butterscotch Poopies","steam_id":76561197985260403,"connected_time":1002000000000,"state":"active","ping":97},{"user_id":275,"name":"Boognish Rising","steam_id":76561199273231736,"connected_time":175000000000,"state":"active","ping":76},{"user_id":272,"name":"godtierJack.jpeg","steam_id":76561198089827454,"connected_time":284000000000,"state":"active","ping":139},{"user_id":176,"name":"Mer","steam_id":76561198192171041,"connected_time":7336000000000,"state":"active","ping":115},{"user_id":231,"name":"TheSnipersHat","steam_id":76561198057684066,"connected_time":3229000000000,"state":"active","ping":57},{"user_id":269,"name":"Dzhoshua","steam_id":76561198071915251,"connected_time":404000000000,"state":"active","ping":64},{"user_id":255,"name":"Scrumpy Main","steam_id":76561198146302597,"connected_time":1786000000000,"state":"active","ping":54},{"user_id":262,"name":"caption cool","steam_id":76561197990612056,"connected_time":997000000000,"state":"active","ping":50},{"user_id":270,"name":"Coach Twig","steam_id":76561198058831591,"connected_time":390000000000,"state":"active","ping":58},{"user_id":278,"name":"eat Pant","steam_id":76561197974965536,"connected_time":29000000000,"state":"active","ping":69}]},{"server_id":402,"name":"Uncletopia | Chicago | 3 | All Maps","name_short":"chi-3","host":"chi-1.us.uncletopia.com","port":27035,"enabled":true,"region":"us-central","cc":"us","latitude":41.881832,"longitude":-87.62318,"reserved":0,"last_update":"0001-01-01T00:00:00Z","name_a2s":"Uncletopia | Chicago | 3 | All Maps","protocol":17,"map":"pl_badwater","folder":"tf","game":"Team Fortress","app_id":440,"player_count":24,"max_players":24,"Bots":0,"server_type":"Dedicated","server_os":"Linux","password":true,"vac":true,"version":"7961495","steam_id":85568392924515191,"keywords":["nocrits","nodmgspread","payload","uncletopia"],"game_id":440,"stv_port":27036,"stv_name":"Uncletopia | Chicago | 3 | All Maps | STV","players":[{"user_id":365,"name":"tools","steam_id":76561199010542612,"connected_time":3695000000000,"state":"active","ping":47},{"user_id":288,"name":"I have no idea what I am doing?","steam_id":76561198093152207,"connected_time":8318000000000,"state":"active","ping":71},{"user_id":383,"name":"The_atom_bomb","steam_id":76561198139944683,"connected_time":2399000000000,"state":"active","ping":57},{"user_id":398,"name":"engie","steam_id":76561199229629045,"connected_time":1256000000000,"state":"active","ping":112},{"user_id":340,"name":"Imabee","steam_id":76561198032523749,"connected_time":4927000000000,"state":"active","ping":67},{"user_id":394,"name":"MINIFIE MAN19","steam_id":76561198259509461,"connected_time":1510000000000,"state":"active","ping":69},{"user_id":384,"name":"Jabroni Kris","steam_id":76561198048736247,"connected_time":2349000000000,"state":"active","ping":86},{"user_id":414,"name":"General Mightyian11","steam_id":76561199125278476,"connected_time":468000000000,"state":"active","ping":68},{"user_id":371,"name":"Jpxfred","steam_id":76561199414783749,"connected_time":3103000000000,"state":"active","ping":109},{"user_id":419,"name":"Ojen","steam_id":76561197998414482,"connected_time":167000000000,"state":"active","ping":60},{"user_id":413,"name":"where my at","steam_id":76561198139303045,"connected_time":552000000000,"state":"active","ping":165},{"user_id":409,"name":"I only pocket snipers","steam_id":76561198104086771,"connected_time":832000000000,"state":"active","ping":101},{"user_id":385,"name":"Vintage TV","steam_id":76561198800334545,"connected_time":2317000000000,"state":"active","ping":98},{"user_id":412,"name":"Nivi!","steam_id":76561198097857418,"connected_time":708000000000,"state":"active","ping":86},{"user_id":410,"name":"Shoop!","steam_id":76561198960010297,"connected_time":786000000000,"state":"active","ping":49},{"user_id":397,"name":"yenseii","steam_id":76561198304265800,"connected_time":1326000000000,"state":"active","ping":84},{"user_id":408,"name":"Sstrayz","steam_id":76561197994913590,"connected_time":896000000000,"state":"active","ping":58},{"user_id":420,"name":"the nerdy ahh group","steam_id":76561199493902440,"connected_time":58000000000,"state":"active","ping":55},{"user_id":390,"name":"Just a baby","steam_id":76561198018660838,"connected_time":1794000000000,"state":"active","ping":97},{"user_id":406,"name":"Mic","steam_id":76561199098566897,"connected_time":1172000000000,"state":"active","ping":58},{"user_id":380,"name":"♦♣Quadric♥♠","steam_id":76561198061003853,"connected_time":2825000000000,"state":"active","ping":72},{"user_id":386,"name":"Pasta","steam_id":76561198358320222,"connected_time":2316000000000,"state":"active","ping":85},{"user_id":393,"name":"BakedBushido","steam_id":76561197976095068,"connected_time":1552000000000,"state":"active","ping":58},{"user_id":396,"name":"Geck","steam_id":76561198109072653,"connected_time":1486000000000,"state":"active","ping":76}]},{"server_id":403,"name":"Uncletopia | Chicago | 4 | All Maps","name_short":"chi-4","host":"chi-1.us.uncletopia.com","port":27045,"enabled":true,"region":"us-central","cc":"us","latitude":41.881832,"longitude":-87.62318,"reserved":0,"last_update":"0001-01-01T00:00:00Z","name_a2s":"Uncletopia | Chicago | 4 | All Maps","protocol":17,"map":"pl_goldrush","folder":"tf","game":"Team Fortress","app_id":440,"player_count":24,"max_players":24,"Bots":0,"server_type":"Dedicated","server_os":"Linux","password":true,"vac":true,"version":"7961495","steam_id":85568392924515193,"keywords":["nocrits","nodmgspread","payload","uncletopia"],"game_id":440,"stv_port":27046,"stv_name":"Uncletopia | Chicago | 4 | All Maps | STV","players":[{"user_id":276,"name":"Dalsmo","steam_id":76561198062947397,"connected_time":744000000000,"state":"active","ping":60},{"user_id":292,"name":"thefrenchfry","steam_id":76561198088945198,"connected_time":216000000000,"state":"active","ping":66},{"user_id":277,"name":"Elon Bust","steam_id":76561198053555255,"connected_time":735000000000,"state":"active","ping":64},{"user_id":245,"name":"EatSomeBEES","steam_id":76561198047334307,"connected_time":2972000000000,"state":"active","ping":115},{"user_id":278,"name":"awsome man 369","steam_id":76561198090729853,"connected_time":718000000000,"state":"active","ping":78},{"user_id":284,"name":"JopsyJop","steam_id":76561198165542681,"connected_time":463000000000,"state":"active","ping":46},{"user_id":286,"name":"Lenny Gaggins","steam_id":76561198119768140,"connected_time":415000000000,"state":"active","ping":73},{"user_id":289,"name":"Coptimus10","steam_id":76561199074912882,"connected_time":300000000000,"state":"active","ping":66},{"user_id":279,"name":"Digitic","steam_id":76561198080295536,"connected_time":638000000000,"state":"active","ping":80},{"user_id":287,"name":"Artgrendadier","steam_id":76561198063305359,"connected_time":406000000000,"state":"active","ping":70},{"user_id":272,"name":"boi","steam_id":76561198329304262,"connected_time":973000000000,"state":"active","ping":89},{"user_id":288,"name":"miji","steam_id":76561198002909892,"connected_time":380000000000,"state":"active","ping":53},{"user_id":293,"name":"Man with pencil","steam_id":76561198074000459,"connected_time":160000000000,"state":"active","ping":61},{"user_id":196,"name":"not a good idea","steam_id":76561198032259680,"connected_time":6147000000000,"state":"active","ping":75},{"user_id":256,"name":"chicken pot pie gaming","steam_id":76561198104800182,"connected_time":2334000000000,"state":"active","ping":52},{"user_id":294,"name":"hammy","steam_id":76561198035751911,"connected_time":84000000000,"state":"active","ping":69},{"user_id":290,"name":"Grace Us With Your Presents","steam_id":76561198170381402,"connected_time":259000000000,"state":"active","ping":60},{"user_id":261,"name":"swaggot","steam_id":76561198077253646,"connected_time":1846000000000,"state":"active","ping":102},{"user_id":218,"name":"kid named amogus","steam_id":76561198156093674,"connected_time":5341000000000,"state":"active","ping":55},{"user_id":291,"name":"Kainz","steam_id":76561197974267310,"connected_time":252000000000,"state":"active","ping":79},{"user_id":281,"name":"Not_Douglas","steam_id":76561199024184136,"connected_time":587000000000,"state":"active","ping":62},{"user_id":187,"name":"1-800-GHOST-DANCE","steam_id":76561198835430429,"connected_time":6926000000000,"state":"active","ping":90},{"user_id":271,"name":"gus","steam_id":76561198209316492,"connected_time":1062000000000,"state":"active","ping":91},{"user_id":282,"name":"berry delight","steam_id":76561198115254326,"connected_time":575000000000,"state":"active","ping":52}]},{"server_id":36,"name":"Uncletopia | Chicago | 5 | All Maps","name_short":"chi-5","host":"chi-2.us.uncletopia.com","port":27015,"enabled":true,"region":"us-central","cc":"us","latitude":41.881832,"longitude":-87.62318,"reserved":0,"last_update":"0001-01-01T00:00:00Z","name_a2s":"Uncletopia | Chicago | 5 | All Maps","protocol":17,"map":"pl_pier","folder":"tf","game":"Team Fortress","app_id":440,"player_count":23,"max_players":24,"Bots":0,"server_type":"Dedicated","server_os":"Linux","password":true,"vac":true,"version":"7961495","steam_id":85568392924866362,"keywords":["nocrits","nodmgspread","payload","uncletopia"],"game_id":440,"stv_port":27016,"stv_name":"Uncletopia | Chicago | 5 | All Maps | STV","players":[{"user_id":302,"name":"bengineer","steam_id":76561198171912174,"connected_time":244000000000,"state":"active","ping":88},{"user_id":297,"name":"wise","steam_id":76561198030066204,"connected_time":1029000000000,"state":"active","ping":54},{"user_id":307,"name":"Boot Mcstink","steam_id":76561199226873917,"connected_time":94000000000,"state":"active","ping":97},{"user_id":274,"name":"leonardo doujinshi","steam_id":76561198025810326,"connected_time":2284000000000,"state":"active","ping":76},{"user_id":284,"name":"In Memory of Rick May","steam_id":76561198864475187,"connected_time":1949000000000,"state":"active","ping":51},{"user_id":293,"name":"Rhutebeer","steam_id":76561198018302761,"connected_time":1677000000000,"state":"active","ping":103},{"user_id":303,"name":"Joseph Hazel","steam_id":76561198260509725,"connected_time":199000000000,"state":"active","ping":94},{"user_id":285,"name":"Drew P. Sack","steam_id":76561198036201738,"connected_time":1930000000000,"state":"active","ping":54},{"user_id":289,"name":"Kamin","steam_id":76561198255299559,"connected_time":1840000000000,"state":"active","ping":91},{"user_id":282,"name":"bunger","steam_id":76561199132076391,"connected_time":2037000000000,"state":"active","ping":56},{"user_id":229,"name":"LittleFieryOne","steam_id":76561198107463724,"connected_time":4813000000000,"state":"active","ping":62},{"user_id":305,"name":"dr peppah chug!","steam_id":76561198068835693,"connected_time":148000000000,"state":"active","ping":93},{"user_id":306,"name":"mlyb","steam_id":76561198144052860,"connected_time":143000000000,"state":"active","ping":89},{"user_id":294,"name":"dpaIIcx2","steam_id":76561197980810378,"connected_time":1412000000000,"state":"active","ping":72},{"user_id":295,"name":"Charlotte","steam_id":76561199084344266,"connected_time":1256000000000,"state":"active","ping":62},{"user_id":260,"name":"roto","steam_id":76561198138735860,"connected_time":3126000000000,"state":"active","ping":88},{"user_id":301,"name":"Queen Frau the Round","steam_id":76561197999942134,"connected_time":841000000000,"state":"active","ping":47},{"user_id":279,"name":"Dr. Maybe","steam_id":76561198268304564,"connected_time":2221000000000,"state":"active","ping":73},{"user_id":287,"name":"MinusSoup918","steam_id":76561198060902773,"connected_time":1866000000000,"state":"active","ping":127},{"user_id":263,"name":"Church","steam_id":76561199214866732,"connected_time":2687000000000,"state":"active","ping":68},{"user_id":258,"name":"Moo_UwU","steam_id":76561199138512017,"connected_time":3439000000000,"state":"active","ping":69},{"user_id":292,"name":"Bucket Hat Trick","steam_id":76561198381785132,"connected_time":1760000000000,"state":"active","ping":88},{"user_id":204,"name":"Spazz","steam_id":76561198036167494,"connected_time":6477000000000,"state":"active","ping":41}]},{"server_id":37,"name":"Uncletopia | Chicago | 6 | All Maps","name_short":"chi-6","host":"chi-2.us.uncletopia.com","port":27025,"enabled":true,"region":"us-central","cc":"us","latitude":41.881832,"longitude":-87.62318,"reserved":0,"last_update":"0001-01-01T00:00:00Z","name_a2s":"Uncletopia | Chicago | 6 | All Maps","protocol":17,"map":"pl_badwater","folder":"tf","game":"Team Fortress","app_id":440,"player_count":24,"max_players":24,"Bots":0,"server_type":"Dedicated","server_os":"Linux","password":true,"vac":true,"version":"7961495","steam_id":85568392924866363,"keywords":["nocrits","nodmgspread","payload","uncletopia"],"game_id":440,"stv_port":27026,"stv_name":"Uncletopia | Chicago | 6 | All Maps | STV","players":[{"user_id":235,"name":"Elfy","steam_id":76561199166448617,"connected_time":218000000000,"state":"active","ping":110},{"user_id":218,"name":"Bheem","steam_id":76561198170453459,"connected_time":921000000000,"state":"active","ping":83},{"user_id":236,"name":"Bleat","steam_id":76561198138678917,"connected_time":183000000000,"state":"active","ping":140},{"user_id":199,"name":"󠁳 ⁧Argo","steam_id":76561198353725622,"connected_time":2216000000000,"state":"active","ping":77},{"user_id":211,"name":"steakfarmasian","steam_id":76561198212754036,"connected_time":1121000000000,"state":"active","ping":52},{"user_id":237,"name":"Shmizzy","steam_id":76561198189418762,"connected_time":117000000000,"state":"active","ping":75},{"user_id":169,"name":"Hoopy_White","steam_id":76561198152768069,"connected_time":3954000000000,"state":"active","ping":79},{"user_id":185,"name":"roman","steam_id":76561198170066797,"connected_time":3385000000000,"state":"active","ping":63},{"user_id":238,"name":"honch","steam_id":76561198832647822,"connected_time":63000000000,"state":"active","ping":78},{"user_id":204,"name":"Casroder","steam_id":76561198057586707,"connected_time":1856000000000,"state":"active","ping":88},{"user_id":215,"name":"ItsFoxx","steam_id":76561198934549562,"connected_time":976000000000,"state":"active","ping":73},{"user_id":194,"name":"bachphong760 | Ham Mafia |","steam_id":76561199433780443,"connected_time":3102000000000,"state":"active","ping":84},{"user_id":229,"name":"Colonel Chikara","steam_id":76561198010021087,"connected_time":563000000000,"state":"active","ping":100},{"user_id":239,"name":"Jango","steam_id":76561198121922413,"connected_time":62000000000,"state":"active","ping":99},{"user_id":209,"name":"THORNFIELDGAMER","steam_id":76561199087167473,"connected_time":1305000000000,"state":"active","ping":88},{"user_id":128,"name":"Sanshi","steam_id":76561198145823543,"connected_time":7096000000000,"state":"active","ping":171},{"user_id":234,"name":"Edjentheous Ovedheadrascal","steam_id":76561198045008494,"connected_time":255000000000,"state":"active","ping":72},{"user_id":228,"name":"bakkhertz","steam_id":76561198046745579,"connected_time":600000000000,"state":"active","ping":87},{"user_id":223,"name":"dehydrated_water","steam_id":76561198320728589,"connected_time":838000000000,"state":"active","ping":64},{"user_id":197,"name":"emerge","steam_id":76561198186882891,"connected_time":2816000000000,"state":"active","ping":78},{"user_id":227,"name":"Dick Fisthammer","steam_id":76561198110586348,"connected_time":690000000000,"state":"active","ping":74},{"user_id":206,"name":"RayMext","steam_id":76561198158152966,"connected_time":1552000000000,"state":"active","ping":174},{"user_id":189,"name":"Stultus","steam_id":76561198115116367,"connected_time":3338000000000,"state":"active","ping":74},{"user_id":224,"name":"Sheev Palpatine","steam_id":76561198252332430,"connected_time":830000000000,"state":"active","ping":75}]},{"server_id":38,"name":"Uncletopia | Chicago | 7 | Stopwatch Beta","name_short":"chi-7","host":"chi-2.us.uncletopia.com","port":27035,"enabled":true,"region":"us-central","cc":"us","latitude":41.881832,"longitude":-87.62318,"reserved":0,"last_update":"0001-01-01T00:00:00Z","name_a2s":"Uncletopia | Chicago | 7 | Stopwatch Beta","protocol":17,"map":"workshop/pl_summercoast_rc8e.ugc1761528829","folder":"tf","game":"Team Fortress","app_id":440,"player_count":0,"max_players":24,"Bots":0,"server_type":"Dedicated","server_os":"Linux","password":true,"vac":true,"version":"7961495","steam_id":85568392924866364,"keywords":["nocrits","nodmgspread","payload","uncletopia"],"game_id":440,"stv_port":27036,"stv_name":"Uncletopia | Chicago | 7 | Stopwatch Beta | STV","players":null},{"server_id":39,"name":"Uncletopia | Chicago | 8 | Community","name_short":"chi-8","host":"chi-2.us.uncletopia.com","port":27045,"enabled":true,"region":"us-central","cc":"us","latitude":41.881832,"longitude":-87.62318,"reserved":0,"last_update":"0001-01-01T00:00:00Z","name_a2s":"Uncletopia | Chicago | 8 | Community","protocol":17,"map":"workshop/pl_eruption_b9a.ugc2807898013","folder":"tf","game":"Team Fortress","app_id":440,"player_count":13,"max_players":24,"Bots":0,"server_type":"Dedicated","server_os":"Linux","password":true,"vac":true,"version":"7961495","steam_id":85568392924866365,"keywords":["nocrits","nodmgspread","payload","uncletopia"],"game_id":440,"stv_port":27046,"stv_name":"Uncletopia | Chicago | 8 | Community | STV","players":[{"user_id":409,"name":"Phillip Jeffries","steam_id":76561198064052174,"connected_time":584000000000,"state":"active","ping":58},{"user_id":412,"name":"good zid maad city","steam_id":76561198098770013,"connected_time":368000000000,"state":"active","ping":96},{"user_id":382,"name":"Benny Da Butcher","steam_id":76561199276912523,"connected_time":2868000000000,"state":"active","ping":84},{"user_id":391,"name":"Dr_chilly","steam_id":76561198445383213,"connected_time":1874000000000,"state":"active","ping":101},{"user_id":413,"name":"SWISS!","steam_id":76561198271971252,"connected_time":315000000000,"state":"active","ping":66},{"user_id":414,"name":"watchfull","steam_id":76561198433266742,"connected_time":256000000000,"state":"active","ping":107},{"user_id":416,"name":"Chiki","steam_id":76561198063590320,"connected_time":205000000000,"state":"active","ping":61},{"user_id":415,"name":"THESMOKEoo7","steam_id":76561198844356856,"connected_time":234000000000,"state":"active","ping":100},{"user_id":417,"name":"Ghostmeal","steam_id":76561198042380299,"connected_time":84000000000,"state":"active","ping":70},{"user_id":418,"name":"evegioyidechadab","steam_id":76561198075991626,"connected_time":70000000000,"state":"active","ping":162},{"user_id":410,"name":"Carson","steam_id":76561198076771071,"connected_time":583000000000,"state":"active","ping":45},{"user_id":379,"name":"serialnumber435","steam_id":76561199466187650,"connected_time":2986000000000,"state":"active","ping":152},{"user_id":405,"name":"Sunshine","steam_id":76561198885528098,"connected_time":845000000000,"state":"active","ping":66}]},{"server_id":8,"name":"Uncletopia | Dallas | 1 | All Maps","name_short":"dal-1","host":"dal-1.us.uncletopia.com","port":27015,"enabled":true,"region":"us-central","cc":"us","latitude":32.779167,"longitude":-96.80889,"reserved":0,"last_update":"0001-01-01T00:00:00Z","name_a2s":"Uncletopia | Dallas | 1 | All Maps","protocol":17,"map":"koth_highpass","folder":"tf","game":"Team Fortress","app_id":440,"player_count":23,"max_players":24,"Bots":0,"server_type":"Dedicated","server_os":"Linux","password":true,"vac":true,"version":"7961495","steam_id":85568392924469986,"keywords":["cp","nocrits","nodmgspread","uncletopia"],"game_id":440,"stv_port":27016,"stv_name":"Uncletopia | Dallas | 1 | All Maps | STV","players":[{"user_id":379,"name":"Ray","steam_id":76561198048011618,"connected_time":2410000000000,"state":"active","ping":75},{"user_id":398,"name":"Crazy Dave!","steam_id":76561198951414566,"connected_time":272000000000,"state":"active","ping":81},{"user_id":397,"name":"leesh","steam_id":76561198079603938,"connected_time":364000000000,"state":"active","ping":60},{"user_id":380,"name":"FanaticSalt","steam_id":76561199380123059,"connected_time":1948000000000,"state":"active","ping":46},{"user_id":385,"name":"ume_ybbuhc","steam_id":76561199482149729,"connected_time":1618000000000,"state":"active","ping":86},{"user_id":394,"name":"worker","steam_id":76561198039608940,"connected_time":1103000000000,"state":"active","ping":115},{"user_id":388,"name":"Danger Daniel","steam_id":76561199085838474,"connected_time":1492000000000,"state":"active","ping":94},{"user_id":393,"name":"VaL-ASROC","steam_id":76561198886493635,"connected_time":1195000000000,"state":"active","ping":72},{"user_id":391,"name":"De MonkE","steam_id":76561198140626221,"connected_time":1312000000000,"state":"active","ping":30},{"user_id":401,"name":"fr","steam_id":76561198374871080,"connected_time":55000000000,"state":"active","ping":102},{"user_id":338,"name":"Dwane Johnson From Amogus","steam_id":76561199091290729,"connected_time":6200000000000,"state":"active","ping":73},{"user_id":358,"name":"Jung","steam_id":76561198844037864,"connected_time":5071000000000,"state":"active","ping":80},{"user_id":375,"name":"a bucket of chicken","steam_id":76561198023710042,"connected_time":3027000000000,"state":"active","ping":46},{"user_id":399,"name":"smappy","steam_id":76561198263780960,"connected_time":122000000000,"state":"active","ping":85},{"user_id":395,"name":"vee the fenn","steam_id":76561198049510832,"connected_time":930000000000,"state":"active","ping":81},{"user_id":373,"name":"dude6487","steam_id":76561199113081920,"connected_time":3792000000000,"state":"active","ping":78},{"user_id":400,"name":"Manic","steam_id":76561198128149670,"connected_time":104000000000,"state":"active","ping":44},{"user_id":351,"name":"Snivy","steam_id":76561198135488292,"connected_time":5673000000000,"state":"active","ping":71},{"user_id":381,"name":"Weegee","steam_id":76561198140095755,"connected_time":1669000000000,"state":"active","ping":87},{"user_id":382,"name":"Chilihuahua","steam_id":76561198004929152,"connected_time":1653000000000,"state":"active","ping":101},{"user_id":370,"name":"gorf?","steam_id":76561198142286417,"connected_time":4427000000000,"state":"active","ping":78},{"user_id":384,"name":"snos","steam_id":76561198075334330,"connected_time":1646000000000,"state":"active","ping":95},{"user_id":367,"name":"Theboigamer11","steam_id":76561199013615511,"connected_time":4611000000000,"state":"active","ping":96}]},{"server_id":108,"name":"Uncletopia | Dallas | 2 | All Maps","name_short":"dal-2","host":"dal-1.us.uncletopia.com","port":27025,"enabled":true,"region":"us-central","cc":"us","latitude":32.779167,"longitude":-96.80889,"reserved":0,"last_update":"0001-01-01T00:00:00Z","name_a2s":"Uncletopia | Dallas | 2 | All Maps","protocol":17,"map":"koth_cascade","folder":"tf","game":"Team Fortress","app_id":440,"player_count":22,"max_players":24,"Bots":0,"server_type":"Dedicated","server_os":"Linux","password":true,"vac":true,"version":"7961495","steam_id":85568392924469988,"keywords":["cp","nocrits","nodmgspread","uncletopia"],"game_id":440,"stv_port":27026,"stv_name":"Uncletopia | Dallas | 2 | All Maps | STV","players":[{"user_id":266,"name":"Per My Last Email","steam_id":76561197970096950,"connected_time":6362000000000,"state":"active","ping":41},{"user_id":383,"name":"Malex","steam_id":76561198012216805,"connected_time":590000000000,"state":"active","ping":84},{"user_id":396,"name":"Engineer Gaming","steam_id":76561199386119444,"connected_time":250000000000,"state":"active","ping":111},{"user_id":375,"name":"skull emoji","steam_id":76561198203357580,"connected_time":970000000000,"state":"active","ping":48},{"user_id":378,"name":"Fightin Cow","steam_id":76561198080941486,"connected_time":722000000000,"state":"active","ping":57},{"user_id":363,"name":"raccoonmanthing","steam_id":76561199042222863,"connected_time":1455000000000,"state":"active","ping":132},{"user_id":386,"name":"Wahaha hee","steam_id":76561198098017157,"connected_time":471000000000,"state":"active","ping":62},{"user_id":387,"name":"Cliffigriff","steam_id":76561198121924499,"connected_time":465000000000,"state":"active","ping":61},{"user_id":364,"name":"Dreysidel","steam_id":76561198056496183,"connected_time":1434000000000,"state":"active","ping":96},{"user_id":370,"name":"Mr. DeLarge","steam_id":76561198336820066,"connected_time":1224000000000,"state":"active","ping":110},{"user_id":365,"name":"Soda","steam_id":76561198219209367,"connected_time":1374000000000,"state":"active","ping":60},{"user_id":366,"name":"- //w\\\\ -","steam_id":76561198015467611,"connected_time":1370000000000,"state":"active","ping":50},{"user_id":382,"name":"scrimblo","steam_id":76561199150833796,"connected_time":609000000000,"state":"active","ping":99},{"user_id":388,"name":"BLOCKHEAD","steam_id":76561198808224331,"connected_time":454000000000,"state":"active","ping":117},{"user_id":391,"name":"IanTheAwsm","steam_id":76561198093031738,"connected_time":390000000000,"state":"active","ping":82},{"user_id":392,"name":"TV12Lime","steam_id":76561199036195384,"connected_time":370000000000,"state":"active","ping":71},{"user_id":279,"name":"loser","steam_id":76561198259380127,"connected_time":5458000000000,"state":"active","ping":83},{"user_id":397,"name":"H.","steam_id":76561198074951179,"connected_time":109000000000,"state":"active","ping":63},{"user_id":393,"name":"1998 Subaru Forester","steam_id":76561198350491491,"connected_time":312000000000,"state":"active","ping":97},{"user_id":398,"name":"PissJar","steam_id":76561199205120538,"connected_time":41000000000,"state":"active","ping":70},{"user_id":395,"name":"Breach","steam_id":76561198045060392,"connected_time":277000000000,"state":"active","ping":60},{"user_id":289,"name":"Mephistopheles","steam_id":76561198253731826,"connected_time":4836000000000,"state":"active","ping":92}]},{"server_id":404,"name":"Uncletopia | Dallas | 3 | All Maps","name_short":"dal-3","host":"dal-1.us.uncletopia.com","port":27035,"enabled":true,"region":"us-central","cc":"us","latitude":32.779167,"longitude":-96.80889,"reserved":0,"last_update":"0001-01-01T00:00:00Z","name_a2s":"Uncletopia | Dallas | 3 | All Maps","protocol":17,"map":"cp_gorge","folder":"tf","game":"Team Fortress","app_id":440,"player_count":15,"max_players":24,"Bots":0,"server_type":"Dedicated","server_os":"Linux","password":true,"vac":true,"version":"7961495","steam_id":85568392924515219,"keywords":["cp","nocrits","nodmgspread","uncletopia"],"game_id":440,"stv_port":27036,"stv_name":"Uncletopia | Dallas | 3 | All Maps | STV","players":[{"user_id":306,"name":"negus 2","steam_id":76561198043862737,"connected_time":1861000000000,"state":"active","ping":75},{"user_id":328,"name":"skent6621","steam_id":76561199210134404,"connected_time":326000000000,"state":"active","ping":70},{"user_id":329,"name":"Irritated Duck","steam_id":76561198247792076,"connected_time":78000000000,"state":"active","ping":115},{"user_id":287,"name":"CrazyA","steam_id":76561198157885915,"connected_time":3295000000000,"state":"active","ping":79},{"user_id":316,"name":"buckaroo","steam_id":76561199222654338,"connected_time":1277000000000,"state":"active","ping":86},{"user_id":317,"name":"Evil little man","steam_id":76561198311053471,"connected_time":1264000000000,"state":"active","ping":54},{"user_id":294,"name":"BreakfastTacos","steam_id":76561198847620442,"connected_time":2566000000000,"state":"active","ping":83},{"user_id":319,"name":"megaboi796","steam_id":76561198122995438,"connected_time":1244000000000,"state":"active","ping":99},{"user_id":310,"name":"somef2p","steam_id":76561199379135210,"connected_time":1664000000000,"state":"active","ping":110},{"user_id":295,"name":"No.21 - Feral Scent","steam_id":76561198045844070,"connected_time":2552000000000,"state":"active","ping":52},{"user_id":320,"name":"TheGaming13","steam_id":76561199239498966,"connected_time":1230000000000,"state":"active","ping":61},{"user_id":302,"name":"webaline :3","steam_id":76561199052450127,"connected_time":2269000000000,"state":"active","ping":78},{"user_id":327,"name":"SparrowTail","steam_id":76561198096092832,"connected_time":475000000000,"state":"active","ping":106},{"user_id":323,"name":"da chronic","steam_id":76561198806800054,"connected_time":1190000000000,"state":"active","ping":45},{"user_id":303,"name":"Dizbuster","steam_id":76561197971276413,"connected_time":2214000000000,"state":"active","ping":103}]},{"server_id":405,"name":"Uncletopia | Dallas | 4 | Community","name_short":"dal-4","host":"dal-1.us.uncletopia.com","port":27045,"enabled":true,"region":"us-central","cc":"us","latitude":32.779167,"longitude":-96.80889,"reserved":0,"last_update":"0001-01-01T00:00:00Z","name_a2s":"Uncletopia | Dallas | 4 | Community","protocol":17,"map":"workshop/koth_kemptown_rc1.ugc767410655","folder":"tf","game":"Team Fortress","app_id":440,"player_count":0,"max_players":24,"Bots":0,"server_type":"Dedicated","server_os":"Linux","password":true,"vac":true,"version":"7961495","steam_id":85568392924515220,"keywords":["cp","nocrits","nodmgspread","uncletopia"],"game_id":440,"stv_port":27046,"stv_name":"Uncletopia | Dallas | 4 | Community | STV","players":null},{"server_id":5,"name":"Uncletopia | Frankfurt | 1 | All Maps","name_short":"frk-1","host":"frk-1.de.uncletopia.com","port":27015,"enabled":true,"region":"eu","cc":"de","latitude":50.110924,"longitude":8.682127,"reserved":0,"last_update":"0001-01-01T00:00:00Z","name_a2s":"Uncletopia | Frankfurt | 1 | All Maps","protocol":17,"map":"plr_pipeline","folder":"tf","game":"Team Fortress","app_id":440,"player_count":18,"max_players":24,"Bots":0,"server_type":"Dedicated","server_os":"Linux","password":true,"vac":true,"version":"7961495","steam_id":85568392924469989,"keywords":["nocrits","nodmgspread","payload","uncletopia"],"game_id":440,"stv_port":27016,"stv_name":"Uncletopia | Frankfurt | 1 | All Maps | STV","players":[{"user_id":829,"name":"Gooner","steam_id":76561198087035309,"connected_time":1673000000000,"state":"active","ping":54},{"user_id":817,"name":"Steen","steam_id":76561198122992510,"connected_time":2434000000000,"state":"active","ping":45},{"user_id":824,"name":"Pepis the smelly","steam_id":76561198191369066,"connected_time":2211000000000,"state":"active","ping":117},{"user_id":812,"name":"pardner","steam_id":76561198451471161,"connected_time":2647000000000,"state":"active","ping":66},{"user_id":845,"name":"Anri Okita's Massive Milkers","steam_id":76561199186352720,"connected_time":644000000000,"state":"active","ping":74},{"user_id":808,"name":"Twik","steam_id":76561198023835056,"connected_time":2880000000000,"state":"active","ping":50},{"user_id":844,"name":"Its okay to not be okay","steam_id":76561198073663784,"connected_time":831000000000,"state":"active","ping":49},{"user_id":782,"name":"aida","steam_id":76561198311044984,"connected_time":5585000000000,"state":"active","ping":60},{"user_id":819,"name":"Aleknat","steam_id":76561198055379857,"connected_time":2400000000000,"state":"active","ping":72},{"user_id":850,"name":"Ganasti","steam_id":76561198382925185,"connected_time":251000000000,"state":"active","ping":92},{"user_id":831,"name":"SeaKane","steam_id":76561198165453318,"connected_time":1566000000000,"state":"active","ping":54},{"user_id":849,"name":"Chucko Kokos","steam_id":76561198112553005,"connected_time":340000000000,"state":"active","ping":67},{"user_id":851,"name":"findus24","steam_id":76561198878485678,"connected_time":158000000000,"state":"active","ping":91},{"user_id":853,"name":"Suetolog","steam_id":76561199053090212,"connected_time":88000000000,"state":"active","ping":54},{"user_id":843,"name":"Robyn","steam_id":76561198140713805,"connected_time":859000000000,"state":"active","ping":74},{"user_id":838,"name":"Joe","steam_id":76561198177821721,"connected_time":1363000000000,"state":"active","ping":56},{"user_id":794,"name":"Henry Binklebottoms Dinglenut I","steam_id":76561198271798194,"connected_time":4323000000000,"state":"active","ping":89},{"user_id":839,"name":"Cahl","steam_id":76561198980863125,"connected_time":1317000000000,"state":"active","ping":74}]},{"server_id":110,"name":"Uncletopia | Frankfurt | 2 | All Maps","name_short":"frk-2","host":"frk-1.de.uncletopia.com","port":27025,"enabled":true,"region":"eu","cc":"de","latitude":50.110924,"longitude":8.682127,"reserved":0,"last_update":"0001-01-01T00:00:00Z","name_a2s":"Uncletopia | Frankfurt | 2 | All Maps","protocol":17,"map":"cp_dustbowl","folder":"tf","game":"Team Fortress","app_id":440,"player_count":21,"max_players":24,"Bots":0,"server_type":"Dedicated","server_os":"Linux","password":true,"vac":true,"version":"7961495","steam_id":85568392924469990,"keywords":["cp","nocrits","nodmgspread","uncletopia"],"game_id":440,"stv_port":27026,"stv_name":"Uncletopia | Frankfurt | 2 | All Maps | STV","players":[{"user_id":525,"name":"Klink","steam_id":76561198159063575,"connected_time":1886000000000,"state":"active","ping":83},{"user_id":507,"name":"Dr. Dahl","steam_id":76561198036990047,"connected_time":3515000000000,"state":"active","ping":63},{"user_id":510,"name":"TeaAndPancakes","steam_id":76561199039103507,"connected_time":3413000000000,"state":"active","ping":73},{"user_id":523,"name":"Cex Employee","steam_id":76561198173581450,"connected_time":1975000000000,"state":"active","ping":65},{"user_id":515,"name":"eLoeL","steam_id":76561198275528938,"connected_time":2368000000000,"state":"active","ping":57},{"user_id":544,"name":"Borloxos","steam_id":76561198123110073,"connected_time":308000000000,"state":"active","ping":57},{"user_id":516,"name":"Cikula","steam_id":76561198324384778,"connected_time":2366000000000,"state":"active","ping":51},{"user_id":496,"name":"Kyrie Kurage","steam_id":76561198020030175,"connected_time":4342000000000,"state":"active","ping":81},{"user_id":547,"name":"marcus.subaru@subarumotors.jp","steam_id":76561198104896547,"connected_time":153000000000,"state":"active","ping":65},{"user_id":517,"name":"Wesnicak CZ","steam_id":76561198124483688,"connected_time":2365000000000,"state":"active","ping":56},{"user_id":505,"name":"matthe","steam_id":76561198145465595,"connected_time":3779000000000,"state":"active","ping":58},{"user_id":535,"name":"zherny","steam_id":76561198027033926,"connected_time":823000000000,"state":"active","ping":62},{"user_id":511,"name":"51","steam_id":76561198083505031,"connected_time":2696000000000,"state":"active","ping":60},{"user_id":542,"name":"Finn","steam_id":76561198179960193,"connected_time":454000000000,"state":"active","ping":49},{"user_id":520,"name":"Hyppy ja liipasin pohjaan :D","steam_id":76561198080669698,"connected_time":2076000000000,"state":"active","ping":110},{"user_id":541,"name":"Redmailbox","steam_id":76561198042930322,"connected_time":526000000000,"state":"active","ping":60},{"user_id":531,"name":"Pain in a Box","steam_id":76561197990777173,"connected_time":1109000000000,"state":"active","ping":90},{"user_id":501,"name":"F.Fazbear","steam_id":76561198406606196,"connected_time":4278000000000,"state":"active","ping":60},{"user_id":549,"name":"Mr. Watch","steam_id":76561198276103501,"connected_time":143000000000,"state":"active","ping":85},{"user_id":543,"name":"sarii ☆","steam_id":76561199155102111,"connected_time":446000000000,"state":"active","ping":83},{"user_id":548,"name":"em0k1d2003","steam_id":76561198992026574,"connected_time":146000000000,"state":"active","ping":60}]},{"server_id":308,"name":"Uncletopia | Frankfurt | 3 | All Maps","name_short":"frk-3","host":"frk-1.de.uncletopia.com","port":27035,"enabled":true,"region":"eu","cc":"de","latitude":50.110924,"longitude":8.682127,"reserved":0,"last_update":"0001-01-01T00:00:00Z","name_a2s":"Uncletopia | Frankfurt | 3 | All Maps","protocol":17,"map":"pl_borneo","folder":"tf","game":"Team Fortress","app_id":440,"player_count":24,"max_players":24,"Bots":0,"server_type":"Dedicated","server_os":"Linux","password":true,"vac":true,"version":"7961495","steam_id":85568392924504274,"keywords":["nocrits","nodmgspread","payload","uncletopia"],"game_id":440,"stv_port":27036,"stv_name":"Uncletopia | Frankfurt | 3 | All Maps | STV","players":[{"user_id":620,"name":"NickiCheetah","steam_id":76561198980540766,"connected_time":2326000000000,"state":"active","ping":62},{"user_id":555,"name":"VK2124 :D","steam_id":76561198111130688,"connected_time":6302000000000,"state":"active","ping":45},{"user_id":618,"name":"BigChunk","steam_id":76561198215962313,"connected_time":2363000000000,"state":"active","ping":44},{"user_id":644,"name":".morale-","steam_id":76561198102195119,"connected_time":252000000000,"state":"active","ping":65},{"user_id":606,"name":"Mammut","steam_id":76561198056773933,"connected_time":2821000000000,"state":"active","ping":45},{"user_id":613,"name":"fake (fake)","steam_id":76561198097507847,"connected_time":2526000000000,"state":"active","ping":74},{"user_id":641,"name":"throne","steam_id":76561198059723960,"connected_time":362000000000,"state":"active","ping":74},{"user_id":633,"name":"Menus","steam_id":76561198284051239,"connected_time":864000000000,"state":"active","ping":148},{"user_id":630,"name":"t0ast","steam_id":76561198141722573,"connected_time":1129000000000,"state":"active","ping":45},{"user_id":642,"name":"Amandus","steam_id":76561198036281079,"connected_time":344000000000,"state":"active","ping":57},{"user_id":640,"name":"etc","steam_id":76561197998394797,"connected_time":553000000000,"state":"active","ping":57},{"user_id":636,"name":"Ash","steam_id":76561198148738525,"connected_time":755000000000,"state":"active","ping":115},{"user_id":637,"name":"ඞbominasus 2137  #SaveTF2","steam_id":76561198030062981,"connected_time":736000000000,"state":"active","ping":68},{"user_id":616,"name":"Alibi","steam_id":76561198061845595,"connected_time":2469000000000,"state":"active","ping":60},{"user_id":638,"name":"Ch4bby","steam_id":76561198058792875,"connected_time":708000000000,"state":"active","ping":60},{"user_id":592,"name":"Aroo","steam_id":76561198132601368,"connected_time":3711000000000,"state":"active","ping":72},{"user_id":628,"name":"R@DIO","steam_id":76561197995533046,"connected_time":1456000000000,"state":"active","ping":77},{"user_id":639,"name":"Floris","steam_id":76561198001717422,"connected_time":702000000000,"state":"active","ping":59},{"user_id":443,"name":"Nittugai","steam_id":76561198067366462,"connected_time":16888000000000,"state":"active","ping":60},{"user_id":625,"name":"ThatKetos","steam_id":76561198989682540,"connected_time":1923000000000,"state":"active","ping":45},{"user_id":626,"name":"gothmoth","steam_id":76561198386910896,"connected_time":1836000000000,"state":"active","ping":62},{"user_id":361,"name":"Fat Pigeon","steam_id":76561198817940142,"connected_time":23942000000000,"state":"active","ping":53},{"user_id":627,"name":"Marquis de Hoto","steam_id":76561198080687708,"connected_time":1661000000000,"state":"active","ping":61},{"user_id":623,"name":"el paso engineer","steam_id":76561199262625492,"connected_time":2256000000000,"state":"active","ping":80}]},{"server_id":309,"name":"Uncletopia | Frankfurt | 4 | All Maps","name_short":"frk-4","host":"frk-1.de.uncletopia.com","port":27045,"enabled":true,"region":"eu","cc":"de","latitude":50.110924,"longitude":8.682127,"reserved":0,"last_update":"0001-01-01T00:00:00Z","name_a2s":"Uncletopia | Frankfurt | 4 | All Maps","protocol":17,"map":"pl_swiftwater_final1","folder":"tf","game":"Team Fortress","app_id":440,"player_count":12,"max_players":24,"Bots":0,"server_type":"Dedicated","server_os":"Linux","password":true,"vac":true,"version":"7961495","steam_id":85568392924504275,"keywords":["nocrits","nodmgspread","payload","uncletopia"],"game_id":440,"stv_port":27046,"stv_name":"Uncletopia | Frankfurt | 4 | All Maps | STV","players":[{"user_id":577,"name":"nikitosreznik22","steam_id":76561199494699363,"connected_time":2471000000000,"state":"active","ping":98},{"user_id":582,"name":"Kamikrazy","steam_id":76561198044254918,"connected_time":1748000000000,"state":"active","ping":63},{"user_id":594,"name":"Абсолютная водка","steam_id":76561198886250433,"connected_time":489000000000,"state":"active","ping":64},{"user_id":587,"name":"Psychicpie","steam_id":76561198126065206,"connected_time":1019000000000,"state":"active","ping":47},{"user_id":591,"name":"Theleomaster","steam_id":76561198342580499,"connected_time":811000000000,"state":"active","ping":85},{"user_id":585,"name":"KingofCubes","steam_id":76561198258037513,"connected_time":1117000000000,"state":"active","ping":75},{"user_id":586,"name":"Saymesal","steam_id":76561198886917393,"connected_time":1114000000000,"state":"active","ping":74},{"user_id":595,"name":"AproX","steam_id":76561198880652045,"connected_time":477000000000,"state":"active","ping":87},{"user_id":589,"name":"ran is running","steam_id":76561199443185667,"connected_time":964000000000,"state":"active","ping":126},{"user_id":597,"name":"Zukko","steam_id":76561199238573843,"connected_time":324000000000,"state":"active","ping":84},{"user_id":599,"name":"NaselPopcorn","steam_id":76561199454333176,"connected_time":276000000000,"state":"active","ping":161},{"user_id":600,"name":"Pullox","steam_id":76561198869762857,"connected_time":214000000000,"state":"active","ping":62}]},{"server_id":310,"name":"Uncletopia | Frankfurt | 5 | All Maps","name_short":"frk-5","host":"frk-1.de.uncletopia.com","port":27055,"enabled":true,"region":"eu","cc":"de","latitude":50.110924,"longitude":8.682127,"reserved":0,"last_update":"0001-01-01T00:00:00Z","name_a2s":"Uncletopia | Frankfurt | 5 | All Maps","protocol":17,"map":"pl_borneo","folder":"tf","game":"Team Fortress","app_id":440,"player_count":20,"max_players":24,"Bots":0,"server_type":"Dedicated","server_os":"Linux","password":true,"vac":true,"version":"7961495","steam_id":85568392924504277,"keywords":["nocrits","nodmgspread","payload","uncletopia"],"game_id":440,"stv_port":27056,"stv_name":"Uncletopia | Frankfurt | 5 | All Maps | STV","players":[{"user_id":484,"name":"JosepXXL","steam_id":76561198407124695,"connected_time":234000000000,"state":"active","ping":83},{"user_id":485,"name":"prophits","steam_id":76561198011854314,"connected_time":206000000000,"state":"active","ping":68},{"user_id":481,"name":"Ωmega","steam_id":76561198142672787,"connected_time":1049000000000,"state":"active","ping":61},{"user_id":475,"name":"Tower","steam_id":76561198090278447,"connected_time":1275000000000,"state":"active","ping":67},{"user_id":428,"name":"MaypulSoyrup","steam_id":76561199213966821,"connected_time":4298000000000,"state":"active","ping":105},{"user_id":486,"name":"bot_tracer","steam_id":76561199034131978,"connected_time":146000000000,"state":"active","ping":67},{"user_id":442,"name":"benry1964","steam_id":76561198008795422,"connected_time":3684000000000,"state":"active","ping":48},{"user_id":468,"name":"LEGEND FUMO.","steam_id":76561198061033903,"connected_time":1611000000000,"state":"active","ping":45},{"user_id":449,"name":"guildyfan2001","steam_id":76561198038827937,"connected_time":3244000000000,"state":"active","ping":65},{"user_id":482,"name":"Rodgedan","steam_id":76561198226236524,"connected_time":757000000000,"state":"active","ping":155},{"user_id":464,"name":"Flamy?","steam_id":76561198024332838,"connected_time":2017000000000,"state":"active","ping":67},{"user_id":441,"name":"Milosz52","steam_id":76561199060940204,"connected_time":3805000000000,"state":"active","ping":71},{"user_id":487,"name":"Mazda","steam_id":76561198381334451,"connected_time":140000000000,"state":"active","ping":83},{"user_id":422,"name":"Archive","steam_id":76561198071255385,"connected_time":5025000000000,"state":"active","ping":83},{"user_id":465,"name":"cuddle","steam_id":76561198805181599,"connected_time":2003000000000,"state":"active","ping":61},{"user_id":397,"name":"top 10 movement videos","steam_id":76561199195985387,"connected_time":6050000000000,"state":"active","ping":78},{"user_id":488,"name":"Intimatt","steam_id":76561198066393546,"connected_time":134000000000,"state":"active","ping":69},{"user_id":479,"name":"aabracadabra","steam_id":76561198061248329,"connected_time":1086000000000,"state":"active","ping":60},{"user_id":471,"name":"[RUS]tfavvfan69❤","steam_id":76561198062362168,"connected_time":1521000000000,"state":"active","ping":46},{"user_id":467,"name":"Silver","steam_id":76561198175238807,"connected_time":1949000000000,"state":"active","ping":52}]},{"server_id":311,"name":"Uncletopia | Frankfurt | 6 | All Maps","name_short":"frk-6","host":"frk-1.de.uncletopia.com","port":27065,"enabled":true,"region":"eu","cc":"de","latitude":50.110924,"longitude":8.682127,"reserved":0,"last_update":"0001-01-01T00:00:00Z","name_a2s":"Uncletopia | Frankfurt | 6 | All Maps","protocol":17,"map":"pl_badwater","folder":"tf","game":"Team Fortress","app_id":440,"player_count":24,"max_players":24,"Bots":0,"server_type":"Dedicated","server_os":"Linux","password":true,"vac":true,"version":"7961495","steam_id":85568392924504278,"keywords":["nocrits","nodmgspread","payload","uncletopia"],"game_id":440,"stv_port":27066,"stv_name":"Uncletopia | Frankfurt | 6 | All Maps | STV","players":[{"user_id":138,"name":"Dr Condom","steam_id":76561198378657692,"connected_time":1677000000000,"state":"active","ping":60},{"user_id":144,"name":"modavak","steam_id":76561198946290908,"connected_time":1381000000000,"state":"active","ping":91},{"user_id":96,"name":"woodenpcwarlord","steam_id":76561198037938833,"connected_time":3781000000000,"state":"active","ping":51},{"user_id":149,"name":"skill","steam_id":76561198106012909,"connected_time":1102000000000,"state":"active","ping":67},{"user_id":37,"name":"Michał","steam_id":76561198320346362,"connected_time":7323000000000,"state":"active","ping":59},{"user_id":106,"name":"Aven","steam_id":76561198974343597,"connected_time":3113000000000,"state":"active","ping":88},{"user_id":156,"name":"Max","steam_id":76561198138959361,"connected_time":24000000000,"state":"active","ping":49},{"user_id":79,"name":"blibby smalls","steam_id":76561198984296222,"connected_time":4789000000000,"state":"active","ping":75},{"user_id":110,"name":"lacurio","steam_id":76561198059701776,"connected_time":2937000000000,"state":"active","ping":45},{"user_id":108,"name":"Gent","steam_id":76561198037167890,"connected_time":3042000000000,"state":"active","ping":80},{"user_id":150,"name":"Wilderhammer","steam_id":76561198132133702,"connected_time":1019000000000,"state":"active","ping":45},{"user_id":109,"name":"M I OK?","steam_id":76561198147277460,"connected_time":2968000000000,"state":"active","ping":55},{"user_id":153,"name":"gerber local brewery","steam_id":76561198183623117,"connected_time":614000000000,"state":"active","ping":60},{"user_id":124,"name":"TidB","steam_id":76561198055342304,"connected_time":2437000000000,"state":"active","ping":57},{"user_id":134,"name":"Fengerros","steam_id":76561199008363999,"connected_time":1980000000000,"state":"active","ping":65},{"user_id":136,"name":"Xeno","steam_id":76561198975556646,"connected_time":1883000000000,"state":"active","ping":51},{"user_id":89,"name":"zak","steam_id":76561197998895428,"connected_time":4407000000000,"state":"active","ping":51},{"user_id":62,"name":"ff:ff:ff:ff:ff:ff","steam_id":76561198072122983,"connected_time":5688000000000,"state":"active","ping":74},{"user_id":63,"name":"generic alias","steam_id":76561198271607226,"connected_time":5687000000000,"state":"active","ping":95},{"user_id":143,"name":"rets","steam_id":76561198061551392,"connected_time":1410000000000,"state":"active","ping":49},{"user_id":146,"name":"twscsvl","steam_id":76561198045304929,"connected_time":1367000000000,"state":"active","ping":92},{"user_id":93,"name":"cowboy","steam_id":76561198080361351,"connected_time":4019000000000,"state":"active","ping":49},{"user_id":137,"name":"sareena","steam_id":76561198810194062,"connected_time":1870000000000,"state":"active","ping":75},{"user_id":152,"name":"tempLimit","steam_id":76561199158363470,"connected_time":847000000000,"state":"active","ping":70}]},{"server_id":23,"name":"Uncletopia | Frankfurt | 7 | Stopwatch Beta","name_short":"frk-7","host":"frk-1.de.uncletopia.com","port":27075,"enabled":true,"region":"eu","cc":"de","latitude":50.110924,"longitude":8.682127,"reserved":0,"last_update":"0001-01-01T00:00:00Z","name_a2s":"Uncletopia | Frankfurt | 7 | Stopwatch Beta","protocol":17,"map":"pl_borneo","folder":"tf","game":"Team Fortress","app_id":440,"player_count":0,"max_players":24,"Bots":0,"server_type":"Dedicated","server_os":"Linux","password":true,"vac":true,"version":"7961495","steam_id":85568392924742827,"keywords":["nocrits","nodmgspread","payload","uncletopia"],"game_id":440,"stv_port":27076,"stv_name":"Uncletopia | Frankfurt | 7 | Stopwatch Beta | STV","players":null},{"server_id":24,"name":"Uncletopia | Frankfurt | 8 | Community","name_short":"frk-8","host":"frk-1.de.uncletopia.com","port":27085,"enabled":true,"region":"eu","cc":"de","latitude":50.110924,"longitude":8.682127,"reserved":0,"last_update":"0001-01-01T00:00:00Z","name_a2s":"Uncletopia | Frankfurt | 8 | Community","protocol":17,"map":"workshop/cp_bruhstbowl_b6.ugc2878604990","folder":"tf","game":"Team Fortress","app_id":440,"player_count":0,"max_players":24,"Bots":0,"server_type":"Dedicated","server_os":"Linux","password":true,"vac":true,"version":"7961495","steam_id":85568392924742828,"keywords":["cp","nocrits","nodmgspread","uncletopia"],"game_id":440,"stv_port":27086,"stv_name":"Uncletopia | Frankfurt | 8 | Community | STV","players":null},{"server_id":202,"name":"Uncletopia | Hong Kong | 1 | All Maps","name_short":"hgk-1","host":"hgk-1.hk.uncletopia.com","port":27015,"enabled":true,"region":"asia","cc":"hk","latitude":22.302711,"longitude":114.177216,"reserved":0,"last_update":"0001-01-01T00:00:00Z","name_a2s":"Uncletopia | Hong Kong | 1 | All Maps","protocol":17,"map":"cp_process_final","folder":"tf","game":"Team Fortress","app_id":440,"player_count":1,"max_players":24,"Bots":0,"server_type":"Dedicated","server_os":"Linux","password":true,"vac":true,"version":"7961495","steam_id":85568392924494504,"keywords":["cp","nocrits","nodmgspread","uncletopia"],"game_id":440,"stv_port":27016,"stv_name":"Uncletopia | Hong Kong | 1 | All Maps | STV","players":[{"user_id":4,"name":"3rwynM","steam_id":76561198288311270,"connected_time":1708000000000,"state":"active","ping":47}]},{"server_id":1,"name":"Uncletopia | Los Angeles | 1 | All Maps","name_short":"lax-1","host":"lax-1.us.uncletopia.com","port":27015,"enabled":true,"region":"us-west","cc":"us","latitude":33.94279,"longitude":-118.41004,"reserved":0,"last_update":"0001-01-01T00:00:00Z","name_a2s":"Uncletopia | Los Angeles | 1 | All Maps","protocol":17,"map":"koth_cascade","folder":"tf","game":"Team Fortress","app_id":440,"player_count":0,"max_players":24,"Bots":0,"server_type":"Dedicated","server_os":"Linux","password":true,"vac":true,"version":"7961495","steam_id":85568392924469991,"keywords":["cp","nocrits","nodmgspread","uncletopia"],"game_id":440,"stv_port":27016,"stv_name":"Uncletopia | Los Angeles | 1 | All Maps | STV","players":null},{"server_id":112,"name":"Uncletopia | Los Angeles | 2 | All Maps","name_short":"lax-2","host":"lax-1.us.uncletopia.com","port":27025,"enabled":true,"region":"us-west","cc":"us","latitude":33.94279,"longitude":-118.41004,"reserved":0,"last_update":"0001-01-01T00:00:00Z","name_a2s":"Uncletopia | Los Angeles | 2 | All Maps","protocol":17,"map":"koth_viaduct","folder":"tf","game":"Team Fortress","app_id":440,"player_count":0,"max_players":24,"Bots":0,"server_type":"Dedicated","server_os":"Linux","password":true,"vac":true,"version":"7961495","steam_id":85568392924469992,"keywords":["cp","nocrits","nodmgspread","uncletopia"],"game_id":440,"stv_port":27026,"stv_name":"Uncletopia | Los Angeles | 2 | All Maps | STV","players":null},{"server_id":324,"name":"Uncletopia | Los Angeles | 3 | All Maps","name_short":"lax-3","host":"lax-1.us.uncletopia.com","port":27035,"enabled":true,"region":"us-west","cc":"us","latitude":33.94279,"longitude":-118.41004,"reserved":0,"last_update":"0001-01-01T00:00:00Z","name_a2s":"Uncletopia | Los Angeles | 3 | All Maps","protocol":17,"map":"pl_swiftwater_final1","folder":"tf","game":"Team Fortress","app_id":440,"player_count":24,"max_players":24,"Bots":0,"server_type":"Dedicated","server_os":"Linux","password":true,"vac":true,"version":"7961495","steam_id":85568392924510198,"keywords":["nocrits","nodmgspread","payload","uncletopia"],"game_id":440,"stv_port":27036,"stv_name":"Uncletopia | Los Angeles | 3 | All Maps | STV","players":[{"user_id":343,"name":"Freyja","steam_id":76561198207412177,"connected_time":514000000000,"state":"active","ping":76},{"user_id":333,"name":"paypur -rng","steam_id":76561198214370515,"connected_time":845000000000,"state":"active","ping":113},{"user_id":334,"name":"bladees realest, saddest verse","steam_id":76561198098099826,"connected_time":767000000000,"state":"active","ping":59},{"user_id":298,"name":"circus","steam_id":76561199085524751,"connected_time":3608000000000,"state":"active","ping":45},{"user_id":335,"name":"johnman gooberguy","steam_id":76561199014859764,"connected_time":656000000000,"state":"active","ping":67},{"user_id":328,"name":"_Ati","steam_id":76561198339777801,"connected_time":1254000000000,"state":"active","ping":70},{"user_id":322,"name":"Captain Olimar Balancer of team","steam_id":76561198141737300,"connected_time":1370000000000,"state":"active","ping":71},{"user_id":336,"name":"papi Chulo","steam_id":76561198126274984,"connected_time":648000000000,"state":"active","ping":86},{"user_id":324,"name":"usedhalfcart","steam_id":76561198072621852,"connected_time":1341000000000,"state":"active","ping":74},{"user_id":337,"name":"lilith_lives","steam_id":76561199059460045,"connected_time":642000000000,"state":"active","ping":76},{"user_id":325,"name":"Lonlily","steam_id":76561198130418647,"connected_time":1334000000000,"state":"active","ping":63},{"user_id":344,"name":"devamar","steam_id":76561198069115467,"connected_time":279000000000,"state":"active","ping":38},{"user_id":299,"name":"ⓞ","steam_id":76561198338739253,"connected_time":3565000000000,"state":"active","ping":47},{"user_id":296,"name":"Grim","steam_id":76561198016978310,"connected_time":4091000000000,"state":"active","ping":69},{"user_id":304,"name":"InsulinDealer","steam_id":76561197994220909,"connected_time":2587000000000,"state":"active","ping":63},{"user_id":339,"name":"bcizzo","steam_id":76561197994399953,"connected_time":598000000000,"state":"active","ping":64},{"user_id":305,"name":"Weakforanimebitches","steam_id":76561198217663016,"connected_time":2583000000000,"state":"active","ping":56},{"user_id":331,"name":"LatinRhythms - 5 ref","steam_id":76561198025110751,"connected_time":936000000000,"state":"active","ping":99},{"user_id":270,"name":"yellow ᗜˬᗜ","steam_id":76561198366474647,"connected_time":5937000000000,"state":"active","ping":44},{"user_id":326,"name":"luketherobat","steam_id":76561198380515065,"connected_time":1309000000000,"state":"active","ping":79},{"user_id":327,"name":"Matches_                       ","steam_id":76561198048925904,"connected_time":1308000000000,"state":"active","ping":60},{"user_id":340,"name":"donutdagger","steam_id":76561199203048300,"connected_time":594000000000,"state":"active","ping":73},{"user_id":341,"name":"Other Players, My One Weakness","steam_id":76561197989247588,"connected_time":584000000000,"state":"active","ping":76},{"user_id":342,"name":"Xnopyt","steam_id":76561198052516404,"connected_time":558000000000,"state":"active","ping":54}]},{"server_id":25,"name":"Uncletopia | Los Angeles | 4 | Stopwatch Beta","name_short":"lax-4","host":"lax-1.us.uncletopia.com","port":27045,"enabled":true,"region":"us-west","cc":"us","latitude":33.94279,"longitude":-118.41004,"reserved":0,"last_update":"0001-01-01T00:00:00Z","name_a2s":"Uncletopia | Los Angeles | 4 | Stopwatch Beta","protocol":17,"map":"pl_upward","folder":"tf","game":"Team Fortress","app_id":440,"player_count":0,"max_players":24,"Bots":0,"server_type":"Dedicated","server_os":"Linux","password":true,"vac":true,"version":"7961495","steam_id":85568392924510199,"keywords":["nocrits","nodmgspread","payload","uncletopia"],"game_id":440,"stv_port":27046,"stv_name":"Uncletopia | Los Angeles | 4 | Stopwatch Beta | STV","players":null},{"server_id":11,"name":"Uncletopia | London | 1 | All Maps","name_short":"lon-1","host":"lon-1.uk.uncletopia.com","port":27015,"enabled":true,"region":"eu","cc":"gb","latitude":51.509865,"longitude":-0.118092,"reserved":0,"last_update":"0001-01-01T00:00:00Z","name_a2s":"Uncletopia | London | 1 | All Maps","protocol":17,"map":"pl_swiftwater_final1","folder":"tf","game":"Team Fortress","app_id":440,"player_count":24,"max_players":24,"Bots":0,"server_type":"Dedicated","server_os":"Linux","password":true,"vac":true,"version":"7961495","steam_id":85568392924367362,"keywords":["nocrits","nodmgspread","payload","uncletopia"],"game_id":440,"stv_port":27016,"stv_name":"Uncletopia | London | 1 | All Maps | STV","players":[{"user_id":723,"name":"Ziemniaczki","steam_id":76561198061866742,"connected_time":607000000000,"state":"active","ping":73},{"user_id":690,"name":"Son Goku","steam_id":76561199383437138,"connected_time":4955000000000,"state":"active","ping":120},{"user_id":658,"name":"♂ Twink Hunter ♂","steam_id":76561198397024973,"connected_time":8919000000000,"state":"active","ping":34},{"user_id":696,"name":"owo","steam_id":76561198158209651,"connected_time":3646000000000,"state":"active","ping":61},{"user_id":724,"name":"beebo","steam_id":76561199120277007,"connected_time":332000000000,"state":"active","ping":42},{"user_id":671,"name":"fence_","steam_id":76561198150386379,"connected_time":7375000000000,"state":"active","ping":45},{"user_id":704,"name":"teddy","steam_id":76561198007436837,"connected_time":3024000000000,"state":"active","ping":30},{"user_id":604,"name":"Kphi(i)","steam_id":76561198970587061,"connected_time":12740000000000,"state":"active","ping":74},{"user_id":675,"name":"Wikk","steam_id":76561199006349076,"connected_time":5940000000000,"state":"active","ping":54},{"user_id":715,"name":"meow (they/them)","steam_id":76561198416657815,"connected_time":2255000000000,"state":"active","ping":77},{"user_id":703,"name":"gibb (official)","steam_id":76561198074097655,"connected_time":3045000000000,"state":"active","ping":43},{"user_id":721,"name":"Minimi","steam_id":76561198873850443,"connected_time":1085000000000,"state":"active","ping":43},{"user_id":719,"name":"Maveth","steam_id":76561198315021197,"connected_time":1811000000000,"state":"active","ping":147},{"user_id":722,"name":"BreadBubbles","steam_id":76561198174332826,"connected_time":1026000000000,"state":"active","ping":75},{"user_id":705,"name":"sora","steam_id":76561198096547662,"connected_time":2999000000000,"state":"active","ping":51},{"user_id":716,"name":"ein'd","steam_id":76561198152162834,"connected_time":2151000000000,"state":"active","ping":100},{"user_id":717,"name":"shooer!","steam_id":76561198110531281,"connected_time":2085000000000,"state":"active","ping":73},{"user_id":698,"name":"You are a flower!","steam_id":76561198062255803,"connected_time":3232000000000,"state":"active","ping":69},{"user_id":702,"name":"Fish Fingers \u0026 Custard","steam_id":76561198094911581,"connected_time":3070000000000,"state":"active","ping":45},{"user_id":687,"name":"i eat glue","steam_id":76561198073975078,"connected_time":5021000000000,"state":"active","ping":49},{"user_id":720,"name":"HOLY BEAST!!!!!!!!!!!!1","steam_id":76561198107137362,"connected_time":1205000000000,"state":"active","ping":53},{"user_id":689,"name":"123","steam_id":76561198113733477,"connected_time":4971000000000,"state":"active","ping":44},{"user_id":682,"name":"Sixie","steam_id":76561198251675360,"connected_time":5297000000000,"state":"active","ping":52},{"user_id":684,"name":"halow","steam_id":76561198061505163,"connected_time":5254000000000,"state":"active","ping":102}]},{"server_id":114,"name":"Uncletopia | London | 2 | All Maps","name_short":"lon-2","host":"lon-1.uk.uncletopia.com","port":27025,"enabled":true,"region":"eu","cc":"gb","latitude":51.509865,"longitude":-0.118092,"reserved":0,"last_update":"0001-01-01T00:00:00Z","name_a2s":"Uncletopia | London | 2 | All Maps","protocol":17,"map":"cp_snakewater_final1","folder":"tf","game":"Team Fortress","app_id":440,"player_count":4,"max_players":24,"Bots":0,"server_type":"Dedicated","server_os":"Linux","password":true,"vac":true,"version":"7961495","steam_id":85568392924470941,"keywords":["cp","nocrits","nodmgspread","uncletopia"],"game_id":440,"stv_port":27026,"stv_name":"Uncletopia | London | 2 | All Maps | STV","players":[{"user_id":719,"name":"Invoker-sama","steam_id":76561198128470403,"connected_time":542000000000,"state":"active","ping":117},{"user_id":720,"name":"kdhbuilder","steam_id":76561199058095193,"connected_time":386000000000,"state":"active","ping":171},{"user_id":721,"name":"pokemonsuper9","steam_id":76561198120530545,"connected_time":311000000000,"state":"active","ping":56},{"user_id":711,"name":"my mom","steam_id":76561199225201569,"connected_time":1941000000000,"state":"active","ping":121}]},{"server_id":320,"name":"Uncletopia | London | 3 | All Maps","name_short":"lon-3","host":"lon-1.uk.uncletopia.com","port":27035,"enabled":true,"region":"eu","cc":"gb","latitude":51.509865,"longitude":-0.118092,"reserved":0,"last_update":"0001-01-01T00:00:00Z","name_a2s":"Uncletopia | London | 3 | All Maps","protocol":17,"map":"pl_upward","folder":"tf","game":"Team Fortress","app_id":440,"player_count":24,"max_players":24,"Bots":0,"server_type":"Dedicated","server_os":"Linux","password":true,"vac":true,"version":"7961495","steam_id":85568392924510192,"keywords":["nocrits","nodmgspread","payload","uncletopia"],"game_id":440,"stv_port":27036,"stv_name":"Uncletopia | London | 3 | All Maps | STV","players":[{"user_id":463,"name":"Kiogeki","steam_id":76561197996707843,"connected_time":955000000000,"state":"active","ping":38},{"user_id":428,"name":"Wodaz","steam_id":76561198043263557,"connected_time":3159000000000,"state":"active","ping":62},{"user_id":453,"name":"Lord Lem0ns!","steam_id":76561198323174893,"connected_time":1406000000000,"state":"active","ping":88},{"user_id":445,"name":"[503. ]captain swiftfingers","steam_id":76561198043684517,"connected_time":1893000000000,"state":"active","ping":49},{"user_id":465,"name":"Potshott","steam_id":76561198184014158,"connected_time":885000000000,"state":"active","ping":52},{"user_id":471,"name":"Bigunit","steam_id":76561197960678014,"connected_time":587000000000,"state":"active","ping":63},{"user_id":443,"name":"Grillem Dafoe","steam_id":76561198306874574,"connected_time":2018000000000,"state":"active","ping":65},{"user_id":457,"name":"I sell exotic parrots","steam_id":76561199192434258,"connected_time":1133000000000,"state":"active","ping":102},{"user_id":436,"name":"BD[PL]","steam_id":76561198115995871,"connected_time":2157000000000,"state":"active","ping":99},{"user_id":406,"name":"s a i","steam_id":76561197970379754,"connected_time":6080000000000,"state":"active","ping":62},{"user_id":460,"name":"Neiro👽ᗩYY ᒪᗰᗩO","steam_id":76561198046743985,"connected_time":1023000000000,"state":"active","ping":75},{"user_id":467,"name":"U1F","steam_id":76561198053700703,"connected_time":727000000000,"state":"active","ping":44},{"user_id":446,"name":"Hoxton","steam_id":76561198129209505,"connected_time":1707000000000,"state":"active","ping":83},{"user_id":392,"name":"highest noon","steam_id":76561199103959197,"connected_time":6866000000000,"state":"active","ping":102},{"user_id":416,"name":"AFairFew","steam_id":76561198194484645,"connected_time":4458000000000,"state":"active","ping":58},{"user_id":427,"name":"randompixel","steam_id":76561198003941207,"connected_time":3333000000000,"state":"active","ping":60},{"user_id":474,"name":"MaeMae","steam_id":76561198252524452,"connected_time":470000000000,"state":"active","ping":50},{"user_id":449,"name":"Not So Friendly Mouse","steam_id":76561198452471755,"connected_time":1595000000000,"state":"active","ping":84},{"user_id":391,"name":"Eric Catman","steam_id":76561198802117294,"connected_time":7104000000000,"state":"active","ping":69},{"user_id":472,"name":"Popop","steam_id":76561198004793795,"connected_time":584000000000,"state":"active","ping":45},{"user_id":466,"name":"VenANON","steam_id":76561198055676240,"connected_time":801000000000,"state":"active","ping":130},{"user_id":469,"name":"Flaming_Veil","steam_id":76561199229870438,"connected_time":677000000000,"state":"active","ping":162},{"user_id":475,"name":"fodace","steam_id":76561198442803577,"connected_time":31000000000,"state":"active","ping":68},{"user_id":473,"name":"Hannü","steam_id":76561197969886128,"connected_time":558000000000,"state":"active","ping":56}]},{"server_id":321,"name":"Uncletopia | London | 4 | All Maps","name_short":"lon-4","host":"lon-1.uk.uncletopia.com","port":27045,"enabled":true,"region":"eu","cc":"gb","latitude":51.509865,"longitude":-0.118092,"reserved":0,"last_update":"0001-01-01T00:00:00Z","name_a2s":"Uncletopia | London | 4 | All Maps","protocol":17,"map":"pl_snowycoast","folder":"tf","game":"Team Fortress","app_id":440,"player_count":0,"max_players":24,"Bots":0,"server_type":"Dedicated","server_os":"Linux","password":true,"vac":true,"version":"7961495","steam_id":85568392924510193,"keywords":["nocrits","nodmgspread","payload","uncletopia"],"game_id":440,"stv_port":27046,"stv_name":"Uncletopia | London | 4 | All Maps | STV","players":null},{"server_id":21,"name":"Uncletopia | London | 5 | All Maps","name_short":"lon-5","host":"lon-1.uk.uncletopia.com","port":27055,"enabled":true,"region":"eu","cc":"gb","latitude":51.509865,"longitude":-0.118092,"reserved":0,"last_update":"0001-01-01T00:00:00Z","name_a2s":"Uncletopia | London | 5 | All Maps","protocol":17,"map":"pl_swiftwater_final1","folder":"tf","game":"Team Fortress","app_id":440,"player_count":23,"max_players":24,"Bots":0,"server_type":"Dedicated","server_os":"Linux","password":true,"vac":true,"version":"7961495","steam_id":85568392924742829,"keywords":["nocrits","nodmgspread","payload","uncletopia"],"game_id":440,"stv_port":27056,"stv_name":"Uncletopia | London | 5 | All Maps | STV","players":[{"user_id":722,"name":"PLATINUM PISSED","steam_id":76561198275955087,"connected_time":1410000000000,"state":"active","ping":63},{"user_id":717,"name":"xTheDarkLight","steam_id":76561198239128298,"connected_time":2030000000000,"state":"active","ping":60},{"user_id":723,"name":"Oil-Chan","steam_id":76561198326691870,"connected_time":1402000000000,"state":"active","ping":75},{"user_id":733,"name":"Gideon","steam_id":76561198045132575,"connected_time":553000000000,"state":"active","ping":45},{"user_id":725,"name":"Sauen","steam_id":76561198276433751,"connected_time":1161000000000,"state":"active","ping":80},{"user_id":738,"name":"Siii","steam_id":76561199064248129,"connected_time":526000000000,"state":"active","ping":44},{"user_id":731,"name":"fabacher","steam_id":76561198057905272,"connected_time":828000000000,"state":"active","ping":60},{"user_id":743,"name":"bird ideas","steam_id":76561199480942903,"connected_time":493000000000,"state":"active","ping":75},{"user_id":745,"name":"Urfangonultasadana","steam_id":76561199389286151,"connected_time":329000000000,"state":"active","ping":97},{"user_id":724,"name":"Saul Goodman","steam_id":76561199182988206,"connected_time":1296000000000,"state":"active","ping":87},{"user_id":740,"name":"tone","steam_id":76561197975301462,"connected_time":501000000000,"state":"active","ping":78},{"user_id":747,"name":"Star in a pond","steam_id":76561198205501279,"connected_time":291000000000,"state":"active","ping":106},{"user_id":744,"name":"Xonrus","steam_id":76561198074717396,"connected_time":423000000000,"state":"active","ping":69},{"user_id":741,"name":"mr gaming","steam_id":76561198110103308,"connected_time":499000000000,"state":"active","ping":45},{"user_id":727,"name":"JUST","steam_id":76561198069064885,"connected_time":1108000000000,"state":"active","ping":59},{"user_id":655,"name":"Nox Equites","steam_id":76561198115438449,"connected_time":6089000000000,"state":"active","ping":86},{"user_id":734,"name":"Cage, Nicolas","steam_id":76561198061714753,"connected_time":550000000000,"state":"active","ping":83},{"user_id":705,"name":"Keke","steam_id":76561198042032908,"connected_time":3029000000000,"state":"active","ping":103},{"user_id":742,"name":"Lord","steam_id":76561198241305816,"connected_time":498000000000,"state":"active","ping":114},{"user_id":736,"name":"Small Rat","steam_id":76561197970114051,"connected_time":536000000000,"state":"active","ping":41},{"user_id":748,"name":"Glenn Quagmire","steam_id":76561199348527880,"connected_time":192000000000,"state":"active","ping":94},{"user_id":749,"name":"Ransu","steam_id":76561198211750823,"connected_time":167000000000,"state":"active","ping":65},{"user_id":728,"name":"eevee","steam_id":76561198447072392,"connected_time":1073000000000,"state":"active","ping":90}]},{"server_id":22,"name":"Uncletopia | London | 6 | All Maps","name_short":"lon-6","host":"lon-1.uk.uncletopia.com","port":27065,"enabled":true,"region":"eu","cc":"gb","latitude":51.509865,"longitude":-0.118092,"reserved":0,"last_update":"0001-01-01T00:00:00Z","name_a2s":"Uncletopia | London | 6 | All Maps","protocol":17,"map":"pl_swiftwater_final1","folder":"tf","game":"Team Fortress","app_id":440,"player_count":0,"max_players":24,"Bots":0,"server_type":"Dedicated","server_os":"Linux","password":true,"vac":true,"version":"7961495","steam_id":85568392924742830,"keywords":["nocrits","nodmgspread","payload","uncletopia"],"game_id":440,"stv_port":27066,"stv_name":"Uncletopia | London | 6 | All Maps | STV","players":null},{"server_id":40,"name":"Uncletopia | London | 7 | No Payload","name_short":"lon-7","host":"lon-1.uk.uncletopia.com","port":27075,"enabled":true,"region":"eu","cc":"gb","latitude":51.509865,"longitude":-0.118092,"reserved":0,"last_update":"0001-01-01T00:00:00Z","name_a2s":"Uncletopia | London | 7 | No Payload","protocol":17,"map":"cp_standin_final","folder":"tf","game":"Team Fortress","app_id":440,"player_count":23,"max_players":24,"Bots":0,"server_type":"Dedicated","server_os":"Linux","password":true,"vac":true,"version":"7961495","steam_id":85568392924964314,"keywords":["cp","nocrits","nodmgspread","uncletopia"],"game_id":440,"stv_port":27076,"stv_name":"Uncletopia | London | 7 | No Payload | STV","players":[{"user_id":77,"name":"Baked Beans Gaming","steam_id":76561199177778966,"connected_time":767000000000,"state":"active","ping":45},{"user_id":59,"name":"Bootleg Wah","steam_id":76561198215995743,"connected_time":2788000000000,"state":"active","ping":50},{"user_id":56,"name":"lorislk989","steam_id":76561199224251630,"connected_time":3599000000000,"state":"active","ping":68},{"user_id":61,"name":"Top Hat Fellow","steam_id":76561198294368161,"connected_time":2766000000000,"state":"active","ping":55},{"user_id":84,"name":"JujuBalu","steam_id":76561198207253071,"connected_time":315000000000,"state":"active","ping":59},{"user_id":65,"name":"Truegear","steam_id":76561198059511386,"connected_time":1679000000000,"state":"active","ping":69},{"user_id":89,"name":"Kage","steam_id":76561199054037036,"connected_time":71000000000,"state":"active","ping":47},{"user_id":67,"name":"Skatnaset","steam_id":76561198298457353,"connected_time":1614000000000,"state":"active","ping":82},{"user_id":76,"name":"Genesis","steam_id":76561198999652040,"connected_time":816000000000,"state":"active","ping":46},{"user_id":69,"name":"mossfan1","steam_id":76561198087525446,"connected_time":1584000000000,"state":"active","ping":73},{"user_id":74,"name":"Groose","steam_id":76561198261094295,"connected_time":1212000000000,"state":"active","ping":68},{"user_id":71,"name":"Lyrista","steam_id":76561198136435129,"connected_time":1520000000000,"state":"active","ping":56},{"user_id":75,"name":"timvs5","steam_id":76561198136646312,"connected_time":1090000000000,"state":"active","ping":65},{"user_id":78,"name":"Ape","steam_id":76561198119347598,"connected_time":764000000000,"state":"active","ping":60},{"user_id":79,"name":"joachym","steam_id":76561198428579761,"connected_time":625000000000,"state":"active","ping":70},{"user_id":81,"name":"FliturbiousRex","steam_id":76561199217583334,"connected_time":513000000000,"state":"active","ping":144},{"user_id":82,"name":"anal annihilator","steam_id":76561198298436329,"connected_time":469000000000,"state":"active","ping":67},{"user_id":83,"name":"throbmunky","steam_id":76561198855709000,"connected_time":430000000000,"state":"active","ping":80},{"user_id":85,"name":"rob","steam_id":76561198122211848,"connected_time":296000000000,"state":"active","ping":89},{"user_id":86,"name":"ROX","steam_id":76561198272289320,"connected_time":247000000000,"state":"active","ping":64},{"user_id":90,"name":"Envy","steam_id":76561198132723219,"connected_time":30000000000,"state":"active","ping":111},{"user_id":88,"name":"The Subway Scientist","steam_id":76561198193757646,"connected_time":168000000000,"state":"active","ping":45},{"user_id":91,"name":"Eujekas","steam_id":76561198010527145,"connected_time":9000000000,"state":"active","ping":96}]},{"server_id":41,"name":"Uncletopia | London | 8 | Community","name_short":"lon-8","host":"lon-1.uk.uncletopia.com","port":27085,"enabled":true,"region":"eu","cc":"gb","latitude":51.509865,"longitude":-0.118092,"reserved":0,"last_update":"0001-01-01T00:00:00Z","name_a2s":"Uncletopia | London | 8 | Community","protocol":17,"map":"workshop/koth_synthetic_rc6a.ugc1549817316","folder":"tf","game":"Team Fortress","app_id":440,"player_count":0,"max_players":24,"Bots":0,"server_type":"Dedicated","server_os":"Linux","password":true,"vac":true,"version":"7961495","steam_id":85568392924964315,"keywords":["cp","nocrits","nodmgspread","uncletopia"],"game_id":440,"stv_port":27086,"stv_name":"Uncletopia | London | 8 | Community | STV","players":null},{"server_id":300,"name":"Uncletopia | Montréal | 1 | All Maps","name_short":"mtl-1","host":"mtl-1.ca.uncletopia.com","port":27015,"enabled":true,"region":"us-east","cc":"ca","latitude":45.50889,"longitude":-73.56167,"reserved":0,"last_update":"0001-01-01T00:00:00Z","name_a2s":"","protocol":0,"map":"","folder":"","game":"","app_id":0,"player_count":6,"max_players":0,"Bots":0,"server_type":"","server_os":"","password":false,"vac":false,"version":"","steam_id":0,"keywords":null,"game_id":0,"stv_port":0,"stv_name":"","players":[{"user_id":439,"name":"Charcoal","steam_id":76561198268638706,"connected_time":6299000000000,"state":"active","ping":117},{"user_id":441,"name":"ellis left 4 dead 2","steam_id":76561198364645366,"connected_time":4105000000000,"state":"active","ping":102},{"user_id":453,"name":"bookreader","steam_id":76561198978568007,"connected_time":174000000000,"state":"active","ping":45},{"user_id":450,"name":"mountainkug","steam_id":76561199491802535,"connected_time":526000000000,"state":"active","ping":88},{"user_id":452,"name":"c0mplex","steam_id":76561199017760015,"connected_time":502000000000,"state":"active","ping":152},{"user_id":454,"name":"mark","steam_id":76561199212387434,"connected_time":48000000000,"state":"active","ping":74}]},{"server_id":301,"name":"Uncletopia | Montréal | 2 | All Maps","name_short":"mtl-2","host":"mtl-1.ca.uncletopia.com","port":27025,"enabled":true,"region":"us-east","cc":"ca","latitude":45.50889,"longitude":-73.56167,"reserved":0,"last_update":"0001-01-01T00:00:00Z","name_a2s":"","protocol":0,"map":"","folder":"","game":"","app_id":0,"player_count":0,"max_players":0,"Bots":0,"server_type":"","server_os":"","password":false,"vac":false,"version":"","steam_id":0,"keywords":null,"game_id":0,"stv_port":0,"stv_name":"","players":null},{"server_id":302,"name":"Uncletopia | Montréal | 3 | All Maps","name_short":"mtl-3","host":"mtl-1.ca.uncletopia.com","port":27035,"enabled":true,"region":"us-east","cc":"ca","latitude":45.50889,"longitude":-73.56167,"reserved":0,"last_update":"0001-01-01T00:00:00Z","name_a2s":"","protocol":0,"map":"","folder":"","game":"","app_id":0,"player_count":0,"max_players":0,"Bots":0,"server_type":"","server_os":"","password":false,"vac":false,"version":"","steam_id":0,"keywords":null,"game_id":0,"stv_port":0,"stv_name":"","players":null},{"server_id":303,"name":"Uncletopia | Montréal | 4 | No Payload","name_short":"mtl-4","host":"mtl-1.ca.uncletopia.com","port":27045,"enabled":true,"region":"us-east","cc":"ca","latitude":45.50889,"longitude":-73.56167,"reserved":0,"last_update":"0001-01-01T00:00:00Z","name_a2s":"","protocol":0,"map":"","folder":"","game":"","app_id":0,"player_count":8,"max_players":0,"Bots":0,"server_type":"","server_os":"","password":false,"vac":false,"version":"","steam_id":0,"keywords":null,"game_id":0,"stv_port":0,"stv_name":"","players":[{"user_id":33,"name":"Kaw18","steam_id":76561198164397380,"connected_time":75000000000,"state":"active","ping":58},{"user_id":21,"name":"CCPodz","steam_id":76561199143506502,"connected_time":2296000000000,"state":"active","ping":71},{"user_id":22,"name":"Sabishi","steam_id":76561198348176826,"connected_time":2236000000000,"state":"active","ping":54},{"user_id":8,"name":"TinyGrunt16","steam_id":76561199064951235,"connected_time":6133000000000,"state":"active","ping":57},{"user_id":24,"name":"viln","steam_id":76561198073391796,"connected_time":2049000000000,"state":"active","ping":51},{"user_id":30,"name":"Tauon","steam_id":76561198024818411,"connected_time":701000000000,"state":"active","ping":37},{"user_id":17,"name":"Bing Soy is best ARG #savetf2","steam_id":76561199162653647,"connected_time":3630000000000,"state":"active","ping":91},{"user_id":14,"name":"Tarnish DeBoot","steam_id":76561198148031251,"connected_time":4374000000000,"state":"active","ping":69}]},{"server_id":13,"name":"Uncletopia | New York City | 1 | All Maps","name_short":"nyc-1","host":"nyc-1.us.uncletopia.com","port":27015,"enabled":true,"region":"us-east","cc":"us","latitude":40.73061,"longitude":-73.93524,"reserved":0,"last_update":"0001-01-01T00:00:00Z","name_a2s":"Uncletopia | New York City | 1 | All Maps","protocol":17,"map":"pl_snowycoast","folder":"tf","game":"Team Fortress","app_id":440,"player_count":24,"max_players":24,"Bots":0,"server_type":"Dedicated","server_os":"Linux","password":true,"vac":true,"version":"7961495","steam_id":85568392924469993,"keywords":["nocrits","nodmgspread","payload","uncletopia"],"game_id":440,"stv_port":27016,"stv_name":"Uncletopia | New York City | 1 | All Maps | STV","players":[{"user_id":466,"name":"Maurdakar","steam_id":76561197983420976,"connected_time":25000000000,"state":"active","ping":82},{"user_id":424,"name":"Spex","steam_id":76561198404566859,"connected_time":2488000000000,"state":"active","ping":70},{"user_id":444,"name":"KillinYou32","steam_id":76561198833468802,"connected_time":996000000000,"state":"active","ping":66},{"user_id":461,"name":"hart","steam_id":76561198094780633,"connected_time":145000000000,"state":"active","ping":71},{"user_id":445,"name":"Chris Hansen, Kell of Kells","steam_id":76561198986775156,"connected_time":964000000000,"state":"active","ping":68},{"user_id":404,"name":"King of Ping","steam_id":76561198278737470,"connected_time":3742000000000,"state":"active","ping":54},{"user_id":449,"name":"Johnny Lawrence #JohnnyMaxxing","steam_id":76561199367141671,"connected_time":856000000000,"state":"active","ping":45},{"user_id":450,"name":"Griffin","steam_id":76561198159339442,"connected_time":804000000000,"state":"active","ping":71},{"user_id":447,"name":"erf","steam_id":76561198078203677,"connected_time":955000000000,"state":"active","ping":53},{"user_id":456,"name":"esog","steam_id":76561198250069226,"connected_time":640000000000,"state":"active","ping":59},{"user_id":419,"name":"0100101101100001011100100110110","steam_id":76561198034028769,"connected_time":2653000000000,"state":"active","ping":77},{"user_id":409,"name":"JACK BRUNO","steam_id":76561198027957690,"connected_time":3526000000000,"state":"active","ping":125},{"user_id":462,"name":"ThatOneKaiser","steam_id":76561198799231254,"connected_time":133000000000,"state":"active","ping":65},{"user_id":451,"name":"MetalNavigator","steam_id":76561198974231439,"connected_time":765000000000,"state":"active","ping":99},{"user_id":410,"name":"Slob and Sup","steam_id":76561198123441203,"connected_time":3522000000000,"state":"active","ping":72},{"user_id":438,"name":"Jimbo Slice","steam_id":76561198064830847,"connected_time":1704000000000,"state":"active","ping":57},{"user_id":464,"name":"A Puppy","steam_id":76561198828184456,"connected_time":55000000000,"state":"active","ping":53},{"user_id":452,"name":"spherewithahat","steam_id":76561199122192660,"connected_time":738000000000,"state":"active","ping":59},{"user_id":453,"name":"Lemon","steam_id":76561198119362095,"connected_time":721000000000,"state":"active","ping":45},{"user_id":459,"name":"Bark Soul","steam_id":76561198061791538,"connected_time":357000000000,"state":"active","ping":84},{"user_id":426,"name":"reddishscarf","steam_id":76561199084904694,"connected_time":2479000000000,"state":"active","ping":78},{"user_id":465,"name":"JC","steam_id":76561198135307995,"connected_time":48000000000,"state":"active","ping":56},{"user_id":434,"name":"yep","steam_id":76561198443401216,"connected_time":1990000000000,"state":"active","ping":79},{"user_id":458,"name":"unlisted","steam_id":76561198204198497,"connected_time":599000000000,"state":"active","ping":108}]},{"server_id":14,"name":"Uncletopia | New York City | 2 | All Maps","name_short":"nyc-2","host":"nyc-1.us.uncletopia.com","port":27025,"enabled":true,"region":"us-east","cc":"us","latitude":40.73061,"longitude":-73.93524,"reserved":0,"last_update":"0001-01-01T00:00:00Z","name_a2s":"Uncletopia | New York City | 2 | All Maps","protocol":17,"map":"cp_dustbowl","folder":"tf","game":"Team Fortress","app_id":440,"player_count":19,"max_players":24,"Bots":0,"server_type":"Dedicated","server_os":"Linux","password":true,"vac":true,"version":"7961495","steam_id":85568392924469994,"keywords":["cp","nocrits","nodmgspread","uncletopia"],"game_id":440,"stv_port":27026,"stv_name":"Uncletopia | New York City | 2 | All Maps | STV","players":[{"user_id":419,"name":"Agent Tibbs","steam_id":76561198139418570,"connected_time":2748000000000,"state":"active","ping":77},{"user_id":420,"name":"Muffin","steam_id":76561199156302434,"connected_time":2706000000000,"state":"active","ping":59},{"user_id":462,"name":"Pebbled","steam_id":76561199390347605,"connected_time":42000000000,"state":"active","ping":86},{"user_id":440,"name":"fireman","steam_id":76561198148199120,"connected_time":1280000000000,"state":"active","ping":76},{"user_id":461,"name":"Walmart Employee","steam_id":76561198840373909,"connected_time":55000000000,"state":"active","ping":86},{"user_id":457,"name":"Jus71n","steam_id":76561198133487430,"connected_time":395000000000,"state":"active","ping":66},{"user_id":458,"name":"Shin Fiend","steam_id":76561198142366948,"connected_time":311000000000,"state":"active","ping":207},{"user_id":447,"name":"Okpar","steam_id":76561199221067945,"connected_time":729000000000,"state":"active","ping":92},{"user_id":439,"name":"Sir.TopHats","steam_id":76561198267326839,"connected_time":1347000000000,"state":"active","ping":103},{"user_id":459,"name":"prospike569","steam_id":76561199491903111,"connected_time":284000000000,"state":"active","ping":60},{"user_id":278,"name":"Non Critical Thinker","steam_id":76561198123401597,"connected_time":11958000000000,"state":"active","ping":61},{"user_id":437,"name":"Bones0010","steam_id":76561198096186958,"connected_time":1481000000000,"state":"active","ping":88},{"user_id":452,"name":"Los Pollos","steam_id":76561199046257191,"connected_time":590000000000,"state":"active","ping":264},{"user_id":411,"name":"J-Booty Rasengan","steam_id":76561198088854411,"connected_time":3382000000000,"state":"active","ping":55},{"user_id":432,"name":"Les Claypool","steam_id":76561198237827742,"connected_time":1916000000000,"state":"active","ping":46},{"user_id":410,"name":"Speedy","steam_id":76561198080761661,"connected_time":3436000000000,"state":"active","ping":58},{"user_id":454,"name":"Nerrrd_","steam_id":76561198870129960,"connected_time":573000000000,"state":"active","ping":44},{"user_id":455,"name":":3","steam_id":76561198120772700,"connected_time":557000000000,"state":"active","ping":70},{"user_id":446,"name":"the_willy12","steam_id":76561199145029672,"connected_time":980000000000,"state":"active","ping":75}]},{"server_id":15,"name":"Uncletopia | New York City | 3 | Stopwatch Beta","name_short":"nyc-3","host":"nyc-1.us.uncletopia.com","port":27035,"enabled":true,"region":"us-east","cc":"us","latitude":40.73061,"longitude":-73.93524,"reserved":0,"last_update":"0001-01-01T00:00:00Z","name_a2s":"Uncletopia | New York City | 3 | Stopwatch Beta","protocol":17,"map":"workshop/koth_product_final.ugc454272353","folder":"tf","game":"Team Fortress","app_id":440,"player_count":0,"max_players":24,"Bots":0,"server_type":"Dedicated","server_os":"Linux","password":true,"vac":true,"version":"7961495","steam_id":85568392924742820,"keywords":["cp","nocrits","nodmgspread","uncletopia"],"game_id":440,"stv_port":27036,"stv_name":"Uncletopia | New York City | 3 | Stopwatch Beta | STV","players":null},{"server_id":16,"name":"Uncletopia | New York City | 4 | Community","name_short":"nyc-4","host":"nyc-1.us.uncletopia.com","port":27045,"enabled":true,"region":"us-east","cc":"us","latitude":40.73061,"longitude":-73.93524,"reserved":0,"last_update":"0001-01-01T00:00:00Z","name_a2s":"Uncletopia | New York City | 4 | Community","protocol":17,"map":"koth_lakeside_final","folder":"tf","game":"Team Fortress","app_id":440,"player_count":0,"max_players":24,"Bots":0,"server_type":"Dedicated","server_os":"Linux","password":true,"vac":true,"version":"7961495","steam_id":85568392924742821,"keywords":["cp","nocrits","nodmgspread","uncletopia"],"game_id":440,"stv_port":27046,"stv_name":"Uncletopia | New York City | 4 | Community | STV","players":null},{"server_id":142,"name":"Uncletopia | São Paulo | 1 | All Maps","name_short":"sao-1","host":"sao-1.br.uncletopia.com","port":27015,"enabled":true,"region":"sa","cc":"br","latitude":-23.533773,"longitude":-46.62529,"reserved":0,"last_update":"0001-01-01T00:00:00Z","name_a2s":"Uncletopia | São Paulo | 1 | All Maps","protocol":17,"map":"koth_lakeside_final","folder":"tf","game":"Team Fortress","app_id":440,"player_count":3,"max_players":24,"Bots":0,"server_type":"Dedicated","server_os":"Linux","password":true,"vac":true,"version":"7961495","steam_id":85568392924469996,"keywords":["cp","nocrits","nodmgspread","uncletopia"],"game_id":440,"stv_port":27016,"stv_name":"Uncletopia | São Paulo | 1 | All Maps | STV","players":[{"user_id":18,"name":"Repolho bolado","steam_id":76561198978094107,"connected_time":144000000000,"state":"active","ping":90},{"user_id":19,"name":"Shaggy","steam_id":76561198951913652,"connected_time":114000000000,"state":"active","ping":97},{"user_id":20,"name":"LYGAMES_102","steam_id":76561198183701975,"connected_time":108000000000,"state":"active","ping":81}]},{"server_id":143,"name":"Uncletopia | São Paulo | 2 | Community","name_short":"sao-2","host":"sao-2.br.uncletopia.com","port":27015,"enabled":true,"region":"sa","cc":"br","latitude":-23.533773,"longitude":-46.62529,"reserved":0,"last_update":"0001-01-01T00:00:00Z","name_a2s":"Uncletopia | São Paulo | 2 | Community","protocol":17,"map":"workshop/pl_eruption_b9a.ugc2807898013","folder":"tf","game":"Team Fortress","app_id":440,"player_count":14,"max_players":24,"Bots":0,"server_type":"Dedicated","server_os":"Linux","password":true,"vac":true,"version":"7961495","steam_id":85568392924485349,"keywords":["nocrits","nodmgspread","payload","uncletopia"],"game_id":440,"stv_port":27016,"stv_name":"Uncletopia | São Paulo | 2 | Community | STV","players":[{"user_id":174,"name":"Gley","steam_id":76561198044777059,"connected_time":232000000000,"state":"active","ping":66},{"user_id":97,"name":"Lan","steam_id":76561198263163492,"connected_time":8250000000000,"state":"active","ping":65},{"user_id":173,"name":"Songalongamon","steam_id":76561198114565169,"connected_time":355000000000,"state":"active","ping":49},{"user_id":151,"name":"Jh0n","steam_id":76561198059013774,"connected_time":2621000000000,"state":"active","ping":121},{"user_id":148,"name":"Cuutc","steam_id":76561199117093999,"connected_time":3243000000000,"state":"active","ping":59},{"user_id":175,"name":"matheus whatsapp","steam_id":76561199359501901,"connected_time":175000000000,"state":"active","ping":43},{"user_id":177,"name":"Blue9Fairy","steam_id":76561198039942928,"connected_time":85000000000,"state":"active","ping":46},{"user_id":176,"name":"rcoota","steam_id":76561198051179961,"connected_time":124000000000,"state":"active","ping":44},{"user_id":147,"name":"hadinode","steam_id":76561198191475573,"connected_time":3292000000000,"state":"active","ping":50},{"user_id":103,"name":"My wife left me","steam_id":76561199093912386,"connected_time":7615000000000,"state":"active","ping":60},{"user_id":157,"name":".fnord","steam_id":76561198119754613,"connected_time":2197000000000,"state":"active","ping":46},{"user_id":160,"name":"Enyel","steam_id":76561198084306559,"connected_time":1698000000000,"state":"active","ping":183},{"user_id":168,"name":"Derretimento Geral 2017","steam_id":76561198194300069,"connected_time":993000000000,"state":"active","ping":43},{"user_id":169,"name":"pedro o alfaiate","steam_id":76561199113805934,"connected_time":946000000000,"state":"active","ping":88}]},{"server_id":7,"name":"Uncletopia | Seattle | 1 | All Maps","name_short":"sea-1","host":"sea-1.us.uncletopia.com","port":27015,"enabled":true,"region":"us-west","cc":"us","latitude":47.608013,"longitude":-122.33517,"reserved":0,"last_update":"0001-01-01T00:00:00Z","name_a2s":"Uncletopia | Seattle | 1 | All Maps","protocol":17,"map":"pl_barnblitz","folder":"tf","game":"Team Fortress","app_id":440,"player_count":24,"max_players":24,"Bots":0,"server_type":"Dedicated","server_os":"Linux","password":true,"vac":true,"version":"7961495","steam_id":85568392924469997,"keywords":["nocrits","nodmgspread","payload","uncletopia"],"game_id":440,"stv_port":27016,"stv_name":"Uncletopia | Seattle | 1 | All Maps | STV","players":[{"user_id":122,"name":"Alphaarmy01","steam_id":76561198818913025,"connected_time":12148000000000,"state":"active","ping":125},{"user_id":88,"name":"InterplanetaryGentlemann","steam_id":76561198146559390,"connected_time":14392000000000,"state":"active","ping":45},{"user_id":250,"name":"BlazedBunny","steam_id":76561198243610560,"connected_time":1653000000000,"state":"active","ping":79},{"user_id":233,"name":"greens beans","steam_id":76561198153611491,"connected_time":4130000000000,"state":"active","ping":40},{"user_id":254,"name":"🎄AndreaJingling🎄","steam_id":76561198198658783,"connected_time":945000000000,"state":"active","ping":60},{"user_id":181,"name":"Manchurian Bandit","steam_id":76561198072410042,"connected_time":7159000000000,"state":"active","ping":78},{"user_id":236,"name":"Sailor","steam_id":76561199081983517,"connected_time":3547000000000,"state":"active","ping":106},{"user_id":256,"name":"Stapler","steam_id":76561198099295077,"connected_time":826000000000,"state":"active","ping":68},{"user_id":240,"name":"Skoad","steam_id":76561198104650528,"connected_time":2849000000000,"state":"active","ping":59},{"user_id":262,"name":"Flickerr","steam_id":76561198080190967,"connected_time":62000000000,"state":"active","ping":169},{"user_id":238,"name":"choco","steam_id":76561199013498035,"connected_time":2958000000000,"state":"active","ping":59},{"user_id":252,"name":"Wafflemuscle","steam_id":76561198868628982,"connected_time":1370000000000,"state":"active","ping":52},{"user_id":114,"name":"Immunityframes","steam_id":76561198318250550,"connected_time":12699000000000,"state":"active","ping":49},{"user_id":180,"name":"CashGordon","steam_id":76561197975594096,"connected_time":7293000000000,"state":"active","ping":39},{"user_id":171,"name":"[COS]SonneyDonkeh","steam_id":76561198091284496,"connected_time":7689000000000,"state":"active","ping":86},{"user_id":251,"name":"Mike Bean Burritos","steam_id":76561198173430607,"connected_time":1382000000000,"state":"active","ping":53},{"user_id":246,"name":"ejschild745","steam_id":76561199013388867,"connected_time":1838000000000,"state":"active","ping":76},{"user_id":248,"name":"NEBULA","steam_id":76561198086878595,"connected_time":1820000000000,"state":"active","ping":69},{"user_id":249,"name":"SirDabsAlot","steam_id":76561198013287772,"connected_time":1801000000000,"state":"active","ping":60},{"user_id":243,"name":"Big Floppa","steam_id":76561199152552589,"connected_time":1899000000000,"state":"active","ping":64},{"user_id":260,"name":"RUF","steam_id":76561198062315805,"connected_time":294000000000,"state":"active","ping":84},{"user_id":259,"name":"Mii Guest C, From Wii Sports","steam_id":76561198197964803,"connected_time":410000000000,"state":"active","ping":69},{"user_id":258,"name":"Mr lazy pants 72","steam_id":76561198396412589,"connected_time":697000000000,"state":"active","ping":83},{"user_id":232,"name":"BolognaWithOlives","steam_id":76561198101262668,"connected_time":4161000000000,"state":"active","ping":88}]},{"server_id":119,"name":"Uncletopia | Seattle | 2 | All Maps","name_short":"sea-2","host":"sea-1.us.uncletopia.com","port":27025,"enabled":true,"region":"us-west","cc":"us","latitude":47.608013,"longitude":-122.33517,"reserved":0,"last_update":"0001-01-01T00:00:00Z","name_a2s":"Uncletopia | Seattle | 2 | All Maps","protocol":17,"map":"pl_swiftwater_final1","folder":"tf","game":"Team Fortress","app_id":440,"player_count":23,"max_players":24,"Bots":0,"server_type":"Dedicated","server_os":"Linux","password":true,"vac":true,"version":"7961495","steam_id":85568392924469998,"keywords":["nocrits","nodmgspread","payload","uncletopia"],"game_id":440,"stv_port":27026,"stv_name":"Uncletopia | Seattle | 2 | All Maps | STV","players":[{"user_id":150,"name":"piss man","steam_id":76561199031963925,"connected_time":2459000000000,"state":"active","ping":50},{"user_id":164,"name":"human (real)","steam_id":76561199001855562,"connected_time":1174000000000,"state":"active","ping":56},{"user_id":128,"name":"CamiTheBrick","steam_id":76561198070394002,"connected_time":3380000000000,"state":"active","ping":51},{"user_id":156,"name":"Strikerbolt","steam_id":76561199095622897,"connected_time":1822000000000,"state":"active","ping":75},{"user_id":166,"name":"Skabbety","steam_id":76561198168044257,"connected_time":883000000000,"state":"active","ping":45},{"user_id":121,"name":"Yackaboi","steam_id":76561199444911765,"connected_time":3699000000000,"state":"active","ping":97},{"user_id":79,"name":"mm","steam_id":76561198088163909,"connected_time":6890000000000,"state":"active","ping":45},{"user_id":129,"name":"Arkus (real)","steam_id":76561199092478198,"connected_time":3374000000000,"state":"active","ping":46},{"user_id":169,"name":"Lilith","steam_id":76561198120362654,"connected_time":33000000000,"state":"active","ping":43},{"user_id":148,"name":"MacchuPeachu","steam_id":76561199093242587,"connected_time":2565000000000,"state":"active","ping":64},{"user_id":40,"name":"SteveHarp","steam_id":76561198339530814,"connected_time":8549000000000,"state":"active","ping":60},{"user_id":144,"name":"hello","steam_id":76561199241533014,"connected_time":2737000000000,"state":"active","ping":118},{"user_id":153,"name":"Spoofle","steam_id":76561199003655066,"connected_time":2364000000000,"state":"active","ping":62},{"user_id":167,"name":"I want a sandvich im hungry","steam_id":76561199121046813,"connected_time":55000000000,"state":"active","ping":51},{"user_id":44,"name":"Gamekiller839","steam_id":76561199475400469,"connected_time":8495000000000,"state":"active","ping":44},{"user_id":168,"name":"Greskrendtregk","steam_id":76561197969553142,"connected_time":47000000000,"state":"active","ping":57},{"user_id":143,"name":"RIP COCO and FRANK :(","steam_id":76561198865172720,"connected_time":2833000000000,"state":"active","ping":93},{"user_id":170,"name":"NitoT97","steam_id":76561199074443643,"connected_time":9000000000,"state":"spawning","ping":43},{"user_id":154,"name":"SpamTheAlien","steam_id":76561199122290968,"connected_time":2340000000000,"state":"active","ping":85},{"user_id":165,"name":"♦Benji♦","steam_id":76561198313529973,"connected_time":1098000000000,"state":"active","ping":46},{"user_id":133,"name":"tiananmensquare1989","steam_id":76561199076837870,"connected_time":3264000000000,"state":"active","ping":138},{"user_id":146,"name":"Pop-Tart Eater","steam_id":76561198080822164,"connected_time":2650000000000,"state":"active","ping":51},{"user_id":162,"name":"MrPoisionousLabs","steam_id":76561199184552915,"connected_time":1644000000000,"state":"active","ping":79}]},{"server_id":406,"name":"Uncletopia | Seattle | 3 | Stopwatch Beta","name_short":"sea-3","host":"sea-1.us.uncletopia.com","port":27035,"enabled":true,"region":"us-west","cc":"us","latitude":47.608013,"longitude":-122.33517,"reserved":0,"last_update":"0001-01-01T00:00:00Z","name_a2s":"Uncletopia | Seattle | 3 | Stopwatch Beta","protocol":17,"map":"workshop/pl_vigil_rc9.ugc1266210012","folder":"tf","game":"Team Fortress","app_id":440,"player_count":0,"max_players":24,"Bots":0,"server_type":"Dedicated","server_os":"Linux","password":true,"vac":true,"version":"7961495","steam_id":85568392924515217,"keywords":["nocrits","nodmgspread","payload","uncletopia"],"game_id":440,"stv_port":27036,"stv_name":"Uncletopia | Seattle | 3 | Stopwatch Beta | STV","players":null},{"server_id":17,"name":"Uncletopia | San Francisco | 1 | All Maps","name_short":"sfo-1","host":"sfo-1.us.uncletopia.com","port":27015,"enabled":true,"region":"us-west","cc":"us","latitude":37.77397,"longitude":-122.4313,"reserved":0,"last_update":"0001-01-01T00:00:00Z","name_a2s":"Uncletopia | San Francisco | 1 | All Maps","protocol":17,"map":"pl_pier","folder":"tf","game":"Team Fortress","app_id":440,"player_count":8,"max_players":24,"Bots":0,"server_type":"Dedicated","server_os":"Linux","password":true,"vac":true,"version":"7961495","steam_id":85568392924469999,"keywords":["nocrits","nodmgspread","payload","uncletopia"],"game_id":440,"stv_port":27016,"stv_name":"Uncletopia | San Francisco | 1 | All Maps | STV","players":[{"user_id":18,"name":"a cat plushie","steam_id":76561198080046542,"connected_time":1698000000000,"state":"active","ping":53},{"user_id":29,"name":"corned beef","steam_id":76561199366782761,"connected_time":34000000000,"state":"active","ping":274},{"user_id":20,"name":"ilun","steam_id":76561198042913843,"connected_time":1586000000000,"state":"active","ping":62},{"user_id":21,"name":"Hector Salamanca","steam_id":76561199103213955,"connected_time":1549000000000,"state":"active","ping":66},{"user_id":22,"name":"Pepperest ((\u003eω\u003c ))","steam_id":76561199200969139,"connected_time":977000000000,"state":"active","ping":113},{"user_id":27,"name":"hoOmIN","steam_id":76561198334947079,"connected_time":362000000000,"state":"active","ping":56},{"user_id":24,"name":"popgamer2","steam_id":76561198170879397,"connected_time":737000000000,"state":"active","ping":45},{"user_id":25,"name":"PizzaMuncher89","steam_id":76561199121856753,"connected_time":723000000000,"state":"active","ping":79}]},{"server_id":18,"name":"Uncletopia | San Francisco | 2 | All Maps","name_short":"sfo-2","host":"sfo-1.us.uncletopia.com","port":27025,"enabled":true,"region":"us-west","cc":"us","latitude":37.77397,"longitude":-122.4313,"reserved":0,"last_update":"0001-01-01T00:00:00Z","name_a2s":"Uncletopia | San Francisco | 2 | All Maps","protocol":17,"map":"pl_badwater","folder":"tf","game":"Team Fortress","app_id":440,"player_count":19,"max_players":24,"Bots":0,"server_type":"Dedicated","server_os":"Linux","password":true,"vac":true,"version":"7961495","steam_id":85568392924470000,"keywords":["nocrits","nodmgspread","payload","uncletopia"],"game_id":440,"stv_port":27026,"stv_name":"Uncletopia | San Francisco | 2 | All Maps | STV","players":[{"user_id":429,"name":"[GUT] RiDiK®","steam_id":76561197969756446,"connected_time":2595000000000,"state":"active","ping":101},{"user_id":448,"name":"calculating every move","steam_id":76561198196998007,"connected_time":46000000000,"state":"active","ping":59},{"user_id":444,"name":"ceres","steam_id":76561198291976960,"connected_time":246000000000,"state":"active","ping":63},{"user_id":439,"name":"Keamy","steam_id":76561199471434875,"connected_time":1300000000000,"state":"active","ping":59},{"user_id":436,"name":"Amogous Supreme","steam_id":76561198025476774,"connected_time":1416000000000,"state":"active","ping":56},{"user_id":445,"name":"Sirmrmagoo","steam_id":76561198993190424,"connected_time":168000000000,"state":"active","ping":96},{"user_id":432,"name":"Mina's Ninas","steam_id":76561198046502179,"connected_time":2568000000000,"state":"active","ping":63},{"user_id":446,"name":"Joh Bags","steam_id":76561198097004438,"connected_time":163000000000,"state":"active","ping":64},{"user_id":449,"name":"green bean","steam_id":76561198113099204,"connected_time":18000000000,"state":"spawning","ping":32},{"user_id":420,"name":"moe","steam_id":76561198929586245,"connected_time":3515000000000,"state":"active","ping":54},{"user_id":443,"name":"d4ngerd4n","steam_id":76561198043758735,"connected_time":658000000000,"state":"active","ping":65},{"user_id":442,"name":"chippy","steam_id":76561199434772091,"connected_time":758000000000,"state":"active","ping":81},{"user_id":440,"name":"Telushealth","steam_id":76561199422760247,"connected_time":1222000000000,"state":"active","ping":77},{"user_id":428,"name":"Western_dragon","steam_id":76561198130456105,"connected_time":2642000000000,"state":"active","ping":61},{"user_id":404,"name":"MORE BOUNCE TO THE OUNCE","steam_id":76561198243399336,"connected_time":4266000000000,"state":"active","ping":59},{"user_id":417,"name":"selling rice","steam_id":76561198063357023,"connected_time":3544000000000,"state":"active","ping":47},{"user_id":437,"name":"Hector Salamanca","steam_id":76561198438876215,"connected_time":1377000000000,"state":"active","ping":113},{"user_id":346,"name":"Lord Brocktree","steam_id":76561198415527061,"connected_time":7827000000000,"state":"active","ping":71},{"user_id":438,"name":"nella","steam_id":76561198079349621,"connected_time":1351000000000,"state":"active","ping":55}]},{"server_id":19,"name":"Uncletopia | San Francisco | 3 | Stopwatch Beta","name_short":"sfo-3","host":"sfo-1.us.uncletopia.com","port":27035,"enabled":true,"region":"us-west","cc":"us","latitude":37.77397,"longitude":-122.4313,"reserved":0,"last_update":"0001-01-01T00:00:00Z","name_a2s":"Uncletopia | San Francisco | 3 | Stopwatch Beta","protocol":17,"map":"pl_borneo","folder":"tf","game":"Team Fortress","app_id":440,"player_count":0,"max_players":24,"Bots":0,"server_type":"Dedicated","server_os":"Linux","password":true,"vac":true,"version":"7961495","steam_id":85568392924742824,"keywords":["nocrits","nodmgspread","payload","uncletopia"],"game_id":440,"stv_port":27036,"stv_name":"Uncletopia | San Francisco | 3 | Stopwatch Beta | STV","players":null},{"server_id":20,"name":"Uncletopia | San Francisco | 4 | Community","name_short":"sfo-4","host":"sfo-1.us.uncletopia.com","port":27045,"enabled":true,"region":"us-west","cc":"us","latitude":37.77397,"longitude":-122.4313,"reserved":0,"last_update":"0001-01-01T00:00:00Z","name_a2s":"Uncletopia | San Francisco | 4 | Community","protocol":17,"map":"koth_viaduct","folder":"tf","game":"Team Fortress","app_id":440,"player_count":0,"max_players":24,"Bots":0,"server_type":"Dedicated","server_os":"Linux","password":true,"vac":true,"version":"7961495","steam_id":85568392924742826,"keywords":["cp","nocrits","nodmgspread","uncletopia"],"game_id":440,"stv_port":27046,"stv_name":"Uncletopia | San Francisco | 4 | Community | STV","players":null},{"server_id":141,"name":"Uncletopia | Sydney | 1 | All Maps","name_short":"syd-1","host":"syd-1.au.uncletopia.com","port":27015,"enabled":true,"region":"au","cc":"au","latitude":-33.865143,"longitude":151.2099,"reserved":0,"last_update":"0001-01-01T00:00:00Z","name_a2s":"Uncletopia | Sydney | 1 | All Maps","protocol":17,"map":"cp_snakewater_final1","folder":"tf","game":"Team Fortress","app_id":440,"player_count":0,"max_players":24,"Bots":0,"server_type":"Dedicated","server_os":"Linux","password":true,"vac":true,"version":"7961495","steam_id":85568392924470001,"keywords":["cp","nocrits","nodmgspread","uncletopia"],"game_id":440,"stv_port":27016,"stv_name":"Uncletopia | Sydney | 1 | All Maps | STV","players":null},{"server_id":123,"name":"Uncletopia | Sydney | 2 | All Maps","name_short":"syd-2","host":"syd-1.au.uncletopia.com","port":27025,"enabled":true,"region":"au","cc":"au","latitude":-33.865143,"longitude":151.2099,"reserved":0,"last_update":"0001-01-01T00:00:00Z","name_a2s":"Uncletopia | Sydney | 2 | All Maps","protocol":17,"map":"pl_snowycoast","folder":"tf","game":"Team Fortress","app_id":440,"player_count":0,"max_players":24,"Bots":0,"server_type":"Dedicated","server_os":"Linux","password":true,"vac":true,"version":"7961495","steam_id":85568392924470002,"keywords":["nocrits","nodmgspread","payload","uncletopia"],"game_id":440,"stv_port":27026,"stv_name":"Uncletopia | Sydney | 2 | All Maps | STV","players":null},{"server_id":395,"name":"Uncletopia | Sydney | 3 | All Maps","name_short":"syd-3","host":"syd-1.au.uncletopia.com","port":27035,"enabled":true,"region":"au","cc":"au","latitude":-33.865143,"longitude":151.2099,"reserved":0,"last_update":"0001-01-01T00:00:00Z","name_a2s":"Uncletopia | Sydney | 3 | All Maps","protocol":17,"map":"cp_dustbowl","folder":"tf","game":"Team Fortress","app_id":440,"player_count":0,"max_players":24,"Bots":0,"server_type":"Dedicated","server_os":"Linux","password":true,"vac":true,"version":"7961495","steam_id":85568392925194467,"keywords":["cp","nocrits","nodmgspread","uncletopia"],"game_id":440,"stv_port":27036,"stv_name":"Uncletopia | Sydney | 3 | All Maps | STV","players":null},{"server_id":396,"name":"Uncletopia | Sydney | 4 | All Maps","name_short":"syd-4","host":"syd-1.au.uncletopia.com","port":27045,"enabled":true,"region":"au","cc":"au","latitude":-33.865143,"longitude":151.2099,"reserved":0,"last_update":"0001-01-01T00:00:00Z","name_a2s":"Uncletopia | Sydney | 4 | All Maps","protocol":17,"map":"cp_dustbowl","folder":"tf","game":"Team Fortress","app_id":440,"player_count":0,"max_players":24,"Bots":0,"server_type":"Dedicated","server_os":"Linux","password":true,"vac":true,"version":"7961495","steam_id":85568392925397958,"keywords":["cp","nocrits","nodmgspread","uncletopia"],"game_id":440,"stv_port":27046,"stv_name":"Uncletopia | Sydney | 4 | All Maps | STV","players":null},{"server_id":58,"name":"Uncletopia | Sydney | 5 | Stopwatch Beta","name_short":"syd-5","host":"syd-1.au.uncletopia.com","port":27055,"enabled":true,"region":"au","cc":"au","latitude":-33.865143,"longitude":151.2099,"reserved":0,"last_update":"0001-01-01T00:00:00Z","name_a2s":"Uncletopia | Sydney | 5 | Stopwatch Beta","protocol":17,"map":"koth_viaduct","folder":"tf","game":"Team Fortress","app_id":440,"player_count":0,"max_players":24,"Bots":0,"server_type":"Dedicated","server_os":"Linux","password":true,"vac":true,"version":"7961495","steam_id":85568392925397959,"keywords":["cp","nocrits","nodmgspread","uncletopia"],"game_id":440,"stv_port":27056,"stv_name":"Uncletopia | Sydney | 5 | Stopwatch Beta | STV","players":null},{"server_id":59,"name":"Uncletopia | Sydney | 6 | Community","name_short":"syd-6","host":"syd-1.au.uncletopia.com","port":27065,"enabled":true,"region":"au","cc":"au","latitude":-33.865143,"longitude":151.2099,"reserved":0,"last_update":"0001-01-01T00:00:00Z","name_a2s":"Uncletopia | Sydney | 6 | Community","protocol":17,"map":"koth_cascade","folder":"tf","game":"Team Fortress","app_id":440,"player_count":0,"max_players":24,"Bots":0,"server_type":"Dedicated","server_os":"Linux","password":true,"vac":true,"version":"7961495","steam_id":85568392925397960,"keywords":["cp","nocrits","nodmgspread","uncletopia"],"game_id":440,"stv_port":27066,"stv_name":"Uncletopia | Sydney | 6 | Community | STV","players":null},{"server_id":49,"name":"Uncletopia | Warsaw | 1 | All Maps","name_short":"waw-1","host":"waw-1.pl.uncletopia.com","port":27015,"enabled":true,"region":"eu","cc":"pl","latitude":52.2297,"longitude":21.017532,"reserved":0,"last_update":"0001-01-01T00:00:00Z","name_a2s":"Uncletopia | Warsaw | 1 | All Maps","protocol":17,"map":"pl_swiftwater_final1","folder":"tf","game":"Team Fortress","app_id":440,"player_count":0,"max_players":24,"Bots":0,"server_type":"Dedicated","server_os":"Linux","password":true,"vac":true,"version":"7961495","steam_id":85568392925397850,"keywords":["nocrits","nodmgspread","payload","uncletopia"],"game_id":440,"stv_port":27016,"stv_name":"Uncletopia | Warsaw | 1 | All Maps | STV","players":null},{"server_id":50,"name":"Uncletopia | Warsaw | 2 | All Maps","name_short":"waw-2","host":"waw-1.pl.uncletopia.com","port":27025,"enabled":true,"region":"eu","cc":"pl","latitude":52.2297,"longitude":21.017532,"reserved":0,"last_update":"0001-01-01T00:00:00Z","name_a2s":"Uncletopia | Warsaw | 2 | All Maps","protocol":17,"map":"ctf_2fort","folder":"tf","game":"Team Fortress","app_id":440,"player_count":1,"max_players":24,"Bots":0,"server_type":"Dedicated","server_os":"Linux","password":true,"vac":true,"version":"7961495","steam_id":85568392925397851,"keywords":["ctf","nocrits","nodmgspread","uncletopia"],"game_id":440,"stv_port":27026,"stv_name":"Uncletopia | Warsaw | 2 | All Maps | STV","players":[{"user_id":21,"name":"Джекет","steam_id":76561198327897125,"connected_time":1303000000000,"state":"active","ping":89}]},{"server_id":51,"name":"Uncletopia | Warsaw | 3 | All Maps","name_short":"waw-3","host":"waw-1.pl.uncletopia.com","port":27035,"enabled":true,"region":"eu","cc":"pl","latitude":52.2297,"longitude":21.017532,"reserved":0,"last_update":"0001-01-01T00:00:00Z","name_a2s":"Uncletopia | Warsaw | 3 | All Maps","protocol":17,"map":"koth_viaduct","folder":"tf","game":"Team Fortress","app_id":440,"player_count":0,"max_players":24,"Bots":0,"server_type":"Dedicated","server_os":"Linux","password":true,"vac":true,"version":"7961495","steam_id":85568392925397852,"keywords":["cp","nocrits","nodmgspread","uncletopia"],"game_id":440,"stv_port":27036,"stv_name":"Uncletopia | Warsaw | 3 | All Maps | STV","players":null},{"server_id":52,"name":"Uncletopia | Warsaw | 4 | All Maps","name_short":"waw-4","host":"waw-1.pl.uncletopia.com","port":27045,"enabled":true,"region":"eu","cc":"pl","latitude":52.2297,"longitude":21.017532,"reserved":0,"last_update":"0001-01-01T00:00:00Z","name_a2s":"Uncletopia | Warsaw | 4 | All Maps","protocol":17,"map":"pl_barnblitz","folder":"tf","game":"Team Fortress","app_id":440,"player_count":0,"max_players":24,"Bots":0,"server_type":"Dedicated","server_os":"Linux","password":true,"vac":true,"version":"7961495","steam_id":85568392925397853,"keywords":["nocrits","nodmgspread","payload","uncletopia"],"game_id":440,"stv_port":27046,"stv_name":"Uncletopia | Warsaw | 4 | All Maps | STV","players":null},{"server_id":53,"name":"Uncletopia | Warsaw | 5 | Stopwatch Beta","name_short":"waw-5","host":"waw-1.pl.uncletopia.com","port":27055,"enabled":true,"region":"eu","cc":"pl","latitude":52.2297,"longitude":21.017532,"reserved":0,"last_update":"0001-01-01T00:00:00Z","name_a2s":"Uncletopia | Warsaw | 5 | Stopwatch Beta","protocol":17,"map":"workshop/pl_badwater_pro_v12.ugc2142942074","folder":"tf","game":"Team Fortress","app_id":440,"player_count":0,"max_players":24,"Bots":0,"server_type":"Dedicated","server_os":"Linux","password":true,"vac":true,"version":"7961495","steam_id":85568392925397854,"keywords":["nocrits","nodmgspread","payload","uncletopia"],"game_id":440,"stv_port":27056,"stv_name":"Uncletopia | Warsaw | 5 | Stopwatch Beta | STV","players":null},{"server_id":54,"name":"Uncletopia | Warsaw | 6 | Community","name_short":"waw-6","host":"waw-1.pl.uncletopia.com","port":27065,"enabled":true,"region":"eu","cc":"pl","latitude":52.2297,"longitude":21.017532,"reserved":0,"last_update":"0001-01-01T00:00:00Z","name_a2s":"Uncletopia | Warsaw | 6 | Community","protocol":17,"map":"workshop/pl_boundary_final1.ugc456799153","folder":"tf","game":"Team Fortress","app_id":440,"player_count":0,"max_players":24,"Bots":0,"server_type":"Dedicated","server_os":"Linux","password":true,"vac":true,"version":"7961495","steam_id":85568392925397856,"keywords":["nocrits","nodmgspread","payload","uncletopia"],"game_id":440,"stv_port":27066,"stv_name":"Uncletopia | Warsaw | 6 | Community | STV","players":null}]}