{"status":true,"message":"","result":[{"server_id":9,"name":"Uncletopia | Atlanta | 1 | All Maps","name_short":"atl-1","host":"atl-1.us.uncletopia.com","port":27015,"enabled":true,"region":"us-east","cc":"us","latitude":33.753746,"longitude":-84.38633,"reserved":0,"last_update":"0001-01-01T00:00:00Z","name_a2s":"Uncletopia | Atlanta | 1 | All Maps","protocol":17,"map":"cp_sunshine","folder":"tf","game":"Team Fortress","app_id":440,"player_count":24,"max_players":24,"Bots":0,"server_type":"Dedicated","server_os":"Linux","password":true,"vac":true,"version":"7757534","steam_id":85568392924469982,"keywords":["cp","nocrits","nodmgspread","uncletopia"],"game_id":440,"stv_port":27016,"stv_name":"Uncletopia | Atlanta | 1 | All Maps | STV","players":[{"user_id":597,"name":"BIG HOG","steam_id":76561198079923652,"connected_time":4189000000000,"state":"active","ping":71},{"user_id":607,"name":"SparkStorm","steam_id":76561198095817025,"connected_time":2803000000000,"state":"active","ping":35},{"user_id":590,"name":"lil hog","steam_id":76561199230929836,"connected_time":4504000000000,"state":"active","ping":77},{"user_id":635,"name":"Genetic Komodo","steam_id":76561198174806758,"connected_time":93000000000,"state":"active","ping":63},{"user_id":600,"name":"stink","steam_id":76561198099318923,"connected_time":4110000000000,"state":"active","ping":75},{"user_id":591,"name":"‚ô°Alyx‚ô°","steam_id":76561198024303978,"connected_time":4218000000000,"state":"active","ping":57},{"user_id":609,"name":"ATL 1 | Save your wifi","steam_id":76561198286147372,"connected_time":2787000000000,"state":"active","ping":53},{"user_id":625,"name":"jandajanda","steam_id":76561198235722476,"connected_time":509000000000,"state":"active","ping":51},{"user_id":627,"name":"Bottom Trans Cowgirl","steam_id":76561198304239680,"connected_time":477000000000,"state":"active","ping":74},{"user_id":623,"name":"DFR DeezNoodlez","steam_id":76561198246700372,"connected_time":889000000000,"state":"active","ping":58},{"user_id":606,"name":"Broken Cereal‚àö","steam_id":76561198087489795,"connected_time":2808000000000,"state":"active","ping":63},{"user_id":603,"name":"ATL1 | LuckyZero-_-","steam_id":76561198139891051,"connected_time":3954000000000,"state":"active","ping":64},{"user_id":624,"name":"Boop","steam_id":76561198376703875,"connected_time":514000000000,"state":"active","ping":67},{"user_id":523,"name":"mayhem","steam_id":76561199246637881,"connected_time":11790000000000,"state":"active","ping":59},{"user_id":608,"name":"shaderoses","steam_id":76561198070800500,"connected_time":2800000000000,"state":"active","ping":66},{"user_id":630,"name":"nabroleon","steam_id":76561198038080028,"connected_time":221000000000,"state":"active","ping":105},{"user_id":632,"name":"ATL1 | Bandi","steam_id":76561198432036026,"connected_time":205000000000,"state":"active","ping":58},{"user_id":495,"name":"eish","steam_id":76561198089463603,"connected_time":15278000000000,"state":"active","ping":120},{"user_id":599,"name":"floofy","steam_id":76561198389769098,"connected_time":4181000000000,"state":"active","ping":88},{"user_id":622,"name":"I\u003c3 DUSTBOWL STEEL AND VANGUARD","steam_id":76561198333513882,"connected_time":1052000000000,"state":"active","ping":73},{"user_id":628,"name":"BotchyAlarm8","steam_id":76561198092682129,"connected_time":477000000000,"state":"active","ping":75},{"user_id":577,"name":"DuckMann","steam_id":76561198197058638,"connected_time":6725000000000,"state":"active","ping":48},{"user_id":634,"name":"Tay1Qr","steam_id":76561198082809935,"connected_time":204000000000,"state":"active","ping":63},{"user_id":580,"name":"BambuBabyPackRunner","steam_id":76561198320866421,"connected_time":6691000000000,"state":"active","ping":59}]},{"server_id":400,"name":"Uncletopia | Atlanta | 3 | Community","name_short":"atl-3","host":"atl-1.us.uncletopia.com","port":27035,"enabled":true,"region":"us-east","cc":"us","latitude":33.753746,"longitude":-84.38633,"reserved":0,"last_update":"0001-01-01T00:00:00Z","name_a2s":"Uncletopia | Atlanta | 3 | Community","protocol":17,"map":"workshop/koth_ramjam_rc1.ugc459778887","folder":"tf","game":"Team Fortress","app_id":440,"player_count":23,"max_players":24,"Bots":0,"server_type":"Dedicated","server_os":"Linux","password":true,"vac":true,"version":"7757534","steam_id":85568392924515187,"keywords":["cp","nocrits","nodmgspread","uncletopia"],"game_id":440,"stv_port":27036,"stv_name":"Uncletopia | Atlanta | 3 | Community | STV","players":[{"user_id":204,"name":"Âä©„Åë„Å¶„Åè„Å†„Åï„ÅÑÁßÅ„ÅØËêΩ","steam_id":76561198840484105,"connected_time":1024000000000,"state":"active","ping":59},{"user_id":188,"name":"Klav02","steam_id":76561199109999974,"connected_time":3289000000000,"state":"active","ping":138},{"user_id":193,"name":"Lolman1502","steam_id":76561198441771103,"connected_time":2312000000000,"state":"active","ping":71},{"user_id":186,"name":"Artificial Unintelligence","steam_id":76561199056745987,"connected_time":3411000000000,"state":"active","ping":142},{"user_id":191,"name":"dr boom","steam_id":76561198202144304,"connected_time":3172000000000,"state":"active","ping":158},{"user_id":200,"name":"Armpit!","steam_id":76561197978095727,"connected_time":1543000000000,"state":"active","ping":125},{"user_id":185,"name":"fruitymario","steam_id":76561198047190430,"connected_time":3507000000000,"state":"active","ping":56},{"user_id":201,"name":"Munky","steam_id":76561197993491054,"connected_time":1501000000000,"state":"active","ping":106},{"user_id":198,"name":"Pyro Gaming","steam_id":76561198291447088,"connected_time":1865000000000,"state":"active","ping":145},{"user_id":202,"name":"\u003e:3 Muiramme Œµ—ó–∑","steam_id":76561197994458543,"connected_time":1389000000000,"state":"active","ping":120},{"user_id":203,"name":"Walmart Employee","steam_id":76561198840373909,"connected_time":1248000000000,"state":"active","ping":79},{"user_id":219,"name":"the inventor of Sex, Pisslord","steam_id":76561198074624639,"connected_time":154000000000,"state":"active","ping":72},{"user_id":214,"name":"Princess Little Piddles","steam_id":76561198430557120,"connected_time":313000000000,"state":"active","ping":110},{"user_id":207,"name":"All Class Gaming","steam_id":76561198806729611,"connected_time":638000000000,"state":"active","ping":118},{"user_id":208,"name":"Hard Soap","steam_id":76561198267905614,"connected_time":553000000000,"state":"active","ping":74},{"user_id":209,"name":"huh?","steam_id":76561198069407799,"connected_time":540000000000,"state":"active","ping":54},{"user_id":210,"name":"860.72‚ÇΩ KFC Tender Meal","steam_id":76561198168565679,"connected_time":524000000000,"state":"active","ping":67},{"user_id":216,"name":"Koi","steam_id":76561198104801287,"connected_time":203000000000,"state":"active","ping":68},{"user_id":213,"name":"Augustus","steam_id":76561198138526984,"connected_time":445000000000,"state":"active","ping":164},{"user_id":217,"name":"crankshaft","steam_id":76561197992798282,"connected_time":192000000000,"state":"active","ping":100},{"user_id":220,"name":"Bel","steam_id":76561198213140033,"connected_time":99000000000,"state":"active","ping":85},{"user_id":221,"name":"miner","steam_id":76561198073035221,"connected_time":28000000000,"state":"active","ping":76},{"user_id":222,"name":"JZ","steam_id":76561198377029198,"connected_time":24000000000,"state":"active","ping":62}]},{"server_id":401,"name":"Uncletopia | Atlanta | 4 | No Payload","name_short":"atl-4","host":"atl-1.us.uncletopia.com","port":27045,"enabled":true,"region":"us-east","cc":"us","latitude":33.753746,"longitude":-84.38633,"reserved":0,"last_update":"0001-01-01T00:00:00Z","name_a2s":"","protocol":0,"map":"","folder":"","game":"","app_id":0,"player_count":0,"max_players":0,"Bots":0,"server_type":"","server_os":"","password":false,"vac":false,"version":"","steam_id":0,"keywords":null,"game_id":0,"stv_port":0,"stv_name":"","players":null},{"server_id":2,"name":"Uncletopia | Chicago | 1 | All Maps","name_short":"chi-1","host":"chi-1.us.uncletopia.com","port":27015,"enabled":true,"region":"us-central","cc":"us","latitude":41.881832,"longitude":-87.62318,"reserved":0,"last_update":"0001-01-01T00:00:00Z","name_a2s":"Uncletopia | Chicago | 1 | All Maps","protocol":17,"map":"cp_mercenarypark","folder":"tf","game":"Team Fortress","app_id":440,"player_count":23,"max_players":24,"Bots":0,"server_type":"Dedicated","server_os":"Linux","password":true,"vac":true,"version":"7757534","steam_id":85568392924469984,"keywords":["cp","nocrits","nodmgspread","uncletopia"],"game_id":440,"stv_port":27016,"stv_name":"Uncletopia | Chicago | 1 | All Maps | STV","players":[{"user_id":444,"name":"jayzak24","steam_id":76561198354267509,"connected_time":1638000000000,"state":"active","ping":77},{"user_id":410,"name":"Monsterjessy","steam_id":76561198035630985,"connected_time":4709000000000,"state":"active","ping":60},{"user_id":466,"name":"Chicken Burger","steam_id":76561198358529311,"connected_time":0,"state":"spawning","ping":0},{"user_id":445,"name":"Candy Sparkles","steam_id":76561198126871264,"connected_time":1551000000000,"state":"active","ping":85},{"user_id":456,"name":"MasterGeek.MX","steam_id":76561198063355220,"connected_time":607000000000,"state":"active","ping":108},{"user_id":424,"name":"uhooter","steam_id":76561198007829078,"connected_time":2924000000000,"state":"active","ping":45},{"user_id":459,"name":"Brunch","steam_id":76561198045933938,"connected_time":531000000000,"state":"active","ping":54},{"user_id":458,"name":"Quietsharp","steam_id":76561198277968438,"connected_time":579000000000,"state":"active","ping":103},{"user_id":446,"name":"G_Bob","steam_id":76561198098133233,"connected_time":1550000000000,"state":"active","ping":78},{"user_id":460,"name":"Spygie","steam_id":76561198218573049,"connected_time":470000000000,"state":"active","ping":51},{"user_id":461,"name":"Roloman11","steam_id":76561198308927283,"connected_time":460000000000,"state":"active","ping":72},{"user_id":429,"name":"bron jame","steam_id":76561198202195792,"connected_time":2850000000000,"state":"active","ping":60},{"user_id":462,"name":"Jojojo","steam_id":76561199214266029,"connected_time":455000000000,"state":"active","ping":167},{"user_id":449,"name":"metaLfaceshriLL","steam_id":76561198105538929,"connected_time":1509000000000,"state":"active","ping":46},{"user_id":432,"name":"Temujin","steam_id":76561198030936583,"connected_time":2808000000000,"state":"active","ping":49},{"user_id":450,"name":"OpenDown","steam_id":76561198064132688,"connected_time":1495000000000,"state":"active","ping":59},{"user_id":451,"name":"RandyPickleshoes [BEC]","steam_id":76561198064139260,"connected_time":1487000000000,"state":"active","ping":73},{"user_id":436,"name":"Dr Smeggman","steam_id":76561197966614845,"connected_time":2629000000000,"state":"active","ping":127},{"user_id":465,"name":"Bronze Age GRINDSET","steam_id":76561198859118263,"connected_time":179000000000,"state":"active","ping":70},{"user_id":454,"name":"Magnus Rex","steam_id":76561197987091236,"connected_time":1083000000000,"state":"active","ping":72},{"user_id":407,"name":"Thunderous","steam_id":76561198192752793,"connected_time":4801000000000,"state":"active","ping":65},{"user_id":441,"name":"SCATTER","steam_id":76561198405168492,"connected_time":2493000000000,"state":"active","ping":76},{"user_id":464,"name":"Gary Budussy","steam_id":76561197969793969,"connected_time":435000000000,"state":"active","ping":67}]},{"server_id":106,"name":"Uncletopia | Chicago | 2 | All Maps","name_short":"chi-2","host":"chi-1.us.uncletopia.com","port":27025,"enabled":true,"region":"us-central","cc":"us","latitude":41.881832,"longitude":-87.62318,"reserved":0,"last_update":"0001-01-01T00:00:00Z","name_a2s":"Uncletopia | Chicago | 2 | All Maps","protocol":17,"map":"pl_thundermountain","folder":"tf","game":"Team Fortress","app_id":440,"player_count":24,"max_players":24,"Bots":0,"server_type":"Dedicated","server_os":"Linux","password":true,"vac":true,"version":"7757534","steam_id":85568392924469985,"keywords":["nocrits","nodmgspread","payload","uncletopia"],"game_id":440,"stv_port":27026,"stv_name":"Uncletopia | Chicago | 2 | All Maps | STV","players":[{"user_id":695,"name":"c00kie","steam_id":76561198418178297,"connected_time":2529000000000,"state":"active","ping":45},{"user_id":698,"name":"Codo Sapien","steam_id":76561198014206810,"connected_time":2479000000000,"state":"active","ping":34},{"user_id":467,"name":"Phil Collins","steam_id":76561198068868644,"connected_time":13175000000000,"state":"active","ping":105},{"user_id":710,"name":"kent C Straight","steam_id":76561198056190259,"connected_time":543000000000,"state":"active","ping":65},{"user_id":709,"name":"Porsy","steam_id":76561198041850843,"connected_time":574000000000,"state":"active","ping":47},{"user_id":711,"name":"nake","steam_id":76561198004619118,"connected_time":539000000000,"state":"active","ping":99},{"user_id":712,"name":"Gammerman","steam_id":76561198046942778,"connected_time":401000000000,"state":"active","ping":83},{"user_id":515,"name":"deadpixel","steam_id":76561198150249843,"connected_time":10925000000000,"state":"active","ping":60},{"user_id":713,"name":"shyminotaur","steam_id":76561198454003812,"connected_time":400000000000,"state":"active","ping":50},{"user_id":688,"name":"D.LeBlanc","steam_id":76561198119483989,"connected_time":3732000000000,"state":"active","ping":82},{"user_id":647,"name":"Marisad","steam_id":76561198843890616,"connected_time":6551000000000,"state":"active","ping":88},{"user_id":714,"name":"chicken coup d'√©tat","steam_id":76561198069586736,"connected_time":398000000000,"state":"active","ping":70},{"user_id":676,"name":"Arnude","steam_id":76561198128553858,"connected_time":4709000000000,"state":"active","ping":74},{"user_id":721,"name":"RabidSoda","steam_id":76561198115416316,"connected_time":209000000000,"state":"active","ping":89},{"user_id":648,"name":"cotton candy thief","steam_id":76561198058998371,"connected_time":6543000000000,"state":"active","ping":69},{"user_id":561,"name":"ApertureCity","steam_id":76561198004153607,"connected_time":9020000000000,"state":"active","ping":84},{"user_id":716,"name":"malarkey","steam_id":76561198084544420,"connected_time":345000000000,"state":"active","ping":58},{"user_id":702,"name":"Zicky Nee","steam_id":76561198042601111,"connected_time":1872000000000,"state":"active","ping":72},{"user_id":720,"name":"Maria \u003c3","steam_id":76561199192798666,"connected_time":240000000000,"state":"active","ping":75},{"user_id":718,"name":"GrislyFrisbee","steam_id":76561198255313020,"connected_time":318000000000,"state":"active","ping":118},{"user_id":701,"name":"StonedGiant","steam_id":76561197984386932,"connected_time":2438000000000,"state":"active","ping":63},{"user_id":719,"name":"Mitchacho74","steam_id":76561198087986935,"connected_time":305000000000,"state":"active","ping":56},{"user_id":708,"name":".-.","steam_id":76561198820617005,"connected_time":653000000000,"state":"active","ping":108},{"user_id":697,"name":"countrychefbeerboy92","steam_id":76561198132476501,"connected_time":2527000000000,"state":"active","ping":43}]},{"server_id":402,"name":"Uncletopia | Chicago | 3 | All Maps","name_short":"chi-3","host":"chi-1.us.uncletopia.com","port":27035,"enabled":true,"region":"us-central","cc":"us","latitude":41.881832,"longitude":-87.62318,"reserved":0,"last_update":"0001-01-01T00:00:00Z","name_a2s":"Uncletopia | Chicago | 3 | All Maps","protocol":17,"map":"pl_thundermountain","folder":"tf","game":"Team Fortress","app_id":440,"player_count":24,"max_players":24,"Bots":0,"server_type":"Dedicated","server_os":"Linux","password":true,"vac":true,"version":"7757534","steam_id":85568392924515191,"keywords":["nocrits","nodmgspread","payload","uncletopia"],"game_id":440,"stv_port":27036,"stv_name":"Uncletopia | Chicago | 3 | All Maps | STV","players":[{"user_id":366,"name":"Javis","steam_id":76561198204163123,"connected_time":2314000000000,"state":"active","ping":63},{"user_id":399,"name":"Thenml","steam_id":76561199091976537,"connected_time":289000000000,"state":"active","ping":78},{"user_id":379,"name":"Waylen","steam_id":76561198945724920,"connected_time":1447000000000,"state":"active","ping":86},{"user_id":371,"name":"Satori Komeiji","steam_id":76561198158211423,"connected_time":2175000000000,"state":"active","ping":94},{"user_id":356,"name":"Pontifex","steam_id":76561198013016489,"connected_time":2849000000000,"state":"active","ping":85},{"user_id":381,"name":"OrangeSodaMachine","steam_id":76561198079230156,"connected_time":1336000000000,"state":"active","ping":140},{"user_id":401,"name":"Andy","steam_id":76561198043115724,"connected_time":216000000000,"state":"active","ping":78},{"user_id":400,"name":"kametro4","steam_id":76561198835430429,"connected_time":267000000000,"state":"active","ping":81},{"user_id":383,"name":"TheGreatDong","steam_id":76561198000634178,"connected_time":1260000000000,"state":"active","ping":114},{"user_id":397,"name":"[DEEP] Roz257","steam_id":76561198842844532,"connected_time":707000000000,"state":"active","ping":64},{"user_id":322,"name":"wheres my drink?","steam_id":76561198031675881,"connected_time":5154000000000,"state":"active","ping":51},{"user_id":374,"name":"Nephs","steam_id":76561198136763403,"connected_time":2041000000000,"state":"active","ping":72},{"user_id":387,"name":"Possessd Pyro","steam_id":76561198389830988,"connected_time":1165000000000,"state":"active","ping":62},{"user_id":388,"name":"The Colonel","steam_id":76561198004147927,"connected_time":1158000000000,"state":"active","ping":77},{"user_id":389,"name":"weed lesbian","steam_id":76561198042263805,"connected_time":1129000000000,"state":"active","ping":84},{"user_id":390,"name":"Darth Phrogg","steam_id":76561198150844229,"connected_time":1111000000000,"state":"active","ping":71},{"user_id":376,"name":"El Laminator","steam_id":76561198170313697,"connected_time":1625000000000,"state":"active","ping":85},{"user_id":393,"name":"[DEEP] Danmar33","steam_id":76561198056453091,"connected_time":1044000000000,"state":"active","ping":53},{"user_id":402,"name":"Crafty","steam_id":76561199217624073,"connected_time":209000000000,"state":"active","ping":108},{"user_id":392,"name":"IGuy","steam_id":76561197996590728,"connected_time":1091000000000,"state":"active","ping":60},{"user_id":395,"name":"GreekGoat_Coffee","steam_id":76561198129331088,"connected_time":951000000000,"state":"active","ping":45},{"user_id":394,"name":"holyward7787","steam_id":76561199164183180,"connected_time":1038000000000,"state":"active","ping":86},{"user_id":398,"name":"Tintin","steam_id":76561198280361925,"connected_time":483000000000,"state":"active","ping":96},{"user_id":320,"name":"shadow wizard","steam_id":76561198165212575,"connected_time":5554000000000,"state":"active","ping":75}]},{"server_id":403,"name":"Uncletopia | Chicago | 4 | All Maps","name_short":"chi-4","host":"chi-1.us.uncletopia.com","port":27045,"enabled":true,"region":"us-central","cc":"us","latitude":41.881832,"longitude":-87.62318,"reserved":0,"last_update":"0001-01-01T00:00:00Z","name_a2s":"Uncletopia | Chicago | 4 | All Maps","protocol":17,"map":"pl_upward","folder":"tf","game":"Team Fortress","app_id":440,"player_count":23,"max_players":24,"Bots":0,"server_type":"Dedicated","server_os":"Linux","password":true,"vac":true,"version":"7757534","steam_id":85568392924515193,"keywords":["nocrits","nodmgspread","payload","uncletopia"],"game_id":440,"stv_port":27046,"stv_name":"Uncletopia | Chicago | 4 | All Maps | STV","players":[{"user_id":917,"name":"Sam","steam_id":76561198079393512,"connected_time":791000000000,"state":"active","ping":71},{"user_id":916,"name":"Ap1hw","steam_id":76561199122883466,"connected_time":1061000000000,"state":"active","ping":83},{"user_id":808,"name":"yamme","steam_id":76561198117849124,"connected_time":6336000000000,"state":"active","ping":102},{"user_id":831,"name":"years","steam_id":76561197994098627,"connected_time":5218000000000,"state":"active","ping":116},{"user_id":913,"name":"soultheori","steam_id":76561198065538342,"connected_time":1228000000000,"state":"active","ping":78},{"user_id":905,"name":"Spoilt Pudding","steam_id":76561198001195423,"connected_time":1459000000000,"state":"active","ping":79},{"user_id":891,"name":"Theory-ZaZa","steam_id":76561198116419931,"connected_time":2602000000000,"state":"active","ping":106},{"user_id":921,"name":"cooltool21","steam_id":76561197996817585,"connected_time":4000000000,"state":"spawning","ping":76},{"user_id":919,"name":"klaus","steam_id":76561199008634102,"connected_time":708000000000,"state":"active","ping":74},{"user_id":918,"name":"Female Gamer","steam_id":76561199366482682,"connected_time":772000000000,"state":"active","ping":106},{"user_id":847,"name":"wake up","steam_id":76561198072179483,"connected_time":4789000000000,"state":"active","ping":89},{"user_id":881,"name":"TheTruthOfTheCessationOfDukkha","steam_id":76561198214370515,"connected_time":3474000000000,"state":"active","ping":53},{"user_id":903,"name":"Puke Skyfucker","steam_id":76561198012846213,"connected_time":1612000000000,"state":"active","ping":69},{"user_id":906,"name":"drdoofus123","steam_id":76561198016826181,"connected_time":1454000000000,"state":"active","ping":71},{"user_id":845,"name":"ShredMaan","steam_id":76561198429982138,"connected_time":4838000000000,"state":"active","ping":105},{"user_id":914,"name":"Clemont007","steam_id":76561198030935625,"connected_time":1212000000000,"state":"active","ping":116},{"user_id":910,"name":"puke","steam_id":76561197999279693,"connected_time":1361000000000,"state":"active","ping":70},{"user_id":896,"name":"ultralisk52","steam_id":76561198051666604,"connected_time":2430000000000,"state":"active","ping":68},{"user_id":898,"name":"Tomo Aizawa","steam_id":76561198102925226,"connected_time":2356000000000,"state":"active","ping":85},{"user_id":911,"name":"Gremlin Bird","steam_id":76561198039624549,"connected_time":1361000000000,"state":"active","ping":79},{"user_id":912,"name":"hud_saytext_time 0","steam_id":76561198010327228,"connected_time":1351000000000,"state":"active","ping":164},{"user_id":920,"name":"Sarbanes-Oxley","steam_id":76561197975898479,"connected_time":704000000000,"state":"active","ping":66},{"user_id":902,"name":"TheChickenChuck","steam_id":76561199192686708,"connected_time":1636000000000,"state":"active","ping":94}]},{"server_id":36,"name":"Uncletopia | Chicago | 5 | All Maps","name_short":"chi-5","host":"chi-2.us.uncletopia.com","port":27015,"enabled":true,"region":"us-central","cc":"us","latitude":41.881832,"longitude":-87.62318,"reserved":0,"last_update":"0001-01-01T00:00:00Z","name_a2s":"Uncletopia | Chicago | 5 | All Maps","protocol":17,"map":"pl_upward","folder":"tf","game":"Team Fortress","app_id":440,"player_count":24,"max_players":24,"Bots":0,"server_type":"Dedicated","server_os":"Linux","password":true,"vac":true,"version":"7757534","steam_id":85568392924866362,"keywords":["nocrits","nodmgspread","payload","uncletopia"],"game_id":440,"stv_port":27016,"stv_name":"Uncletopia | Chicago | 5 | All Maps | STV","players":[{"user_id":87,"name":"Swshbcklr","steam_id":76561197969421355,"connected_time":15442000000000,"state":"active","ping":73},{"user_id":252,"name":"Hi! I'm Twilight Sparkle! :)","steam_id":76561198982584470,"connected_time":151000000000,"state":"active","ping":388},{"user_id":251,"name":"Deliverance2me","steam_id":76561198093825175,"connected_time":526000000000,"state":"active","ping":86},{"user_id":242,"name":"Wilhelmktx","steam_id":76561198158102295,"connected_time":1848000000000,"state":"active","ping":55},{"user_id":243,"name":"CoPilot","steam_id":76561198798217843,"connected_time":1824000000000,"state":"active","ping":80},{"user_id":222,"name":"Reisen","steam_id":76561197968832019,"connected_time":4007000000000,"state":"active","ping":70},{"user_id":253,"name":"Treeckogeek","steam_id":76561198453328078,"connected_time":121000000000,"state":"active","ping":60},{"user_id":246,"name":"TGPupps","steam_id":76561198281201914,"connected_time":1702000000000,"state":"active","ping":150},{"user_id":231,"name":"sokka","steam_id":76561198046650995,"connected_time":3287000000000,"state":"active","ping":86},{"user_id":172,"name":"Lia_Rein","steam_id":76561198151569597,"connected_time":7985000000000,"state":"active","ping":153},{"user_id":232,"name":"Chaos","steam_id":76561199068325065,"connected_time":2944000000000,"state":"active","ping":95},{"user_id":234,"name":"Phillip Jeffries","steam_id":76561198064052174,"connected_time":2745000000000,"state":"active","ping":66},{"user_id":203,"name":"bojack from the show bojack hor","steam_id":76561198053006712,"connected_time":5785000000000,"state":"active","ping":61},{"user_id":244,"name":"LaunchpadMcQuack","steam_id":76561198022302377,"connected_time":1777000000000,"state":"active","ping":63},{"user_id":240,"name":"Sonicega","steam_id":76561198044362988,"connected_time":1938000000000,"state":"active","ping":57},{"user_id":226,"name":"Constipated Barry","steam_id":76561198004482269,"connected_time":3663000000000,"state":"active","ping":104},{"user_id":249,"name":"mao zaddy","steam_id":76561198283687382,"connected_time":703000000000,"state":"active","ping":75},{"user_id":111,"name":"HumFreY","steam_id":76561198076639682,"connected_time":13522000000000,"state":"active","ping":76},{"user_id":239,"name":"CelestialParadox","steam_id":76561198355116118,"connected_time":2494000000000,"state":"active","ping":62},{"user_id":218,"name":"Vapeinhand","steam_id":76561198134439943,"connected_time":4420000000000,"state":"active","ping":69},{"user_id":219,"name":"totally not a pile of beans","steam_id":76561198119851931,"connected_time":4411000000000,"state":"active","ping":86},{"user_id":254,"name":"prestige worldwide (wide)","steam_id":76561198045655893,"connected_time":115000000000,"state":"active","ping":64},{"user_id":245,"name":"Aeront","steam_id":76561198072032723,"connected_time":1763000000000,"state":"active","ping":93},{"user_id":205,"name":"katryna","steam_id":76561198023440304,"connected_time":5377000000000,"state":"active","ping":60}]},{"server_id":37,"name":"Uncletopia | Chicago | 6 | All Maps","name_short":"chi-6","host":"chi-2.us.uncletopia.com","port":27025,"enabled":true,"region":"us-central","cc":"us","latitude":41.881832,"longitude":-87.62318,"reserved":0,"last_update":"0001-01-01T00:00:00Z","name_a2s":"Uncletopia | Chicago | 6 | All Maps","protocol":17,"map":"pl_badwater","folder":"tf","game":"Team Fortress","app_id":440,"player_count":24,"max_players":24,"Bots":0,"server_type":"Dedicated","server_os":"Linux","password":true,"vac":true,"version":"7757534","steam_id":85568392924866363,"keywords":["nocrits","nodmgspread","payload","uncletopia"],"game_id":440,"stv_port":27026,"stv_name":"Uncletopia | Chicago | 6 | All Maps | STV","players":[{"user_id":685,"name":"Eric","steam_id":76561198057717934,"connected_time":3114000000000,"state":"active","ping":45},{"user_id":705,"name":"Tectonic11","steam_id":76561198061169359,"connected_time":876000000000,"state":"active","ping":65},{"user_id":708,"name":"Sergeant Radovan","steam_id":76561198287779085,"connected_time":780000000000,"state":"active","ping":94},{"user_id":716,"name":"Dr. Dick","steam_id":76561198138011922,"connected_time":187000000000,"state":"active","ping":76},{"user_id":707,"name":"finkle","steam_id":76561198388089772,"connected_time":820000000000,"state":"active","ping":92},{"user_id":709,"name":"NovaStar","steam_id":76561198421340963,"connected_time":770000000000,"state":"active","ping":63},{"user_id":691,"name":"Zizen","steam_id":76561199011832069,"connected_time":2379000000000,"state":"active","ping":110},{"user_id":679,"name":"Nodin","steam_id":76561198135757376,"connected_time":3654000000000,"state":"active","ping":56},{"user_id":704,"name":"Luna_Blossom","steam_id":76561198816384987,"connected_time":1011000000000,"state":"active","ping":270},{"user_id":693,"name":"Alpha Goose","steam_id":76561198038927852,"connected_time":2340000000000,"state":"active","ping":73},{"user_id":700,"name":"footoftheday","steam_id":76561198052712449,"connected_time":1506000000000,"state":"active","ping":72},{"user_id":710,"name":"Colin102004","steam_id":76561198202384334,"connected_time":753000000000,"state":"active","ping":50},{"user_id":660,"name":"aya fumo","steam_id":76561198061621275,"connected_time":5417000000000,"state":"active","ping":78},{"user_id":661,"name":"momiji fumo","steam_id":76561198066698922,"connected_time":5414000000000,"state":"active","ping":56},{"user_id":654,"name":"blank","steam_id":76561198105529673,"connected_time":5693000000000,"state":"active","ping":90},{"user_id":701,"name":"malarkeyman","steam_id":76561198844473584,"connected_time":1495000000000,"state":"active","ping":58},{"user_id":717,"name":"Vimh","steam_id":76561198384938589,"connected_time":183000000000,"state":"active","ping":94},{"user_id":718,"name":"Thequirka","steam_id":76561198968058652,"connected_time":166000000000,"state":"active","ping":93},{"user_id":680,"name":"kitchen crusader","steam_id":76561199217620385,"connected_time":3622000000000,"state":"active","ping":71},{"user_id":712,"name":"King Cotton","steam_id":76561198292444376,"connected_time":706000000000,"state":"active","ping":91},{"user_id":702,"name":"Newt","steam_id":76561198044250254,"connected_time":1473000000000,"state":"active","ping":138},{"user_id":703,"name":"OhBoyIt'sEthan | sups.gg","steam_id":76561198157767705,"connected_time":1130000000000,"state":"active","ping":69},{"user_id":713,"name":"Reginald Von Dillisbuff III","steam_id":76561198829303833,"connected_time":686000000000,"state":"active","ping":49},{"user_id":719,"name":"Darkmaen","steam_id":76561198060543390,"connected_time":141000000000,"state":"active","ping":139}]},{"server_id":38,"name":"Uncletopia | Chicago | 7 | Stopwatch Beta","name_short":"chi-7","host":"chi-2.us.uncletopia.com","port":27035,"enabled":true,"region":"us-central","cc":"us","latitude":41.881832,"longitude":-87.62318,"reserved":0,"last_update":"0001-01-01T00:00:00Z","name_a2s":"Uncletopia | Chicago | 7 | Stopwatch Beta","protocol":17,"map":"koth_lakeside_final","folder":"tf","game":"Team Fortress","app_id":440,"player_count":0,"max_players":24,"Bots":0,"server_type":"Dedicated","server_os":"Linux","password":true,"vac":true,"version":"7757534","steam_id":85568392924866364,"keywords":["cp","nocrits","nodmgspread","uncletopia"],"game_id":440,"stv_port":27036,"stv_name":"Uncletopia | Chicago | 7 | Stopwatch Beta | STV","players":null},{"server_id":39,"name":"Uncletopia | Chicago | 8 | Community","name_short":"chi-8","host":"chi-2.us.uncletopia.com","port":27045,"enabled":true,"region":"us-central","cc":"us","latitude":41.881832,"longitude":-87.62318,"reserved":0,"last_update":"0001-01-01T00:00:00Z","name_a2s":"Uncletopia | Chicago | 8 | Community","protocol":17,"map":"workshop/rd_asteroid_redux_b1.ugc2154902912","folder":"tf","game":"Team Fortress","app_id":440,"player_count":0,"max_players":24,"Bots":0,"server_type":"Dedicated","server_os":"Linux","password":true,"vac":true,"version":"7757534","steam_id":85568392924866365,"keywords":["beta","nocrits","nodmgspread","rd","uncletopia"],"game_id":440,"stv_port":27046,"stv_name":"Uncletopia | Chicago | 8 | Community | STV","players":null},{"server_id":8,"name":"Uncletopia | Dallas | 1 | All Maps","name_short":"dal-1","host":"dal-1.us.uncletopia.com","port":27015,"enabled":true,"region":"us-central","cc":"us","latitude":32.779167,"longitude":-96.80889,"reserved":0,"last_update":"0001-01-01T00:00:00Z","name_a2s":"Uncletopia | Dallas | 1 | All Maps","protocol":17,"map":"plr_hightower","folder":"tf","game":"Team Fortress","app_id":440,"player_count":24,"max_players":24,"Bots":0,"server_type":"Dedicated","server_os":"Linux","password":true,"vac":true,"version":"7757534","steam_id":85568392924469986,"keywords":["nocrits","nodmgspread","payload","uncletopia"],"game_id":440,"stv_port":27016,"stv_name":"Uncletopia | Dallas | 1 | All Maps | STV","players":[{"user_id":475,"name":"CursedCortex","steam_id":76561198273978459,"connected_time":578000000000,"state":"active","ping":61},{"user_id":452,"name":"ya boi","steam_id":76561198420218460,"connected_time":3175000000000,"state":"active","ping":51},{"user_id":456,"name":"Demianeithor","steam_id":76561198800036537,"connected_time":2395000000000,"state":"active","ping":61},{"user_id":465,"name":"Pleiades, the Sorceror","steam_id":76561198079590693,"connected_time":1813000000000,"state":"active","ping":64},{"user_id":479,"name":"damiankiller1243","steam_id":76561198868885090,"connected_time":357000000000,"state":"active","ping":70},{"user_id":421,"name":"Ryo31337","steam_id":76561198063083553,"connected_time":6209000000000,"state":"active","ping":55},{"user_id":462,"name":"Etomb","steam_id":76561198210017208,"connected_time":1875000000000,"state":"active","ping":73},{"user_id":414,"name":"Rosemaryüåô ÂπΩÈúä [ 1 9 9 8 ","steam_id":76561198807726226,"connected_time":6740000000000,"state":"active","ping":105},{"user_id":455,"name":"Jelpo","steam_id":76561198406920072,"connected_time":2407000000000,"state":"active","ping":73},{"user_id":451,"name":"[LINUX] Purple Penguin Pybro","steam_id":76561198093538786,"connected_time":3233000000000,"state":"active","ping":46},{"user_id":463,"name":"SPREAD CHRISTMAS CHEER AND JOY","steam_id":76561198800386026,"connected_time":1871000000000,"state":"active","ping":93},{"user_id":387,"name":"Lemon Demon Enthusiast","steam_id":76561199026721822,"connected_time":8873000000000,"state":"active","ping":93},{"user_id":431,"name":"[ŸäŸáŸàÿØŸä] Bill Clinton [◊ê◊ú","steam_id":76561198163291190,"connected_time":4981000000000,"state":"active","ping":98},{"user_id":471,"name":"Barbarian","steam_id":76561198008063409,"connected_time":1521000000000,"state":"active","ping":77},{"user_id":476,"name":"Jared In Target","steam_id":76561198372449718,"connected_time":556000000000,"state":"active","ping":52},{"user_id":480,"name":"ari ‚úø","steam_id":76561198141580065,"connected_time":309000000000,"state":"active","ping":78},{"user_id":469,"name":"Arcane Flame","steam_id":76561198360024422,"connected_time":1706000000000,"state":"active","ping":87},{"user_id":474,"name":"plink","steam_id":76561198057829889,"connected_time":941000000000,"state":"active","ping":107},{"user_id":428,"name":"pour","steam_id":76561198127525888,"connected_time":5016000000000,"state":"active","ping":56},{"user_id":459,"name":"Miss Pauling Gaming","steam_id":76561198078479083,"connected_time":2237000000000,"state":"active","ping":60},{"user_id":423,"name":"radiohead enjoyer","steam_id":76561198397662124,"connected_time":6117000000000,"state":"active","ping":69},{"user_id":477,"name":"Lichy","steam_id":76561198310682841,"connected_time":552000000000,"state":"active","ping":73},{"user_id":426,"name":"jturner1nm","steam_id":76561198344493652,"connected_time":5294000000000,"state":"active","ping":120},{"user_id":460,"name":"Tako","steam_id":76561199264073138,"connected_time":2237000000000,"state":"active","ping":61}]},{"server_id":108,"name":"Uncletopia | Dallas | 2 | All Maps","name_short":"dal-2","host":"dal-1.us.uncletopia.com","port":27025,"enabled":true,"region":"us-central","cc":"us","latitude":32.779167,"longitude":-96.80889,"reserved":0,"last_update":"0001-01-01T00:00:00Z","name_a2s":"Uncletopia | Dallas | 2 | All Maps","protocol":17,"map":"pl_swiftwater_final1","folder":"tf","game":"Team Fortress","app_id":440,"player_count":24,"max_players":24,"Bots":0,"server_type":"Dedicated","server_os":"Linux","password":true,"vac":true,"version":"7757534","steam_id":85568392924469988,"keywords":["nocrits","nodmgspread","payload","uncletopia"],"game_id":440,"stv_port":27026,"stv_name":"Uncletopia | Dallas | 2 | All Maps | STV","players":[{"user_id":255,"name":"your mom calls me princess too","steam_id":76561198020400899,"connected_time":4365000000000,"state":"active","ping":57},{"user_id":270,"name":"FearTheJynx","steam_id":76561198136487957,"connected_time":2918000000000,"state":"active","ping":62},{"user_id":285,"name":"FuzzBall_","steam_id":76561198099822893,"connected_time":1332000000000,"state":"active","ping":55},{"user_id":266,"name":"Can You Feel It Mr.Krabs","steam_id":76561198128302414,"connected_time":3696000000000,"state":"active","ping":65},{"user_id":279,"name":"Venom","steam_id":76561198024966415,"connected_time":2447000000000,"state":"active","ping":68},{"user_id":301,"name":"smelly boy james(he stinkin)","steam_id":76561197997006216,"connected_time":1004000000000,"state":"active","ping":70},{"user_id":287,"name":"CraigHawksbill","steam_id":76561199000670185,"connected_time":1293000000000,"state":"active","ping":84},{"user_id":288,"name":"Leviathan","steam_id":76561197997528907,"connected_time":1232000000000,"state":"active","ping":73},{"user_id":292,"name":"Jiminy the Stock Player","steam_id":76561198962626776,"connected_time":1102000000000,"state":"active","ping":121},{"user_id":256,"name":"Poopie Babie","steam_id":76561198047500494,"connected_time":4357000000000,"state":"active","ping":57},{"user_id":280,"name":"xZackAttack27x","steam_id":76561198035446639,"connected_time":2442000000000,"state":"active","ping":30},{"user_id":303,"name":"DotA Psychologist","steam_id":76561198052171640,"connected_time":538000000000,"state":"active","ping":76},{"user_id":284,"name":"futuresauce","steam_id":76561198273727757,"connected_time":1781000000000,"state":"active","ping":72},{"user_id":294,"name":"Diego Sandals","steam_id":76561198854221260,"connected_time":1060000000000,"state":"active","ping":138},{"user_id":277,"name":"the_J_d0c","steam_id":76561198977851944,"connected_time":2639000000000,"state":"active","ping":54},{"user_id":295,"name":"UnOfficial_DoorHolder","steam_id":76561198436330687,"connected_time":1048000000000,"state":"active","ping":85},{"user_id":296,"name":"Lezabel","steam_id":76561198970753261,"connected_time":1040000000000,"state":"active","ping":73},{"user_id":297,"name":"Dragus","steam_id":76561198032967285,"connected_time":1027000000000,"state":"active","ping":72},{"user_id":304,"name":"Sup m8","steam_id":76561198081659121,"connected_time":96000000000,"state":"active","ping":44},{"user_id":302,"name":"NoShen","steam_id":76561198147434663,"connected_time":922000000000,"state":"active","ping":60},{"user_id":253,"name":"bird doctor","steam_id":76561199144340440,"connected_time":4571000000000,"state":"active","ping":60},{"user_id":89,"name":"Ghaeril","steam_id":76561198047880019,"connected_time":16066000000000,"state":"active","ping":60},{"user_id":300,"name":"American freedom bird","steam_id":76561198366142388,"connected_time":1008000000000,"state":"active","ping":91},{"user_id":260,"name":"Trashgaming","steam_id":76561199184268442,"connected_time":4265000000000,"state":"active","ping":102}]},{"server_id":5,"name":"Uncletopia | Frankfurt | 1 | All Maps","name_short":"frk-1","host":"frk-1.de.uncletopia.com","port":27015,"enabled":true,"region":"eu","cc":"de","latitude":50.110924,"longitude":8.682127,"reserved":0,"last_update":"0001-01-01T00:00:00Z","name_a2s":"Uncletopia | Frankfurt | 1 | All Maps","protocol":17,"map":"koth_cascade","folder":"tf","game":"Team Fortress","app_id":440,"player_count":0,"max_players":24,"Bots":0,"server_type":"Dedicated","server_os":"Linux","password":true,"vac":true,"version":"7757534","steam_id":85568392924469989,"keywords":["cp","nocrits","nodmgspread","uncletopia"],"game_id":440,"stv_port":27016,"stv_name":"Uncletopia | Frankfurt | 1 | All Maps | STV","players":null},{"server_id":110,"name":"Uncletopia | Frankfurt | 2 | All Maps","name_short":"frk-2","host":"frk-1.de.uncletopia.com","port":27025,"enabled":true,"region":"eu","cc":"de","latitude":50.110924,"longitude":8.682127,"reserved":0,"last_update":"0001-01-01T00:00:00Z","name_a2s":"Uncletopia | Frankfurt | 2 | All Maps","protocol":17,"map":"cp_dustbowl","folder":"tf","game":"Team Fortress","app_id":440,"player_count":0,"max_players":24,"Bots":0,"server_type":"Dedicated","server_os":"Linux","password":true,"vac":true,"version":"7757534","steam_id":85568392924469990,"keywords":["cp","nocrits","nodmgspread","uncletopia"],"game_id":440,"stv_port":27026,"stv_name":"Uncletopia | Frankfurt | 2 | All Maps | STV","players":null},{"server_id":308,"name":"Uncletopia | Frankfurt | 3 | All Maps","name_short":"frk-3","host":"frk-1.de.uncletopia.com","port":27035,"enabled":true,"region":"eu","cc":"de","latitude":50.110924,"longitude":8.682127,"reserved":0,"last_update":"0001-01-01T00:00:00Z","name_a2s":"Uncletopia | Frankfurt | 3 | All Maps","protocol":17,"map":"koth_lakeside_final","folder":"tf","game":"Team Fortress","app_id":440,"player_count":0,"max_players":24,"Bots":0,"server_type":"Dedicated","server_os":"Linux","password":true,"vac":true,"version":"7757534","steam_id":85568392924504274,"keywords":["cp","nocrits","nodmgspread","uncletopia"],"game_id":440,"stv_port":27036,"stv_name":"Uncletopia | Frankfurt | 3 | All Maps | STV","players":null},{"server_id":309,"name":"Uncletopia | Frankfurt | 4 | All Maps","name_short":"frk-4","host":"frk-1.de.uncletopia.com","port":27045,"enabled":true,"region":"eu","cc":"de","latitude":50.110924,"longitude":8.682127,"reserved":0,"last_update":"0001-01-01T00:00:00Z","name_a2s":"Uncletopia | Frankfurt | 4 | All Maps","protocol":17,"map":"koth_lakeside_final","folder":"tf","game":"Team Fortress","app_id":440,"player_count":0,"max_players":24,"Bots":0,"server_type":"Dedicated","server_os":"Linux","password":true,"vac":true,"version":"7757534","steam_id":85568392924504275,"keywords":["cp","nocrits","nodmgspread","uncletopia"],"game_id":440,"stv_port":27046,"stv_name":"Uncletopia | Frankfurt | 4 | All Maps | STV","players":null},{"server_id":310,"name":"Uncletopia | Frankfurt | 5 | All Maps","name_short":"frk-5","host":"frk-1.de.uncletopia.com","port":27055,"enabled":true,"region":"eu","cc":"de","latitude":50.110924,"longitude":8.682127,"reserved":0,"last_update":"0001-01-01T00:00:00Z","name_a2s":"Uncletopia | Frankfurt | 5 | All Maps","protocol":17,"map":"pl_barnblitz","folder":"tf","game":"Team Fortress","app_id":440,"player_count":0,"max_players":24,"Bots":0,"server_type":"Dedicated","server_os":"Linux","password":true,"vac":true,"version":"7757534","steam_id":85568392924504277,"keywords":["nocrits","nodmgspread","payload","uncletopia"],"game_id":440,"stv_port":27056,"stv_name":"Uncletopia | Frankfurt | 5 | All Maps | STV","players":null},{"server_id":311,"name":"Uncletopia | Frankfurt | 6 | All Maps","name_short":"frk-6","host":"frk-1.de.uncletopia.com","port":27065,"enabled":true,"region":"eu","cc":"de","latitude":50.110924,"longitude":8.682127,"reserved":0,"last_update":"0001-01-01T00:00:00Z","name_a2s":"Uncletopia | Frankfurt | 6 | All Maps","protocol":17,"map":"koth_highpass","folder":"tf","game":"Team Fortress","app_id":440,"player_count":0,"max_players":24,"Bots":0,"server_type":"Dedicated","server_os":"Linux","password":true,"vac":true,"version":"7757534","steam_id":85568392924504278,"keywords":["cp","nocrits","nodmgspread","uncletopia"],"game_id":440,"stv_port":27066,"stv_name":"Uncletopia | Frankfurt | 6 | All Maps | STV","players":null},{"server_id":23,"name":"Uncletopia | Frankfurt | 7 | Stopwatch Beta","name_short":"frk-7","host":"frk-1.de.uncletopia.com","port":27075,"enabled":true,"region":"eu","cc":"de","latitude":50.110924,"longitude":8.682127,"reserved":0,"last_update":"0001-01-01T00:00:00Z","name_a2s":"Uncletopia | Frankfurt | 7 | Stopwatch Beta","protocol":17,"map":"workshop/koth_ashville_final.ugc2130459942","folder":"tf","game":"Team Fortress","app_id":440,"player_count":0,"max_players":24,"Bots":0,"server_type":"Dedicated","server_os":"Linux","password":true,"vac":true,"version":"7757534","steam_id":85568392924742827,"keywords":["cp","nocrits","nodmgspread","uncletopia"],"game_id":440,"stv_port":27076,"stv_name":"Uncletopia | Frankfurt | 7 | Stopwatch Beta | STV","players":null},{"server_id":24,"name":"Uncletopia | Frankfurt | 8 | Community","name_short":"frk-8","host":"frk-1.de.uncletopia.com","port":27085,"enabled":true,"region":"eu","cc":"de","latitude":50.110924,"longitude":8.682127,"reserved":0,"last_update":"0001-01-01T00:00:00Z","name_a2s":"Uncletopia | Frankfurt | 8 | Community","protocol":17,"map":"workshop/cp_caldera_rc2.ugc2834196889","folder":"tf","game":"Team Fortress","app_id":440,"player_count":0,"max_players":24,"Bots":0,"server_type":"Dedicated","server_os":"Linux","password":true,"vac":true,"version":"7757534","steam_id":85568392924742828,"keywords":["cp","nocrits","nodmgspread","uncletopia"],"game_id":440,"stv_port":27086,"stv_name":"Uncletopia | Frankfurt | 8 | Community | STV","players":null},{"server_id":202,"name":"Uncletopia | Hong Kong | 1 | All Maps","name_short":"hgk-1","host":"hgk-1.hk.uncletopia.com","port":27015,"enabled":true,"region":"asia","cc":"hk","latitude":22.302711,"longitude":114.177216,"reserved":0,"last_update":"0001-01-01T00:00:00Z","name_a2s":"Uncletopia | Hong Kong | 1 | All Maps","protocol":17,"map":"cp_snakewater_final1","folder":"tf","game":"Team Fortress","app_id":440,"player_count":0,"max_players":24,"Bots":0,"server_type":"Dedicated","server_os":"Linux","password":true,"vac":true,"version":"7757534","steam_id":85568392924494504,"keywords":["cp","nocrits","nodmgspread","uncletopia"],"game_id":440,"stv_port":27016,"stv_name":"Uncletopia | Hong Kong | 1 | All Maps | STV","players":null},{"server_id":1,"name":"Uncletopia | Los Angeles | 1 | All Maps","name_short":"lax-1","host":"lax-1.us.uncletopia.com","port":27015,"enabled":true,"region":"us-west","cc":"us","latitude":33.94279,"longitude":-118.41004,"reserved":0,"last_update":"0001-01-01T00:00:00Z","name_a2s":"Uncletopia | Los Angeles | 1 | All Maps","protocol":17,"map":"pl_snowycoast","folder":"tf","game":"Team Fortress","app_id":440,"player_count":24,"max_players":24,"Bots":0,"server_type":"Dedicated","server_os":"Linux","password":true,"vac":true,"version":"7757534","steam_id":85568392924469991,"keywords":["nocrits","nodmgspread","payload","uncletopia"],"game_id":440,"stv_port":27016,"stv_name":"Uncletopia | Los Angeles | 1 | All Maps | STV","players":[{"user_id":112,"name":"Demobone Virus","steam_id":76561198044127250,"connected_time":873000000000,"state":"active","ping":100},{"user_id":119,"name":"Oracle Navi","steam_id":76561198160552593,"connected_time":642000000000,"state":"active","ping":45},{"user_id":131,"name":"skypad_enjoyer","steam_id":76561198073107739,"connected_time":270000000000,"state":"active","ping":56},{"user_id":115,"name":"vanillaiin","steam_id":76561198058617608,"connected_time":706000000000,"state":"active","ping":48},{"user_id":108,"name":"Lv. 5 Grunt","steam_id":76561198800334545,"connected_time":926000000000,"state":"active","ping":45},{"user_id":75,"name":"mrjibjaber","steam_id":76561198025229908,"connected_time":3964000000000,"state":"active","ping":63},{"user_id":120,"name":"Haywood Jablowme","steam_id":76561198097721532,"connected_time":628000000000,"state":"active","ping":48},{"user_id":116,"name":"MEME","steam_id":76561198092065033,"connected_time":671000000000,"state":"active","ping":102},{"user_id":110,"name":"Bear Paw","steam_id":76561198137932863,"connected_time":888000000000,"state":"active","ping":54},{"user_id":111,"name":"DerpyFlapjack31","steam_id":76561198386322393,"connected_time":886000000000,"state":"active","ping":95},{"user_id":113,"name":"≈ölimak","steam_id":76561198296476784,"connected_time":862000000000,"state":"active","ping":91},{"user_id":121,"name":"The Arm","steam_id":76561197983066285,"connected_time":582000000000,"state":"active","ping":67},{"user_id":118,"name":"Sanikit","steam_id":76561199064387616,"connected_time":662000000000,"state":"active","ping":153},{"user_id":122,"name":"Not A Rapper","steam_id":76561198077523537,"connected_time":546000000000,"state":"active","ping":110},{"user_id":76,"name":"hummusexual !Bye Bye!","steam_id":76561198063403549,"connected_time":3765000000000,"state":"active","ping":58},{"user_id":78,"name":"Gabe","steam_id":76561198081153719,"connected_time":3693000000000,"state":"active","ping":73},{"user_id":93,"name":"tie dye die guy","steam_id":76561198049845337,"connected_time":2504000000000,"state":"active","ping":61},{"user_id":130,"name":"teh mummy","steam_id":76561198044123636,"connected_time":340000000000,"state":"active","ping":31},{"user_id":124,"name":"Celia [ +/- ] ‚úî","steam_id":76561198067164431,"connected_time":528000000000,"state":"active","ping":42},{"user_id":126,"name":"kool fella","steam_id":76561198294789434,"connected_time":396000000000,"state":"active","ping":97},{"user_id":127,"name":"dog (real)","steam_id":76561198041770884,"connected_time":386000000000,"state":"active","ping":54},{"user_id":68,"name":"Demopirate Virus","steam_id":76561198050159379,"connected_time":4270000000000,"state":"active","ping":99},{"user_id":128,"name":"‚âÉ","steam_id":76561198157393205,"connected_time":372000000000,"state":"active","ping":58},{"user_id":129,"name":"ubediah","steam_id":76561199417885518,"connected_time":368000000000,"state":"active","ping":49}]},{"server_id":112,"name":"Uncletopia | Los Angeles | 2 | All Maps","name_short":"lax-2","host":"lax-1.us.uncletopia.com","port":27025,"enabled":true,"region":"us-west","cc":"us","latitude":33.94279,"longitude":-118.41004,"reserved":0,"last_update":"0001-01-01T00:00:00Z","name_a2s":"Uncletopia | Los Angeles | 2 | All Maps","protocol":17,"map":"koth_viaduct","folder":"tf","game":"Team Fortress","app_id":440,"player_count":1,"max_players":24,"Bots":0,"server_type":"Dedicated","server_os":"Linux","password":true,"vac":true,"version":"7757534","steam_id":85568392924469992,"keywords":["cp","nocrits","nodmgspread","uncletopia"],"game_id":440,"stv_port":27026,"stv_name":"Uncletopia | Los Angeles | 2 | All Maps | STV","players":[{"user_id":16,"name":"Mazzi the cat","steam_id":76561199057546316,"connected_time":117000000000,"state":"active","ping":98}]},{"server_id":324,"name":"Uncletopia | Los Angeles | 3 | All Maps","name_short":"lax-3","host":"lax-1.us.uncletopia.com","port":27035,"enabled":true,"region":"us-west","cc":"us","latitude":33.94279,"longitude":-118.41004,"reserved":0,"last_update":"0001-01-01T00:00:00Z","name_a2s":"Uncletopia | Los Angeles | 3 | All Maps","protocol":17,"map":"pl_upward","folder":"tf","game":"Team Fortress","app_id":440,"player_count":21,"max_players":24,"Bots":0,"server_type":"Dedicated","server_os":"Linux","password":true,"vac":true,"version":"7757534","steam_id":85568392924510198,"keywords":["nocrits","nodmgspread","payload","uncletopia"],"game_id":440,"stv_port":27036,"stv_name":"Uncletopia | Los Angeles | 3 | All Maps | STV","players":[{"user_id":81,"name":"Phlogging Solly","steam_id":76561198020580071,"connected_time":56000000000,"state":"active","ping":55},{"user_id":23,"name":"BroDuck","steam_id":76561198000217789,"connected_time":3168000000000,"state":"active","ping":95},{"user_id":18,"name":"FezRequiem","steam_id":76561198070066667,"connected_time":3413000000000,"state":"active","ping":55},{"user_id":19,"name":"aniket11.aniket11","steam_id":76561198985867789,"connected_time":3391000000000,"state":"active","ping":58},{"user_id":79,"name":"pretty lady","steam_id":76561198042337127,"connected_time":479000000000,"state":"active","ping":99},{"user_id":82,"name":"Wendall555","steam_id":76561198985637603,"connected_time":32000000000,"state":"active","ping":46},{"user_id":25,"name":"Milk Testing Man","steam_id":76561198013841873,"connected_time":3166000000000,"state":"active","ping":130},{"user_id":26,"name":"Gleepdorf","steam_id":76561198027137460,"connected_time":3154000000000,"state":"active","ping":55},{"user_id":28,"name":"Badfish","steam_id":76561198072396970,"connected_time":3056000000000,"state":"active","ping":65},{"user_id":29,"name":"IKEA Meatballs","steam_id":76561198025012508,"connected_time":3005000000000,"state":"active","ping":47},{"user_id":73,"name":"BreadQuest","steam_id":76561198082425960,"connected_time":814000000000,"state":"active","ping":78},{"user_id":58,"name":"walterhwhite","steam_id":76561199433675789,"connected_time":1231000000000,"state":"spawning","ping":36},{"user_id":65,"name":"intek","steam_id":76561198052705291,"connected_time":1093000000000,"state":"active","ping":81},{"user_id":53,"name":"FireThePyro","steam_id":76561198074991310,"connected_time":1975000000000,"state":"active","ping":61},{"user_id":54,"name":"no trouble at all","steam_id":76561198138221795,"connected_time":1924000000000,"state":"active","ping":99},{"user_id":77,"name":"krisness27","steam_id":76561198840775748,"connected_time":537000000000,"state":"active","ping":72},{"user_id":67,"name":"chanoc","steam_id":76561198026734746,"connected_time":1060000000000,"state":"active","ping":58},{"user_id":51,"name":"Serene Salamander","steam_id":76561198001094770,"connected_time":2050000000000,"state":"active","ping":61},{"user_id":80,"name":"B/S/SuperBoofOG","steam_id":76561197992030936,"connected_time":410000000000,"state":"active","ping":102},{"user_id":44,"name":"OutspokenWeeb","steam_id":76561198062984704,"connected_time":2607000000000,"state":"active","ping":62},{"user_id":69,"name":"Laxoloni","steam_id":76561199197045700,"connected_time":1022000000000,"state":"active","ping":158}]},{"server_id":25,"name":"Uncletopia | Los Angeles | 4 | Stopwatch Beta","name_short":"lax-4","host":"lax-1.us.uncletopia.com","port":27045,"enabled":true,"region":"us-west","cc":"us","latitude":33.94279,"longitude":-118.41004,"reserved":0,"last_update":"0001-01-01T00:00:00Z","name_a2s":"Uncletopia | Los Angeles | 4 | Stopwatch Beta","protocol":17,"map":"cp_dustbowl","folder":"tf","game":"Team Fortress","app_id":440,"player_count":0,"max_players":24,"Bots":0,"server_type":"Dedicated","server_os":"Linux","password":true,"vac":true,"version":"7757534","steam_id":85568392924510199,"keywords":["cp","nocrits","nodmgspread","uncletopia"],"game_id":440,"stv_port":27046,"stv_name":"Uncletopia | Los Angeles | 4 | Stopwatch Beta | STV","players":null},{"server_id":11,"name":"Uncletopia | London | 1 | All Maps","name_short":"lon-1","host":"lon-1.uk.uncletopia.com","port":27015,"enabled":true,"region":"eu","cc":"gb","latitude":51.509865,"longitude":-0.118092,"reserved":0,"last_update":"0001-01-01T00:00:00Z","name_a2s":"Uncletopia | London | 1 | All Maps","protocol":17,"map":"pl_frontier_final","folder":"tf","game":"Team Fortress","app_id":440,"player_count":0,"max_players":24,"Bots":0,"server_type":"Dedicated","server_os":"Linux","password":true,"vac":true,"version":"7757534","steam_id":85568392924367362,"keywords":["nocrits","nodmgspread","payload","uncletopia"],"game_id":440,"stv_port":27016,"stv_name":"Uncletopia | London | 1 | All Maps | STV","players":null},{"server_id":114,"name":"Uncletopia | London | 2 | All Maps","name_short":"lon-2","host":"lon-1.uk.uncletopia.com","port":27025,"enabled":true,"region":"eu","cc":"gb","latitude":51.509865,"longitude":-0.118092,"reserved":0,"last_update":"0001-01-01T00:00:00Z","name_a2s":"Uncletopia | London | 2 | All Maps","protocol":17,"map":"pl_barnblitz","folder":"tf","game":"Team Fortress","app_id":440,"player_count":0,"max_players":24,"Bots":0,"server_type":"Dedicated","server_os":"Linux","password":true,"vac":true,"version":"7757534","steam_id":85568392924470941,"keywords":["nocrits","nodmgspread","payload","uncletopia"],"game_id":440,"stv_port":27026,"stv_name":"Uncletopia | London | 2 | All Maps | STV","players":null},{"server_id":320,"name":"Uncletopia | London | 3 | All Maps","name_short":"lon-3","host":"lon-1.uk.uncletopia.com","port":27035,"enabled":true,"region":"eu","cc":"gb","latitude":51.509865,"longitude":-0.118092,"reserved":0,"last_update":"0001-01-01T00:00:00Z","name_a2s":"Uncletopia | London | 3 | All Maps","protocol":17,"map":"pl_swiftwater_final1","folder":"tf","game":"Team Fortress","app_id":440,"player_count":0,"max_players":24,"Bots":0,"server_type":"Dedicated","server_os":"Linux","password":true,"vac":true,"version":"7757534","steam_id":85568392924510192,"keywords":["nocrits","nodmgspread","payload","uncletopia"],"game_id":440,"stv_port":27036,"stv_name":"Uncletopia | London | 3 | All Maps | STV","players":null},{"server_id":321,"name":"Uncletopia | London | 4 | All Maps","name_short":"lon-4","host":"lon-1.uk.uncletopia.com","port":27045,"enabled":true,"region":"eu","cc":"gb","latitude":51.509865,"longitude":-0.118092,"reserved":0,"last_update":"0001-01-01T00:00:00Z","name_a2s":"Uncletopia | London | 4 | All Maps","protocol":17,"map":"cp_dustbowl","folder":"tf","game":"Team Fortress","app_id":440,"player_count":0,"max_players":24,"Bots":0,"server_type":"Dedicated","server_os":"Linux","password":true,"vac":true,"version":"7757534","steam_id":85568392924510193,"keywords":["cp","nocrits","nodmgspread","uncletopia"],"game_id":440,"stv_port":27046,"stv_name":"Uncletopia | London | 4 | All Maps | STV","players":null},{"server_id":21,"name":"Uncletopia | London | 5 | All Maps","name_short":"lon-5","host":"lon-1.uk.uncletopia.com","port":27055,"enabled":true,"region":"eu","cc":"gb","latitude":51.509865,"longitude":-0.118092,"reserved":0,"last_update":"0001-01-01T00:00:00Z","name_a2s":"Uncletopia | London | 5 | All Maps","protocol":17,"map":"cp_altitude","folder":"tf","game":"Team Fortress","app_id":440,"player_count":0,"max_players":24,"Bots":0,"server_type":"Dedicated","server_os":"Linux","password":true,"vac":true,"version":"7757534","steam_id":85568392924742829,"keywords":["cp","nocrits","nodmgspread","uncletopia"],"game_id":440,"stv_port":27056,"stv_name":"Uncletopia | London | 5 | All Maps | STV","players":null},{"server_id":22,"name":"Uncletopia | London | 6 | All Maps","name_short":"lon-6","host":"lon-1.uk.uncletopia.com","port":27065,"enabled":true,"region":"eu","cc":"gb","latitude":51.509865,"longitude":-0.118092,"reserved":0,"last_update":"0001-01-01T00:00:00Z","name_a2s":"Uncletopia | London | 6 | All Maps","protocol":17,"map":"cp_altitude","folder":"tf","game":"Team Fortress","app_id":440,"player_count":0,"max_players":24,"Bots":0,"server_type":"Dedicated","server_os":"Linux","password":true,"vac":true,"version":"7757534","steam_id":85568392924742830,"keywords":["cp","nocrits","nodmgspread","uncletopia"],"game_id":440,"stv_port":27066,"stv_name":"Uncletopia | London | 6 | All Maps | STV","players":null},{"server_id":40,"name":"Uncletopia | London | 7 | No Payload","name_short":"lon-7","host":"lon-1.uk.uncletopia.com","port":27075,"enabled":true,"region":"eu","cc":"gb","latitude":51.509865,"longitude":-0.118092,"reserved":0,"last_update":"0001-01-01T00:00:00Z","name_a2s":"Uncletopia | London | 7 | No Payload","protocol":17,"map":"koth_highpass","folder":"tf","game":"Team Fortress","app_id":440,"player_count":0,"max_players":24,"Bots":0,"server_type":"Dedicated","server_os":"Linux","password":true,"vac":true,"version":"7757534","steam_id":85568392924964314,"keywords":["cp","nocrits","nodmgspread","uncletopia"],"game_id":440,"stv_port":27076,"stv_name":"Uncletopia | London | 7 | No Payload | STV","players":null},{"server_id":41,"name":"Uncletopia | London | 8 | Community","name_short":"lon-8","host":"lon-1.uk.uncletopia.com","port":27085,"enabled":true,"region":"eu","cc":"gb","latitude":51.509865,"longitude":-0.118092,"reserved":0,"last_update":"0001-01-01T00:00:00Z","name_a2s":"Uncletopia | London | 8 | Community","protocol":17,"map":"workshop/rd_asteroid_redux_b1.ugc2154902912","folder":"tf","game":"Team Fortress","app_id":440,"player_count":0,"max_players":24,"Bots":0,"server_type":"Dedicated","server_os":"Linux","password":true,"vac":true,"version":"7757534","steam_id":85568392924964315,"keywords":["beta","nocrits","nodmgspread","rd","uncletopia"],"game_id":440,"stv_port":27086,"stv_name":"Uncletopia | London | 8 | Community | STV","players":null},{"server_id":300,"name":"Uncletopia | Montr√©al | 1 | All Maps","name_short":"mtl-1","host":"mtl-1.ca.uncletopia.com","port":27015,"enabled":true,"region":"us-east","cc":"ca","latitude":45.50889,"longitude":-73.56167,"reserved":0,"last_update":"0001-01-01T00:00:00Z","name_a2s":"Uncletopia | Montr√©al | 1 | All Maps","protocol":17,"map":"koth_highpass","folder":"tf","game":"Team Fortress","app_id":440,"player_count":0,"max_players":24,"Bots":0,"server_type":"Dedicated","server_os":"Linux","password":true,"vac":true,"version":"7757534","steam_id":85568392924500087,"keywords":["cp","nocrits","nodmgspread","uncletopia"],"game_id":440,"stv_port":27016,"stv_name":"Uncletopia | Montr√©al | 1 | All Maps | STV","players":null},{"server_id":301,"name":"Uncletopia | Montr√©al | 2 | All Maps","name_short":"mtl-2","host":"mtl-1.ca.uncletopia.com","port":27025,"enabled":true,"region":"us-east","cc":"ca","latitude":45.50889,"longitude":-73.56167,"reserved":0,"last_update":"0001-01-01T00:00:00Z","name_a2s":"Uncletopia | Montr√©al | 2 | All Maps","protocol":17,"map":"cp_mountainlab","folder":"tf","game":"Team Fortress","app_id":440,"player_count":0,"max_players":24,"Bots":0,"server_type":"Dedicated","server_os":"Linux","password":true,"vac":true,"version":"7757534","steam_id":85568392924500088,"keywords":["cp","nocrits","nodmgspread","uncletopia"],"game_id":440,"stv_port":27026,"stv_name":"Uncletopia | Montr√©al | 2 | All Maps | STV","players":null},{"server_id":302,"name":"Uncletopia | Montr√©al | 3 | All Maps","name_short":"mtl-3","host":"mtl-1.ca.uncletopia.com","port":27035,"enabled":true,"region":"us-east","cc":"ca","latitude":45.50889,"longitude":-73.56167,"reserved":0,"last_update":"0001-01-01T00:00:00Z","name_a2s":"Uncletopia | Montr√©al | 3 | All Maps","protocol":17,"map":"cp_dustbowl","folder":"tf","game":"Team Fortress","app_id":440,"player_count":0,"max_players":24,"Bots":0,"server_type":"Dedicated","server_os":"Linux","password":true,"vac":true,"version":"7757534","steam_id":85568392924500089,"keywords":["cp","nocrits","nodmgspread","uncletopia"],"game_id":440,"stv_port":27036,"stv_name":"Uncletopia | Montr√©al | 3 | All Maps | STV","players":null},{"server_id":303,"name":"Uncletopia | Montr√©al | 4 | No Payload","name_short":"mtl-4","host":"mtl-1.ca.uncletopia.com","port":27045,"enabled":true,"region":"us-east","cc":"ca","latitude":45.50889,"longitude":-73.56167,"reserved":0,"last_update":"0001-01-01T00:00:00Z","name_a2s":"Uncletopia | Montr√©al | 4 | No Payload","protocol":17,"map":"koth_highpass","folder":"tf","game":"Team Fortress","app_id":440,"player_count":0,"max_players":24,"Bots":0,"server_type":"Dedicated","server_os":"Linux","password":true,"vac":true,"version":"7757534","steam_id":85568392924500090,"keywords":["cp","nocrits","nodmgspread","uncletopia"],"game_id":440,"stv_port":27046,"stv_name":"Uncletopia | Montr√©al | 4 | No Payload | STV","players":null},{"server_id":13,"name":"Uncletopia | New York City | 1 | All Maps","name_short":"nyc-1","host":"nyc-1.us.uncletopia.com","port":27015,"enabled":true,"region":"us-east","cc":"us","latitude":40.73061,"longitude":-73.93524,"reserved":0,"last_update":"0001-01-01T00:00:00Z","name_a2s":"Uncletopia | New York City | 1 | All Maps","protocol":17,"map":"pl_badwater","folder":"tf","game":"Team Fortress","app_id":440,"player_count":24,"max_players":24,"Bots":0,"server_type":"Dedicated","server_os":"Linux","password":true,"vac":true,"version":"7757534","steam_id":85568392924469993,"keywords":["nocrits","nodmgspread","payload","uncletopia"],"game_id":440,"stv_port":27016,"stv_name":"Uncletopia | New York City | 1 | All Maps | STV","players":[{"user_id":318,"name":"Brass beast heavy","steam_id":76561198274197623,"connected_time":761000000000,"state":"active","ping":136},{"user_id":326,"name":"tacofever","steam_id":76561198010966507,"connected_time":524000000000,"state":"active","ping":109},{"user_id":209,"name":"ExoTheFlyingFish","steam_id":76561198034388243,"connected_time":10566000000000,"state":"active","ping":47},{"user_id":237,"name":"Dross","steam_id":76561198042172372,"connected_time":8569000000000,"state":"active","ping":56},{"user_id":302,"name":"pro gamer with a giant mousepad","steam_id":76561197999187629,"connected_time":2640000000000,"state":"active","ping":60},{"user_id":319,"name":"Decepticon","steam_id":76561198047168548,"connected_time":756000000000,"state":"active","ping":108},{"user_id":300,"name":"WibbyOne","steam_id":76561198052843846,"connected_time":2808000000000,"state":"active","ping":44},{"user_id":320,"name":"ShadowRose","steam_id":76561199013020408,"connected_time":698000000000,"state":"active","ping":58},{"user_id":262,"name":"The Necronomiconeconomist","steam_id":76561198010358323,"connected_time":5977000000000,"state":"active","ping":99},{"user_id":245,"name":"Sapphireblitz","steam_id":76561198272635379,"connected_time":7745000000000,"state":"active","ping":66},{"user_id":304,"name":"self-cannibalizing customer. \ufffd\ufffd","steam_id":76561198294013916,"connected_time":2446000000000,"state":"active","ping":46},{"user_id":270,"name":"Glitchy stick","steam_id":76561199013429386,"connected_time":4564000000000,"state":"active","ping":61},{"user_id":310,"name":"Horrizan","steam_id":76561197965028480,"connected_time":1978000000000,"state":"active","ping":97},{"user_id":292,"name":"PeekaBoo","steam_id":76561198134816486,"connected_time":3481000000000,"state":"active","ping":97},{"user_id":290,"name":"lots of people respect cats","steam_id":76561198043305248,"connected_time":3546000000000,"state":"active","ping":152},{"user_id":315,"name":"CthUwU","steam_id":76561198036541581,"connected_time":898000000000,"state":"active","ping":68},{"user_id":327,"name":"Lain","steam_id":76561198252784944,"connected_time":207000000000,"state":"active","ping":91},{"user_id":323,"name":"Lish","steam_id":76561198133985045,"connected_time":592000000000,"state":"active","ping":46},{"user_id":317,"name":"Yuzu","steam_id":76561198417913035,"connected_time":848000000000,"state":"active","ping":94},{"user_id":308,"name":"Aeris","steam_id":76561198287271028,"connected_time":2248000000000,"state":"active","ping":85},{"user_id":218,"name":"A Puppy","steam_id":76561198828184456,"connected_time":10420000000000,"state":"active","ping":46},{"user_id":283,"name":"Thebestsock","steam_id":76561198819141894,"connected_time":4097000000000,"state":"active","ping":92},{"user_id":322,"name":"Antifa Supersoldier","steam_id":76561198141816516,"connected_time":673000000000,"state":"active","ping":89},{"user_id":325,"name":"Childhood Obesity","steam_id":76561198061190813,"connected_time":547000000000,"state":"active","ping":122}]},{"server_id":14,"name":"Uncletopia | New York City | 2 | All Maps","name_short":"nyc-2","host":"nyc-1.us.uncletopia.com","port":27025,"enabled":true,"region":"us-east","cc":"us","latitude":40.73061,"longitude":-73.93524,"reserved":0,"last_update":"0001-01-01T00:00:00Z","name_a2s":"Uncletopia | New York City | 2 | All Maps","protocol":17,"map":"cp_dustbowl","folder":"tf","game":"Team Fortress","app_id":440,"player_count":11,"max_players":24,"Bots":0,"server_type":"Dedicated","server_os":"Linux","password":true,"vac":true,"version":"7757534","steam_id":85568392924469994,"keywords":["cp","nocrits","nodmgspread","uncletopia"],"game_id":440,"stv_port":27026,"stv_name":"Uncletopia | New York City | 2 | All Maps | STV","players":[{"user_id":647,"name":"Lore","steam_id":76561198098407538,"connected_time":144000000000,"state":"active","ping":59},{"user_id":645,"name":"Gustavo_Banana","steam_id":76561198387866587,"connected_time":465000000000,"state":"active","ping":167},{"user_id":620,"name":".Ô±ûÔ±ûÔ±ûrÔ±ûÔ±ûÔ±ûrÔ±ûÔ±ûÔ±ûr","steam_id":76561198256821358,"connected_time":2338000000000,"state":"active","ping":120},{"user_id":649,"name":"M.L.JEW","steam_id":76561198997375055,"connected_time":104000000000,"state":"active","ping":74},{"user_id":643,"name":"captainbros","steam_id":76561198370989893,"connected_time":615000000000,"state":"active","ping":72},{"user_id":625,"name":"Mr. Soupman","steam_id":76561198021649598,"connected_time":2107000000000,"state":"active","ping":47},{"user_id":633,"name":"canine defecation","steam_id":76561198115656778,"connected_time":1591000000000,"state":"active","ping":48},{"user_id":640,"name":"Wallem","steam_id":76561198052361822,"connected_time":810000000000,"state":"active","ping":54},{"user_id":641,"name":"wiiblob","steam_id":76561198109106242,"connected_time":676000000000,"state":"active","ping":135},{"user_id":646,"name":"LegendaryMister151","steam_id":76561198064890524,"connected_time":354000000000,"state":"active","ping":79},{"user_id":644,"name":"scuttle bucket","steam_id":76561198100910016,"connected_time":558000000000,"state":"active","ping":108}]},{"server_id":15,"name":"Uncletopia | New York City | 3 | Stopwatch Beta","name_short":"nyc-3","host":"nyc-1.us.uncletopia.com","port":27035,"enabled":true,"region":"us-east","cc":"us","latitude":40.73061,"longitude":-73.93524,"reserved":0,"last_update":"0001-01-01T00:00:00Z","name_a2s":"Uncletopia | New York City | 3 | Stopwatch Beta","protocol":17,"map":"koth_lakeside_final","folder":"tf","game":"Team Fortress","app_id":440,"player_count":0,"max_players":24,"Bots":0,"server_type":"Dedicated","server_os":"Linux","password":true,"vac":true,"version":"7757534","steam_id":85568392924742820,"keywords":["cp","nocrits","nodmgspread","uncletopia"],"game_id":440,"stv_port":27036,"stv_name":"Uncletopia | New York City | 3 | Stopwatch Beta | STV","players":null},{"server_id":16,"name":"Uncletopia | New York City | 4 | Community","name_short":"nyc-4","host":"nyc-1.us.uncletopia.com","port":27045,"enabled":true,"region":"us-east","cc":"us","latitude":40.73061,"longitude":-73.93524,"reserved":0,"last_update":"0001-01-01T00:00:00Z","name_a2s":"Uncletopia | New York City | 4 | Community","protocol":17,"map":"workshop/cp_propaganda_b18.ugc1603743849","folder":"tf","game":"Team Fortress","app_id":440,"player_count":0,"max_players":24,"Bots":0,"server_type":"Dedicated","server_os":"Linux","password":true,"vac":true,"version":"7757534","steam_id":85568392924742821,"keywords":["cp","nocrits","nodmgspread","uncletopia"],"game_id":440,"stv_port":27046,"stv_name":"Uncletopia | New York City | 4 | Community | STV","players":null},{"server_id":142,"name":"Uncletopia | S√£o Paulo | 1 | All Maps","name_short":"sao-1","host":"sao-1.br.uncletopia.com","port":27015,"enabled":true,"region":"sa","cc":"br","latitude":-23.533773,"longitude":-46.62529,"reserved":0,"last_update":"0001-01-01T00:00:00Z","name_a2s":"Uncletopia | S√£o Paulo | 1 | All Maps","protocol":17,"map":"koth_cascade","folder":"tf","game":"Team Fortress","app_id":440,"player_count":0,"max_players":24,"Bots":0,"server_type":"Dedicated","server_os":"Linux","password":true,"vac":true,"version":"7757534","steam_id":85568392924469996,"keywords":["cp","nocrits","nodmgspread","uncletopia"],"game_id":440,"stv_port":27016,"stv_name":"Uncletopia | S√£o Paulo | 1 | All Maps | STV","players":null},{"server_id":143,"name":"Uncletopia | S√£o Paulo | 2 | All Maps","name_short":"sao-2","host":"sao-2.br.uncletopia.com","port":27015,"enabled":true,"region":"sa","cc":"br","latitude":-23.533773,"longitude":-46.62529,"reserved":0,"last_update":"0001-01-01T00:00:00Z","name_a2s":"Uncletopia | S√£o Paulo | 2 | All Maps","protocol":17,"map":"koth_viaduct","folder":"tf","game":"Team Fortress","app_id":440,"player_count":0,"max_players":24,"Bots":0,"server_type":"Dedicated","server_os":"Linux","password":true,"vac":true,"version":"7757534","steam_id":85568392924485349,"keywords":["cp","nocrits","nodmgspread","uncletopia"],"game_id":440,"stv_port":27016,"stv_name":"Uncletopia | S√£o Paulo | 2 | All Maps | STV","players":null},{"server_id":7,"name":"Uncletopia | Seattle | 1 | All Maps","name_short":"sea-1","host":"sea-1.us.uncletopia.com","port":27015,"enabled":true,"region":"us-west","cc":"us","latitude":47.608013,"longitude":-122.33517,"reserved":0,"last_update":"0001-01-01T00:00:00Z","name_a2s":"Uncletopia | Seattle | 1 | All Maps","protocol":17,"map":"pl_snowycoast","folder":"tf","game":"Team Fortress","app_id":440,"player_count":24,"max_players":24,"Bots":0,"server_type":"Dedicated","server_os":"Linux","password":true,"vac":true,"version":"7757534","steam_id":85568392924469997,"keywords":["nocrits","nodmgspread","payload","uncletopia"],"game_id":440,"stv_port":27016,"stv_name":"Uncletopia | Seattle | 1 | All Maps | STV","players":[{"user_id":477,"name":"TROY","steam_id":76561197983852176,"connected_time":5449000000000,"state":"active","ping":78},{"user_id":522,"name":"WACKY JIM","steam_id":76561198961641122,"connected_time":913000000000,"state":"active","ping":56},{"user_id":519,"name":"MCman","steam_id":76561198412110305,"connected_time":2243000000000,"state":"active","ping":78},{"user_id":501,"name":"Tungsten","steam_id":76561198312854342,"connected_time":3855000000000,"state":"active","ping":63},{"user_id":510,"name":"Reiidaya","steam_id":76561198325306660,"connected_time":3353000000000,"state":"active","ping":51},{"user_id":491,"name":"ORANGE","steam_id":76561198000401769,"connected_time":4492000000000,"state":"active","ping":46},{"user_id":497,"name":"p9 SUNLIT WITCH ANARCHY GATHER","steam_id":76561198131166135,"connected_time":4213000000000,"state":"active","ping":38},{"user_id":523,"name":"brrbrrbrrbrrbrr","steam_id":76561198095480838,"connected_time":893000000000,"state":"active","ping":45},{"user_id":527,"name":"5392vin","steam_id":76561198880493511,"connected_time":770000000000,"state":"active","ping":65},{"user_id":493,"name":"Tom Skirrett","steam_id":76561198014600788,"connected_time":4445000000000,"state":"active","ping":73},{"user_id":524,"name":"Strikerbolt","steam_id":76561199095622897,"connected_time":882000000000,"state":"active","ping":90},{"user_id":499,"name":"DeckofDragons","steam_id":76561198057398213,"connected_time":4048000000000,"state":"active","ping":84},{"user_id":483,"name":"Flyingcat9000","steam_id":76561198179561797,"connected_time":4961000000000,"state":"active","ping":59},{"user_id":525,"name":"Ompaloompa","steam_id":76561199022594810,"connected_time":872000000000,"state":"active","ping":55},{"user_id":529,"name":"William P. Ennis","steam_id":76561198073464877,"connected_time":298000000000,"state":"active","ping":90},{"user_id":526,"name":"lavender","steam_id":76561199069518286,"connected_time":870000000000,"state":"active","ping":75},{"user_id":528,"name":"ice spicee","steam_id":76561198169755734,"connected_time":769000000000,"state":"active","ping":72},{"user_id":531,"name":"pepaw (1933)","steam_id":76561198292352586,"connected_time":124000000000,"state":"active","ping":53},{"user_id":505,"name":"Hassium","steam_id":76561198162541373,"connected_time":3746000000000,"state":"active","ping":60},{"user_id":521,"name":"Cheezbeargur","steam_id":76561198164702899,"connected_time":1997000000000,"state":"active","ping":66},{"user_id":495,"name":"absolutelynot9998","steam_id":76561199066813922,"connected_time":4384000000000,"state":"active","ping":90},{"user_id":506,"name":"spiderland","steam_id":76561198335992132,"connected_time":3712000000000,"state":"active","ping":54},{"user_id":507,"name":"MericTheMadFox","steam_id":76561198353136959,"connected_time":3676000000000,"state":"active","ping":104},{"user_id":512,"name":"rat gets the cheese","steam_id":76561198031234032,"connected_time":2952000000000,"state":"active","ping":107}]},{"server_id":119,"name":"Uncletopia | Seattle | 2 | All Maps","name_short":"sea-2","host":"sea-1.us.uncletopia.com","port":27025,"enabled":true,"region":"us-west","cc":"us","latitude":47.608013,"longitude":-122.33517,"reserved":0,"last_update":"0001-01-01T00:00:00Z","name_a2s":"Uncletopia | Seattle | 2 | All Maps","protocol":17,"map":"pl_borneo","folder":"tf","game":"Team Fortress","app_id":440,"player_count":24,"max_players":24,"Bots":0,"server_type":"Dedicated","server_os":"Linux","password":true,"vac":true,"version":"7757534","steam_id":85568392924469998,"keywords":["nocrits","nodmgspread","payload","uncletopia"],"game_id":440,"stv_port":27026,"stv_name":"Uncletopia | Seattle | 2 | All Maps | STV","players":[{"user_id":781,"name":"laggy mcstab","steam_id":76561198106379962,"connected_time":2633000000000,"state":"active","ping":59},{"user_id":789,"name":"exephur","steam_id":76561198135763234,"connected_time":2494000000000,"state":"active","ping":69},{"user_id":772,"name":"BBL Sponsor","steam_id":76561199093733603,"connected_time":3567000000000,"state":"active","ping":76},{"user_id":816,"name":"WESTERBROOK#1","steam_id":76561199196821524,"connected_time":259000000000,"state":"active","ping":60},{"user_id":782,"name":"Algibruh","steam_id":76561199221599415,"connected_time":2533000000000,"state":"active","ping":45},{"user_id":812,"name":"ansoonii","steam_id":76561198092494136,"connected_time":794000000000,"state":"active","ping":97},{"user_id":820,"name":"east coast pan","steam_id":76561198856903497,"connected_time":175000000000,"state":"active","ping":99},{"user_id":725,"name":"Gary, 40, soul sucking 9-5","steam_id":76561198073812888,"connected_time":7589000000000,"state":"active","ping":43},{"user_id":821,"name":"Master Of Whales","steam_id":76561198349104889,"connected_time":38000000000,"state":"active","ping":107},{"user_id":778,"name":"Adobe Premiere","steam_id":76561198411025724,"connected_time":2821000000000,"state":"active","ping":82},{"user_id":809,"name":"mkjoj0","steam_id":76561199015399896,"connected_time":869000000000,"state":"active","ping":134},{"user_id":787,"name":"WaffleWithNoToppings","steam_id":76561199088280111,"connected_time":2509000000000,"state":"active","ping":62},{"user_id":797,"name":"Sweatpants","steam_id":76561198097188001,"connected_time":1602000000000,"state":"active","ping":57},{"user_id":705,"name":"FiddyFoMike","steam_id":76561198057072581,"connected_time":8421000000000,"state":"active","ping":60},{"user_id":803,"name":"i pee naked","steam_id":76561198984374561,"connected_time":921000000000,"state":"active","ping":58},{"user_id":815,"name":"guscelis03","steam_id":76561199160017567,"connected_time":455000000000,"state":"active","ping":130},{"user_id":748,"name":"non menthol newport","steam_id":76561198041907345,"connected_time":6123000000000,"state":"active","ping":83},{"user_id":652,"name":"worker","steam_id":76561198039608940,"connected_time":12966000000000,"state":"active","ping":74},{"user_id":784,"name":"Tomato Soup","steam_id":76561198051834684,"connected_time":2527000000000,"state":"active","ping":73},{"user_id":798,"name":"Useless Information","steam_id":76561198042248161,"connected_time":1554000000000,"state":"active","ping":79},{"user_id":813,"name":"East","steam_id":76561197973050453,"connected_time":753000000000,"state":"active","ping":42},{"user_id":804,"name":"foreskin gaming","steam_id":76561198342928319,"connected_time":920000000000,"state":"active","ping":110},{"user_id":814,"name":"Silver_Hawken","steam_id":76561198066860499,"connected_time":697000000000,"state":"active","ping":101},{"user_id":819,"name":"dog-shaped dog","steam_id":76561198286166220,"connected_time":214000000000,"state":"active","ping":116}]},{"server_id":406,"name":"Uncletopia | Seattle | 3 | Stopwatch Beta","name_short":"sea-3","host":"sea-1.us.uncletopia.com","port":27035,"enabled":true,"region":"us-west","cc":"us","latitude":47.608013,"longitude":-122.33517,"reserved":0,"last_update":"0001-01-01T00:00:00Z","name_a2s":"Uncletopia | Seattle | 3 | Stopwatch Beta","protocol":17,"map":"koth_highpass","folder":"tf","game":"Team Fortress","app_id":440,"player_count":2,"max_players":24,"Bots":0,"server_type":"Dedicated","server_os":"Linux","password":true,"vac":true,"version":"7757534","steam_id":85568392924515217,"keywords":["cp","nocrits","nodmgspread","uncletopia"],"game_id":440,"stv_port":27036,"stv_name":"Uncletopia | Seattle | 3 | Stopwatch Beta | STV","players":[{"user_id":113,"name":"Teriyaki Jones","steam_id":76561198010282442,"connected_time":1640000000000,"state":"active","ping":81},{"user_id":114,"name":"Nutellaboi09","steam_id":76561199160909595,"connected_time":1627000000000,"state":"active","ping":65}]},{"server_id":17,"name":"Uncletopia | San Francisco | 1 | All Maps","name_short":"sfo-1","host":"sfo-1.us.uncletopia.com","port":27015,"enabled":true,"region":"us-west","cc":"us","latitude":37.77397,"longitude":-122.4313,"reserved":0,"last_update":"0001-01-01T00:00:00Z","name_a2s":"Uncletopia | San Francisco | 1 | All Maps","protocol":17,"map":"pl_badwater","folder":"tf","game":"Team Fortress","app_id":440,"player_count":24,"max_players":24,"Bots":0,"server_type":"Dedicated","server_os":"Linux","password":true,"vac":true,"version":"7757534","steam_id":85568392924469999,"keywords":["nocrits","nodmgspread","payload","uncletopia"],"game_id":440,"stv_port":27016,"stv_name":"Uncletopia | San Francisco | 1 | All Maps | STV","players":[{"user_id":335,"name":"meow_the_cat","steam_id":76561198294347721,"connected_time":737000000000,"state":"active","ping":59},{"user_id":301,"name":"Antonpirulero10","steam_id":76561198253036781,"connected_time":2628000000000,"state":"active","ping":83},{"user_id":336,"name":"Amogous Supreme","steam_id":76561198025476774,"connected_time":400000000000,"state":"active","ping":56},{"user_id":339,"name":"W1CKEDY","steam_id":76561198353447602,"connected_time":385000000000,"state":"active","ping":136},{"user_id":264,"name":"Frazzer","steam_id":76561198088679707,"connected_time":3672000000000,"state":"active","ping":49},{"user_id":341,"name":"BER","steam_id":76561198187124250,"connected_time":317000000000,"state":"active","ping":81},{"user_id":318,"name":"Y'all are Garage","steam_id":76561198012829324,"connected_time":1639000000000,"state":"active","ping":61},{"user_id":331,"name":"RiverMoot","steam_id":76561198081530179,"connected_time":1213000000000,"state":"active","ping":124},{"user_id":262,"name":"Interrobang","steam_id":76561198385044529,"connected_time":3715000000000,"state":"active","ping":103},{"user_id":337,"name":"[Squiddy]","steam_id":76561198027757551,"connected_time":398000000000,"state":"active","ping":113},{"user_id":332,"name":"mewtek","steam_id":76561198138599995,"connected_time":1086000000000,"state":"active","ping":63},{"user_id":343,"name":"dazlimey","steam_id":76561198206922028,"connected_time":257000000000,"state":"active","ping":58},{"user_id":321,"name":"the fool","steam_id":76561198005769466,"connected_time":1636000000000,"state":"active","ping":86},{"user_id":325,"name":"DAYTONA","steam_id":76561198061975847,"connected_time":1461000000000,"state":"active","ping":65},{"user_id":326,"name":"WitchesBwew","steam_id":76561198871652065,"connected_time":1457000000000,"state":"active","ping":76},{"user_id":338,"name":"yung fujo","steam_id":76561198116908911,"connected_time":394000000000,"state":"active","ping":120},{"user_id":267,"name":"Delimeat","steam_id":76561198043824595,"connected_time":3626000000000,"state":"active","ping":50},{"user_id":308,"name":"rose","steam_id":76561197995200743,"connected_time":2404000000000,"state":"active","ping":49},{"user_id":327,"name":"rmbl","steam_id":76561198150137369,"connected_time":1457000000000,"state":"active","ping":56},{"user_id":328,"name":"Mysteryred12","steam_id":76561199206772814,"connected_time":1431000000000,"state":"active","ping":73},{"user_id":313,"name":"what da dog doin","steam_id":76561198090573639,"connected_time":2079000000000,"state":"active","ping":55},{"user_id":334,"name":"beheeyem","steam_id":76561198042867745,"connected_time":838000000000,"state":"active","ping":63},{"user_id":284,"name":"WazL","steam_id":76561198065113895,"connected_time":3331000000000,"state":"active","ping":70},{"user_id":333,"name":"hersheybargame","steam_id":76561199162003623,"connected_time":877000000000,"state":"active","ping":53}]},{"server_id":18,"name":"Uncletopia | San Francisco | 2 | All Maps","name_short":"sfo-2","host":"sfo-1.us.uncletopia.com","port":27025,"enabled":true,"region":"us-west","cc":"us","latitude":37.77397,"longitude":-122.4313,"reserved":0,"last_update":"0001-01-01T00:00:00Z","name_a2s":"Uncletopia | San Francisco | 2 | All Maps","protocol":17,"map":"koth_viaduct","folder":"tf","game":"Team Fortress","app_id":440,"player_count":0,"max_players":24,"Bots":0,"server_type":"Dedicated","server_os":"Linux","password":true,"vac":true,"version":"7757534","steam_id":85568392924470000,"keywords":["cp","nocrits","nodmgspread","uncletopia"],"game_id":440,"stv_port":27026,"stv_name":"Uncletopia | San Francisco | 2 | All Maps | STV","players":null},{"server_id":19,"name":"Uncletopia | San Francisco | 3 | Stopwatch Beta","name_short":"sfo-3","host":"sfo-1.us.uncletopia.com","port":27035,"enabled":true,"region":"us-west","cc":"us","latitude":37.77397,"longitude":-122.4313,"reserved":0,"last_update":"0001-01-01T00:00:00Z","name_a2s":"Uncletopia | San Francisco | 3 | Stopwatch Beta","protocol":17,"map":"koth_lakeside_final","folder":"tf","game":"Team Fortress","app_id":440,"player_count":0,"max_players":24,"Bots":0,"server_type":"Dedicated","server_os":"Linux","password":true,"vac":true,"version":"7757534","steam_id":85568392924742824,"keywords":["cp","nocrits","nodmgspread","uncletopia"],"game_id":440,"stv_port":27036,"stv_name":"Uncletopia | San Francisco | 3 | Stopwatch Beta | STV","players":null},{"server_id":20,"name":"Uncletopia | San Francisco | 4 | Community","name_short":"sfo-4","host":"sfo-1.us.uncletopia.com","port":27045,"enabled":true,"region":"us-west","cc":"us","latitude":37.77397,"longitude":-122.4313,"reserved":0,"last_update":"0001-01-01T00:00:00Z","name_a2s":"Uncletopia | San Francisco | 4 | Community","protocol":17,"map":"workshop/cp_reckoner_rc6.ugc674719999","folder":"tf","game":"Team Fortress","app_id":440,"player_count":22,"max_players":24,"Bots":0,"server_type":"Dedicated","server_os":"Linux","password":true,"vac":true,"version":"7757534","steam_id":85568392924742826,"keywords":["cp","nocrits","nodmgspread","uncletopia"],"game_id":440,"stv_port":27046,"stv_name":"Uncletopia | San Francisco | 4 | Community | STV","players":[{"user_id":452,"name":"BurR","steam_id":76561198055431367,"connected_time":1014000000000,"state":"active","ping":120},{"user_id":361,"name":"Eden","steam_id":76561198075587475,"connected_time":7442000000000,"state":"active","ping":88},{"user_id":468,"name":"DannyM","steam_id":76561198351165570,"connected_time":239000000000,"state":"active","ping":72},{"user_id":433,"name":"tr","steam_id":76561198046944222,"connected_time":2773000000000,"state":"active","ping":60},{"user_id":450,"name":"Fire Wizard","steam_id":76561198972006814,"connected_time":1123000000000,"state":"active","ping":97},{"user_id":455,"name":"reverie","steam_id":76561198168158637,"connected_time":914000000000,"state":"active","ping":61},{"user_id":360,"name":"Wacks","steam_id":76561198079476100,"connected_time":7715000000000,"state":"active","ping":51},{"user_id":457,"name":"Cam","steam_id":76561198139174433,"connected_time":720000000000,"state":"active","ping":63},{"user_id":403,"name":"II HASH II 2-6","steam_id":76561198996233677,"connected_time":4651000000000,"state":"active","ping":64},{"user_id":408,"name":"MetalTao","steam_id":76561198189408110,"connected_time":4132000000000,"state":"active","ping":139},{"user_id":458,"name":"Irate Gamer Official","steam_id":76561198162688146,"connected_time":691000000000,"state":"active","ping":57},{"user_id":442,"name":"goldhed","steam_id":76561198051751133,"connected_time":1883000000000,"state":"active","ping":77},{"user_id":466,"name":"paolobuts","steam_id":76561199047108638,"connected_time":358000000000,"state":"active","ping":38},{"user_id":459,"name":"no vc no c","steam_id":76561197989503095,"connected_time":639000000000,"state":"active","ping":149},{"user_id":431,"name":"Type Three Dabeetus","steam_id":76561198062710038,"connected_time":2971000000000,"state":"active","ping":60},{"user_id":449,"name":"Mike Bean Burritos","steam_id":76561198173430607,"connected_time":1138000000000,"state":"active","ping":66},{"user_id":469,"name":"josegonzales2008","steam_id":76561198896091253,"connected_time":229000000000,"state":"active","ping":73},{"user_id":462,"name":"Arrythmia","steam_id":76561198093748123,"connected_time":528000000000,"state":"active","ping":75},{"user_id":470,"name":"PoftSarade","steam_id":76561198068237933,"connected_time":202000000000,"state":"active","ping":50},{"user_id":414,"name":"Al3x","steam_id":76561198056006234,"connected_time":3919000000000,"state":"active","ping":120},{"user_id":422,"name":"Sal In Haiti","steam_id":76561198055452939,"connected_time":3631000000000,"state":"active","ping":69},{"user_id":472,"name":"pathulhu","steam_id":76561198323941614,"connected_time":198000000000,"state":"active","ping":82}]},{"server_id":141,"name":"Uncletopia | Sydney | 1 | All Maps","name_short":"syd-1","host":"syd-1.au.uncletopia.com","port":27015,"enabled":true,"region":"au","cc":"au","latitude":-33.865143,"longitude":151.2099,"reserved":0,"last_update":"0001-01-01T00:00:00Z","name_a2s":"Uncletopia | Sydney | 1 | All Maps","protocol":17,"map":"pl_frontier_final","folder":"tf","game":"Team Fortress","app_id":440,"player_count":24,"max_players":24,"Bots":0,"server_type":"Dedicated","server_os":"Linux","password":true,"vac":true,"version":"7757534","steam_id":85568392924470001,"keywords":["nocrits","nodmgspread","payload","uncletopia"],"game_id":440,"stv_port":27016,"stv_name":"Uncletopia | Sydney | 1 | All Maps | STV","players":[{"user_id":297,"name":"4 Day Old Meat","steam_id":76561198992922627,"connected_time":3501000000000,"state":"active","ping":86},{"user_id":352,"name":"Violezine","steam_id":76561199000502615,"connected_time":785000000000,"state":"active","ping":144},{"user_id":282,"name":"Bob Ross","steam_id":76561198081686896,"connected_time":4335000000000,"state":"active","ping":56},{"user_id":264,"name":"Dynamite Chimp (Messedupotato)","steam_id":76561198122066100,"connected_time":5284000000000,"state":"active","ping":45},{"user_id":353,"name":"Del Davis","steam_id":76561199365669004,"connected_time":713000000000,"state":"active","ping":58},{"user_id":350,"name":"EpicGuy4227","steam_id":76561198094132328,"connected_time":1303000000000,"state":"active","ping":51},{"user_id":347,"name":"Tees","steam_id":76561199174602317,"connected_time":1344000000000,"state":"active","ping":51},{"user_id":278,"name":"shaymii","steam_id":76561198058562392,"connected_time":4645000000000,"state":"active","ping":89},{"user_id":348,"name":"skinny loser man","steam_id":76561198094041769,"connected_time":1322000000000,"state":"active","ping":32},{"user_id":359,"name":"BruceWillis235","steam_id":76561198884324029,"connected_time":431000000000,"state":"active","ping":93},{"user_id":360,"name":"Pat","steam_id":76561198244663182,"connected_time":416000000000,"state":"active","ping":57},{"user_id":313,"name":"Branko","steam_id":76561199262196710,"connected_time":2535000000000,"state":"active","ping":41},{"user_id":351,"name":"Sainator","steam_id":76561198202770490,"connected_time":1282000000000,"state":"active","ping":67},{"user_id":316,"name":"tetrx","steam_id":76561197996427098,"connected_time":2472000000000,"state":"active","ping":87},{"user_id":292,"name":"Lincoln2603","steam_id":76561198170236666,"connected_time":3636000000000,"state":"active","ping":42},{"user_id":320,"name":"xX_sexhaver_Xx(real)","steam_id":76561199205171109,"connected_time":2000000000000,"state":"active","ping":60},{"user_id":318,"name":"Roaring Forties","steam_id":76561199015985235,"connected_time":2443000000000,"state":"active","ping":104},{"user_id":269,"name":"Mister Heavy 2012","steam_id":76561198911542330,"connected_time":5134000000000,"state":"active","ping":79},{"user_id":294,"name":"Sentry Gun","steam_id":76561199196324815,"connected_time":3614000000000,"state":"active","ping":96},{"user_id":355,"name":"Empr","steam_id":76561198024387396,"connected_time":639000000000,"state":"active","ping":70},{"user_id":300,"name":"calculusfish","steam_id":76561198067205959,"connected_time":3449000000000,"state":"active","ping":69},{"user_id":331,"name":"‚ú™ dwippin","steam_id":76561198099342389,"connected_time":1837000000000,"state":"active","ping":54},{"user_id":312,"name":"PieMuncher","steam_id":76561198107221185,"connected_time":2555000000000,"state":"active","ping":69},{"user_id":363,"name":"Mud","steam_id":76561198025524712,"connected_time":238000000000,"state":"active","ping":50}]},{"server_id":123,"name":"Uncletopia | Sydney | 2 | All Maps","name_short":"syd-2","host":"syd-1.au.uncletopia.com","port":27025,"enabled":true,"region":"au","cc":"au","latitude":-33.865143,"longitude":151.2099,"reserved":0,"last_update":"0001-01-01T00:00:00Z","name_a2s":"Uncletopia | Sydney | 2 | All Maps","protocol":17,"map":"koth_lakeside_final","folder":"tf","game":"Team Fortress","app_id":440,"player_count":4,"max_players":24,"Bots":0,"server_type":"Dedicated","server_os":"Linux","password":true,"vac":true,"version":"7757534","steam_id":85568392924470002,"keywords":["cp","nocrits","nodmgspread","uncletopia"],"game_id":440,"stv_port":27026,"stv_name":"Uncletopia | Sydney | 2 | All Maps | STV","players":[{"user_id":11,"name":"Jman","steam_id":76561198280114601,"connected_time":732000000000,"state":"active","ping":70},{"user_id":12,"name":"Hertog van Damme","steam_id":76561198152470958,"connected_time":574000000000,"state":"active","ping":49},{"user_id":14,"name":"Truegr","steam_id":76561198811912339,"connected_time":398000000000,"state":"active","ping":332},{"user_id":17,"name":"SaltierThanYou","steam_id":76561198444395188,"connected_time":36000000000,"state":"spawning","ping":72}]},{"server_id":395,"name":"Uncletopia | Sydney | 3 | All Maps","name_short":"syd-3","host":"syd-1.au.uncletopia.com","port":27035,"enabled":true,"region":"au","cc":"au","latitude":-33.865143,"longitude":151.2099,"reserved":0,"last_update":"0001-01-01T00:00:00Z","name_a2s":"Uncletopia | Sydney | 3 | All Maps","protocol":17,"map":"cp_altitude","folder":"tf","game":"Team Fortress","app_id":440,"player_count":0,"max_players":24,"Bots":0,"server_type":"Dedicated","server_os":"Linux","password":true,"vac":true,"version":"7757534","steam_id":85568392925194467,"keywords":["cp","nocrits","nodmgspread","uncletopia"],"game_id":440,"stv_port":27036,"stv_name":"Uncletopia | Sydney | 3 | All Maps | STV","players":null},{"server_id":396,"name":"Uncletopia | Sydney | 4 | All Maps","name_short":"syd-4","host":"syd-1.au.uncletopia.com","port":27045,"enabled":true,"region":"au","cc":"au","latitude":-33.865143,"longitude":151.2099,"reserved":0,"last_update":"0001-01-01T00:00:00Z","name_a2s":"Uncletopia | Sydney | 4 | All Maps","protocol":17,"map":"koth_lakeside_final","folder":"tf","game":"Team Fortress","app_id":440,"player_count":0,"max_players":24,"Bots":0,"server_type":"Dedicated","server_os":"Linux","password":true,"vac":true,"version":"7757534","steam_id":85568392925397958,"keywords":["cp","nocrits","nodmgspread","uncletopia"],"game_id":440,"stv_port":27046,"stv_name":"Uncletopia | Sydney | 4 | All Maps | STV","players":null},{"server_id":58,"name":"Uncletopia | Sydney | 5 | Stopwatch Beta","name_short":"syd-5","host":"syd-1.au.uncletopia.com","port":27055,"enabled":true,"region":"au","cc":"au","latitude":-33.865143,"longitude":151.2099,"reserved":0,"last_update":"0001-01-01T00:00:00Z","name_a2s":"Uncletopia | Sydney | 5 | Stopwatch Beta","protocol":17,"map":"koth_cascade","folder":"tf","game":"Team Fortress","app_id":440,"player_count":0,"max_players":24,"Bots":0,"server_type":"Dedicated","server_os":"Linux","password":true,"vac":true,"version":"7757534","steam_id":85568392925397959,"keywords":["cp","nocrits","nodmgspread","uncletopia"],"game_id":440,"stv_port":27056,"stv_name":"Uncletopia | Sydney | 5 | Stopwatch Beta | STV","players":null},{"server_id":59,"name":"Uncletopia | Sydney | 6 | Community","name_short":"syd-6","host":"syd-1.au.uncletopia.com","port":27065,"enabled":true,"region":"au","cc":"au","latitude":-33.865143,"longitude":151.2099,"reserved":0,"last_update":"0001-01-01T00:00:00Z","name_a2s":"Uncletopia | Sydney | 6 | Community","protocol":17,"map":"workshop/pl_corrode_rc2.ugc546577989","folder":"tf","game":"Team Fortress","app_id":440,"player_count":0,"max_players":24,"Bots":0,"server_type":"Dedicated","server_os":"Linux","password":true,"vac":true,"version":"7757534","steam_id":85568392925397960,"keywords":["nocrits","nodmgspread","payload","uncletopia"],"game_id":440,"stv_port":27066,"stv_name":"Uncletopia | Sydney | 6 | Community | STV","players":null},{"server_id":49,"name":"Uncletopia | Warsaw | 1 | All Maps","name_short":"waw-1","host":"waw-1.pl.uncletopia.com","port":27015,"enabled":true,"region":"eu","cc":"pl","latitude":52.2297,"longitude":21.017532,"reserved":0,"last_update":"0001-01-01T00:00:00Z","name_a2s":"","protocol":0,"map":"","folder":"","game":"","app_id":0,"player_count":0,"max_players":0,"Bots":0,"server_type":"","server_os":"","password":false,"vac":false,"version":"","steam_id":0,"keywords":null,"game_id":0,"stv_port":0,"stv_name":"","players":null},{"server_id":50,"name":"Uncletopia | Warsaw | 2 | All Maps","name_short":"waw-2","host":"waw-1.pl.uncletopia.com","port":27025,"enabled":true,"region":"eu","cc":"pl","latitude":52.2297,"longitude":21.017532,"reserved":0,"last_update":"0001-01-01T00:00:00Z","name_a2s":"Uncletopia | Warsaw | 2 | All Maps","protocol":17,"map":"koth_lakeside_final","folder":"tf","game":"Team Fortress","app_id":440,"player_count":0,"max_players":24,"Bots":0,"server_type":"Dedicated","server_os":"Linux","password":true,"vac":true,"version":"7757534","steam_id":85568392925397851,"keywords":["cp","nocrits","nodmgspread","uncletopia"],"game_id":440,"stv_port":27026,"stv_name":"Uncletopia | Warsaw | 2 | All Maps | STV","players":null},{"server_id":51,"name":"Uncletopia | Warsaw | 3 | All Maps","name_short":"waw-3","host":"waw-1.pl.uncletopia.com","port":27035,"enabled":true,"region":"eu","cc":"pl","latitude":52.2297,"longitude":21.017532,"reserved":0,"last_update":"0001-01-01T00:00:00Z","name_a2s":"Uncletopia | Warsaw | 3 | All Maps","protocol":17,"map":"pl_badwater","folder":"tf","game":"Team Fortress","app_id":440,"player_count":0,"max_players":24,"Bots":0,"server_type":"Dedicated","server_os":"Linux","password":true,"vac":true,"version":"7757534","steam_id":85568392925397852,"keywords":["nocrits","nodmgspread","payload","uncletopia"],"game_id":440,"stv_port":27036,"stv_name":"Uncletopia | Warsaw | 3 | All Maps | STV","players":null},{"server_id":52,"name":"Uncletopia | Warsaw | 4 | All Maps","name_short":"waw-4","host":"waw-1.pl.uncletopia.com","port":27045,"enabled":true,"region":"eu","cc":"pl","latitude":52.2297,"longitude":21.017532,"reserved":0,"last_update":"0001-01-01T00:00:00Z","name_a2s":"Uncletopia | Warsaw | 4 | All Maps","protocol":17,"map":"pl_borneo","folder":"tf","game":"Team Fortress","app_id":440,"player_count":0,"max_players":24,"Bots":0,"server_type":"Dedicated","server_os":"Linux","password":true,"vac":true,"version":"7757534","steam_id":85568392925397853,"keywords":["nocrits","nodmgspread","payload","uncletopia"],"game_id":440,"stv_port":27046,"stv_name":"Uncletopia | Warsaw | 4 | All Maps | STV","players":null},{"server_id":53,"name":"Uncletopia | Warsaw | 5 | Stopwatch Beta","name_short":"waw-5","host":"waw-1.pl.uncletopia.com","port":27055,"enabled":true,"region":"eu","cc":"pl","latitude":52.2297,"longitude":21.017532,"reserved":0,"last_update":"0001-01-01T00:00:00Z","name_a2s":"Uncletopia | Warsaw | 5 | Stopwatch Beta","protocol":17,"map":"workshop/pl_badwater_pro_v12.ugc2142942074","folder":"tf","game":"Team Fortress","app_id":440,"player_count":0,"max_players":24,"Bots":0,"server_type":"Dedicated","server_os":"Linux","password":true,"vac":true,"version":"7757534","steam_id":85568392925397854,"keywords":["nocrits","nodmgspread","payload","uncletopia"],"game_id":440,"stv_port":27056,"stv_name":"Uncletopia | Warsaw | 5 | Stopwatch Beta | STV","players":null},{"server_id":54,"name":"Uncletopia | Warsaw | 6 | Community","name_short":"waw-6","host":"waw-1.pl.uncletopia.com","port":27065,"enabled":true,"region":"eu","cc":"pl","latitude":52.2297,"longitude":21.017532,"reserved":0,"last_update":"0001-01-01T00:00:00Z","name_a2s":"Uncletopia | Warsaw | 6 | Community","protocol":17,"map":"koth_highpass","folder":"tf","game":"Team Fortress","app_id":440,"player_count":0,"max_players":24,"Bots":0,"server_type":"Dedicated","server_os":"Linux","password":true,"vac":true,"version":"7757534","steam_id":85568392925397856,"keywords":["cp","nocrits","nodmgspread","uncletopia"],"game_id":440,"stv_port":27066,"stv_name":"Uncletopia | Warsaw | 6 | Community | STV","players":null}]}