{"status":true,"message":"","result":[{"server_id":9,"name":"Uncletopia | Atlanta | 1 | All Maps","name_short":"atl-1","host":"atl-1.us.uncletopia.com","port":27015,"enabled":true,"region":"us-east","cc":"us","latitude":33.753746,"longitude":-84.38633,"reserved":0,"last_update":"0001-01-01T00:00:00Z","name_a2s":"Uncletopia | Atlanta | 1 | All Maps","protocol":17,"map":"pl_upward","folder":"tf","game":"Team Fortress","app_id":440,"player_count":24,"max_players":24,"Bots":0,"server_type":"Dedicated","server_os":"Linux","password":true,"vac":true,"version":"7757534","steam_id":85568392924469982,"keywords":["nocrits","nodmgspread","payload","uncletopia"],"game_id":440,"stv_port":27016,"stv_name":"Uncletopia | Atlanta | 1 | All Maps | STV","players":[{"user_id":618,"name":"Bag","steam_id":76561198012395490,"connected_time":5911000000000,"state":"active","ping":53},{"user_id":641,"name":"Bush.exe","steam_id":76561198124385307,"connected_time":4040000000000,"state":"active","ping":81},{"user_id":667,"name":"DFR Le4n!!!","steam_id":76561198045522596,"connected_time":551000000000,"state":"active","ping":68},{"user_id":663,"name":"Toonice","steam_id":76561198402994885,"connected_time":1496000000000,"state":"active","ping":82},{"user_id":665,"name":"Sophie","steam_id":76561198170408057,"connected_time":553000000000,"state":"active","ping":47},{"user_id":653,"name":"Cherry Bomb!","steam_id":76561198017947020,"connected_time":2809000000000,"state":"active","ping":47},{"user_id":625,"name":"TheRealMud","steam_id":76561198138312993,"connected_time":5504000000000,"state":"active","ping":84},{"user_id":655,"name":"one player game","steam_id":76561198200558318,"connected_time":2756000000000,"state":"active","ping":65},{"user_id":622,"name":"nomad","steam_id":76561197998740399,"connected_time":5532000000000,"state":"active","ping":66},{"user_id":615,"name":"ATL1 | wire-guided","steam_id":76561198055407168,"connected_time":6257000000000,"state":"active","ping":44},{"user_id":640,"name":"noah","steam_id":76561198173310157,"connected_time":4288000000000,"state":"active","ping":72},{"user_id":675,"name":"ARegularJohnDoe","steam_id":76561198015020139,"connected_time":224000000000,"state":"active","ping":64},{"user_id":634,"name":"Dot.","steam_id":76561198149463984,"connected_time":4561000000000,"state":"active","ping":63},{"user_id":676,"name":"rose","steam_id":76561198048882285,"connected_time":97000000000,"state":"active","ping":59},{"user_id":638,"name":"BigDeac","steam_id":76561198091237274,"connected_time":4344000000000,"state":"active","ping":85},{"user_id":541,"name":"F_L Jad The Taff","steam_id":76561198095923905,"connected_time":12543000000000,"state":"active","ping":73},{"user_id":657,"name":"Kasodani Kyouko","steam_id":76561198023178589,"connected_time":2553000000000,"state":"active","ping":95},{"user_id":673,"name":"Viokik","steam_id":76561198408846602,"connected_time":380000000000,"state":"active","ping":73},{"user_id":652,"name":"saber","steam_id":76561197980089457,"connected_time":2825000000000,"state":"active","ping":74},{"user_id":672,"name":"paetho YT","steam_id":76561198152690003,"connected_time":505000000000,"state":"active","ping":44},{"user_id":646,"name":"Ghetto Smosh Fan","steam_id":76561198097272509,"connected_time":3439000000000,"state":"active","ping":41},{"user_id":660,"name":"ash","steam_id":76561198127890645,"connected_time":1957000000000,"state":"active","ping":73},{"user_id":624,"name":"morphine","steam_id":76561198072124799,"connected_time":5526000000000,"state":"active","ping":96},{"user_id":598,"name":"Ashes!","steam_id":76561197998475441,"connected_time":7080000000000,"state":"active","ping":79}]},{"server_id":104,"name":"Uncletopia | Atlanta | 2 | All Maps","name_short":"atl-2","host":"atl-1.us.uncletopia.com","port":27025,"enabled":true,"region":"us-east","cc":"us","latitude":33.753746,"longitude":-84.38633,"reserved":0,"last_update":"0001-01-01T00:00:00Z","name_a2s":"Uncletopia | Atlanta | 2 | All Maps","protocol":17,"map":"pl_borneo","folder":"tf","game":"Team Fortress","app_id":440,"player_count":21,"max_players":24,"Bots":0,"server_type":"Dedicated","server_os":"Linux","password":true,"vac":true,"version":"7757534","steam_id":85568392924469983,"keywords":["nocrits","nodmgspread","payload","uncletopia"],"game_id":440,"stv_port":27026,"stv_name":"Uncletopia | Atlanta | 2 | All Maps | STV","players":[{"user_id":377,"name":"Goldensliv","steam_id":76561198161673891,"connected_time":2427000000000,"state":"active","ping":84},{"user_id":347,"name":"Truly Cryo","steam_id":76561198347497484,"connected_time":6843000000000,"state":"active","ping":80},{"user_id":376,"name":"Pascal","steam_id":76561198902657591,"connected_time":2448000000000,"state":"active","ping":47},{"user_id":385,"name":"Trove","steam_id":76561198110970476,"connected_time":2002000000000,"state":"active","ping":30},{"user_id":380,"name":"dlatgirp","steam_id":76561198417137724,"connected_time":2236000000000,"state":"active","ping":93},{"user_id":403,"name":"DerpFamous","steam_id":76561198046167888,"connected_time":127000000000,"state":"active","ping":41},{"user_id":379,"name":"FearFraaz","steam_id":76561198054218427,"connected_time":2327000000000,"state":"active","ping":60},{"user_id":404,"name":"Kanbaru Suruga","steam_id":76561198164782653,"connected_time":96000000000,"state":"active","ping":66},{"user_id":360,"name":"Codo Sapien","steam_id":76561198014206810,"connected_time":3847000000000,"state":"active","ping":50},{"user_id":401,"name":"Meurik","steam_id":76561198078032795,"connected_time":1188000000000,"state":"active","ping":159},{"user_id":353,"name":"Grand Piano Tuna","steam_id":76561198135137213,"connected_time":5867000000000,"state":"active","ping":62},{"user_id":384,"name":"Samrizo el Chorizo","steam_id":76561198009838162,"connected_time":2071000000000,"state":"active","ping":66},{"user_id":409,"name":"IM THE A TRAIN BABY","steam_id":76561198984768447,"connected_time":33000000000,"state":"active","ping":97},{"user_id":405,"name":"gerg","steam_id":76561197997127387,"connected_time":94000000000,"state":"active","ping":102},{"user_id":344,"name":"Sprit ♥","steam_id":76561198268780781,"connected_time":7183000000000,"state":"active","ping":60},{"user_id":402,"name":"troll","steam_id":76561198040890252,"connected_time":168000000000,"state":"active","ping":55},{"user_id":406,"name":"social distance warrior","steam_id":76561198128992994,"connected_time":94000000000,"state":"active","ping":90},{"user_id":407,"name":"jalapeno handjob","steam_id":76561198123298824,"connected_time":67000000000,"state":"active","ping":115},{"user_id":408,"name":"1 2 Oatmeal","steam_id":76561197999318398,"connected_time":63000000000,"state":"active","ping":132},{"user_id":391,"name":"SadChicken λ","steam_id":76561198082458968,"connected_time":1924000000000,"state":"active","ping":108},{"user_id":394,"name":"xavier","steam_id":76561198210294852,"connected_time":1843000000000,"state":"active","ping":78}]},{"server_id":400,"name":"Uncletopia | Atlanta | 3 | Community","name_short":"atl-3","host":"atl-1.us.uncletopia.com","port":27035,"enabled":true,"region":"us-east","cc":"us","latitude":33.753746,"longitude":-84.38633,"reserved":0,"last_update":"0001-01-01T00:00:00Z","name_a2s":"Uncletopia | Atlanta | 3 | Community","protocol":17,"map":"workshop/pl_vigil_rc9.ugc1266210012","folder":"tf","game":"Team Fortress","app_id":440,"player_count":0,"max_players":24,"Bots":0,"server_type":"Dedicated","server_os":"Linux","password":true,"vac":true,"version":"7757534","steam_id":85568392924515187,"keywords":["nocrits","nodmgspread","payload","uncletopia"],"game_id":440,"stv_port":27036,"stv_name":"Uncletopia | Atlanta | 3 | Community | STV","players":null},{"server_id":401,"name":"Uncletopia | Atlanta | 4 | No Payload","name_short":"atl-4","host":"atl-1.us.uncletopia.com","port":27045,"enabled":true,"region":"us-east","cc":"us","latitude":33.753746,"longitude":-84.38633,"reserved":0,"last_update":"0001-01-01T00:00:00Z","name_a2s":"","protocol":0,"map":"","folder":"","game":"","app_id":0,"player_count":0,"max_players":0,"Bots":0,"server_type":"","server_os":"","password":false,"vac":false,"version":"","steam_id":0,"keywords":null,"game_id":0,"stv_port":0,"stv_name":"","players":null},{"server_id":2,"name":"Uncletopia | Chicago | 1 | All Maps","name_short":"chi-1","host":"chi-1.us.uncletopia.com","port":27015,"enabled":true,"region":"us-central","cc":"us","latitude":41.881832,"longitude":-87.62318,"reserved":0,"last_update":"0001-01-01T00:00:00Z","name_a2s":"Uncletopia | Chicago | 1 | All Maps","protocol":17,"map":"pl_borneo","folder":"tf","game":"Team Fortress","app_id":440,"player_count":24,"max_players":24,"Bots":0,"server_type":"Dedicated","server_os":"Linux","password":true,"vac":true,"version":"7757534","steam_id":85568392924469984,"keywords":["nocrits","nodmgspread","payload","uncletopia"],"game_id":440,"stv_port":27016,"stv_name":"Uncletopia | Chicago | 1 | All Maps | STV","players":[{"user_id":700,"name":"CamSoup","steam_id":76561198202483168,"connected_time":1188000000000,"state":"active","ping":64},{"user_id":692,"name":"Sandwich Sam","steam_id":76561198170089546,"connected_time":1439000000000,"state":"active","ping":93},{"user_id":705,"name":"jayeezy","steam_id":76561198118562391,"connected_time":357000000000,"state":"active","ping":76},{"user_id":671,"name":"HOLD ME crow","steam_id":76561198046802071,"connected_time":4178000000000,"state":"active","ping":60},{"user_id":666,"name":"Thundermonkey (SMOKE)","steam_id":76561198017631728,"connected_time":4366000000000,"state":"active","ping":63},{"user_id":640,"name":"Wardin","steam_id":76561198096881855,"connected_time":6298000000000,"state":"active","ping":66},{"user_id":679,"name":"TheGuysMan","steam_id":76561198163677812,"connected_time":3149000000000,"state":"active","ping":78},{"user_id":707,"name":"Goofball","steam_id":76561198061211537,"connected_time":314000000000,"state":"active","ping":59},{"user_id":631,"name":"God","steam_id":76561198131089513,"connected_time":6892000000000,"state":"active","ping":46},{"user_id":678,"name":"Ehttri","steam_id":76561198170138667,"connected_time":3193000000000,"state":"active","ping":74},{"user_id":654,"name":"Glass Joe","steam_id":76561198317365741,"connected_time":5454000000000,"state":"active","ping":63},{"user_id":693,"name":"AzuriousAlex","steam_id":76561198158026405,"connected_time":1414000000000,"state":"active","ping":87},{"user_id":694,"name":"3-13","steam_id":76561198063929021,"connected_time":1349000000000,"state":"active","ping":63},{"user_id":586,"name":"i really like this dog :)","steam_id":76561198882404753,"connected_time":10508000000000,"state":"active","ping":81},{"user_id":695,"name":"TLG, Certified Gamer Mom","steam_id":76561198076669951,"connected_time":1336000000000,"state":"active","ping":69},{"user_id":696,"name":"Wang of Wall St","steam_id":76561198047460598,"connected_time":1318000000000,"state":"active","ping":75},{"user_id":697,"name":"Farseer Ulwithy","steam_id":76561197965179245,"connected_time":1302000000000,"state":"active","ping":82},{"user_id":687,"name":"PKBEAST_7","steam_id":76561198177136537,"connected_time":2512000000000,"state":"active","ping":90},{"user_id":681,"name":"LTG","steam_id":76561198186856187,"connected_time":3011000000000,"state":"active","ping":90},{"user_id":701,"name":"Dr_Spek","steam_id":76561198128667701,"connected_time":959000000000,"state":"active","ping":65},{"user_id":708,"name":"ChaingunnerFails","steam_id":76561198963075967,"connected_time":304000000000,"state":"active","ping":104},{"user_id":676,"name":"Avo","steam_id":76561197993340494,"connected_time":3208000000000,"state":"active","ping":77},{"user_id":704,"name":"s71nk3y / Stinky / Apestoso","steam_id":76561198060954715,"connected_time":522000000000,"state":"active","ping":83},{"user_id":709,"name":"Tree","steam_id":76561198195445331,"connected_time":304000000000,"state":"active","ping":120}]},{"server_id":106,"name":"Uncletopia | Chicago | 2 | All Maps","name_short":"chi-2","host":"chi-1.us.uncletopia.com","port":27025,"enabled":true,"region":"us-central","cc":"us","latitude":41.881832,"longitude":-87.62318,"reserved":0,"last_update":"0001-01-01T00:00:00Z","name_a2s":"Uncletopia | Chicago | 2 | All Maps","protocol":17,"map":"cp_steel","folder":"tf","game":"Team Fortress","app_id":440,"player_count":24,"max_players":24,"Bots":0,"server_type":"Dedicated","server_os":"Linux","password":true,"vac":true,"version":"7757534","steam_id":85568392924469985,"keywords":["cp","nocrits","nodmgspread","uncletopia"],"game_id":440,"stv_port":27026,"stv_name":"Uncletopia | Chicago | 2 | All Maps | STV","players":[{"user_id":611,"name":"Evolution","steam_id":76561198144767370,"connected_time":3143000000000,"state":"active","ping":47},{"user_id":634,"name":"Qwerds","steam_id":76561198139150581,"connected_time":1255000000000,"state":"active","ping":75},{"user_id":635,"name":"\u003cTFF\u003e Gurn","steam_id":76561198011393367,"connected_time":1248000000000,"state":"active","ping":92},{"user_id":644,"name":"Father Jon","steam_id":76561198324730919,"connected_time":771000000000,"state":"active","ping":87},{"user_id":627,"name":"serynsa","steam_id":76561198066987189,"connected_time":1917000000000,"state":"active","ping":76},{"user_id":648,"name":"pp","steam_id":76561198057158117,"connected_time":524000000000,"state":"active","ping":49},{"user_id":642,"name":"\"Gay Panic\"","steam_id":76561198132531594,"connected_time":1029000000000,"state":"active","ping":93},{"user_id":649,"name":"Frozone","steam_id":76561198259380127,"connected_time":516000000000,"state":"active","ping":70},{"user_id":650,"name":"Gaming","steam_id":76561198107080532,"connected_time":507000000000,"state":"active","ping":65},{"user_id":518,"name":"Jake The Snake","steam_id":76561198047722285,"connected_time":10848000000000,"state":"active","ping":90},{"user_id":619,"name":"Fever Dreams","steam_id":76561198116614620,"connected_time":2836000000000,"state":"active","ping":71},{"user_id":651,"name":"Notation","steam_id":76561198119509319,"connected_time":505000000000,"state":"active","ping":60},{"user_id":598,"name":"majorbobfunction","steam_id":76561198042464632,"connected_time":4280000000000,"state":"active","ping":57},{"user_id":631,"name":"BigOrca54","steam_id":76561198181360271,"connected_time":1393000000000,"state":"active","ping":57},{"user_id":652,"name":"Jacket","steam_id":76561198125415247,"connected_time":500000000000,"state":"active","ping":58},{"user_id":549,"name":"Dr. Ｔｉｍｓｋａ","steam_id":76561198272075712,"connected_time":8719000000000,"state":"active","ping":81},{"user_id":548,"name":"Pepperoni King","steam_id":76561198190288063,"connected_time":8752000000000,"state":"active","ping":101},{"user_id":632,"name":"Skyblade64","steam_id":76561198042177790,"connected_time":1375000000000,"state":"active","ping":57},{"user_id":653,"name":"PipeJar2064","steam_id":76561198273513977,"connected_time":276000000000,"state":"active","ping":95},{"user_id":547,"name":"Cheese Master","steam_id":76561198189176634,"connected_time":8774000000000,"state":"active","ping":106},{"user_id":521,"name":"FrozenCowJuice","steam_id":76561198130568045,"connected_time":10804000000000,"state":"active","ping":46},{"user_id":645,"name":"Danger Days by MCR","steam_id":76561199107068627,"connected_time":712000000000,"state":"active","ping":59},{"user_id":638,"name":"Spygie","steam_id":76561198218573049,"connected_time":1197000000000,"state":"active","ping":56},{"user_id":639,"name":"TheSnipersHat","steam_id":76561198057684066,"connected_time":1188000000000,"state":"active","ping":49}]},{"server_id":402,"name":"Uncletopia | Chicago | 3 | All Maps","name_short":"chi-3","host":"chi-1.us.uncletopia.com","port":27035,"enabled":true,"region":"us-central","cc":"us","latitude":41.881832,"longitude":-87.62318,"reserved":0,"last_update":"0001-01-01T00:00:00Z","name_a2s":"Uncletopia | Chicago | 3 | All Maps","protocol":17,"map":"pl_snowycoast","folder":"tf","game":"Team Fortress","app_id":440,"player_count":0,"max_players":24,"Bots":0,"server_type":"Dedicated","server_os":"Linux","password":true,"vac":true,"version":"7757534","steam_id":85568392924515191,"keywords":["nocrits","nodmgspread","payload","uncletopia"],"game_id":440,"stv_port":27036,"stv_name":"Uncletopia | Chicago | 3 | All Maps | STV","players":null},{"server_id":403,"name":"Uncletopia | Chicago | 4 | All Maps","name_short":"chi-4","host":"chi-1.us.uncletopia.com","port":27045,"enabled":true,"region":"us-central","cc":"us","latitude":41.881832,"longitude":-87.62318,"reserved":0,"last_update":"0001-01-01T00:00:00Z","name_a2s":"Uncletopia | Chicago | 4 | All Maps","protocol":17,"map":"pl_thundermountain","folder":"tf","game":"Team Fortress","app_id":440,"player_count":11,"max_players":24,"Bots":0,"server_type":"Dedicated","server_os":"Linux","password":true,"vac":true,"version":"7757534","steam_id":85568392924515193,"keywords":["nocrits","nodmgspread","payload","uncletopia"],"game_id":440,"stv_port":27046,"stv_name":"Uncletopia | Chicago | 4 | All Maps | STV","players":[{"user_id":501,"name":"weed","steam_id":76561199128192017,"connected_time":962000000000,"state":"active","ping":96},{"user_id":507,"name":"his flatulence","steam_id":76561198799404824,"connected_time":383000000000,"state":"active","ping":73},{"user_id":473,"name":"Burny Sanders","steam_id":76561197961879048,"connected_time":3776000000000,"state":"active","ping":59},{"user_id":508,"name":"squids a Grandmaster","steam_id":76561199200296010,"connected_time":334000000000,"state":"active","ping":81},{"user_id":503,"name":"volta","steam_id":76561199214283884,"connected_time":770000000000,"state":"active","ping":91},{"user_id":509,"name":"TheImmortalPyro","steam_id":76561198360333718,"connected_time":214000000000,"state":"active","ping":94},{"user_id":504,"name":"ジKiloeジ","steam_id":76561199084636926,"connected_time":747000000000,"state":"active","ping":109},{"user_id":505,"name":"golbat","steam_id":76561198041601161,"connected_time":588000000000,"state":"active","ping":58},{"user_id":476,"name":"der iz no change n za plan","steam_id":76561198043617388,"connected_time":3748000000000,"state":"active","ping":58},{"user_id":485,"name":"Sloppy Hoes","steam_id":76561198114922735,"connected_time":3257000000000,"state":"active","ping":64},{"user_id":464,"name":"WillieMakit","steam_id":76561197985391684,"connected_time":4899000000000,"state":"active","ping":116}]},{"server_id":36,"name":"Uncletopia | Chicago | 5 | All Maps","name_short":"chi-5","host":"chi-2.us.uncletopia.com","port":27015,"enabled":true,"region":"us-central","cc":"us","latitude":41.881832,"longitude":-87.62318,"reserved":0,"last_update":"0001-01-01T00:00:00Z","name_a2s":"Uncletopia | Chicago | 5 | All Maps","protocol":17,"map":"koth_highpass","folder":"tf","game":"Team Fortress","app_id":440,"player_count":0,"max_players":24,"Bots":0,"server_type":"Dedicated","server_os":"Linux","password":true,"vac":true,"version":"7757534","steam_id":85568392924866362,"keywords":["cp","nocrits","nodmgspread","uncletopia"],"game_id":440,"stv_port":27016,"stv_name":"Uncletopia | Chicago | 5 | All Maps | STV","players":null},{"server_id":37,"name":"Uncletopia | Chicago | 6 | All Maps","name_short":"chi-6","host":"chi-2.us.uncletopia.com","port":27025,"enabled":true,"region":"us-central","cc":"us","latitude":41.881832,"longitude":-87.62318,"reserved":0,"last_update":"0001-01-01T00:00:00Z","name_a2s":"Uncletopia | Chicago | 6 | All Maps","protocol":17,"map":"cp_dustbowl","folder":"tf","game":"Team Fortress","app_id":440,"player_count":24,"max_players":24,"Bots":0,"server_type":"Dedicated","server_os":"Linux","password":true,"vac":true,"version":"7757534","steam_id":85568392924866363,"keywords":["cp","nocrits","nodmgspread","uncletopia"],"game_id":440,"stv_port":27026,"stv_name":"Uncletopia | Chicago | 6 | All Maps | STV","players":[{"user_id":479,"name":"Alcapwned","steam_id":76561198232958968,"connected_time":803000000000,"state":"active","ping":75},{"user_id":482,"name":"Jeddef","steam_id":76561198040012616,"connected_time":440000000000,"state":"active","ping":144},{"user_id":467,"name":"cringe","steam_id":76561198104086771,"connected_time":2007000000000,"state":"active","ping":103},{"user_id":468,"name":"t","steam_id":76561198175988929,"connected_time":1978000000000,"state":"active","ping":64},{"user_id":481,"name":"ilikecorn78","steam_id":76561198838784551,"connected_time":650000000000,"state":"active","ping":66},{"user_id":417,"name":"PAFFsTastyPudding","steam_id":76561199002203593,"connected_time":5689000000000,"state":"active","ping":126},{"user_id":470,"name":"DeckofDragons","steam_id":76561198057398213,"connected_time":1944000000000,"state":"active","ping":88},{"user_id":483,"name":"King Smegma","steam_id":76561198139389573,"connected_time":389000000000,"state":"active","ping":72},{"user_id":475,"name":"toast","steam_id":76561197991622585,"connected_time":1196000000000,"state":"active","ping":88},{"user_id":448,"name":"VidzCMC","steam_id":76561198848142973,"connected_time":3578000000000,"state":"active","ping":54},{"user_id":484,"name":"Spring Beans","steam_id":76561197978546259,"connected_time":362000000000,"state":"active","ping":58},{"user_id":487,"name":"TGGHaze gaming","steam_id":76561199134730784,"connected_time":215000000000,"state":"active","ping":161},{"user_id":486,"name":"bluliciouscow","steam_id":76561198839866507,"connected_time":298000000000,"state":"active","ping":108},{"user_id":465,"name":"acurlyquote","steam_id":76561198110033420,"connected_time":2237000000000,"state":"active","ping":69},{"user_id":488,"name":"pel","steam_id":76561198021224745,"connected_time":202000000000,"state":"active","ping":52},{"user_id":490,"name":"Mr.Hour's 24 Hour Island Challe","steam_id":76561198018995498,"connected_time":177000000000,"state":"active","ping":60},{"user_id":462,"name":"Scoundrel","steam_id":76561198056672372,"connected_time":2362000000000,"state":"active","ping":74},{"user_id":455,"name":"! sebby\u003c33","steam_id":76561198982762971,"connected_time":3317000000000,"state":"active","ping":74},{"user_id":445,"name":"NUKAHOLIC","steam_id":76561198095051652,"connected_time":3677000000000,"state":"active","ping":147},{"user_id":450,"name":"Discourse","steam_id":76561198984286678,"connected_time":3526000000000,"state":"active","ping":53},{"user_id":476,"name":"Also Known As Assteeth","steam_id":76561198049837377,"connected_time":1130000000000,"state":"active","ping":50},{"user_id":464,"name":"identity","steam_id":76561198140584050,"connected_time":2264000000000,"state":"active","ping":79},{"user_id":350,"name":"Wimojimo12","steam_id":76561198370459596,"connected_time":12608000000000,"state":"active","ping":65},{"user_id":438,"name":"AquaEclipse","steam_id":76561198225964744,"connected_time":4305000000000,"state":"active","ping":90}]},{"server_id":38,"name":"Uncletopia | Chicago | 7 | Stopwatch Beta","name_short":"chi-7","host":"chi-2.us.uncletopia.com","port":27035,"enabled":true,"region":"us-central","cc":"us","latitude":41.881832,"longitude":-87.62318,"reserved":0,"last_update":"0001-01-01T00:00:00Z","name_a2s":"Uncletopia | Chicago | 7 | Stopwatch Beta","protocol":17,"map":"workshop/cp_process_f12.ugc2302948105","folder":"tf","game":"Team Fortress","app_id":440,"player_count":23,"max_players":24,"Bots":0,"server_type":"Dedicated","server_os":"Linux","password":true,"vac":true,"version":"7757534","steam_id":85568392924866364,"keywords":["cp","nocrits","nodmgspread","uncletopia"],"game_id":440,"stv_port":27036,"stv_name":"Uncletopia | Chicago | 7 | Stopwatch Beta | STV","players":[{"user_id":173,"name":"Lope","steam_id":76561198169381232,"connected_time":5301000000000,"state":"active","ping":95},{"user_id":174,"name":"Yankee with no brim","steam_id":76561198100603426,"connected_time":5280000000000,"state":"active","ping":94},{"user_id":241,"name":"Hindmost","steam_id":76561199081837220,"connected_time":731000000000,"state":"active","ping":78},{"user_id":231,"name":"radioactivespiderman95","steam_id":76561199057137494,"connected_time":1422000000000,"state":"active","ping":72},{"user_id":221,"name":"SevenKeleven","steam_id":76561198109757639,"connected_time":1786000000000,"state":"active","ping":59},{"user_id":235,"name":"Marc G","steam_id":76561198062650363,"connected_time":1204000000000,"state":"active","ping":75},{"user_id":242,"name":"Digital Lummox","steam_id":76561198136198600,"connected_time":580000000000,"state":"active","ping":73},{"user_id":223,"name":"Pimastr","steam_id":76561198230996464,"connected_time":1704000000000,"state":"active","ping":60},{"user_id":245,"name":"Gamingtime","steam_id":76561198339856746,"connected_time":42000000000,"state":"active","ping":86},{"user_id":208,"name":"Anyar","steam_id":76561198160174097,"connected_time":2240000000000,"state":"active","ping":62},{"user_id":185,"name":"Mishy-Moosh","steam_id":76561198843329050,"connected_time":4800000000000,"state":"active","ping":70},{"user_id":240,"name":"k3nny11","steam_id":76561198182533757,"connected_time":799000000000,"state":"active","ping":64},{"user_id":224,"name":"slack","steam_id":76561198000564263,"connected_time":1691000000000,"state":"active","ping":74},{"user_id":225,"name":"Kiwimpediment","steam_id":76561198322781400,"connected_time":1689000000000,"state":"active","ping":86},{"user_id":232,"name":"Speedy","steam_id":76561198080761661,"connected_time":1406000000000,"state":"active","ping":79},{"user_id":201,"name":"eimer","steam_id":76561198030559064,"connected_time":3257000000000,"state":"active","ping":147},{"user_id":226,"name":"AlecTheNefarious","steam_id":76561198035291230,"connected_time":1687000000000,"state":"active","ping":60},{"user_id":227,"name":"lanoc","steam_id":76561198055415367,"connected_time":1686000000000,"state":"active","ping":60},{"user_id":228,"name":"PGReddd","steam_id":76561198196771733,"connected_time":1680000000000,"state":"active","ping":86},{"user_id":233,"name":"Spag Hekki","steam_id":76561198207579353,"connected_time":1318000000000,"state":"active","ping":83},{"user_id":194,"name":"lmarhoover","steam_id":76561199057936373,"connected_time":4639000000000,"state":"active","ping":65},{"user_id":230,"name":"Crazed Gunman","steam_id":76561198806972543,"connected_time":1589000000000,"state":"active","ping":91},{"user_id":239,"name":"Queen Frau the Round","steam_id":76561197999942134,"connected_time":818000000000,"state":"active","ping":45}]},{"server_id":39,"name":"Uncletopia | Chicago | 8 | Community","name_short":"chi-8","host":"chi-2.us.uncletopia.com","port":27045,"enabled":true,"region":"us-central","cc":"us","latitude":41.881832,"longitude":-87.62318,"reserved":0,"last_update":"0001-01-01T00:00:00Z","name_a2s":"Uncletopia | Chicago | 8 | Community","protocol":17,"map":"workshop/pl_vigil_rc9.ugc1266210012","folder":"tf","game":"Team Fortress","app_id":440,"player_count":0,"max_players":24,"Bots":0,"server_type":"Dedicated","server_os":"Linux","password":true,"vac":true,"version":"7757534","steam_id":85568392924866365,"keywords":["nocrits","nodmgspread","payload","uncletopia"],"game_id":440,"stv_port":27046,"stv_name":"Uncletopia | Chicago | 8 | Community | STV","players":null},{"server_id":8,"name":"Uncletopia | Dallas | 1 | All Maps","name_short":"dal-1","host":"dal-1.us.uncletopia.com","port":27015,"enabled":true,"region":"us-central","cc":"us","latitude":32.779167,"longitude":-96.80889,"reserved":0,"last_update":"0001-01-01T00:00:00Z","name_a2s":"Uncletopia | Dallas | 1 | All Maps","protocol":17,"map":"pl_upward","folder":"tf","game":"Team Fortress","app_id":440,"player_count":24,"max_players":24,"Bots":0,"server_type":"Dedicated","server_os":"Linux","password":true,"vac":true,"version":"7757534","steam_id":85568392924469986,"keywords":["nocrits","nodmgspread","payload","uncletopia"],"game_id":440,"stv_port":27016,"stv_name":"Uncletopia | Dallas | 1 | All Maps | STV","players":[{"user_id":387,"name":"Shaw Han","steam_id":76561198204259015,"connected_time":3588000000000,"state":"active","ping":83},{"user_id":395,"name":"ultralisk52","steam_id":76561198051666604,"connected_time":2765000000000,"state":"active","ping":78},{"user_id":394,"name":"Long of Neck","steam_id":76561198038997485,"connected_time":2777000000000,"state":"active","ping":95},{"user_id":400,"name":"Bogey","steam_id":76561198096227944,"connected_time":1976000000000,"state":"active","ping":38},{"user_id":397,"name":"bkiller","steam_id":76561198029265697,"connected_time":2709000000000,"state":"active","ping":77},{"user_id":381,"name":"Glow","steam_id":76561198067861854,"connected_time":4386000000000,"state":"active","ping":67},{"user_id":363,"name":"Rock Kickass","steam_id":76561198450510841,"connected_time":5453000000000,"state":"active","ping":97},{"user_id":401,"name":"Sr. Penguin","steam_id":76561198128373959,"connected_time":1576000000000,"state":"active","ping":79},{"user_id":364,"name":"Srattinee","steam_id":76561198199840395,"connected_time":5440000000000,"state":"active","ping":88},{"user_id":378,"name":"Miro","steam_id":76561198936412406,"connected_time":4471000000000,"state":"active","ping":77},{"user_id":404,"name":"Manic","steam_id":76561198128149670,"connected_time":963000000000,"state":"active","ping":45},{"user_id":390,"name":"errant","steam_id":76561197961758410,"connected_time":3178000000000,"state":"active","ping":41},{"user_id":405,"name":"Korporal K. Reep","steam_id":76561199098222561,"connected_time":913000000000,"state":"active","ping":124},{"user_id":382,"name":"Juliocrivera","steam_id":76561198003186978,"connected_time":4320000000000,"state":"active","ping":38},{"user_id":407,"name":"Wookiee","steam_id":76561198139642742,"connected_time":120000000000,"state":"active","ping":64},{"user_id":361,"name":"MeMyBongusAndTheGreatOutdoors","steam_id":76561198097708978,"connected_time":5526000000000,"state":"active","ping":58},{"user_id":365,"name":"Czar","steam_id":76561198165585182,"connected_time":5402000000000,"state":"active","ping":85},{"user_id":398,"name":"Teapho","steam_id":76561198040398768,"connected_time":2689000000000,"state":"active","ping":79},{"user_id":402,"name":"A Straw","steam_id":76561199367935846,"connected_time":1316000000000,"state":"active","ping":72},{"user_id":383,"name":"IGMGIM","steam_id":76561198053307010,"connected_time":4313000000000,"state":"active","ping":79},{"user_id":393,"name":"Howoriginal","steam_id":76561197993701184,"connected_time":2843000000000,"state":"active","ping":82},{"user_id":384,"name":"HauntedNobu","steam_id":76561199202411385,"connected_time":4313000000000,"state":"active","ping":82},{"user_id":385,"name":"bumo","steam_id":76561197963231514,"connected_time":4309000000000,"state":"active","ping":75},{"user_id":403,"name":"0x01FE","steam_id":76561198838881917,"connected_time":1316000000000,"state":"active","ping":66}]},{"server_id":108,"name":"Uncletopia | Dallas | 2 | All Maps","name_short":"dal-2","host":"dal-1.us.uncletopia.com","port":27025,"enabled":true,"region":"us-central","cc":"us","latitude":32.779167,"longitude":-96.80889,"reserved":0,"last_update":"0001-01-01T00:00:00Z","name_a2s":"Uncletopia | Dallas | 2 | All Maps","protocol":17,"map":"pl_upward","folder":"tf","game":"Team Fortress","app_id":440,"player_count":23,"max_players":24,"Bots":0,"server_type":"Dedicated","server_os":"Linux","password":true,"vac":true,"version":"7757534","steam_id":85568392924469988,"keywords":["nocrits","nodmgspread","payload","uncletopia"],"game_id":440,"stv_port":27026,"stv_name":"Uncletopia | Dallas | 2 | All Maps | STV","players":[{"user_id":903,"name":"sunny","steam_id":76561198069380992,"connected_time":102000000000,"state":"active","ping":56},{"user_id":854,"name":"a gamer most foul","steam_id":76561198045810207,"connected_time":4018000000000,"state":"active","ping":76},{"user_id":894,"name":"hannah1","steam_id":76561198094801861,"connected_time":421000000000,"state":"active","ping":61},{"user_id":853,"name":"beleaguered harlot","steam_id":76561198036884600,"connected_time":4059000000000,"state":"active","ping":87},{"user_id":895,"name":"alan","steam_id":76561198281442409,"connected_time":416000000000,"state":"active","ping":73},{"user_id":878,"name":"tobexlol","steam_id":76561198803717994,"connected_time":1146000000000,"state":"active","ping":86},{"user_id":830,"name":"Woozy","steam_id":76561198008220735,"connected_time":6158000000000,"state":"active","ping":93},{"user_id":893,"name":"tekan","steam_id":76561199077174231,"connected_time":508000000000,"state":"active","ping":94},{"user_id":887,"name":"счизяѳ","steam_id":76561199182960322,"connected_time":963000000000,"state":"active","ping":61},{"user_id":899,"name":"xZackAttack27x","steam_id":76561198035446639,"connected_time":381000000000,"state":"active","ping":40},{"user_id":885,"name":"CoziestGlobe","steam_id":76561198199237735,"connected_time":1061000000000,"state":"active","ping":87},{"user_id":860,"name":"CupOJo","steam_id":76561198067153390,"connected_time":3041000000000,"state":"active","ping":77},{"user_id":750,"name":"Joe Swanson","steam_id":76561199089907740,"connected_time":14804000000000,"state":"active","ping":72},{"user_id":897,"name":"RasAlYankovic","steam_id":76561198074227675,"connected_time":404000000000,"state":"active","ping":100},{"user_id":872,"name":"Juno","steam_id":76561198042417277,"connected_time":2235000000000,"state":"active","ping":78},{"user_id":898,"name":"Final_MarioXD","steam_id":76561199184862419,"connected_time":398000000000,"state":"active","ping":83},{"user_id":902,"name":"quacked! (dinky)","steam_id":76561198970819395,"connected_time":126000000000,"state":"active","ping":59},{"user_id":877,"name":"magnolia","steam_id":76561199228865188,"connected_time":1338000000000,"state":"active","ping":43},{"user_id":890,"name":"HisDudeness","steam_id":76561198088035155,"connected_time":664000000000,"state":"active","ping":82},{"user_id":847,"name":"Ayylmao","steam_id":76561198104780147,"connected_time":4555000000000,"state":"active","ping":72},{"user_id":900,"name":"goooot","steam_id":76561198155591052,"connected_time":161000000000,"state":"active","ping":57},{"user_id":771,"name":"swag messiah","steam_id":76561197983860697,"connected_time":11887000000000,"state":"active","ping":172},{"user_id":906,"name":"tighty walter whities","steam_id":76561199122915452,"connected_time":98000000000,"state":"active","ping":130}]},{"server_id":5,"name":"Uncletopia | Frankfurt | 1 | All Maps","name_short":"frk-1","host":"frk-1.de.uncletopia.com","port":27015,"enabled":true,"region":"eu","cc":"de","latitude":50.110924,"longitude":8.682127,"reserved":0,"last_update":"0001-01-01T00:00:00Z","name_a2s":"Uncletopia | Frankfurt | 1 | All Maps","protocol":17,"map":"pl_snowycoast","folder":"tf","game":"Team Fortress","app_id":440,"player_count":0,"max_players":24,"Bots":0,"server_type":"Dedicated","server_os":"Linux","password":true,"vac":true,"version":"7757534","steam_id":85568392924469989,"keywords":["nocrits","nodmgspread","payload","uncletopia"],"game_id":440,"stv_port":27016,"stv_name":"Uncletopia | Frankfurt | 1 | All Maps | STV","players":null},{"server_id":110,"name":"Uncletopia | Frankfurt | 2 | All Maps","name_short":"frk-2","host":"frk-1.de.uncletopia.com","port":27025,"enabled":true,"region":"eu","cc":"de","latitude":50.110924,"longitude":8.682127,"reserved":0,"last_update":"0001-01-01T00:00:00Z","name_a2s":"Uncletopia | Frankfurt | 2 | All Maps","protocol":17,"map":"cp_snakewater_final1","folder":"tf","game":"Team Fortress","app_id":440,"player_count":0,"max_players":24,"Bots":0,"server_type":"Dedicated","server_os":"Linux","password":true,"vac":true,"version":"7757534","steam_id":85568392924469990,"keywords":["cp","nocrits","nodmgspread","uncletopia"],"game_id":440,"stv_port":27026,"stv_name":"Uncletopia | Frankfurt | 2 | All Maps | STV","players":null},{"server_id":308,"name":"Uncletopia | Frankfurt | 3 | All Maps","name_short":"frk-3","host":"frk-1.de.uncletopia.com","port":27035,"enabled":true,"region":"eu","cc":"de","latitude":50.110924,"longitude":8.682127,"reserved":0,"last_update":"0001-01-01T00:00:00Z","name_a2s":"Uncletopia | Frankfurt | 3 | All Maps","protocol":17,"map":"pl_swiftwater_final1","folder":"tf","game":"Team Fortress","app_id":440,"player_count":0,"max_players":24,"Bots":0,"server_type":"Dedicated","server_os":"Linux","password":true,"vac":true,"version":"7757534","steam_id":85568392924504274,"keywords":["nocrits","nodmgspread","payload","uncletopia"],"game_id":440,"stv_port":27036,"stv_name":"Uncletopia | Frankfurt | 3 | All Maps | STV","players":null},{"server_id":309,"name":"Uncletopia | Frankfurt | 4 | All Maps","name_short":"frk-4","host":"frk-1.de.uncletopia.com","port":27045,"enabled":true,"region":"eu","cc":"de","latitude":50.110924,"longitude":8.682127,"reserved":0,"last_update":"0001-01-01T00:00:00Z","name_a2s":"Uncletopia | Frankfurt | 4 | All Maps","protocol":17,"map":"koth_viaduct","folder":"tf","game":"Team Fortress","app_id":440,"player_count":0,"max_players":24,"Bots":0,"server_type":"Dedicated","server_os":"Linux","password":true,"vac":true,"version":"7757534","steam_id":85568392924504275,"keywords":["cp","nocrits","nodmgspread","uncletopia"],"game_id":440,"stv_port":27046,"stv_name":"Uncletopia | Frankfurt | 4 | All Maps | STV","players":null},{"server_id":310,"name":"Uncletopia | Frankfurt | 5 | All Maps","name_short":"frk-5","host":"frk-1.de.uncletopia.com","port":27055,"enabled":true,"region":"eu","cc":"de","latitude":50.110924,"longitude":8.682127,"reserved":0,"last_update":"0001-01-01T00:00:00Z","name_a2s":"Uncletopia | Frankfurt | 5 | All Maps","protocol":17,"map":"koth_lakeside_final","folder":"tf","game":"Team Fortress","app_id":440,"player_count":0,"max_players":24,"Bots":0,"server_type":"Dedicated","server_os":"Linux","password":true,"vac":true,"version":"7757534","steam_id":85568392924504277,"keywords":["cp","nocrits","nodmgspread","uncletopia"],"game_id":440,"stv_port":27056,"stv_name":"Uncletopia | Frankfurt | 5 | All Maps | STV","players":null},{"server_id":311,"name":"Uncletopia | Frankfurt | 6 | All Maps","name_short":"frk-6","host":"frk-1.de.uncletopia.com","port":27065,"enabled":true,"region":"eu","cc":"de","latitude":50.110924,"longitude":8.682127,"reserved":0,"last_update":"0001-01-01T00:00:00Z","name_a2s":"Uncletopia | Frankfurt | 6 | All Maps","protocol":17,"map":"pl_frontier_final","folder":"tf","game":"Team Fortress","app_id":440,"player_count":0,"max_players":24,"Bots":0,"server_type":"Dedicated","server_os":"Linux","password":true,"vac":true,"version":"7757534","steam_id":85568392924504278,"keywords":["nocrits","nodmgspread","payload","uncletopia"],"game_id":440,"stv_port":27066,"stv_name":"Uncletopia | Frankfurt | 6 | All Maps | STV","players":null},{"server_id":23,"name":"Uncletopia | Frankfurt | 7 | Stopwatch Beta","name_short":"frk-7","host":"frk-1.de.uncletopia.com","port":27075,"enabled":true,"region":"eu","cc":"de","latitude":50.110924,"longitude":8.682127,"reserved":0,"last_update":"0001-01-01T00:00:00Z","name_a2s":"Uncletopia | Frankfurt | 7 | Stopwatch Beta","protocol":17,"map":"cp_sunshine","folder":"tf","game":"Team Fortress","app_id":440,"player_count":0,"max_players":24,"Bots":0,"server_type":"Dedicated","server_os":"Linux","password":true,"vac":true,"version":"7757534","steam_id":85568392924742827,"keywords":["cp","nocrits","nodmgspread","uncletopia"],"game_id":440,"stv_port":27076,"stv_name":"Uncletopia | Frankfurt | 7 | Stopwatch Beta | STV","players":null},{"server_id":24,"name":"Uncletopia | Frankfurt | 8 | Community","name_short":"frk-8","host":"frk-1.de.uncletopia.com","port":27085,"enabled":true,"region":"eu","cc":"de","latitude":50.110924,"longitude":8.682127,"reserved":0,"last_update":"0001-01-01T00:00:00Z","name_a2s":"Uncletopia | Frankfurt | 8 | Community","protocol":17,"map":"koth_lakeside_final","folder":"tf","game":"Team Fortress","app_id":440,"player_count":0,"max_players":24,"Bots":0,"server_type":"Dedicated","server_os":"Linux","password":true,"vac":true,"version":"7757534","steam_id":85568392924742828,"keywords":["cp","nocrits","nodmgspread","uncletopia"],"game_id":440,"stv_port":27086,"stv_name":"Uncletopia | Frankfurt | 8 | Community | STV","players":null},{"server_id":202,"name":"Uncletopia | Hong Kong | 1 | All Maps","name_short":"hgk-1","host":"hgk-1.hk.uncletopia.com","port":27015,"enabled":true,"region":"asia","cc":"hk","latitude":22.302711,"longitude":114.177216,"reserved":0,"last_update":"0001-01-01T00:00:00Z","name_a2s":"Uncletopia | Hong Kong | 1 | All Maps","protocol":17,"map":"cp_altitude","folder":"tf","game":"Team Fortress","app_id":440,"player_count":0,"max_players":24,"Bots":0,"server_type":"Dedicated","server_os":"Linux","password":true,"vac":true,"version":"7757534","steam_id":85568392924494504,"keywords":["cp","nocrits","nodmgspread","uncletopia"],"game_id":440,"stv_port":27016,"stv_name":"Uncletopia | Hong Kong | 1 | All Maps | STV","players":null},{"server_id":1,"name":"Uncletopia | Los Angeles | 1 | All Maps","name_short":"lax-1","host":"lax-1.us.uncletopia.com","port":27015,"enabled":true,"region":"us-west","cc":"us","latitude":33.94279,"longitude":-118.41004,"reserved":0,"last_update":"0001-01-01T00:00:00Z","name_a2s":"Uncletopia | Los Angeles | 1 | All Maps","protocol":17,"map":"pl_pier","folder":"tf","game":"Team Fortress","app_id":440,"player_count":23,"max_players":24,"Bots":0,"server_type":"Dedicated","server_os":"Linux","password":true,"vac":true,"version":"7757534","steam_id":85568392924469991,"keywords":["nocrits","nodmgspread","payload","uncletopia"],"game_id":440,"stv_port":27016,"stv_name":"Uncletopia | Los Angeles | 1 | All Maps | STV","players":[{"user_id":510,"name":"[Zero] Lag","steam_id":76561198983494186,"connected_time":132000000000,"state":"active","ping":104},{"user_id":482,"name":"Genius Meme","steam_id":76561198162911254,"connected_time":2347000000000,"state":"active","ping":68},{"user_id":511,"name":"Type Three Dabeetus","steam_id":76561198062710038,"connected_time":124000000000,"state":"active","ping":57},{"user_id":499,"name":"elephant thumb","steam_id":76561198118859752,"connected_time":1236000000000,"state":"active","ping":45},{"user_id":501,"name":"I \u003c3 Vore","steam_id":76561198980062131,"connected_time":912000000000,"state":"active","ping":106},{"user_id":490,"name":"Gruntic","steam_id":76561198170396647,"connected_time":1640000000000,"state":"active","ping":57},{"user_id":503,"name":"Tmiracle","steam_id":76561198052375275,"connected_time":583000000000,"state":"active","ping":46},{"user_id":473,"name":"GlizzLord","steam_id":76561198321010427,"connected_time":3797000000000,"state":"active","ping":63},{"user_id":500,"name":"Samurai JackOff","steam_id":76561198165160011,"connected_time":1049000000000,"state":"active","ping":75},{"user_id":491,"name":"turtle head erection","steam_id":76561197961396512,"connected_time":1620000000000,"state":"active","ping":46},{"user_id":386,"name":"twitch.tv/Don_Bongo","steam_id":76561197976735155,"connected_time":8878000000000,"state":"active","ping":96},{"user_id":492,"name":"guanxiale","steam_id":76561198077632948,"connected_time":1613000000000,"state":"active","ping":39},{"user_id":497,"name":"big car","steam_id":76561198067082350,"connected_time":1413000000000,"state":"active","ping":52},{"user_id":504,"name":"5'3'' / 120 Lbs.","steam_id":76561197998103691,"connected_time":515000000000,"state":"active","ping":80},{"user_id":512,"name":"Volati!e","steam_id":76561198020147226,"connected_time":86000000000,"state":"active","ping":91},{"user_id":442,"name":"cjetson","steam_id":76561198074482272,"connected_time":5767000000000,"state":"active","ping":64},{"user_id":494,"name":"Hans Jerkov","steam_id":76561198016437601,"connected_time":1575000000000,"state":"active","ping":55},{"user_id":513,"name":"Love Waffle","steam_id":76561197990077189,"connected_time":30000000000,"state":"active","ping":84},{"user_id":502,"name":"i cant aim","steam_id":76561198065873462,"connected_time":601000000000,"state":"active","ping":48},{"user_id":505,"name":"(TPT) Ghost","steam_id":76561198123262873,"connected_time":501000000000,"state":"active","ping":63},{"user_id":514,"name":"Slim Charles","steam_id":76561197981687895,"connected_time":15000000000,"state":"spawning","ping":44},{"user_id":506,"name":"st4rb0y^*","steam_id":76561198337487263,"connected_time":481000000000,"state":"active","ping":91},{"user_id":508,"name":"{ᴛʀ_ᴄᴇʀᴘ} shullers","steam_id":76561198889997809,"connected_time":435000000000,"state":"active","ping":45}]},{"server_id":112,"name":"Uncletopia | Los Angeles | 2 | All Maps","name_short":"lax-2","host":"lax-1.us.uncletopia.com","port":27025,"enabled":true,"region":"us-west","cc":"us","latitude":33.94279,"longitude":-118.41004,"reserved":0,"last_update":"0001-01-01T00:00:00Z","name_a2s":"Uncletopia | Los Angeles | 2 | All Maps","protocol":17,"map":"pl_upward","folder":"tf","game":"Team Fortress","app_id":440,"player_count":24,"max_players":24,"Bots":0,"server_type":"Dedicated","server_os":"Linux","password":true,"vac":true,"version":"7757534","steam_id":85568392924469992,"keywords":["nocrits","nodmgspread","payload","uncletopia"],"game_id":440,"stv_port":27026,"stv_name":"Uncletopia | Los Angeles | 2 | All Maps | STV","players":[{"user_id":494,"name":"party tim","steam_id":76561198034876389,"connected_time":1295000000000,"state":"active","ping":58},{"user_id":508,"name":"silly jester","steam_id":76561198079609974,"connected_time":294000000000,"state":"active","ping":61},{"user_id":482,"name":"kommando1911","steam_id":76561198121455141,"connected_time":1931000000000,"state":"active","ping":53},{"user_id":484,"name":"BuddyOnline","steam_id":76561198368251143,"connected_time":1823000000000,"state":"active","ping":47},{"user_id":503,"name":"Dr. Bubs","steam_id":76561198011696595,"connected_time":709000000000,"state":"active","ping":73},{"user_id":511,"name":"mechanicvirus","steam_id":76561198038161480,"connected_time":135000000000,"state":"active","ping":59},{"user_id":495,"name":"Little Shuriken","steam_id":76561199020477560,"connected_time":1210000000000,"state":"active","ping":39},{"user_id":502,"name":"Agent Mania","steam_id":76561198029741272,"connected_time":763000000000,"state":"active","ping":43},{"user_id":507,"name":"Bree","steam_id":76561198386765190,"connected_time":659000000000,"state":"active","ping":60},{"user_id":497,"name":"Jeeper","steam_id":76561198155583692,"connected_time":995000000000,"state":"active","ping":108},{"user_id":460,"name":"Artic_Ryuu","steam_id":76561198182194918,"connected_time":3594000000000,"state":"active","ping":40},{"user_id":472,"name":"PS1","steam_id":76561198206922028,"connected_time":2504000000000,"state":"active","ping":47},{"user_id":496,"name":"Stargazer A.","steam_id":76561198035479925,"connected_time":1024000000000,"state":"active","ping":45},{"user_id":410,"name":"runicarc","steam_id":76561199209277380,"connected_time":7161000000000,"state":"active","ping":71},{"user_id":485,"name":"FI LO","steam_id":76561198976530881,"connected_time":1819000000000,"state":"active","ping":30},{"user_id":501,"name":"M4 Sherman","steam_id":76561198011096132,"connected_time":906000000000,"state":"active","ping":56},{"user_id":504,"name":"Cherry_Bomb","steam_id":76561198156160441,"connected_time":703000000000,"state":"active","ping":93},{"user_id":404,"name":"Clagger","steam_id":76561198066701092,"connected_time":7537000000000,"state":"active","ping":66},{"user_id":510,"name":"Jpzarde","steam_id":76561197978240364,"connected_time":163000000000,"state":"active","ping":85},{"user_id":505,"name":"Undercover Brother","steam_id":76561198010708247,"connected_time":696000000000,"state":"active","ping":131},{"user_id":491,"name":"Kamin","steam_id":76561198255299559,"connected_time":1703000000000,"state":"active","ping":100},{"user_id":466,"name":"The Midget Pounder","steam_id":76561198058940183,"connected_time":3420000000000,"state":"active","ping":66},{"user_id":512,"name":"Karl","steam_id":76561198115714484,"connected_time":108000000000,"state":"active","ping":78},{"user_id":500,"name":"Smittywerbenjager-manjenson","steam_id":76561198067060742,"connected_time":937000000000,"state":"active","ping":75}]},{"server_id":324,"name":"Uncletopia | Los Angeles | 3 | All Maps","name_short":"lax-3","host":"lax-1.us.uncletopia.com","port":27035,"enabled":true,"region":"us-west","cc":"us","latitude":33.94279,"longitude":-118.41004,"reserved":0,"last_update":"0001-01-01T00:00:00Z","name_a2s":"Uncletopia | Los Angeles | 3 | All Maps","protocol":17,"map":"koth_lakeside_final","folder":"tf","game":"Team Fortress","app_id":440,"player_count":23,"max_players":24,"Bots":0,"server_type":"Dedicated","server_os":"Linux","password":true,"vac":true,"version":"7757534","steam_id":85568392924510198,"keywords":["cp","nocrits","nodmgspread","uncletopia"],"game_id":440,"stv_port":27036,"stv_name":"Uncletopia | Los Angeles | 3 | All Maps | STV","players":[{"user_id":301,"name":"eau:","steam_id":76561198110020262,"connected_time":526000000000,"state":"active","ping":45},{"user_id":302,"name":"diversity hire","steam_id":76561198022967929,"connected_time":490000000000,"state":"active","ping":45},{"user_id":280,"name":"cammie","steam_id":76561199008748726,"connected_time":2627000000000,"state":"active","ping":116},{"user_id":278,"name":"BIG AWESOME","steam_id":76561198992237905,"connected_time":2637000000000,"state":"active","ping":49},{"user_id":279,"name":"Ghost Larper","steam_id":76561199407580843,"connected_time":2634000000000,"state":"active","ping":86},{"user_id":239,"name":"Rommel2007","steam_id":76561198041744631,"connected_time":4752000000000,"state":"active","ping":56},{"user_id":300,"name":"yurppp","steam_id":76561198169768539,"connected_time":552000000000,"state":"active","ping":58},{"user_id":307,"name":"www.teamfortess.com","steam_id":76561198114603745,"connected_time":8000000000,"state":"active","ping":238},{"user_id":264,"name":"Kurtle","steam_id":76561199099898602,"connected_time":3560000000000,"state":"active","ping":72},{"user_id":269,"name":"Squidlye","steam_id":76561199015857743,"connected_time":3315000000000,"state":"active","ping":91},{"user_id":293,"name":"SneekiCheekiQbone","steam_id":76561198045077980,"connected_time":1634000000000,"state":"active","ping":40},{"user_id":274,"name":"FROYO b4nny","steam_id":76561197970669109,"connected_time":2974000000000,"state":"active","ping":45},{"user_id":303,"name":"paean","steam_id":76561198347225801,"connected_time":466000000000,"state":"active","ping":63},{"user_id":297,"name":"your jordans are FAKE!!!!!!","steam_id":76561198143132686,"connected_time":1277000000000,"state":"active","ping":89},{"user_id":271,"name":"[S]Mr. X [No Monitor]","steam_id":76561197963746035,"connected_time":3220000000000,"state":"active","ping":123},{"user_id":304,"name":"Pee-Pee Storm","steam_id":76561198101442649,"connected_time":373000000000,"state":"active","ping":76},{"user_id":298,"name":"SillyGoose","steam_id":76561199229023662,"connected_time":1214000000000,"state":"active","ping":143},{"user_id":305,"name":"ttv/californjoe","steam_id":76561197965047795,"connected_time":173000000000,"state":"active","ping":53},{"user_id":283,"name":"xOzoex","steam_id":76561198063246051,"connected_time":2606000000000,"state":"active","ping":55},{"user_id":284,"name":"Mr. Green","steam_id":76561198075271412,"connected_time":2587000000000,"state":"active","ping":46},{"user_id":294,"name":"TeCon","steam_id":76561198049127236,"connected_time":1401000000000,"state":"active","ping":59},{"user_id":235,"name":"Leon","steam_id":76561198950938712,"connected_time":4839000000000,"state":"active","ping":106},{"user_id":295,"name":"Erodiah","steam_id":76561198419955778,"connected_time":1400000000000,"state":"active","ping":64}]},{"server_id":25,"name":"Uncletopia | Los Angeles | 4 | Stopwatch Beta","name_short":"lax-4","host":"lax-1.us.uncletopia.com","port":27045,"enabled":true,"region":"us-west","cc":"us","latitude":33.94279,"longitude":-118.41004,"reserved":0,"last_update":"0001-01-01T00:00:00Z","name_a2s":"Uncletopia | Los Angeles | 4 | Stopwatch Beta","protocol":17,"map":"pl_swiftwater_final1","folder":"tf","game":"Team Fortress","app_id":440,"player_count":0,"max_players":24,"Bots":0,"server_type":"Dedicated","server_os":"Linux","password":true,"vac":true,"version":"7757534","steam_id":85568392924510199,"keywords":["nocrits","nodmgspread","payload","uncletopia"],"game_id":440,"stv_port":27046,"stv_name":"Uncletopia | Los Angeles | 4 | Stopwatch Beta | STV","players":null},{"server_id":11,"name":"Uncletopia | London | 1 | All Maps","name_short":"lon-1","host":"lon-1.uk.uncletopia.com","port":27015,"enabled":true,"region":"eu","cc":"gb","latitude":51.509865,"longitude":-0.118092,"reserved":0,"last_update":"0001-01-01T00:00:00Z","name_a2s":"Uncletopia | London | 1 | All Maps","protocol":17,"map":"pl_upward","folder":"tf","game":"Team Fortress","app_id":440,"player_count":17,"max_players":24,"Bots":0,"server_type":"Dedicated","server_os":"Linux","password":true,"vac":true,"version":"7757534","steam_id":85568392924367362,"keywords":["nocrits","nodmgspread","payload","uncletopia"],"game_id":440,"stv_port":27016,"stv_name":"Uncletopia | London | 1 | All Maps | STV","players":[{"user_id":5,"name":"Killing","steam_id":76561198107392931,"connected_time":1173000000000,"state":"active","ping":40},{"user_id":6,"name":"duplicated","steam_id":76561198344952248,"connected_time":1172000000000,"state":"active","ping":60},{"user_id":7,"name":"Perpetual Pub Push","steam_id":76561198256714846,"connected_time":1164000000000,"state":"active","ping":30},{"user_id":8,"name":"Brezak","steam_id":76561198967550414,"connected_time":1163000000000,"state":"active","ping":64},{"user_id":9,"name":"night.s","steam_id":76561198326287823,"connected_time":1134000000000,"state":"active","ping":75},{"user_id":10,"name":"Purplenoogie","steam_id":76561198081872160,"connected_time":1130000000000,"state":"active","ping":31},{"user_id":11,"name":"cooler bones","steam_id":76561199480942903,"connected_time":1126000000000,"state":"active","ping":106},{"user_id":12,"name":"unkle","steam_id":76561198093794423,"connected_time":1105000000000,"state":"active","ping":101},{"user_id":13,"name":"Awife","steam_id":76561198118533289,"connected_time":1102000000000,"state":"active","ping":43},{"user_id":14,"name":"Cheesy Weenie","steam_id":76561198332060606,"connected_time":1087000000000,"state":"active","ping":88},{"user_id":15,"name":"I LOVE DUBSETP","steam_id":76561199181848818,"connected_time":1062000000000,"state":"active","ping":130},{"user_id":17,"name":"It's time","steam_id":76561198061197114,"connected_time":941000000000,"state":"active","ping":73},{"user_id":18,"name":"weed fairy","steam_id":76561197998843096,"connected_time":741000000000,"state":"active","ping":74},{"user_id":19,"name":"vert2spooky // GRAND WITCH","steam_id":76561198914976373,"connected_time":678000000000,"state":"active","ping":38},{"user_id":21,"name":"Nullsson","steam_id":76561199225929497,"connected_time":387000000000,"state":"active","ping":49},{"user_id":22,"name":"...jla","steam_id":76561198052435481,"connected_time":384000000000,"state":"active","ping":55},{"user_id":24,"name":"marsel","steam_id":76561198116168271,"connected_time":321000000000,"state":"active","ping":74}]},{"server_id":114,"name":"Uncletopia | London | 2 | All Maps","name_short":"lon-2","host":"lon-1.uk.uncletopia.com","port":27025,"enabled":true,"region":"eu","cc":"gb","latitude":51.509865,"longitude":-0.118092,"reserved":0,"last_update":"0001-01-01T00:00:00Z","name_a2s":"Uncletopia | London | 2 | All Maps","protocol":17,"map":"koth_viaduct","folder":"tf","game":"Team Fortress","app_id":440,"player_count":0,"max_players":24,"Bots":0,"server_type":"Dedicated","server_os":"Linux","password":true,"vac":true,"version":"7757534","steam_id":85568392924470941,"keywords":["cp","nocrits","nodmgspread","uncletopia"],"game_id":440,"stv_port":27026,"stv_name":"Uncletopia | London | 2 | All Maps | STV","players":null},{"server_id":320,"name":"Uncletopia | London | 3 | All Maps","name_short":"lon-3","host":"lon-1.uk.uncletopia.com","port":27035,"enabled":true,"region":"eu","cc":"gb","latitude":51.509865,"longitude":-0.118092,"reserved":0,"last_update":"0001-01-01T00:00:00Z","name_a2s":"Uncletopia | London | 3 | All Maps","protocol":17,"map":"cp_dustbowl","folder":"tf","game":"Team Fortress","app_id":440,"player_count":0,"max_players":24,"Bots":0,"server_type":"Dedicated","server_os":"Linux","password":true,"vac":true,"version":"7757534","steam_id":85568392924510192,"keywords":["cp","nocrits","nodmgspread","uncletopia"],"game_id":440,"stv_port":27036,"stv_name":"Uncletopia | London | 3 | All Maps | STV","players":null},{"server_id":321,"name":"Uncletopia | London | 4 | All Maps","name_short":"lon-4","host":"lon-1.uk.uncletopia.com","port":27045,"enabled":true,"region":"eu","cc":"gb","latitude":51.509865,"longitude":-0.118092,"reserved":0,"last_update":"0001-01-01T00:00:00Z","name_a2s":"Uncletopia | London | 4 | All Maps","protocol":17,"map":"cp_dustbowl","folder":"tf","game":"Team Fortress","app_id":440,"player_count":0,"max_players":24,"Bots":0,"server_type":"Dedicated","server_os":"Linux","password":true,"vac":true,"version":"7757534","steam_id":85568392924510193,"keywords":["cp","nocrits","nodmgspread","uncletopia"],"game_id":440,"stv_port":27046,"stv_name":"Uncletopia | London | 4 | All Maps | STV","players":null},{"server_id":21,"name":"Uncletopia | London | 5 | All Maps","name_short":"lon-5","host":"lon-1.uk.uncletopia.com","port":27055,"enabled":true,"region":"eu","cc":"gb","latitude":51.509865,"longitude":-0.118092,"reserved":0,"last_update":"0001-01-01T00:00:00Z","name_a2s":"Uncletopia | London | 5 | All Maps","protocol":17,"map":"cp_altitude","folder":"tf","game":"Team Fortress","app_id":440,"player_count":0,"max_players":24,"Bots":0,"server_type":"Dedicated","server_os":"Linux","password":true,"vac":true,"version":"7757534","steam_id":85568392924742829,"keywords":["cp","nocrits","nodmgspread","uncletopia"],"game_id":440,"stv_port":27056,"stv_name":"Uncletopia | London | 5 | All Maps | STV","players":null},{"server_id":22,"name":"Uncletopia | London | 6 | All Maps","name_short":"lon-6","host":"lon-1.uk.uncletopia.com","port":27065,"enabled":true,"region":"eu","cc":"gb","latitude":51.509865,"longitude":-0.118092,"reserved":0,"last_update":"0001-01-01T00:00:00Z","name_a2s":"Uncletopia | London | 6 | All Maps","protocol":17,"map":"cp_mountainlab","folder":"tf","game":"Team Fortress","app_id":440,"player_count":0,"max_players":24,"Bots":0,"server_type":"Dedicated","server_os":"Linux","password":true,"vac":true,"version":"7757534","steam_id":85568392924742830,"keywords":["cp","nocrits","nodmgspread","uncletopia"],"game_id":440,"stv_port":27066,"stv_name":"Uncletopia | London | 6 | All Maps | STV","players":null},{"server_id":40,"name":"Uncletopia | London | 7 | No Payload","name_short":"lon-7","host":"lon-1.uk.uncletopia.com","port":27075,"enabled":true,"region":"eu","cc":"gb","latitude":51.509865,"longitude":-0.118092,"reserved":0,"last_update":"0001-01-01T00:00:00Z","name_a2s":"Uncletopia | London | 7 | No Payload","protocol":17,"map":"pl_badwater","folder":"tf","game":"Team Fortress","app_id":440,"player_count":0,"max_players":24,"Bots":0,"server_type":"Dedicated","server_os":"Linux","password":true,"vac":true,"version":"7757534","steam_id":85568392924964314,"keywords":["nocrits","nodmgspread","payload","uncletopia"],"game_id":440,"stv_port":27076,"stv_name":"Uncletopia | London | 7 | No Payload | STV","players":null},{"server_id":41,"name":"Uncletopia | London | 8 | Community","name_short":"lon-8","host":"lon-1.uk.uncletopia.com","port":27085,"enabled":true,"region":"eu","cc":"gb","latitude":51.509865,"longitude":-0.118092,"reserved":0,"last_update":"0001-01-01T00:00:00Z","name_a2s":"Uncletopia | London | 8 | Community","protocol":17,"map":"pl_barnblitz","folder":"tf","game":"Team Fortress","app_id":440,"player_count":0,"max_players":24,"Bots":0,"server_type":"Dedicated","server_os":"Linux","password":true,"vac":true,"version":"7757534","steam_id":85568392924964315,"keywords":["nocrits","nodmgspread","payload","uncletopia"],"game_id":440,"stv_port":27086,"stv_name":"Uncletopia | London | 8 | Community | STV","players":null},{"server_id":300,"name":"Uncletopia | Montréal | 1 | All Maps","name_short":"mtl-1","host":"mtl-1.ca.uncletopia.com","port":27015,"enabled":true,"region":"us-east","cc":"ca","latitude":45.50889,"longitude":-73.56167,"reserved":0,"last_update":"0001-01-01T00:00:00Z","name_a2s":"Uncletopia | Montréal | 1 | All Maps","protocol":17,"map":"pl_snowycoast","folder":"tf","game":"Team Fortress","app_id":440,"player_count":0,"max_players":24,"Bots":0,"server_type":"Dedicated","server_os":"Linux","password":true,"vac":true,"version":"7757534","steam_id":85568392924500087,"keywords":["nocrits","nodmgspread","payload","uncletopia"],"game_id":440,"stv_port":27016,"stv_name":"Uncletopia | Montréal | 1 | All Maps | STV","players":null},{"server_id":301,"name":"Uncletopia | Montréal | 2 | All Maps","name_short":"mtl-2","host":"mtl-1.ca.uncletopia.com","port":27025,"enabled":true,"region":"us-east","cc":"ca","latitude":45.50889,"longitude":-73.56167,"reserved":0,"last_update":"0001-01-01T00:00:00Z","name_a2s":"Uncletopia | Montréal | 2 | All Maps","protocol":17,"map":"cp_snakewater_final1","folder":"tf","game":"Team Fortress","app_id":440,"player_count":0,"max_players":24,"Bots":0,"server_type":"Dedicated","server_os":"Linux","password":true,"vac":true,"version":"7757534","steam_id":85568392924500088,"keywords":["cp","nocrits","nodmgspread","uncletopia"],"game_id":440,"stv_port":27026,"stv_name":"Uncletopia | Montréal | 2 | All Maps | STV","players":null},{"server_id":302,"name":"Uncletopia | Montréal | 3 | All Maps","name_short":"mtl-3","host":"mtl-1.ca.uncletopia.com","port":27035,"enabled":true,"region":"us-east","cc":"ca","latitude":45.50889,"longitude":-73.56167,"reserved":0,"last_update":"0001-01-01T00:00:00Z","name_a2s":"Uncletopia | Montréal | 3 | All Maps","protocol":17,"map":"pl_borneo","folder":"tf","game":"Team Fortress","app_id":440,"player_count":0,"max_players":24,"Bots":0,"server_type":"Dedicated","server_os":"Linux","password":true,"vac":true,"version":"7757534","steam_id":85568392924500089,"keywords":["nocrits","nodmgspread","payload","uncletopia"],"game_id":440,"stv_port":27036,"stv_name":"Uncletopia | Montréal | 3 | All Maps | STV","players":null},{"server_id":303,"name":"Uncletopia | Montréal | 4 | No Payload","name_short":"mtl-4","host":"mtl-1.ca.uncletopia.com","port":27045,"enabled":true,"region":"us-east","cc":"ca","latitude":45.50889,"longitude":-73.56167,"reserved":0,"last_update":"0001-01-01T00:00:00Z","name_a2s":"Uncletopia | Montréal | 4 | No Payload","protocol":17,"map":"ctf_2fort","folder":"tf","game":"Team Fortress","app_id":440,"player_count":0,"max_players":24,"Bots":0,"server_type":"Dedicated","server_os":"Linux","password":true,"vac":true,"version":"7757534","steam_id":85568392924500090,"keywords":["ctf","nocrits","nodmgspread","uncletopia"],"game_id":440,"stv_port":27046,"stv_name":"Uncletopia | Montréal | 4 | No Payload | STV","players":null},{"server_id":13,"name":"Uncletopia | New York City | 1 | All Maps","name_short":"nyc-1","host":"nyc-1.us.uncletopia.com","port":27015,"enabled":true,"region":"us-east","cc":"us","latitude":40.73061,"longitude":-73.93524,"reserved":0,"last_update":"0001-01-01T00:00:00Z","name_a2s":"Uncletopia | New York City | 1 | All Maps","protocol":17,"map":"koth_lakeside_final","folder":"tf","game":"Team Fortress","app_id":440,"player_count":4,"max_players":24,"Bots":0,"server_type":"Dedicated","server_os":"Linux","password":true,"vac":true,"version":"7757534","steam_id":85568392924469993,"keywords":["cp","nocrits","nodmgspread","uncletopia"],"game_id":440,"stv_port":27016,"stv_name":"Uncletopia | New York City | 1 | All Maps | STV","players":[{"user_id":828,"name":"MagicMuffinman","steam_id":76561198149255313,"connected_time":1525000000000,"state":"active","ping":66},{"user_id":836,"name":"the pest","steam_id":76561198826298849,"connected_time":1002000000000,"state":"active","ping":80},{"user_id":831,"name":"inexperienced great horned owl","steam_id":76561198047077020,"connected_time":1430000000000,"state":"active","ping":55},{"user_id":835,"name":"loboto gaming","steam_id":76561199088321574,"connected_time":1215000000000,"state":"active","ping":83}]},{"server_id":14,"name":"Uncletopia | New York City | 2 | All Maps","name_short":"nyc-2","host":"nyc-1.us.uncletopia.com","port":27025,"enabled":true,"region":"us-east","cc":"us","latitude":40.73061,"longitude":-73.93524,"reserved":0,"last_update":"0001-01-01T00:00:00Z","name_a2s":"Uncletopia | New York City | 2 | All Maps","protocol":17,"map":"cp_dustbowl","folder":"tf","game":"Team Fortress","app_id":440,"player_count":21,"max_players":24,"Bots":0,"server_type":"Dedicated","server_os":"Linux","password":true,"vac":true,"version":"7757534","steam_id":85568392924469994,"keywords":["cp","nocrits","nodmgspread","uncletopia"],"game_id":440,"stv_port":27026,"stv_name":"Uncletopia | New York City | 2 | All Maps | STV","players":[{"user_id":606,"name":"stalker","steam_id":76561198170807821,"connected_time":1173000000000,"state":"active","ping":40},{"user_id":610,"name":"Big Dick Swinging","steam_id":76561198053819929,"connected_time":375000000000,"state":"active","ping":101},{"user_id":591,"name":"canine defecation","steam_id":76561198115656778,"connected_time":2022000000000,"state":"active","ping":51},{"user_id":603,"name":"evdoke","steam_id":76561198044555219,"connected_time":1449000000000,"state":"active","ping":45},{"user_id":599,"name":"scarecrow (evil)","steam_id":76561198082979347,"connected_time":1699000000000,"state":"active","ping":59},{"user_id":621,"name":"space ghost","steam_id":76561198044416336,"connected_time":1000000000,"state":"spawning","ping":70},{"user_id":533,"name":"Bubblegum Bitch","steam_id":76561198043307965,"connected_time":5817000000000,"state":"active","ping":109},{"user_id":572,"name":"Tom Crúaich","steam_id":76561197999439911,"connected_time":3070000000000,"state":"active","ping":91},{"user_id":560,"name":"Periculosum PhD in Funny","steam_id":76561198123370914,"connected_time":3587000000000,"state":"active","ping":85},{"user_id":619,"name":"Iman","steam_id":76561198063677510,"connected_time":138000000000,"state":"active","ping":59},{"user_id":607,"name":"Nobody","steam_id":76561198160544586,"connected_time":1109000000000,"state":"active","ping":83},{"user_id":613,"name":"Legnarius","steam_id":76561198090842475,"connected_time":336000000000,"state":"active","ping":108},{"user_id":609,"name":"puss","steam_id":76561198409588134,"connected_time":412000000000,"state":"active","ping":75},{"user_id":615,"name":"why","steam_id":76561199059732212,"connected_time":261000000000,"state":"active","ping":74},{"user_id":617,"name":"[‽]VzlaSaimSS[‽]","steam_id":76561199025374371,"connected_time":188000000000,"state":"active","ping":178},{"user_id":530,"name":"Bigsumoslammer","steam_id":76561198044505076,"connected_time":6150000000000,"state":"active","ping":45},{"user_id":618,"name":"ynneK","steam_id":76561199216973269,"connected_time":175000000000,"state":"active","ping":105},{"user_id":620,"name":"Crasson","steam_id":76561198034967708,"connected_time":125000000000,"state":"active","ping":64},{"user_id":532,"name":"dying","steam_id":76561198044612407,"connected_time":6006000000000,"state":"active","ping":53},{"user_id":608,"name":"Malicious Pigeon","steam_id":76561197981718510,"connected_time":1062000000000,"state":"active","ping":120},{"user_id":578,"name":"Goober Gaming","steam_id":76561198095550617,"connected_time":2738000000000,"state":"active","ping":86}]},{"server_id":15,"name":"Uncletopia | New York City | 3 | Stopwatch Beta","name_short":"nyc-3","host":"nyc-1.us.uncletopia.com","port":27035,"enabled":true,"region":"us-east","cc":"us","latitude":40.73061,"longitude":-73.93524,"reserved":0,"last_update":"0001-01-01T00:00:00Z","name_a2s":"Uncletopia | New York City | 3 | Stopwatch Beta","protocol":17,"map":"cp_gullywash_final1","folder":"tf","game":"Team Fortress","app_id":440,"player_count":0,"max_players":24,"Bots":0,"server_type":"Dedicated","server_os":"Linux","password":true,"vac":true,"version":"7757534","steam_id":85568392924742820,"keywords":["cp","nocrits","nodmgspread","uncletopia"],"game_id":440,"stv_port":27036,"stv_name":"Uncletopia | New York City | 3 | Stopwatch Beta | STV","players":null},{"server_id":16,"name":"Uncletopia | New York City | 4 | Community","name_short":"nyc-4","host":"nyc-1.us.uncletopia.com","port":27045,"enabled":true,"region":"us-east","cc":"us","latitude":40.73061,"longitude":-73.93524,"reserved":0,"last_update":"0001-01-01T00:00:00Z","name_a2s":"Uncletopia | New York City | 4 | Community","protocol":17,"map":"workshop/pl_divulgence_b4b.ugc2884808746","folder":"tf","game":"Team Fortress","app_id":440,"player_count":0,"max_players":24,"Bots":0,"server_type":"Dedicated","server_os":"Linux","password":true,"vac":true,"version":"7757534","steam_id":85568392924742821,"keywords":["nocrits","nodmgspread","payload","uncletopia"],"game_id":440,"stv_port":27046,"stv_name":"Uncletopia | New York City | 4 | Community | STV","players":null},{"server_id":142,"name":"Uncletopia | São Paulo | 1 | All Maps","name_short":"sao-1","host":"sao-1.br.uncletopia.com","port":27015,"enabled":true,"region":"sa","cc":"br","latitude":-23.533773,"longitude":-46.62529,"reserved":0,"last_update":"0001-01-01T00:00:00Z","name_a2s":"Uncletopia | São Paulo | 1 | All Maps","protocol":17,"map":"koth_highpass","folder":"tf","game":"Team Fortress","app_id":440,"player_count":0,"max_players":24,"Bots":0,"server_type":"Dedicated","server_os":"Linux","password":true,"vac":true,"version":"7757534","steam_id":85568392924469996,"keywords":["cp","nocrits","nodmgspread","uncletopia"],"game_id":440,"stv_port":27016,"stv_name":"Uncletopia | São Paulo | 1 | All Maps | STV","players":null},{"server_id":143,"name":"Uncletopia | São Paulo | 2 | All Maps","name_short":"sao-2","host":"sao-2.br.uncletopia.com","port":27015,"enabled":true,"region":"sa","cc":"br","latitude":-23.533773,"longitude":-46.62529,"reserved":0,"last_update":"0001-01-01T00:00:00Z","name_a2s":"Uncletopia | São Paulo | 2 | All Maps","protocol":17,"map":"cp_dustbowl","folder":"tf","game":"Team Fortress","app_id":440,"player_count":0,"max_players":24,"Bots":0,"server_type":"Dedicated","server_os":"Linux","password":true,"vac":true,"version":"7757534","steam_id":85568392924485349,"keywords":["cp","nocrits","nodmgspread","uncletopia"],"game_id":440,"stv_port":27016,"stv_name":"Uncletopia | São Paulo | 2 | All Maps | STV","players":null},{"server_id":7,"name":"Uncletopia | Seattle | 1 | All Maps","name_short":"sea-1","host":"sea-1.us.uncletopia.com","port":27015,"enabled":true,"region":"us-west","cc":"us","latitude":47.608013,"longitude":-122.33517,"reserved":0,"last_update":"0001-01-01T00:00:00Z","name_a2s":"Uncletopia | Seattle | 1 | All Maps","protocol":17,"map":"pl_frontier_final","folder":"tf","game":"Team Fortress","app_id":440,"player_count":24,"max_players":24,"Bots":0,"server_type":"Dedicated","server_os":"Linux","password":true,"vac":true,"version":"7757534","steam_id":85568392924469997,"keywords":["nocrits","nodmgspread","payload","uncletopia"],"game_id":440,"stv_port":27016,"stv_name":"Uncletopia | Seattle | 1 | All Maps | STV","players":[{"user_id":863,"name":"RIP Bashar Jackson","steam_id":76561198062940197,"connected_time":1962000000000,"state":"active","ping":41},{"user_id":851,"name":"reiidaya","steam_id":76561198325306660,"connected_time":3176000000000,"state":"active","ping":55},{"user_id":866,"name":"Pyrotek⁴","steam_id":76561198072747672,"connected_time":1772000000000,"state":"active","ping":75},{"user_id":795,"name":"SpinetinglingToast","steam_id":76561198099470670,"connected_time":6303000000000,"state":"active","ping":118},{"user_id":885,"name":"FidelGuevara","steam_id":76561198368296171,"connected_time":161000000000,"state":"active","ping":110},{"user_id":847,"name":"makeshift_burrito","steam_id":76561198042510825,"connected_time":3793000000000,"state":"active","ping":71},{"user_id":811,"name":"♥haunti","steam_id":76561199235580556,"connected_time":5322000000000,"state":"active","ping":47},{"user_id":875,"name":"It's a Doggydog World","steam_id":76561198018232414,"connected_time":967000000000,"state":"active","ping":84},{"user_id":874,"name":"Depths","steam_id":76561198343435310,"connected_time":983000000000,"state":"active","ping":73},{"user_id":822,"name":"Rain","steam_id":76561198065612273,"connected_time":4840000000000,"state":"active","ping":51},{"user_id":878,"name":"Raggedy","steam_id":76561198073271513,"connected_time":859000000000,"state":"active","ping":104},{"user_id":879,"name":"Mung Daal","steam_id":76561198010725277,"connected_time":826000000000,"state":"active","ping":127},{"user_id":747,"name":"rat gets the cheese","steam_id":76561198031234032,"connected_time":7558000000000,"state":"active","ping":96},{"user_id":856,"name":"squid","steam_id":76561198070236972,"connected_time":2746000000000,"state":"active","ping":90},{"user_id":884,"name":"NuclearPotato","steam_id":76561198144492000,"connected_time":213000000000,"state":"active","ping":69},{"user_id":880,"name":"girlboss","steam_id":76561198967348984,"connected_time":819000000000,"state":"active","ping":160},{"user_id":852,"name":"Vin","steam_id":76561198137057777,"connected_time":3130000000000,"state":"active","ping":63},{"user_id":877,"name":"kyepka yobane","steam_id":76561198078626283,"connected_time":865000000000,"state":"active","ping":35},{"user_id":883,"name":"Ena","steam_id":76561198066986108,"connected_time":599000000000,"state":"active","ping":47},{"user_id":870,"name":"armpit fetishist","steam_id":76561199008452637,"connected_time":1665000000000,"state":"active","ping":36},{"user_id":861,"name":"azureglxy","steam_id":76561198861388315,"connected_time":2460000000000,"state":"active","ping":68},{"user_id":803,"name":"SvicidalBug","steam_id":76561198221390504,"connected_time":5942000000000,"state":"active","ping":68},{"user_id":882,"name":"Cozy_Turtle","steam_id":76561198051809945,"connected_time":723000000000,"state":"active","ping":74},{"user_id":872,"name":"Res Ipsa","steam_id":76561198041349210,"connected_time":1438000000000,"state":"active","ping":80}]},{"server_id":119,"name":"Uncletopia | Seattle | 2 | All Maps","name_short":"sea-2","host":"sea-1.us.uncletopia.com","port":27025,"enabled":true,"region":"us-west","cc":"us","latitude":47.608013,"longitude":-122.33517,"reserved":0,"last_update":"0001-01-01T00:00:00Z","name_a2s":"Uncletopia | Seattle | 2 | All Maps","protocol":17,"map":"cp_foundry","folder":"tf","game":"Team Fortress","app_id":440,"player_count":24,"max_players":24,"Bots":0,"server_type":"Dedicated","server_os":"Linux","password":true,"vac":true,"version":"7757534","steam_id":85568392924469998,"keywords":["cp","nocrits","nodmgspread","uncletopia"],"game_id":440,"stv_port":27026,"stv_name":"Uncletopia | Seattle | 2 | All Maps | STV","players":[{"user_id":698,"name":"Buswolley","steam_id":76561197995205571,"connected_time":2105000000000,"state":"active","ping":70},{"user_id":712,"name":"PinguEnjoyer6","steam_id":76561199186723516,"connected_time":664000000000,"state":"active","ping":71},{"user_id":709,"name":"DoctorSpy","steam_id":76561198137014095,"connected_time":896000000000,"state":"active","ping":81},{"user_id":668,"name":"Grungus","steam_id":76561198047700230,"connected_time":3816000000000,"state":"active","ping":67},{"user_id":679,"name":"Evanb","steam_id":76561198042057792,"connected_time":3276000000000,"state":"active","ping":44},{"user_id":707,"name":"goldhed","steam_id":76561198051751133,"connected_time":931000000000,"state":"active","ping":59},{"user_id":670,"name":"gummygeek","steam_id":76561198244543486,"connected_time":3810000000000,"state":"active","ping":97},{"user_id":699,"name":"Willy Wonker","steam_id":76561198082944789,"connected_time":1966000000000,"state":"active","ping":86},{"user_id":704,"name":"Soda Popinski","steam_id":76561198045209288,"connected_time":1626000000000,"state":"active","ping":75},{"user_id":693,"name":"Mapachito Lindo","steam_id":76561198031359995,"connected_time":2617000000000,"state":"active","ping":43},{"user_id":661,"name":"♦Benji♦","steam_id":76561198313529973,"connected_time":4321000000000,"state":"active","ping":48},{"user_id":710,"name":"SolarusD","steam_id":76561198029279861,"connected_time":892000000000,"state":"active","ping":62},{"user_id":713,"name":"ROGUE-PLANET","steam_id":76561198116023052,"connected_time":663000000000,"state":"active","ping":77},{"user_id":720,"name":"dirty30","steam_id":76561198021226566,"connected_time":369000000000,"state":"active","ping":45},{"user_id":619,"name":"MisterManne","steam_id":76561198106598600,"connected_time":5917000000000,"state":"active","ping":59},{"user_id":680,"name":"benji","steam_id":76561198084417967,"connected_time":3276000000000,"state":"active","ping":90},{"user_id":682,"name":"JON","steam_id":76561198057971005,"connected_time":3214000000000,"state":"active","ping":38},{"user_id":716,"name":"St. Michael","steam_id":76561198037611052,"connected_time":563000000000,"state":"active","ping":92},{"user_id":717,"name":"Local","steam_id":76561198069537437,"connected_time":563000000000,"state":"active","ping":75},{"user_id":700,"name":"Mr defrost","steam_id":76561198322125657,"connected_time":1932000000000,"state":"active","ping":70},{"user_id":719,"name":"strbry","steam_id":76561198155133601,"connected_time":458000000000,"state":"active","ping":52},{"user_id":721,"name":"Submissive Subaru","steam_id":76561198078370261,"connected_time":226000000000,"state":"active","ping":103},{"user_id":689,"name":"Eric4bz","steam_id":76561198054439606,"connected_time":2886000000000,"state":"active","ping":70},{"user_id":718,"name":"oil","steam_id":76561198099980149,"connected_time":543000000000,"state":"active","ping":76}]},{"server_id":406,"name":"Uncletopia | Seattle | 3 | Stopwatch Beta","name_short":"sea-3","host":"sea-1.us.uncletopia.com","port":27035,"enabled":true,"region":"us-west","cc":"us","latitude":47.608013,"longitude":-122.33517,"reserved":0,"last_update":"0001-01-01T00:00:00Z","name_a2s":"Uncletopia | Seattle | 3 | Stopwatch Beta","protocol":17,"map":"workshop/cp_process_f12.ugc2302948105","folder":"tf","game":"Team Fortress","app_id":440,"player_count":1,"max_players":24,"Bots":0,"server_type":"Dedicated","server_os":"Linux","password":true,"vac":true,"version":"7757534","steam_id":85568392924515217,"keywords":["cp","nocrits","nodmgspread","uncletopia"],"game_id":440,"stv_port":27036,"stv_name":"Uncletopia | Seattle | 3 | Stopwatch Beta | STV","players":[{"user_id":212,"name":"Saggle","steam_id":76561198056075147,"connected_time":145000000000,"state":"active","ping":179}]},{"server_id":17,"name":"Uncletopia | San Francisco | 1 | All Maps","name_short":"sfo-1","host":"sfo-1.us.uncletopia.com","port":27015,"enabled":true,"region":"us-west","cc":"us","latitude":37.77397,"longitude":-122.4313,"reserved":0,"last_update":"0001-01-01T00:00:00Z","name_a2s":"Uncletopia | San Francisco | 1 | All Maps","protocol":17,"map":"pl_badwater","folder":"tf","game":"Team Fortress","app_id":440,"player_count":23,"max_players":24,"Bots":0,"server_type":"Dedicated","server_os":"Linux","password":true,"vac":true,"version":"7757534","steam_id":85568392924469999,"keywords":["nocrits","nodmgspread","payload","uncletopia"],"game_id":440,"stv_port":27016,"stv_name":"Uncletopia | San Francisco | 1 | All Maps | STV","players":[{"user_id":286,"name":"SuperViolence","steam_id":76561198973670368,"connected_time":1426000000000,"state":"active","ping":75},{"user_id":287,"name":"Psychobanana","steam_id":76561199142143339,"connected_time":1397000000000,"state":"active","ping":55},{"user_id":258,"name":"Melody","steam_id":76561198407789232,"connected_time":3073000000000,"state":"active","ping":73},{"user_id":282,"name":"EpsilonEagle","steam_id":76561197999126769,"connected_time":1549000000000,"state":"active","ping":157},{"user_id":305,"name":"Rafl","steam_id":76561198055222756,"connected_time":79000000000,"state":"active","ping":79},{"user_id":295,"name":"mega","steam_id":76561198089520959,"connected_time":1110000000000,"state":"active","ping":103},{"user_id":285,"name":"The Moon","steam_id":76561198082926682,"connected_time":1524000000000,"state":"active","ping":53},{"user_id":303,"name":"Cob","steam_id":76561198042518365,"connected_time":402000000000,"state":"active","ping":45},{"user_id":306,"name":"KOOLAID","steam_id":76561198062775462,"connected_time":30000000000,"state":"active","ping":60},{"user_id":246,"name":"THE DOUBLE DONKER","steam_id":76561199442139670,"connected_time":4490000000000,"state":"active","ping":120},{"user_id":299,"name":"zpalmtree","steam_id":76561198134307620,"connected_time":1057000000000,"state":"active","ping":115},{"user_id":290,"name":"Livin' Like Larry","steam_id":76561198313360974,"connected_time":1329000000000,"state":"active","ping":34},{"user_id":300,"name":"turtle","steam_id":76561198112673874,"connected_time":1042000000000,"state":"active","ping":56},{"user_id":260,"name":"Drake from State Farm","steam_id":76561199069029812,"connected_time":3026000000000,"state":"active","ping":55},{"user_id":241,"name":"Balls Insurance","steam_id":76561198005860388,"connected_time":5169000000000,"state":"active","ping":58},{"user_id":304,"name":"chanoc","steam_id":76561198026734746,"connected_time":398000000000,"state":"active","ping":46},{"user_id":251,"name":"Lock'd","steam_id":76561198170108230,"connected_time":4110000000000,"state":"active","ping":56},{"user_id":247,"name":"Mango Pod","steam_id":76561199093733603,"connected_time":4485000000000,"state":"active","ping":66},{"user_id":271,"name":"T _ T","steam_id":76561198041907345,"connected_time":2066000000000,"state":"active","ping":61},{"user_id":274,"name":"MerkyWaters","steam_id":76561197998853063,"connected_time":1896000000000,"state":"active","ping":76},{"user_id":226,"name":"Amogous Supreme","steam_id":76561198025476774,"connected_time":7187000000000,"state":"active","ping":57},{"user_id":301,"name":"wlfgng","steam_id":76561198316639499,"connected_time":752000000000,"state":"active","ping":37},{"user_id":294,"name":"Ian","steam_id":76561198159334435,"connected_time":1227000000000,"state":"active","ping":179}]},{"server_id":18,"name":"Uncletopia | San Francisco | 2 | All Maps","name_short":"sfo-2","host":"sfo-1.us.uncletopia.com","port":27025,"enabled":true,"region":"us-west","cc":"us","latitude":37.77397,"longitude":-122.4313,"reserved":0,"last_update":"0001-01-01T00:00:00Z","name_a2s":"Uncletopia | San Francisco | 2 | All Maps","protocol":17,"map":"koth_cascade","folder":"tf","game":"Team Fortress","app_id":440,"player_count":0,"max_players":24,"Bots":0,"server_type":"Dedicated","server_os":"Linux","password":true,"vac":true,"version":"7757534","steam_id":85568392924470000,"keywords":["cp","nocrits","nodmgspread","uncletopia"],"game_id":440,"stv_port":27026,"stv_name":"Uncletopia | San Francisco | 2 | All Maps | STV","players":null},{"server_id":19,"name":"Uncletopia | San Francisco | 3 | Stopwatch Beta","name_short":"sfo-3","host":"sfo-1.us.uncletopia.com","port":27035,"enabled":true,"region":"us-west","cc":"us","latitude":37.77397,"longitude":-122.4313,"reserved":0,"last_update":"0001-01-01T00:00:00Z","name_a2s":"Uncletopia | San Francisco | 3 | Stopwatch Beta","protocol":17,"map":"koth_highpass","folder":"tf","game":"Team Fortress","app_id":440,"player_count":0,"max_players":24,"Bots":0,"server_type":"Dedicated","server_os":"Linux","password":true,"vac":true,"version":"7757534","steam_id":85568392924742824,"keywords":["cp","nocrits","nodmgspread","uncletopia"],"game_id":440,"stv_port":27036,"stv_name":"Uncletopia | San Francisco | 3 | Stopwatch Beta | STV","players":null},{"server_id":20,"name":"Uncletopia | San Francisco | 4 | Community","name_short":"sfo-4","host":"sfo-1.us.uncletopia.com","port":27045,"enabled":true,"region":"us-west","cc":"us","latitude":37.77397,"longitude":-122.4313,"reserved":0,"last_update":"0001-01-01T00:00:00Z","name_a2s":"Uncletopia | San Francisco | 4 | Community","protocol":17,"map":"workshop/koth_product_final.ugc454272353","folder":"tf","game":"Team Fortress","app_id":440,"player_count":0,"max_players":24,"Bots":0,"server_type":"Dedicated","server_os":"Linux","password":true,"vac":true,"version":"7757534","steam_id":85568392924742826,"keywords":["cp","nocrits","nodmgspread","uncletopia"],"game_id":440,"stv_port":27046,"stv_name":"Uncletopia | San Francisco | 4 | Community | STV","players":null},{"server_id":141,"name":"Uncletopia | Sydney | 1 | All Maps","name_short":"syd-1","host":"syd-1.au.uncletopia.com","port":27015,"enabled":true,"region":"au","cc":"au","latitude":-33.865143,"longitude":151.2099,"reserved":0,"last_update":"0001-01-01T00:00:00Z","name_a2s":"Uncletopia | Sydney | 1 | All Maps","protocol":17,"map":"pl_frontier_final","folder":"tf","game":"Team Fortress","app_id":440,"player_count":23,"max_players":24,"Bots":0,"server_type":"Dedicated","server_os":"Linux","password":true,"vac":true,"version":"7757534","steam_id":85568392924470001,"keywords":["nocrits","nodmgspread","payload","uncletopia"],"game_id":440,"stv_port":27016,"stv_name":"Uncletopia | Sydney | 1 | All Maps | STV","players":[{"user_id":145,"name":"MrMuffin16","steam_id":76561198257303774,"connected_time":570000000000,"state":"active","ping":54},{"user_id":128,"name":"Distilledrain41","steam_id":76561198272717119,"connected_time":1612000000000,"state":"active","ping":47},{"user_id":131,"name":"yaero","steam_id":76561198047462865,"connected_time":1581000000000,"state":"active","ping":48},{"user_id":149,"name":"Hyak","steam_id":76561198175700625,"connected_time":238000000000,"state":"active","ping":87},{"user_id":152,"name":"Jules Winnfield","steam_id":76561198070070138,"connected_time":131000000000,"state":"active","ping":48},{"user_id":127,"name":"Sinister80s","steam_id":76561198343540472,"connected_time":1693000000000,"state":"active","ping":63},{"user_id":143,"name":"Shadow Puppeteer","steam_id":76561198151121997,"connected_time":775000000000,"state":"active","ping":76},{"user_id":151,"name":"Rivers Cuomo","steam_id":76561198814458512,"connected_time":179000000000,"state":"active","ping":85},{"user_id":109,"name":"Frognut69","steam_id":76561199229442749,"connected_time":3680000000000,"state":"active","ping":65},{"user_id":133,"name":"Eugene (built different)","steam_id":76561198079108027,"connected_time":1481000000000,"state":"active","ping":52},{"user_id":74,"name":"Rashid Of The Dank Memes","steam_id":76561198281398078,"connected_time":5438000000000,"state":"active","ping":62},{"user_id":134,"name":"blaze","steam_id":76561198241303512,"connected_time":1397000000000,"state":"active","ping":56},{"user_id":124,"name":"Asl:3x","steam_id":76561198972095766,"connected_time":2261000000000,"state":"active","ping":31},{"user_id":142,"name":"no teles 4 u","steam_id":76561198018478297,"connected_time":982000000000,"state":"active","ping":77},{"user_id":136,"name":"soupy","steam_id":76561198073734936,"connected_time":1348000000000,"state":"active","ping":87},{"user_id":154,"name":"StarFraud96","steam_id":76561198351146153,"connected_time":117000000000,"state":"active","ping":70},{"user_id":137,"name":"Krispy Kreme","steam_id":76561197997362731,"connected_time":1333000000000,"state":"active","ping":44},{"user_id":103,"name":"LightningBlock","steam_id":76561198289997742,"connected_time":4103000000000,"state":"active","ping":40},{"user_id":138,"name":"Rat Pope","steam_id":76561199059450243,"connected_time":1288000000000,"state":"active","ping":55},{"user_id":147,"name":"krandlez` (Any/All)","steam_id":76561198044839726,"connected_time":496000000000,"state":"active","ping":42},{"user_id":93,"name":"Marmalade Cat","steam_id":76561198086309767,"connected_time":4524000000000,"state":"active","ping":61},{"user_id":146,"name":"DropBearWarrior","steam_id":76561198352774039,"connected_time":567000000000,"state":"active","ping":71},{"user_id":139,"name":"eekynetwo(F2P Piss Sniper)","steam_id":76561198990017441,"connected_time":1213000000000,"state":"active","ping":150}]},{"server_id":123,"name":"Uncletopia | Sydney | 2 | All Maps","name_short":"syd-2","host":"syd-1.au.uncletopia.com","port":27025,"enabled":true,"region":"au","cc":"au","latitude":-33.865143,"longitude":151.2099,"reserved":0,"last_update":"0001-01-01T00:00:00Z","name_a2s":"Uncletopia | Sydney | 2 | All Maps","protocol":17,"map":"pl_badwater","folder":"tf","game":"Team Fortress","app_id":440,"player_count":0,"max_players":24,"Bots":0,"server_type":"Dedicated","server_os":"Linux","password":true,"vac":true,"version":"7757534","steam_id":85568392924470002,"keywords":["nocrits","nodmgspread","payload","uncletopia"],"game_id":440,"stv_port":27026,"stv_name":"Uncletopia | Sydney | 2 | All Maps | STV","players":null},{"server_id":395,"name":"Uncletopia | Sydney | 3 | All Maps","name_short":"syd-3","host":"syd-1.au.uncletopia.com","port":27035,"enabled":true,"region":"au","cc":"au","latitude":-33.865143,"longitude":151.2099,"reserved":0,"last_update":"0001-01-01T00:00:00Z","name_a2s":"Uncletopia | Sydney | 3 | All Maps","protocol":17,"map":"pl_swiftwater_final1","folder":"tf","game":"Team Fortress","app_id":440,"player_count":0,"max_players":24,"Bots":0,"server_type":"Dedicated","server_os":"Linux","password":true,"vac":true,"version":"7757534","steam_id":85568392925194467,"keywords":["nocrits","nodmgspread","payload","uncletopia"],"game_id":440,"stv_port":27036,"stv_name":"Uncletopia | Sydney | 3 | All Maps | STV","players":null},{"server_id":396,"name":"Uncletopia | Sydney | 4 | All Maps","name_short":"syd-4","host":"syd-1.au.uncletopia.com","port":27045,"enabled":true,"region":"au","cc":"au","latitude":-33.865143,"longitude":151.2099,"reserved":0,"last_update":"0001-01-01T00:00:00Z","name_a2s":"Uncletopia | Sydney | 4 | All Maps","protocol":17,"map":"koth_highpass","folder":"tf","game":"Team Fortress","app_id":440,"player_count":0,"max_players":24,"Bots":0,"server_type":"Dedicated","server_os":"Linux","password":true,"vac":true,"version":"7757534","steam_id":85568392925397958,"keywords":["cp","nocrits","nodmgspread","uncletopia"],"game_id":440,"stv_port":27046,"stv_name":"Uncletopia | Sydney | 4 | All Maps | STV","players":null},{"server_id":58,"name":"Uncletopia | Sydney | 5 | Stopwatch Beta","name_short":"syd-5","host":"syd-1.au.uncletopia.com","port":27055,"enabled":true,"region":"au","cc":"au","latitude":-33.865143,"longitude":151.2099,"reserved":0,"last_update":"0001-01-01T00:00:00Z","name_a2s":"Uncletopia | Sydney | 5 | Stopwatch Beta","protocol":17,"map":"koth_cascade","folder":"tf","game":"Team Fortress","app_id":440,"player_count":0,"max_players":24,"Bots":0,"server_type":"Dedicated","server_os":"Linux","password":true,"vac":true,"version":"7757534","steam_id":85568392925397959,"keywords":["cp","nocrits","nodmgspread","uncletopia"],"game_id":440,"stv_port":27056,"stv_name":"Uncletopia | Sydney | 5 | Stopwatch Beta | STV","players":null},{"server_id":59,"name":"Uncletopia | Sydney | 6 | Community","name_short":"syd-6","host":"syd-1.au.uncletopia.com","port":27065,"enabled":true,"region":"au","cc":"au","latitude":-33.865143,"longitude":151.2099,"reserved":0,"last_update":"0001-01-01T00:00:00Z","name_a2s":"Uncletopia | Sydney | 6 | Community","protocol":17,"map":"workshop/pl_corrode_rc2.ugc546577989","folder":"tf","game":"Team Fortress","app_id":440,"player_count":0,"max_players":24,"Bots":0,"server_type":"Dedicated","server_os":"Linux","password":true,"vac":true,"version":"7757534","steam_id":85568392925397960,"keywords":["nocrits","nodmgspread","payload","uncletopia"],"game_id":440,"stv_port":27066,"stv_name":"Uncletopia | Sydney | 6 | Community | STV","players":null},{"server_id":49,"name":"Uncletopia | Warsaw | 1 | All Maps","name_short":"waw-1","host":"waw-1.pl.uncletopia.com","port":27015,"enabled":true,"region":"eu","cc":"pl","latitude":52.2297,"longitude":21.017532,"reserved":0,"last_update":"0001-01-01T00:00:00Z","name_a2s":"","protocol":0,"map":"","folder":"","game":"","app_id":0,"player_count":0,"max_players":0,"Bots":0,"server_type":"","server_os":"","password":false,"vac":false,"version":"","steam_id":0,"keywords":null,"game_id":0,"stv_port":0,"stv_name":"","players":null},{"server_id":50,"name":"Uncletopia | Warsaw | 2 | All Maps","name_short":"waw-2","host":"waw-1.pl.uncletopia.com","port":27025,"enabled":true,"region":"eu","cc":"pl","latitude":52.2297,"longitude":21.017532,"reserved":0,"last_update":"0001-01-01T00:00:00Z","name_a2s":"Uncletopia | Warsaw | 2 | All Maps","protocol":17,"map":"koth_viaduct","folder":"tf","game":"Team Fortress","app_id":440,"player_count":0,"max_players":24,"Bots":0,"server_type":"Dedicated","server_os":"Linux","password":true,"vac":true,"version":"7757534","steam_id":85568392925397851,"keywords":["cp","nocrits","nodmgspread","uncletopia"],"game_id":440,"stv_port":27026,"stv_name":"Uncletopia | Warsaw | 2 | All Maps | STV","players":null},{"server_id":51,"name":"Uncletopia | Warsaw | 3 | All Maps","name_short":"waw-3","host":"waw-1.pl.uncletopia.com","port":27035,"enabled":true,"region":"eu","cc":"pl","latitude":52.2297,"longitude":21.017532,"reserved":0,"last_update":"0001-01-01T00:00:00Z","name_a2s":"Uncletopia | Warsaw | 3 | All Maps","protocol":17,"map":"pl_badwater","folder":"tf","game":"Team Fortress","app_id":440,"player_count":0,"max_players":24,"Bots":0,"server_type":"Dedicated","server_os":"Linux","password":true,"vac":true,"version":"7757534","steam_id":85568392925397852,"keywords":["nocrits","nodmgspread","payload","uncletopia"],"game_id":440,"stv_port":27036,"stv_name":"Uncletopia | Warsaw | 3 | All Maps | STV","players":null},{"server_id":52,"name":"Uncletopia | Warsaw | 4 | All Maps","name_short":"waw-4","host":"waw-1.pl.uncletopia.com","port":27045,"enabled":true,"region":"eu","cc":"pl","latitude":52.2297,"longitude":21.017532,"reserved":0,"last_update":"0001-01-01T00:00:00Z","name_a2s":"Uncletopia | Warsaw | 4 | All Maps","protocol":17,"map":"koth_lakeside_final","folder":"tf","game":"Team Fortress","app_id":440,"player_count":0,"max_players":24,"Bots":0,"server_type":"Dedicated","server_os":"Linux","password":true,"vac":true,"version":"7757534","steam_id":85568392925397853,"keywords":["cp","nocrits","nodmgspread","uncletopia"],"game_id":440,"stv_port":27046,"stv_name":"Uncletopia | Warsaw | 4 | All Maps | STV","players":null},{"server_id":53,"name":"Uncletopia | Warsaw | 5 | Stopwatch Beta","name_short":"waw-5","host":"waw-1.pl.uncletopia.com","port":27055,"enabled":true,"region":"eu","cc":"pl","latitude":52.2297,"longitude":21.017532,"reserved":0,"last_update":"0001-01-01T00:00:00Z","name_a2s":"Uncletopia | Warsaw | 5 | Stopwatch Beta","protocol":17,"map":"pl_borneo","folder":"tf","game":"Team Fortress","app_id":440,"player_count":0,"max_players":24,"Bots":0,"server_type":"Dedicated","server_os":"Linux","password":true,"vac":true,"version":"7757534","steam_id":85568392925397854,"keywords":["nocrits","nodmgspread","payload","uncletopia"],"game_id":440,"stv_port":27056,"stv_name":"Uncletopia | Warsaw | 5 | Stopwatch Beta | STV","players":null},{"server_id":54,"name":"Uncletopia | Warsaw | 6 | Community","name_short":"waw-6","host":"waw-1.pl.uncletopia.com","port":27065,"enabled":true,"region":"eu","cc":"pl","latitude":52.2297,"longitude":21.017532,"reserved":0,"last_update":"0001-01-01T00:00:00Z","name_a2s":"Uncletopia | Warsaw | 6 | Community","protocol":17,"map":"koth_lakeside_final","folder":"tf","game":"Team Fortress","app_id":440,"player_count":0,"max_players":24,"Bots":0,"server_type":"Dedicated","server_os":"Linux","password":true,"vac":true,"version":"7757534","steam_id":85568392925397856,"keywords":["cp","nocrits","nodmgspread","uncletopia"],"game_id":440,"stv_port":27066,"stv_name":"Uncletopia | Warsaw | 6 | Community | STV","players":null}]}