{"status":true,"message":"","result":[{"server_id":9,"name":"Uncletopia | Atlanta | 1 | All Maps","name_short":"atl-1","host":"atl-1.us.uncletopia.com","port":27015,"enabled":true,"region":"us-east","cc":"us","latitude":33.753746,"longitude":-84.38633,"reserved":0,"last_update":"0001-01-01T00:00:00Z","name_a2s":"Uncletopia | Atlanta | 1 | All Maps","protocol":17,"map":"pl_upward","folder":"tf","game":"Team Fortress","app_id":440,"player_count":24,"max_players":24,"Bots":0,"server_type":"Dedicated","server_os":"Linux","password":true,"vac":true,"version":"7723704","steam_id":85568392924469982,"keywords":["nocrits","nodmgspread","payload","uncletopia"],"game_id":440,"stv_port":27016,"stv_name":"Uncletopia | Atlanta | 1 | All Maps | STV","players":[{"user_id":38,"name":"Snoogs","steam_id":76561198444880931,"connected_time":2036000000000,"state":"active","ping":59},{"user_id":50,"name":"Josh","steam_id":76561198055691099,"connected_time":1575000000000,"state":"active","ping":83},{"user_id":14,"name":"lker","steam_id":76561197976975075,"connected_time":3050000000000,"state":"active","ping":45},{"user_id":23,"name":"MaliconThet","steam_id":76561198403960626,"connected_time":2584000000000,"state":"active","ping":55},{"user_id":53,"name":"HEFTY HOG","steam_id":76561198079923652,"connected_time":1474000000000,"state":"active","ping":65},{"user_id":21,"name":"Goob","steam_id":76561198326469586,"connected_time":2670000000000,"state":"active","ping":83},{"user_id":45,"name":"Peppa Pig","steam_id":76561198147772879,"connected_time":1765000000000,"state":"active","ping":82},{"user_id":54,"name":"mommy claus","steam_id":76561199230929836,"connected_time":1468000000000,"state":"active","ping":77},{"user_id":43,"name":"disgusting honor","steam_id":76561198110046630,"connected_time":1825000000000,"state":"active","ping":76},{"user_id":35,"name":"NorthStarGamer","steam_id":76561198308866066,"connected_time":2132000000000,"state":"active","ping":97},{"user_id":65,"name":"MY DIET DR. KELP?! (Lamp)","steam_id":76561198319543841,"connected_time":60000000000,"state":"active","ping":76},{"user_id":60,"name":"facade","steam_id":76561199157009256,"connected_time":250000000000,"state":"active","ping":91},{"user_id":39,"name":"eat salad","steam_id":76561198960183175,"connected_time":1930000000000,"state":"active","ping":92},{"user_id":18,"name":"sock","steam_id":76561199117597830,"connected_time":2934000000000,"state":"active","ping":46},{"user_id":42,"name":"autopilot","steam_id":76561198110381643,"connected_time":1850000000000,"state":"active","ping":45},{"user_id":58,"name":"rose","steam_id":76561198048882285,"connected_time":1263000000000,"state":"active","ping":71},{"user_id":49,"name":"SHADOW (he/him)","steam_id":76561198207768148,"connected_time":1725000000000,"state":"active","ping":109},{"user_id":64,"name":"Tue","steam_id":76561198181668501,"connected_time":107000000000,"state":"active","ping":60},{"user_id":28,"name":"warrior","steam_id":76561198361999761,"connected_time":2460000000000,"state":"active","ping":114},{"user_id":55,"name":"Lord of the Moon","steam_id":76561198014115769,"connected_time":1462000000000,"state":"active","ping":75},{"user_id":59,"name":"ATL1 | Crystron","steam_id":76561198880437428,"connected_time":1198000000000,"state":"active","ping":88},{"user_id":47,"name":"Cthulwho?","steam_id":76561198165550810,"connected_time":1753000000000,"state":"active","ping":90},{"user_id":34,"name":"Drown Syndrome","steam_id":76561198046584592,"connected_time":2171000000000,"state":"active","ping":75},{"user_id":57,"name":"ATL0 Dedi Le4n!!!","steam_id":76561198045522596,"connected_time":1460000000000,"state":"active","ping":64}]},{"server_id":400,"name":"Uncletopia | Atlanta | 3 | Stopwatch Beta","name_short":"atl-3","host":"atl-1.us.uncletopia.com","port":27035,"enabled":true,"region":"us-east","cc":"us","latitude":33.753746,"longitude":-84.38633,"reserved":0,"last_update":"0001-01-01T00:00:00Z","name_a2s":"Uncletopia | Atlanta | 3 | Stopwatch Beta","protocol":17,"map":"koth_viaduct","folder":"tf","game":"Team Fortress","app_id":440,"player_count":0,"max_players":24,"Bots":0,"server_type":"Dedicated","server_os":"Linux","password":true,"vac":true,"version":"7723704","steam_id":85568392924515187,"keywords":["cp","nocrits","nodmgspread","uncletopia"],"game_id":440,"stv_port":27036,"stv_name":"Uncletopia | Atlanta | 3 | Stopwatch Beta | STV","players":null},{"server_id":401,"name":"Uncletopia | Atlanta | 4 | No Payload","name_short":"atl-4","host":"atl-1.us.uncletopia.com","port":27045,"enabled":true,"region":"us-east","cc":"us","latitude":33.753746,"longitude":-84.38633,"reserved":0,"last_update":"0001-01-01T00:00:00Z","name_a2s":"Uncletopia | Atlanta | 4 | No Payload","protocol":17,"map":"cp_dustbowl","folder":"tf","game":"Team Fortress","app_id":440,"player_count":24,"max_players":24,"Bots":0,"server_type":"Dedicated","server_os":"Linux","password":true,"vac":true,"version":"7723704","steam_id":85568392924515188,"keywords":["cp","nocrits","nodmgspread","uncletopia"],"game_id":440,"stv_port":27046,"stv_name":"Uncletopia | Atlanta | 4 | No Payload | STV","players":[{"user_id":134,"name":"Hatter","steam_id":76561198010341986,"connected_time":849000000000,"state":"active","ping":62},{"user_id":127,"name":"Rose","steam_id":76561198095059249,"connected_time":1042000000000,"state":"active","ping":79},{"user_id":122,"name":"mu","steam_id":76561197997530228,"connected_time":1407000000000,"state":"active","ping":123},{"user_id":115,"name":"a Salty Coquito","steam_id":76561197979951077,"connected_time":1753000000000,"state":"active","ping":151},{"user_id":75,"name":"Governor Muffin","steam_id":76561198015034641,"connected_time":3457000000000,"state":"active","ping":93},{"user_id":130,"name":"Kav","steam_id":76561198331562055,"connected_time":963000000000,"state":"active","ping":76},{"user_id":120,"name":"ShnozBerry","steam_id":76561198011917278,"connected_time":1542000000000,"state":"active","ping":53},{"user_id":128,"name":"intek","steam_id":76561198052705291,"connected_time":1041000000000,"state":"active","ping":98},{"user_id":82,"name":"lp","steam_id":76561198058469527,"connected_time":3124000000000,"state":"active","ping":85},{"user_id":131,"name":"DannyM","steam_id":76561198351165570,"connected_time":941000000000,"state":"active","ping":58},{"user_id":76,"name":"dj bop","steam_id":76561198178971894,"connected_time":3444000000000,"state":"active","ping":98},{"user_id":70,"name":"DimethylHydra【=◈︿◈=】","steam_id":76561198044664670,"connected_time":3823000000000,"state":"active","ping":76},{"user_id":71,"name":"CMOSERROR","steam_id":76561197998504275,"connected_time":3810000000000,"state":"active","ping":109},{"user_id":83,"name":"Hacking in progress","steam_id":76561198060296782,"connected_time":3121000000000,"state":"active","ping":108},{"user_id":138,"name":"ARK","steam_id":76561198253139686,"connected_time":107000000000,"state":"active","ping":172},{"user_id":135,"name":"bushy","steam_id":76561198138088830,"connected_time":723000000000,"state":"active","ping":79},{"user_id":132,"name":"cologne","steam_id":76561198069600113,"connected_time":936000000000,"state":"active","ping":53},{"user_id":126,"name":"Michaelpc1","steam_id":76561198088365519,"connected_time":1266000000000,"state":"active","ping":73},{"user_id":137,"name":"MrLeftTurn","steam_id":76561198856743969,"connected_time":388000000000,"state":"active","ping":156},{"user_id":133,"name":"hashmap","steam_id":76561198043794014,"connected_time":930000000000,"state":"active","ping":73},{"user_id":111,"name":"larsvik","steam_id":76561198077948794,"connected_time":2016000000000,"state":"active","ping":74},{"user_id":114,"name":"kimin","steam_id":76561198263393063,"connected_time":1769000000000,"state":"active","ping":142},{"user_id":92,"name":"A Puppy","steam_id":76561198828184456,"connected_time":3023000000000,"state":"active","ping":56},{"user_id":136,"name":"Alfonso Molestro","steam_id":76561197998677099,"connected_time":698000000000,"state":"active","ping":78}]},{"server_id":2,"name":"Uncletopia | Chicago | 1 | All Maps","name_short":"chi-1","host":"chi-1.us.uncletopia.com","port":27015,"enabled":true,"region":"us-central","cc":"us","latitude":41.881832,"longitude":-87.62318,"reserved":0,"last_update":"0001-01-01T00:00:00Z","name_a2s":"Uncletopia | Chicago | 1 | All Maps","protocol":17,"map":"cp_dustbowl","folder":"tf","game":"Team Fortress","app_id":440,"player_count":24,"max_players":24,"Bots":0,"server_type":"Dedicated","server_os":"Linux","password":true,"vac":true,"version":"7723704","steam_id":85568392924469984,"keywords":["cp","nocrits","nodmgspread","uncletopia"],"game_id":440,"stv_port":27016,"stv_name":"Uncletopia | Chicago | 1 | All Maps | STV","players":[{"user_id":11,"name":"Listify","steam_id":76561198315688753,"connected_time":3128000000000,"state":"active","ping":77},{"user_id":39,"name":"The Animated Gamer","steam_id":76561198120639995,"connected_time":1287000000000,"state":"active","ping":92},{"user_id":9,"name":"motorized bar of soap","steam_id":76561198882404753,"connected_time":3136000000000,"state":"active","ping":72},{"user_id":40,"name":"lag","steam_id":76561197963872739,"connected_time":1274000000000,"state":"active","ping":92},{"user_id":50,"name":"Carpet enthusiast","steam_id":76561198024040142,"connected_time":819000000000,"state":"active","ping":95},{"user_id":8,"name":"[slug]","steam_id":76561197989592178,"connected_time":3142000000000,"state":"active","ping":62},{"user_id":10,"name":"Astoriæ!","steam_id":76561199090168858,"connected_time":3131000000000,"state":"active","ping":58},{"user_id":12,"name":"Ms. Take","steam_id":76561198268742730,"connected_time":3113000000000,"state":"active","ping":72},{"user_id":14,"name":"FluX_AP","steam_id":76561198057888879,"connected_time":3096000000000,"state":"active","ping":107},{"user_id":51,"name":"KingTinkerer","steam_id":76561198226856548,"connected_time":449000000000,"state":"active","ping":81},{"user_id":18,"name":"The Penguin of Doom","steam_id":76561198320383082,"connected_time":3062000000000,"state":"active","ping":71},{"user_id":17,"name":"Ademar","steam_id":76561199391802581,"connected_time":3071000000000,"state":"active","ping":59},{"user_id":46,"name":"G. Howard Dee","steam_id":76561198058382812,"connected_time":1153000000000,"state":"active","ping":92},{"user_id":47,"name":"Yeagle","steam_id":76561199086620299,"connected_time":1146000000000,"state":"active","ping":77},{"user_id":48,"name":"Eliza (They/She)","steam_id":76561198108938752,"connected_time":1059000000000,"state":"active","ping":63},{"user_id":53,"name":"TeamFortress2 Gamein","steam_id":76561198985352815,"connected_time":324000000000,"state":"active","ping":90},{"user_id":36,"name":"doofenshmirtz","steam_id":76561198447100051,"connected_time":1796000000000,"state":"active","ping":62},{"user_id":24,"name":"christmas silly","steam_id":76561199009200975,"connected_time":3005000000000,"state":"active","ping":86},{"user_id":32,"name":"pie gaming","steam_id":76561198072592880,"connected_time":2751000000000,"state":"active","ping":43},{"user_id":26,"name":"gyozaking","steam_id":76561197972312696,"connected_time":2988000000000,"state":"active","ping":39},{"user_id":27,"name":"SorenMaximus","steam_id":76561198962936832,"connected_time":2982000000000,"state":"active","ping":93},{"user_id":29,"name":"jablomi","steam_id":76561198106690989,"connected_time":2974000000000,"state":"active","ping":64},{"user_id":30,"name":"veteranof100psychicwars","steam_id":76561198070903458,"connected_time":2963000000000,"state":"active","ping":74},{"user_id":55,"name":"Amaretto Sour","steam_id":76561198063112844,"connected_time":287000000000,"state":"active","ping":82}]},{"server_id":106,"name":"Uncletopia | Chicago | 2 | All Maps","name_short":"chi-2","host":"chi-1.us.uncletopia.com","port":27025,"enabled":true,"region":"us-central","cc":"us","latitude":41.881832,"longitude":-87.62318,"reserved":0,"last_update":"0001-01-01T00:00:00Z","name_a2s":"Uncletopia | Chicago | 2 | All Maps","protocol":17,"map":"pl_upward","folder":"tf","game":"Team Fortress","app_id":440,"player_count":22,"max_players":24,"Bots":0,"server_type":"Dedicated","server_os":"Linux","password":true,"vac":true,"version":"7723704","steam_id":85568392924469985,"keywords":["nocrits","nodmgspread","payload","uncletopia"],"game_id":440,"stv_port":27026,"stv_name":"Uncletopia | Chicago | 2 | All Maps | STV","players":[{"user_id":72,"name":"trash beast","steam_id":76561198015792736,"connected_time":410000000000,"state":"spawning","ping":254},{"user_id":46,"name":"Stay SALTy bby","steam_id":76561198877590581,"connected_time":1693000000000,"state":"active","ping":59},{"user_id":78,"name":"moe","steam_id":76561198929586245,"connected_time":3000000000,"state":"spawning","ping":112},{"user_id":47,"name":"Disco Chewbacca","steam_id":76561198004324301,"connected_time":1686000000000,"state":"active","ping":113},{"user_id":39,"name":"MadeIn2005","steam_id":76561198186929317,"connected_time":1968000000000,"state":"active","ping":56},{"user_id":48,"name":"Challenger Charles","steam_id":76561198005576553,"connected_time":1661000000000,"state":"active","ping":108},{"user_id":10,"name":"deepmeta","steam_id":76561199053600691,"connected_time":3137000000000,"state":"active","ping":49},{"user_id":50,"name":"peachy","steam_id":76561198026664629,"connected_time":1648000000000,"state":"active","ping":57},{"user_id":13,"name":"Aspxts","steam_id":76561199125254746,"connected_time":3128000000000,"state":"active","ping":65},{"user_id":76,"name":"DOOT","steam_id":76561199083117431,"connected_time":69000000000,"state":"connecting","ping":44},{"user_id":77,"name":"Gibby","steam_id":76561198165462320,"connected_time":58000000000,"state":"active","ping":101},{"user_id":73,"name":"Soldier Impact","steam_id":76561198157004224,"connected_time":376000000000,"state":"active","ping":51},{"user_id":65,"name":"SparkyPanther","steam_id":76561198350710043,"connected_time":780000000000,"state":"active","ping":106},{"user_id":21,"name":"eWVra2Vy","steam_id":76561198453565942,"connected_time":3080000000000,"state":"active","ping":134},{"user_id":61,"name":"Apetometrist","steam_id":76561198045391635,"connected_time":1110000000000,"state":"spawning","ping":169},{"user_id":62,"name":"livingtntman","steam_id":76561199122637406,"connected_time":949000000000,"state":"active","ping":154},{"user_id":68,"name":"valtiel","steam_id":76561198165212575,"connected_time":772000000000,"state":"active","ping":75},{"user_id":74,"name":"Spirit","steam_id":76561198444106256,"connected_time":368000000000,"state":"spawning","ping":163},{"user_id":42,"name":"megatokertom87","steam_id":76561198420227358,"connected_time":1889000000000,"state":"spawning","ping":73},{"user_id":69,"name":"River Rat","steam_id":76561198116383976,"connected_time":767000000000,"state":"active","ping":136},{"user_id":70,"name":"『Hazon』","steam_id":76561198119852107,"connected_time":762000000000,"state":"active","ping":53},{"user_id":29,"name":"IIP","steam_id":76561198286102406,"connected_time":3015000000000,"state":"spawning","ping":64}]},{"server_id":402,"name":"Uncletopia | Chicago | 3 | All Maps","name_short":"chi-3","host":"chi-1.us.uncletopia.com","port":27035,"enabled":true,"region":"us-central","cc":"us","latitude":41.881832,"longitude":-87.62318,"reserved":0,"last_update":"0001-01-01T00:00:00Z","name_a2s":"Uncletopia | Chicago | 3 | All Maps","protocol":17,"map":"koth_highpass","folder":"tf","game":"Team Fortress","app_id":440,"player_count":0,"max_players":24,"Bots":0,"server_type":"Dedicated","server_os":"Linux","password":true,"vac":true,"version":"7723704","steam_id":85568392924515191,"keywords":["cp","nocrits","nodmgspread","uncletopia"],"game_id":440,"stv_port":27036,"stv_name":"Uncletopia | Chicago | 3 | All Maps | STV","players":null},{"server_id":403,"name":"Uncletopia | Chicago | 4 | All Maps","name_short":"chi-4","host":"chi-1.us.uncletopia.com","port":27045,"enabled":true,"region":"us-central","cc":"us","latitude":41.881832,"longitude":-87.62318,"reserved":0,"last_update":"0001-01-01T00:00:00Z","name_a2s":"Uncletopia | Chicago | 4 | All Maps","protocol":17,"map":"pl_borneo","folder":"tf","game":"Team Fortress","app_id":440,"player_count":24,"max_players":24,"Bots":0,"server_type":"Dedicated","server_os":"Linux","password":true,"vac":true,"version":"7723704","steam_id":85568392924515193,"keywords":["nocrits","nodmgspread","payload","uncletopia"],"game_id":440,"stv_port":27046,"stv_name":"Uncletopia | Chicago | 4 | All Maps | STV","players":[{"user_id":14,"name":"Jojoker","steam_id":76561198049833406,"connected_time":3040000000000,"state":"active","ping":74},{"user_id":89,"name":"DeadlyAnomalies","steam_id":76561198125818085,"connected_time":456000000000,"state":"active","ping":86},{"user_id":87,"name":"God of bread","steam_id":76561198373688035,"connected_time":604000000000,"state":"active","ping":66},{"user_id":102,"name":"Stapler","steam_id":76561198099295077,"connected_time":51000000000,"state":"active","ping":92},{"user_id":86,"name":"Lumpy","steam_id":76561198058840585,"connected_time":968000000000,"state":"active","ping":72},{"user_id":88,"name":"Zodyxajon","steam_id":76561198165561581,"connected_time":467000000000,"state":"active","ping":75},{"user_id":91,"name":"THIRDPIERCE","steam_id":76561198405366314,"connected_time":300000000000,"state":"active","ping":152},{"user_id":10,"name":"انتحر يا ابن المت","steam_id":76561198326987939,"connected_time":3131000000000,"state":"active","ping":75},{"user_id":85,"name":"Rein","steam_id":76561198300340427,"connected_time":1055000000000,"state":"active","ping":61},{"user_id":12,"name":"namaste at home dad","steam_id":76561198056971063,"connected_time":3119000000000,"state":"active","ping":55},{"user_id":13,"name":"Santa","steam_id":76561198044130442,"connected_time":3083000000000,"state":"active","ping":68},{"user_id":92,"name":"Herr Müller","steam_id":76561198064876829,"connected_time":271000000000,"state":"active","ping":86},{"user_id":101,"name":"disguy123","steam_id":76561198408966876,"connected_time":160000000000,"state":"active","ping":69},{"user_id":35,"name":"McGangBang","steam_id":76561198862379865,"connected_time":2705000000000,"state":"active","ping":59},{"user_id":46,"name":"Whorenet","steam_id":76561198090433209,"connected_time":2433000000000,"state":"active","ping":94},{"user_id":94,"name":"Naki","steam_id":76561198046792661,"connected_time":248000000000,"state":"active","ping":59},{"user_id":21,"name":"-W3E- grim10465","steam_id":76561198045698581,"connected_time":2953000000000,"state":"active","ping":49},{"user_id":100,"name":"skilaruh","steam_id":76561198413172611,"connected_time":170000000000,"state":"active","ping":72},{"user_id":96,"name":"Santa Claus","steam_id":76561199012771039,"connected_time":215000000000,"state":"active","ping":84},{"user_id":97,"name":"John Fortnite Kennedy","steam_id":76561198075501786,"connected_time":212000000000,"state":"active","ping":56},{"user_id":36,"name":"Sasha Vandal (YT)","steam_id":76561198063448831,"connected_time":2701000000000,"state":"active","ping":85},{"user_id":98,"name":"JoeyTV","steam_id":76561198872805416,"connected_time":202000000000,"state":"active","ping":79},{"user_id":99,"name":"M249 | Spectre","steam_id":76561198118334485,"connected_time":200000000000,"state":"active","ping":79},{"user_id":82,"name":"Roz257","steam_id":76561198842844532,"connected_time":1576000000000,"state":"active","ping":69}]},{"server_id":36,"name":"Uncletopia | Chicago | 5 | All Maps","name_short":"chi-5","host":"chi-2.us.uncletopia.com","port":27015,"enabled":true,"region":"us-central","cc":"us","latitude":41.881832,"longitude":-87.62318,"reserved":0,"last_update":"0001-01-01T00:00:00Z","name_a2s":"Uncletopia | Chicago | 5 | All Maps","protocol":17,"map":"pl_snowycoast","folder":"tf","game":"Team Fortress","app_id":440,"player_count":0,"max_players":24,"Bots":0,"server_type":"Dedicated","server_os":"Linux","password":true,"vac":true,"version":"7723704","steam_id":85568392924866362,"keywords":["nocrits","nodmgspread","payload","uncletopia"],"game_id":440,"stv_port":27016,"stv_name":"Uncletopia | Chicago | 5 | All Maps | STV","players":null},{"server_id":37,"name":"Uncletopia | Chicago | 6 | All Maps","name_short":"chi-6","host":"chi-2.us.uncletopia.com","port":27025,"enabled":true,"region":"us-central","cc":"us","latitude":41.881832,"longitude":-87.62318,"reserved":0,"last_update":"0001-01-01T00:00:00Z","name_a2s":"Uncletopia | Chicago | 6 | All Maps","protocol":17,"map":"pl_borneo","folder":"tf","game":"Team Fortress","app_id":440,"player_count":24,"max_players":24,"Bots":0,"server_type":"Dedicated","server_os":"Linux","password":true,"vac":true,"version":"7723704","steam_id":85568392924866363,"keywords":["nocrits","nodmgspread","payload","uncletopia"],"game_id":440,"stv_port":27026,"stv_name":"Uncletopia | Chicago | 6 | All Maps | STV","players":[{"user_id":103,"name":"aeop","steam_id":76561198153671643,"connected_time":2217000000000,"state":"active","ping":64},{"user_id":95,"name":"samodin","steam_id":76561198228765488,"connected_time":2402000000000,"state":"active","ping":67},{"user_id":59,"name":"hej","steam_id":76561197996366940,"connected_time":5165000000000,"state":"active","ping":60},{"user_id":108,"name":"Minion Bob","steam_id":76561198023938170,"connected_time":2056000000000,"state":"active","ping":95},{"user_id":109,"name":"The Burglar","steam_id":76561198325685937,"connected_time":2007000000000,"state":"active","ping":75},{"user_id":123,"name":"Ryanabss","steam_id":76561198326211765,"connected_time":601000000000,"state":"active","ping":109},{"user_id":90,"name":"flappyflap2","steam_id":76561198285048973,"connected_time":2957000000000,"state":"active","ping":62},{"user_id":101,"name":"Beanboi","steam_id":76561198977881677,"connected_time":2292000000000,"state":"active","ping":66},{"user_id":75,"name":"bigturr","steam_id":76561199043827112,"connected_time":3709000000000,"state":"active","ping":62},{"user_id":121,"name":"pupy dogy","steam_id":76561198173128765,"connected_time":1095000000000,"state":"active","ping":58},{"user_id":118,"name":"Mirro","steam_id":76561198042182392,"connected_time":1382000000000,"state":"active","ping":66},{"user_id":67,"name":"scooterre","steam_id":76561198055068182,"connected_time":4475000000000,"state":"active","ping":49},{"user_id":74,"name":"MedRed™ #IATAH","steam_id":76561198002962970,"connected_time":3757000000000,"state":"active","ping":101},{"user_id":115,"name":"Ty","steam_id":76561198132068284,"connected_time":1772000000000,"state":"active","ping":68},{"user_id":119,"name":"OldRavensFan","steam_id":76561198043919562,"connected_time":1381000000000,"state":"active","ping":68},{"user_id":42,"name":"Aldinach","steam_id":76561198079912615,"connected_time":5834000000000,"state":"active","ping":51},{"user_id":68,"name":"Myagic","steam_id":76561198123746755,"connected_time":4425000000000,"state":"active","ping":76},{"user_id":117,"name":"Barry","steam_id":76561198371953939,"connected_time":1435000000000,"state":"active","ping":83},{"user_id":120,"name":"WaffleSailor","steam_id":76561198105315951,"connected_time":1276000000000,"state":"active","ping":73},{"user_id":110,"name":"Paint Paw","steam_id":76561198044128532,"connected_time":1996000000000,"state":"active","ping":64},{"user_id":111,"name":"Jing-le Bells","steam_id":76561198280397774,"connected_time":1972000000000,"state":"active","ping":54},{"user_id":112,"name":"Predicta","steam_id":76561198017630616,"connected_time":1948000000000,"state":"active","ping":48},{"user_id":84,"name":"Sharper Spoon","steam_id":76561198877130687,"connected_time":3499000000000,"state":"active","ping":60},{"user_id":124,"name":"Zubats |TAOZ|","steam_id":76561198041819445,"connected_time":401000000000,"state":"active","ping":60}]},{"server_id":38,"name":"Uncletopia | Chicago | 7 | Stopwatch Beta","name_short":"chi-7","host":"chi-2.us.uncletopia.com","port":27035,"enabled":true,"region":"us-central","cc":"us","latitude":41.881832,"longitude":-87.62318,"reserved":0,"last_update":"0001-01-01T00:00:00Z","name_a2s":"Uncletopia | Chicago | 7 | Stopwatch Beta","protocol":17,"map":"cp_process_final","folder":"tf","game":"Team Fortress","app_id":440,"player_count":23,"max_players":24,"Bots":0,"server_type":"Dedicated","server_os":"Linux","password":true,"vac":true,"version":"7723704","steam_id":85568392924866364,"keywords":["cp","nocrits","nodmgspread","uncletopia"],"game_id":440,"stv_port":27036,"stv_name":"Uncletopia | Chicago | 7 | Stopwatch Beta | STV","players":[{"user_id":4,"name":"confused","steam_id":76561198042236165,"connected_time":6200000000000,"state":"active","ping":54},{"user_id":6,"name":"Soundproof","steam_id":76561198133392504,"connected_time":5317000000000,"state":"active","ping":58},{"user_id":7,"name":"Gunkzilla","steam_id":76561198068228415,"connected_time":5299000000000,"state":"active","ping":59},{"user_id":57,"name":"ventus51701","steam_id":76561198207372741,"connected_time":850000000000,"state":"active","ping":65},{"user_id":58,"name":"BB Lorexav","steam_id":76561198207565988,"connected_time":339000000000,"state":"active","ping":75},{"user_id":22,"name":"[DATS➡] Sugar Meowth","steam_id":76561197995251793,"connected_time":3138000000000,"state":"active","ping":90},{"user_id":61,"name":"xXPr0_JelqerXx","steam_id":76561198115451034,"connected_time":122000000000,"state":"active","ping":63},{"user_id":24,"name":"Lolaa","steam_id":76561198122807068,"connected_time":3112000000000,"state":"active","ping":88},{"user_id":25,"name":"Epha","steam_id":76561198079379951,"connected_time":3037000000000,"state":"active","ping":66},{"user_id":15,"name":"Mythos #SaveTF2","steam_id":76561198050243068,"connected_time":4728000000000,"state":"active","ping":66},{"user_id":49,"name":"Dullahan","steam_id":76561198119668908,"connected_time":1738000000000,"state":"active","ping":99},{"user_id":47,"name":"bee","steam_id":76561198025553902,"connected_time":1775000000000,"state":"active","ping":47},{"user_id":62,"name":"PwndaThePwner","steam_id":76561198086749693,"connected_time":92000000000,"state":"active","ping":77},{"user_id":63,"name":"SnowCatWarrior","steam_id":76561199200480562,"connected_time":91000000000,"state":"active","ping":113},{"user_id":31,"name":"LalitoTV","steam_id":76561198334302951,"connected_time":2714000000000,"state":"active","ping":95},{"user_id":36,"name":"Frongus","steam_id":76561197979056451,"connected_time":2555000000000,"state":"active","ping":94},{"user_id":56,"name":"Spearit5464","steam_id":76561199241807676,"connected_time":862000000000,"state":"active","ping":94},{"user_id":34,"name":"gangstalker","steam_id":76561198363267009,"connected_time":2591000000000,"state":"active","ping":67},{"user_id":44,"name":"dry AFK","steam_id":76561198008899411,"connected_time":2283000000000,"state":"active","ping":94},{"user_id":40,"name":"azusa","steam_id":76561198049483469,"connected_time":2450000000000,"state":"active","ping":83},{"user_id":55,"name":"ucdrakebros","steam_id":76561199147788726,"connected_time":920000000000,"state":"active","ping":57},{"user_id":42,"name":"terrapieseven","steam_id":76561198072062415,"connected_time":2415000000000,"state":"active","ping":80},{"user_id":52,"name":"poey","steam_id":76561198865346767,"connected_time":1665000000000,"state":"active","ping":91}]},{"server_id":39,"name":"Uncletopia | Chicago | 8 | Community","name_short":"chi-8","host":"chi-2.us.uncletopia.com","port":27045,"enabled":true,"region":"us-central","cc":"us","latitude":41.881832,"longitude":-87.62318,"reserved":0,"last_update":"0001-01-01T00:00:00Z","name_a2s":"Uncletopia | Chicago | 8 | Community","protocol":17,"map":"workshop/cp_caldera_rc2.ugc2834196889","folder":"tf","game":"Team Fortress","app_id":440,"player_count":23,"max_players":24,"Bots":0,"server_type":"Dedicated","server_os":"Linux","password":true,"vac":true,"version":"7723704","steam_id":85568392924866365,"keywords":["cp","nocrits","nodmgspread","uncletopia"],"game_id":440,"stv_port":27046,"stv_name":"Uncletopia | Chicago | 8 | Community | STV","players":[{"user_id":3,"name":"CD Cyber Dragon","steam_id":76561198275727749,"connected_time":6879000000000,"state":"active","ping":79},{"user_id":114,"name":"twitch.tv/kegaman_","steam_id":76561198043632775,"connected_time":709000000000,"state":"active","ping":105},{"user_id":88,"name":"Jules","steam_id":76561199065191952,"connected_time":2059000000000,"state":"active","ping":84},{"user_id":112,"name":"tools","steam_id":76561199010542612,"connected_time":754000000000,"state":"active","ping":47},{"user_id":93,"name":"Zorlovo","steam_id":76561198006443283,"connected_time":1683000000000,"state":"active","ping":102},{"user_id":102,"name":"Pepsi man","steam_id":76561198045143630,"connected_time":1223000000000,"state":"active","ping":102},{"user_id":122,"name":"HalfDead","steam_id":76561198049700226,"connected_time":330000000000,"state":"active","ping":83},{"user_id":115,"name":"a_Pirate_King","steam_id":76561198041727612,"connected_time":590000000000,"state":"active","ping":88},{"user_id":116,"name":"thomasbigfan.7","steam_id":76561198133360797,"connected_time":586000000000,"state":"active","ping":104},{"user_id":117,"name":"kilroy_39","steam_id":76561198205173325,"connected_time":553000000000,"state":"active","ping":90},{"user_id":118,"name":"The dreaded jar","steam_id":76561199087010656,"connected_time":552000000000,"state":"active","ping":105},{"user_id":119,"name":"Astro","steam_id":76561198035676106,"connected_time":550000000000,"state":"active","ping":82},{"user_id":105,"name":"Goatking","steam_id":76561198068447650,"connected_time":1038000000000,"state":"active","ping":73},{"user_id":17,"name":"Diegorkus","steam_id":76561198076956980,"connected_time":6748000000000,"state":"active","ping":95},{"user_id":106,"name":"Gingivitis","steam_id":76561198329955646,"connected_time":1036000000000,"state":"active","ping":75},{"user_id":87,"name":"Spike Bones","steam_id":76561198234926120,"connected_time":2073000000000,"state":"active","ping":86},{"user_id":108,"name":"Inevitable","steam_id":76561198210050169,"connected_time":1008000000000,"state":"active","ping":72},{"user_id":96,"name":"nelly modelo","steam_id":76561198044875206,"connected_time":1500000000000,"state":"active","ping":86},{"user_id":100,"name":"Mr. May","steam_id":76561198132112804,"connected_time":1316000000000,"state":"active","ping":95},{"user_id":123,"name":"honked off the bobo","steam_id":76561198123287268,"connected_time":78000000000,"state":"active","ping":47},{"user_id":126,"name":"Joker Joestar","steam_id":76561198115696839,"connected_time":1000000000,"state":"spawning","ping":74},{"user_id":30,"name":"Epicgamer92","steam_id":76561198312448484,"connected_time":6509000000000,"state":"active","ping":53},{"user_id":125,"name":"satin","steam_id":76561198398386194,"connected_time":55000000000,"state":"active","ping":163}]},{"server_id":8,"name":"Uncletopia | Dallas | 1 | All Maps","name_short":"dal-1","host":"dal-1.us.uncletopia.com","port":27015,"enabled":true,"region":"us-central","cc":"us","latitude":32.779167,"longitude":-96.80889,"reserved":0,"last_update":"0001-01-01T00:00:00Z","name_a2s":"Uncletopia | Dallas | 1 | All Maps","protocol":17,"map":"pl_borneo","folder":"tf","game":"Team Fortress","app_id":440,"player_count":9,"max_players":24,"Bots":0,"server_type":"Dedicated","server_os":"Linux","password":true,"vac":true,"version":"7723704","steam_id":85568392924469986,"keywords":["nocrits","nodmgspread","payload","uncletopia"],"game_id":440,"stv_port":27016,"stv_name":"Uncletopia | Dallas | 1 | All Maps | STV","players":[{"user_id":3,"name":"The Ultimate Coomer","steam_id":76561199128833757,"connected_time":3142000000000,"state":"active","ping":51},{"user_id":23,"name":"★CyberMario★","steam_id":76561198045798329,"connected_time":1116000000000,"state":"active","ping":46},{"user_id":24,"name":"★CyberWario★","steam_id":76561198362810244,"connected_time":1083000000000,"state":"active","ping":48},{"user_id":27,"name":"Ghostmeal","steam_id":76561198042380299,"connected_time":579000000000,"state":"active","ping":37},{"user_id":29,"name":"Mikeadon3","steam_id":76561198816855978,"connected_time":559000000000,"state":"active","ping":63},{"user_id":30,"name":"manbearswineflu","steam_id":76561198083945137,"connected_time":517000000000,"state":"active","ping":81},{"user_id":34,"name":"rider_of_brohan15","steam_id":76561198172978817,"connected_time":38000000000,"state":"active","ping":94},{"user_id":11,"name":"+","steam_id":76561198262422184,"connected_time":2312000000000,"state":"active","ping":45},{"user_id":33,"name":"ImmenseWraith","steam_id":76561198963757884,"connected_time":369000000000,"state":"active","ping":63}]},{"server_id":108,"name":"Uncletopia | Dallas | 2 | All Maps","name_short":"dal-2","host":"dal-1.us.uncletopia.com","port":27025,"enabled":true,"region":"us-central","cc":"us","latitude":32.779167,"longitude":-96.80889,"reserved":0,"last_update":"0001-01-01T00:00:00Z","name_a2s":"Uncletopia | Dallas | 2 | All Maps","protocol":17,"map":"pl_badwater","folder":"tf","game":"Team Fortress","app_id":440,"player_count":23,"max_players":24,"Bots":0,"server_type":"Dedicated","server_os":"Linux","password":true,"vac":true,"version":"7723704","steam_id":85568392924469988,"keywords":["nocrits","nodmgspread","payload","uncletopia"],"game_id":440,"stv_port":27026,"stv_name":"Uncletopia | Dallas | 2 | All Maps | STV","players":[{"user_id":3,"name":"remedu","steam_id":76561198005152587,"connected_time":3153000000000,"state":"active","ping":37},{"user_id":49,"name":"El Benjador","steam_id":76561198345883103,"connected_time":533000000000,"state":"active","ping":64},{"user_id":42,"name":"a bucket of chicken","steam_id":76561198023710042,"connected_time":1467000000000,"state":"active","ping":30},{"user_id":44,"name":"Oshawott82","steam_id":76561198122783743,"connected_time":1292000000000,"state":"active","ping":49},{"user_id":41,"name":"Sdehv2","steam_id":76561198067719497,"connected_time":1515000000000,"state":"active","ping":32},{"user_id":53,"name":"CrazyCow","steam_id":76561198095335451,"connected_time":60000000000,"state":"active","ping":101},{"user_id":39,"name":"meh","steam_id":76561198136808129,"connected_time":2010000000000,"state":"active","ping":63},{"user_id":51,"name":"BabaGhanoush53","steam_id":76561198169025765,"connected_time":393000000000,"state":"active","ping":82},{"user_id":11,"name":"Lezabel","steam_id":76561198970753261,"connected_time":3141000000000,"state":"active","ping":69},{"user_id":40,"name":"r0ck","steam_id":76561198141716764,"connected_time":1587000000000,"state":"active","ping":87},{"user_id":32,"name":"Brother Garland","steam_id":76561198108026255,"connected_time":2683000000000,"state":"active","ping":58},{"user_id":55,"name":"hhace","steam_id":76561198240217520,"connected_time":3000000000,"state":"spawning","ping":56},{"user_id":54,"name":"Hedsik","steam_id":76561198045797773,"connected_time":8000000000,"state":"active","ping":98},{"user_id":52,"name":"Zee❤","steam_id":76561198274550638,"connected_time":370000000000,"state":"active","ping":53},{"user_id":18,"name":"❤ Ashley ❤","steam_id":76561198056428303,"connected_time":3121000000000,"state":"active","ping":75},{"user_id":37,"name":"Marc Antony","steam_id":76561198011366517,"connected_time":2093000000000,"state":"active","ping":72},{"user_id":31,"name":"B R O U T","steam_id":76561199161322235,"connected_time":2686000000000,"state":"active","ping":60},{"user_id":48,"name":"DJ-Dog-Farts","steam_id":76561198327230201,"connected_time":986000000000,"state":"active","ping":89},{"user_id":24,"name":"Theory-Y","steam_id":76561198116419931,"connected_time":3108000000000,"state":"active","ping":105},{"user_id":46,"name":"Toe Ring","steam_id":76561198145751225,"connected_time":1184000000000,"state":"active","ping":39},{"user_id":38,"name":"cheddabob","steam_id":76561198993259948,"connected_time":2092000000000,"state":"active","ping":90},{"user_id":28,"name":"Silvercoat's Stargazer","steam_id":76561198399525329,"connected_time":3088000000000,"state":"active","ping":81},{"user_id":34,"name":"SMS Runn__Jake","steam_id":76561198075505397,"connected_time":2148000000000,"state":"active","ping":90}]},{"server_id":5,"name":"Uncletopia | Frankfurt | 1 | All Maps","name_short":"frk-1","host":"frk-1.de.uncletopia.com","port":27015,"enabled":true,"region":"eu","cc":"de","latitude":50.110924,"longitude":8.682127,"reserved":0,"last_update":"0001-01-01T00:00:00Z","name_a2s":"Uncletopia | Frankfurt | 1 | All Maps","protocol":17,"map":"koth_cascade","folder":"tf","game":"Team Fortress","app_id":440,"player_count":0,"max_players":24,"Bots":0,"server_type":"Dedicated","server_os":"Linux","password":true,"vac":true,"version":"7723704","steam_id":85568392924469989,"keywords":["cp","nocrits","nodmgspread","uncletopia"],"game_id":440,"stv_port":27016,"stv_name":"Uncletopia | Frankfurt | 1 | All Maps | STV","players":null},{"server_id":110,"name":"Uncletopia | Frankfurt | 2 | All Maps","name_short":"frk-2","host":"frk-1.de.uncletopia.com","port":27025,"enabled":true,"region":"eu","cc":"de","latitude":50.110924,"longitude":8.682127,"reserved":0,"last_update":"0001-01-01T00:00:00Z","name_a2s":"Uncletopia | Frankfurt | 2 | All Maps","protocol":17,"map":"koth_viaduct","folder":"tf","game":"Team Fortress","app_id":440,"player_count":0,"max_players":24,"Bots":0,"server_type":"Dedicated","server_os":"Linux","password":true,"vac":true,"version":"7723704","steam_id":85568392924469990,"keywords":["cp","nocrits","nodmgspread","uncletopia"],"game_id":440,"stv_port":27026,"stv_name":"Uncletopia | Frankfurt | 2 | All Maps | STV","players":null},{"server_id":308,"name":"Uncletopia | Frankfurt | 3 | All Maps","name_short":"frk-3","host":"frk-1.de.uncletopia.com","port":27035,"enabled":true,"region":"eu","cc":"de","latitude":50.110924,"longitude":8.682127,"reserved":0,"last_update":"0001-01-01T00:00:00Z","name_a2s":"Uncletopia | Frankfurt | 3 | All Maps","protocol":17,"map":"pl_snowycoast","folder":"tf","game":"Team Fortress","app_id":440,"player_count":0,"max_players":24,"Bots":0,"server_type":"Dedicated","server_os":"Linux","password":true,"vac":true,"version":"7723704","steam_id":85568392924504274,"keywords":["nocrits","nodmgspread","payload","uncletopia"],"game_id":440,"stv_port":27036,"stv_name":"Uncletopia | Frankfurt | 3 | All Maps | STV","players":null},{"server_id":309,"name":"Uncletopia | Frankfurt | 4 | All Maps","name_short":"frk-4","host":"frk-1.de.uncletopia.com","port":27045,"enabled":true,"region":"eu","cc":"de","latitude":50.110924,"longitude":8.682127,"reserved":0,"last_update":"0001-01-01T00:00:00Z","name_a2s":"Uncletopia | Frankfurt | 4 | All Maps","protocol":17,"map":"cp_altitude","folder":"tf","game":"Team Fortress","app_id":440,"player_count":0,"max_players":24,"Bots":0,"server_type":"Dedicated","server_os":"Linux","password":true,"vac":true,"version":"7723704","steam_id":85568392924504275,"keywords":["cp","nocrits","nodmgspread","uncletopia"],"game_id":440,"stv_port":27046,"stv_name":"Uncletopia | Frankfurt | 4 | All Maps | STV","players":null},{"server_id":310,"name":"Uncletopia | Frankfurt | 5 | All Maps","name_short":"frk-5","host":"frk-1.de.uncletopia.com","port":27055,"enabled":true,"region":"eu","cc":"de","latitude":50.110924,"longitude":8.682127,"reserved":0,"last_update":"0001-01-01T00:00:00Z","name_a2s":"Uncletopia | Frankfurt | 5 | All Maps","protocol":17,"map":"pl_pier","folder":"tf","game":"Team Fortress","app_id":440,"player_count":0,"max_players":24,"Bots":0,"server_type":"Dedicated","server_os":"Linux","password":true,"vac":true,"version":"7723704","steam_id":85568392924504277,"keywords":["nocrits","nodmgspread","payload","uncletopia"],"game_id":440,"stv_port":27056,"stv_name":"Uncletopia | Frankfurt | 5 | All Maps | STV","players":null},{"server_id":311,"name":"Uncletopia | Frankfurt | 6 | All Maps","name_short":"frk-6","host":"frk-1.de.uncletopia.com","port":27065,"enabled":true,"region":"eu","cc":"de","latitude":50.110924,"longitude":8.682127,"reserved":0,"last_update":"0001-01-01T00:00:00Z","name_a2s":"Uncletopia | Frankfurt | 6 | All Maps","protocol":17,"map":"pl_borneo","folder":"tf","game":"Team Fortress","app_id":440,"player_count":0,"max_players":24,"Bots":0,"server_type":"Dedicated","server_os":"Linux","password":true,"vac":true,"version":"7723704","steam_id":85568392924504278,"keywords":["nocrits","nodmgspread","payload","uncletopia"],"game_id":440,"stv_port":27066,"stv_name":"Uncletopia | Frankfurt | 6 | All Maps | STV","players":null},{"server_id":23,"name":"Uncletopia | Frankfurt | 7 | No Payload","name_short":"frk-7","host":"frk-1.de.uncletopia.com","port":27075,"enabled":true,"region":"eu","cc":"de","latitude":50.110924,"longitude":8.682127,"reserved":0,"last_update":"0001-01-01T00:00:00Z","name_a2s":"Uncletopia | Frankfurt | 7 | No Payload","protocol":17,"map":"cp_mountainlab","folder":"tf","game":"Team Fortress","app_id":440,"player_count":0,"max_players":24,"Bots":0,"server_type":"Dedicated","server_os":"Linux","password":true,"vac":true,"version":"7723704","steam_id":85568392924742827,"keywords":["cp","nocrits","nodmgspread","uncletopia"],"game_id":440,"stv_port":27076,"stv_name":"Uncletopia | Frankfurt | 7 | No Payload | STV","players":null},{"server_id":24,"name":"Uncletopia | Frankfurt | 8 | Community","name_short":"frk-8","host":"frk-1.de.uncletopia.com","port":27085,"enabled":true,"region":"eu","cc":"de","latitude":50.110924,"longitude":8.682127,"reserved":0,"last_update":"0001-01-01T00:00:00Z","name_a2s":"Uncletopia | Frankfurt | 8 | Community","protocol":17,"map":"workshop/koth_ashville_final.ugc2130459942","folder":"tf","game":"Team Fortress","app_id":440,"player_count":0,"max_players":24,"Bots":0,"server_type":"Dedicated","server_os":"Linux","password":true,"vac":true,"version":"7723704","steam_id":85568392924742828,"keywords":["cp","nocrits","nodmgspread","uncletopia"],"game_id":440,"stv_port":27086,"stv_name":"Uncletopia | Frankfurt | 8 | Community | STV","players":null},{"server_id":202,"name":"Uncletopia | Hong Kong | 1 | All Maps","name_short":"hgk-1","host":"hgk-1.hk.uncletopia.com","port":27015,"enabled":true,"region":"asia","cc":"hk","latitude":22.302711,"longitude":114.177216,"reserved":0,"last_update":"0001-01-01T00:00:00Z","name_a2s":"Uncletopia | Hong Kong | 1 | All Maps","protocol":17,"map":"pl_pier","folder":"tf","game":"Team Fortress","app_id":440,"player_count":24,"max_players":24,"Bots":0,"server_type":"Dedicated","server_os":"Linux","password":true,"vac":true,"version":"7723704","steam_id":85568392924494504,"keywords":["nocrits","nodmgspread","payload","uncletopia"],"game_id":440,"stv_port":27016,"stv_name":"Uncletopia | Hong Kong | 1 | All Maps | STV","players":[{"user_id":46,"name":"r/leroy","steam_id":76561199137927625,"connected_time":6792000000000,"state":"active","ping":107},{"user_id":175,"name":"IRA car dealership","steam_id":76561199224577498,"connected_time":1342000000000,"state":"active","ping":89},{"user_id":163,"name":"blue mountain coffee","steam_id":76561198823374287,"connected_time":2129000000000,"state":"active","ping":73},{"user_id":29,"name":"Firefang099","steam_id":76561198136685157,"connected_time":7842000000000,"state":"active","ping":55},{"user_id":164,"name":"Degenerate With Standards!!!","steam_id":76561199174449723,"connected_time":2114000000000,"state":"active","ping":66},{"user_id":188,"name":":D","steam_id":76561198009692495,"connected_time":342000000000,"state":"active","ping":76},{"user_id":144,"name":"Talkk More","steam_id":76561198305424433,"connected_time":4102000000000,"state":"active","ping":96},{"user_id":177,"name":"monkeyman536","steam_id":76561197997717737,"connected_time":1275000000000,"state":"active","ping":145},{"user_id":179,"name":"煙海 | Enkai","steam_id":76561198050460825,"connected_time":1243000000000,"state":"active","ping":88},{"user_id":18,"name":"Bertengkar","steam_id":76561198213031155,"connected_time":8720000000000,"state":"active","ping":99},{"user_id":146,"name":"godhood","steam_id":76561198412329672,"connected_time":3996000000000,"state":"active","ping":99},{"user_id":187,"name":"MarkTf2_gaming","steam_id":76561199213201475,"connected_time":649000000000,"state":"active","ping":85},{"user_id":178,"name":"krankie ♥","steam_id":76561198364773435,"connected_time":1255000000000,"state":"active","ping":185},{"user_id":139,"name":"Corhix","steam_id":76561198968706355,"connected_time":4322000000000,"state":"active","ping":49},{"user_id":180,"name":"Pillboi","steam_id":76561198011172886,"connected_time":1231000000000,"state":"active","ping":45},{"user_id":181,"name":"Blonde By Frank Ocean","steam_id":76561198400698408,"connected_time":1145000000000,"state":"active","ping":92},{"user_id":167,"name":"chaoticrecon","steam_id":76561199078255117,"connected_time":1849000000000,"state":"active","ping":87},{"user_id":182,"name":"ABU HAJAR","steam_id":76561199172116262,"connected_time":1141000000000,"state":"active","ping":120},{"user_id":121,"name":"it chrmis time","steam_id":76561198055553140,"connected_time":4699000000000,"state":"active","ping":82},{"user_id":161,"name":"Windmill","steam_id":76561199230997986,"connected_time":2337000000000,"state":"active","ping":78},{"user_id":183,"name":"scrumpy","steam_id":76561198242319638,"connected_time":1135000000000,"state":"active","ping":61},{"user_id":186,"name":"Bert","steam_id":76561199229912984,"connected_time":956000000000,"state":"active","ping":64},{"user_id":162,"name":"Lu","steam_id":76561198320532821,"connected_time":2221000000000,"state":"active","ping":56},{"user_id":166,"name":"EXELL is dumb","steam_id":76561199053777677,"connected_time":2046000000000,"state":"active","ping":74}]},{"server_id":1,"name":"Uncletopia | Los Angeles | 1 | All Maps","name_short":"lax-1","host":"lax-1.us.uncletopia.com","port":27015,"enabled":true,"region":"us-west","cc":"us","latitude":33.94279,"longitude":-118.41004,"reserved":0,"last_update":"0001-01-01T00:00:00Z","name_a2s":"Uncletopia | Los Angeles | 1 | All Maps","protocol":17,"map":"cp_sunshine","folder":"tf","game":"Team Fortress","app_id":440,"player_count":24,"max_players":24,"Bots":0,"server_type":"Dedicated","server_os":"Linux","password":true,"vac":true,"version":"7723704","steam_id":85568392924469991,"keywords":["cp","nocrits","nodmgspread","uncletopia"],"game_id":440,"stv_port":27016,"stv_name":"Uncletopia | Los Angeles | 1 | All Maps | STV","players":[{"user_id":75,"name":"MinusSoup918","steam_id":76561198060902773,"connected_time":801000000000,"state":"active","ping":62},{"user_id":59,"name":"macaroli","steam_id":76561198969523979,"connected_time":1403000000000,"state":"active","ping":62},{"user_id":67,"name":"far1ne","steam_id":76561198418853168,"connected_time":1360000000000,"state":"active","ping":50},{"user_id":79,"name":"MeowMixCereal","steam_id":76561198252307806,"connected_time":239000000000,"state":"active","ping":51},{"user_id":80,"name":"kn0n1894","steam_id":76561198249172818,"connected_time":234000000000,"state":"active","ping":93},{"user_id":74,"name":"Squatter1","steam_id":76561198078987734,"connected_time":1203000000000,"state":"active","ping":71},{"user_id":37,"name":"S p a f f y","steam_id":76561198047892151,"connected_time":4327000000000,"state":"active","ping":54},{"user_id":83,"name":"Cuno Doesn't Care!","steam_id":76561198007372782,"connected_time":55000000000,"state":"active","ping":58},{"user_id":72,"name":"Doober","steam_id":76561198056661095,"connected_time":1268000000000,"state":"active","ping":69},{"user_id":73,"name":"Coxsackie","steam_id":76561198134492046,"connected_time":1266000000000,"state":"active","ping":44},{"user_id":17,"name":"Mothma","steam_id":76561198353789504,"connected_time":4811000000000,"state":"active","ping":60},{"user_id":84,"name":"leumas","steam_id":76561198240408540,"connected_time":19000000000,"state":"active","ping":112},{"user_id":20,"name":"Furious George","steam_id":76561198405111646,"connected_time":4736000000000,"state":"active","ping":53},{"user_id":21,"name":"Navigatxr","steam_id":76561199185153789,"connected_time":4723000000000,"state":"active","ping":55},{"user_id":22,"name":"Sudo","steam_id":76561198123714026,"connected_time":4707000000000,"state":"active","ping":64},{"user_id":24,"name":"ketsu","steam_id":76561197966171554,"connected_time":4640000000000,"state":"active","ping":155},{"user_id":68,"name":"BasedGod","steam_id":76561198061177973,"connected_time":1357000000000,"state":"active","ping":47},{"user_id":57,"name":"zinnk","steam_id":76561198092081825,"connected_time":2027000000000,"state":"active","ping":56},{"user_id":69,"name":"reymundo","steam_id":76561197989412830,"connected_time":1337000000000,"state":"active","ping":60},{"user_id":46,"name":"brentonimo","steam_id":76561198035282062,"connected_time":3702000000000,"state":"active","ping":52},{"user_id":78,"name":"ECH","steam_id":76561199209834538,"connected_time":514000000000,"state":"active","ping":83},{"user_id":77,"name":"vanillain","steam_id":76561198058617608,"connected_time":704000000000,"state":"active","ping":56},{"user_id":82,"name":"T^T | pHIL - \u003c3 sab","steam_id":76561198309010627,"connected_time":189000000000,"state":"active","ping":71},{"user_id":38,"name":"321","steam_id":76561198179529599,"connected_time":4327000000000,"state":"active","ping":59}]},{"server_id":112,"name":"Uncletopia | Los Angeles | 2 | All Maps","name_short":"lax-2","host":"lax-1.us.uncletopia.com","port":27025,"enabled":true,"region":"us-west","cc":"us","latitude":33.94279,"longitude":-118.41004,"reserved":0,"last_update":"0001-01-01T00:00:00Z","name_a2s":"Uncletopia | Los Angeles | 2 | All Maps","protocol":17,"map":"koth_highpass","folder":"tf","game":"Team Fortress","app_id":440,"player_count":0,"max_players":24,"Bots":0,"server_type":"Dedicated","server_os":"Linux","password":true,"vac":true,"version":"7723704","steam_id":85568392924469992,"keywords":["cp","nocrits","nodmgspread","uncletopia"],"game_id":440,"stv_port":27026,"stv_name":"Uncletopia | Los Angeles | 2 | All Maps | STV","players":null},{"server_id":324,"name":"Uncletopia | Los Angeles | 3 | All Maps","name_short":"lax-3","host":"lax-1.us.uncletopia.com","port":27035,"enabled":true,"region":"us-west","cc":"us","latitude":33.94279,"longitude":-118.41004,"reserved":0,"last_update":"0001-01-01T00:00:00Z","name_a2s":"Uncletopia | Los Angeles | 3 | All Maps","protocol":17,"map":"pl_badwater","folder":"tf","game":"Team Fortress","app_id":440,"player_count":0,"max_players":24,"Bots":0,"server_type":"Dedicated","server_os":"Linux","password":true,"vac":true,"version":"7723704","steam_id":85568392924510198,"keywords":["nocrits","nodmgspread","payload","uncletopia"],"game_id":440,"stv_port":27036,"stv_name":"Uncletopia | Los Angeles | 3 | All Maps | STV","players":null},{"server_id":25,"name":"Uncletopia | Los Angeles | 4 | Stopwatch Beta","name_short":"lax-4","host":"lax-1.us.uncletopia.com","port":27045,"enabled":true,"region":"us-west","cc":"us","latitude":33.94279,"longitude":-118.41004,"reserved":0,"last_update":"0001-01-01T00:00:00Z","name_a2s":"Uncletopia | Los Angeles | 4 | Stopwatch Beta","protocol":17,"map":"cp_snakewater_final1","folder":"tf","game":"Team Fortress","app_id":440,"player_count":0,"max_players":24,"Bots":0,"server_type":"Dedicated","server_os":"Linux","password":true,"vac":true,"version":"7723704","steam_id":85568392924510199,"keywords":["cp","nocrits","nodmgspread","uncletopia"],"game_id":440,"stv_port":27046,"stv_name":"Uncletopia | Los Angeles | 4 | Stopwatch Beta | STV","players":null},{"server_id":11,"name":"Uncletopia | London | 1 | All Maps","name_short":"lon-1","host":"lon-1.uk.uncletopia.com","port":27015,"enabled":true,"region":"eu","cc":"gb","latitude":51.509865,"longitude":-0.118092,"reserved":0,"last_update":"0001-01-01T00:00:00Z","name_a2s":"Uncletopia | London | 1 | All Maps","protocol":17,"map":"plr_hightower","folder":"tf","game":"Team Fortress","app_id":440,"player_count":20,"max_players":24,"Bots":0,"server_type":"Dedicated","server_os":"Linux","password":true,"vac":true,"version":"7723704","steam_id":85568392924367362,"keywords":["nocrits","nodmgspread","payload","uncletopia"],"game_id":440,"stv_port":27016,"stv_name":"Uncletopia | London | 1 | All Maps | STV","players":[{"user_id":859,"name":"gamerweed5","steam_id":76561198087651151,"connected_time":1022000000000,"state":"active","ping":33},{"user_id":867,"name":"peruna","steam_id":76561198000721196,"connected_time":647000000000,"state":"active","ping":89},{"user_id":869,"name":"she strogan me off til i beef","steam_id":76561198166555207,"connected_time":595000000000,"state":"active","ping":55},{"user_id":825,"name":"sjerruf","steam_id":76561198078434681,"connected_time":3942000000000,"state":"active","ping":49},{"user_id":853,"name":"kreia","steam_id":76561198051662243,"connected_time":1415000000000,"state":"active","ping":63},{"user_id":810,"name":"Malte","steam_id":76561198326324739,"connected_time":4877000000000,"state":"active","ping":60},{"user_id":860,"name":"BORDIGA","steam_id":76561198084507532,"connected_time":924000000000,"state":"active","ping":70},{"user_id":848,"name":"dec","steam_id":76561198009660168,"connected_time":1757000000000,"state":"active","ping":56},{"user_id":864,"name":"Evillare But I NEED Cock.","steam_id":76561198861733003,"connected_time":813000000000,"state":"active","ping":48},{"user_id":876,"name":"piweK.","steam_id":76561198272236128,"connected_time":247000000000,"state":"active","ping":91},{"user_id":778,"name":"rat performance","steam_id":76561198065854668,"connected_time":6719000000000,"state":"active","ping":39},{"user_id":803,"name":"worry about it","steam_id":76561199414716848,"connected_time":5010000000000,"state":"active","ping":75},{"user_id":875,"name":"spider","steam_id":76561198799186785,"connected_time":338000000000,"state":"active","ping":66},{"user_id":858,"name":"Edboi","steam_id":76561198117849098,"connected_time":1167000000000,"state":"active","ping":168},{"user_id":832,"name":"GoodGuyVv","steam_id":76561198256656295,"connected_time":3723000000000,"state":"active","ping":72},{"user_id":836,"name":"Cherry Coke","steam_id":76561198531978435,"connected_time":3248000000000,"state":"active","ping":57},{"user_id":872,"name":"saxophone guy","steam_id":76561198358450003,"connected_time":498000000000,"state":"active","ping":114},{"user_id":837,"name":"Cam","steam_id":76561198321715958,"connected_time":3240000000000,"state":"active","ping":49},{"user_id":847,"name":"Fales","steam_id":76561198126124929,"connected_time":1861000000000,"state":"active","ping":85},{"user_id":874,"name":"mammott toy","steam_id":76561199148512586,"connected_time":382000000000,"state":"active","ping":116}]},{"server_id":114,"name":"Uncletopia | London | 2 | All Maps","name_short":"lon-2","host":"lon-1.uk.uncletopia.com","port":27025,"enabled":true,"region":"eu","cc":"gb","latitude":51.509865,"longitude":-0.118092,"reserved":0,"last_update":"0001-01-01T00:00:00Z","name_a2s":"Uncletopia | London | 2 | All Maps","protocol":17,"map":"cp_dustbowl","folder":"tf","game":"Team Fortress","app_id":440,"player_count":0,"max_players":24,"Bots":0,"server_type":"Dedicated","server_os":"Linux","password":true,"vac":true,"version":"7723704","steam_id":85568392924470941,"keywords":["cp","nocrits","nodmgspread","uncletopia"],"game_id":440,"stv_port":27026,"stv_name":"Uncletopia | London | 2 | All Maps | STV","players":null},{"server_id":320,"name":"Uncletopia | London | 3 | All Maps","name_short":"lon-3","host":"lon-1.uk.uncletopia.com","port":27035,"enabled":true,"region":"eu","cc":"gb","latitude":51.509865,"longitude":-0.118092,"reserved":0,"last_update":"0001-01-01T00:00:00Z","name_a2s":"Uncletopia | London | 3 | All Maps","protocol":17,"map":"koth_lakeside_final","folder":"tf","game":"Team Fortress","app_id":440,"player_count":0,"max_players":24,"Bots":0,"server_type":"Dedicated","server_os":"Linux","password":true,"vac":true,"version":"7723704","steam_id":85568392924510192,"keywords":["cp","nocrits","nodmgspread","uncletopia"],"game_id":440,"stv_port":27036,"stv_name":"Uncletopia | London | 3 | All Maps | STV","players":null},{"server_id":321,"name":"Uncletopia | London | 4 | All Maps","name_short":"lon-4","host":"lon-1.uk.uncletopia.com","port":27045,"enabled":true,"region":"eu","cc":"gb","latitude":51.509865,"longitude":-0.118092,"reserved":0,"last_update":"0001-01-01T00:00:00Z","name_a2s":"Uncletopia | London | 4 | All Maps","protocol":17,"map":"koth_highpass","folder":"tf","game":"Team Fortress","app_id":440,"player_count":0,"max_players":24,"Bots":0,"server_type":"Dedicated","server_os":"Linux","password":true,"vac":true,"version":"7723704","steam_id":85568392924510193,"keywords":["cp","nocrits","nodmgspread","uncletopia"],"game_id":440,"stv_port":27046,"stv_name":"Uncletopia | London | 4 | All Maps | STV","players":null},{"server_id":21,"name":"Uncletopia | London | 5 | All Maps","name_short":"lon-5","host":"lon-1.uk.uncletopia.com","port":27055,"enabled":true,"region":"eu","cc":"gb","latitude":51.509865,"longitude":-0.118092,"reserved":0,"last_update":"0001-01-01T00:00:00Z","name_a2s":"Uncletopia | London | 5 | All Maps","protocol":17,"map":"koth_cascade","folder":"tf","game":"Team Fortress","app_id":440,"player_count":0,"max_players":24,"Bots":0,"server_type":"Dedicated","server_os":"Linux","password":true,"vac":true,"version":"7723704","steam_id":85568392924742829,"keywords":["cp","nocrits","nodmgspread","uncletopia"],"game_id":440,"stv_port":27056,"stv_name":"Uncletopia | London | 5 | All Maps | STV","players":null},{"server_id":22,"name":"Uncletopia | London | 6 | All Maps","name_short":"lon-6","host":"lon-1.uk.uncletopia.com","port":27065,"enabled":true,"region":"eu","cc":"gb","latitude":51.509865,"longitude":-0.118092,"reserved":0,"last_update":"0001-01-01T00:00:00Z","name_a2s":"Uncletopia | London | 6 | All Maps","protocol":17,"map":"cp_dustbowl","folder":"tf","game":"Team Fortress","app_id":440,"player_count":0,"max_players":24,"Bots":0,"server_type":"Dedicated","server_os":"Linux","password":true,"vac":true,"version":"7723704","steam_id":85568392924742830,"keywords":["cp","nocrits","nodmgspread","uncletopia"],"game_id":440,"stv_port":27066,"stv_name":"Uncletopia | London | 6 | All Maps | STV","players":null},{"server_id":40,"name":"Uncletopia | London | 7 | No Payload","name_short":"lon-7","host":"lon-1.uk.uncletopia.com","port":27075,"enabled":true,"region":"eu","cc":"gb","latitude":51.509865,"longitude":-0.118092,"reserved":0,"last_update":"0001-01-01T00:00:00Z","name_a2s":"Uncletopia | London | 7 | No Payload","protocol":17,"map":"plr_hightower","folder":"tf","game":"Team Fortress","app_id":440,"player_count":0,"max_players":24,"Bots":0,"server_type":"Dedicated","server_os":"Linux","password":true,"vac":true,"version":"7723704","steam_id":85568392924964314,"keywords":["nocrits","nodmgspread","payload","uncletopia"],"game_id":440,"stv_port":27076,"stv_name":"Uncletopia | London | 7 | No Payload | STV","players":null},{"server_id":41,"name":"Uncletopia | London | 8 | Community","name_short":"lon-8","host":"lon-1.uk.uncletopia.com","port":27085,"enabled":true,"region":"eu","cc":"gb","latitude":51.509865,"longitude":-0.118092,"reserved":0,"last_update":"0001-01-01T00:00:00Z","name_a2s":"Uncletopia | London | 8 | Community","protocol":17,"map":"workshop/koth_bagel_rc5.ugc2514036946","folder":"tf","game":"Team Fortress","app_id":440,"player_count":0,"max_players":24,"Bots":0,"server_type":"Dedicated","server_os":"Linux","password":true,"vac":true,"version":"7723704","steam_id":85568392924964315,"keywords":["cp","nocrits","nodmgspread","uncletopia"],"game_id":440,"stv_port":27086,"stv_name":"Uncletopia | London | 8 | Community | STV","players":null},{"server_id":300,"name":"Uncletopia | Montréal | 1 | All Maps","name_short":"mtl-1","host":"mtl-1.ca.uncletopia.com","port":27015,"enabled":true,"region":"us-east","cc":"ca","latitude":45.50889,"longitude":-73.56167,"reserved":0,"last_update":"0001-01-01T00:00:00Z","name_a2s":"Uncletopia | Montréal | 1 | All Maps","protocol":17,"map":"pl_badwater","folder":"tf","game":"Team Fortress","app_id":440,"player_count":0,"max_players":24,"Bots":0,"server_type":"Dedicated","server_os":"Linux","password":true,"vac":true,"version":"7723704","steam_id":85568392924500087,"keywords":["nocrits","nodmgspread","payload","uncletopia"],"game_id":440,"stv_port":27016,"stv_name":"Uncletopia | Montréal | 1 | All Maps | STV","players":null},{"server_id":301,"name":"Uncletopia | Montréal | 2 | All Maps","name_short":"mtl-2","host":"mtl-1.ca.uncletopia.com","port":27025,"enabled":true,"region":"us-east","cc":"ca","latitude":45.50889,"longitude":-73.56167,"reserved":0,"last_update":"0001-01-01T00:00:00Z","name_a2s":"Uncletopia | Montréal | 2 | All Maps","protocol":17,"map":"cp_snakewater_final1","folder":"tf","game":"Team Fortress","app_id":440,"player_count":0,"max_players":24,"Bots":0,"server_type":"Dedicated","server_os":"Linux","password":true,"vac":true,"version":"7723704","steam_id":85568392924500088,"keywords":["cp","nocrits","nodmgspread","uncletopia"],"game_id":440,"stv_port":27026,"stv_name":"Uncletopia | Montréal | 2 | All Maps | STV","players":null},{"server_id":302,"name":"Uncletopia | Montréal | 3 | All Maps","name_short":"mtl-3","host":"mtl-1.ca.uncletopia.com","port":27035,"enabled":true,"region":"us-east","cc":"ca","latitude":45.50889,"longitude":-73.56167,"reserved":0,"last_update":"0001-01-01T00:00:00Z","name_a2s":"Uncletopia | Montréal | 3 | All Maps","protocol":17,"map":"koth_highpass","folder":"tf","game":"Team Fortress","app_id":440,"player_count":0,"max_players":24,"Bots":0,"server_type":"Dedicated","server_os":"Linux","password":true,"vac":true,"version":"7723704","steam_id":85568392924500089,"keywords":["cp","nocrits","nodmgspread","uncletopia"],"game_id":440,"stv_port":27036,"stv_name":"Uncletopia | Montréal | 3 | All Maps | STV","players":null},{"server_id":303,"name":"Uncletopia | Montréal | 4 | No Payload","name_short":"mtl-4","host":"mtl-1.ca.uncletopia.com","port":27045,"enabled":true,"region":"us-east","cc":"ca","latitude":45.50889,"longitude":-73.56167,"reserved":0,"last_update":"0001-01-01T00:00:00Z","name_a2s":"Uncletopia | Montréal | 4 | No Payload","protocol":17,"map":"koth_highpass","folder":"tf","game":"Team Fortress","app_id":440,"player_count":0,"max_players":24,"Bots":0,"server_type":"Dedicated","server_os":"Linux","password":true,"vac":true,"version":"7723704","steam_id":85568392924500090,"keywords":["cp","nocrits","nodmgspread","uncletopia"],"game_id":440,"stv_port":27046,"stv_name":"Uncletopia | Montréal | 4 | No Payload | STV","players":null},{"server_id":13,"name":"Uncletopia | New York City | 1 | All Maps","name_short":"nyc-1","host":"nyc-1.us.uncletopia.com","port":27015,"enabled":true,"region":"us-east","cc":"us","latitude":40.73061,"longitude":-73.93524,"reserved":0,"last_update":"0001-01-01T00:00:00Z","name_a2s":"Uncletopia | New York City | 1 | All Maps","protocol":17,"map":"pl_frontier_final","folder":"tf","game":"Team Fortress","app_id":440,"player_count":19,"max_players":24,"Bots":0,"server_type":"Dedicated","server_os":"Linux","password":true,"vac":true,"version":"7723704","steam_id":85568392924469993,"keywords":["nocrits","nodmgspread","payload","uncletopia"],"game_id":440,"stv_port":27016,"stv_name":"Uncletopia | New York City | 1 | All Maps | STV","players":[{"user_id":56,"name":"Ⓢ Ranger Ⓢ","steam_id":76561198957524134,"connected_time":34000000000,"state":"active","ping":97},{"user_id":17,"name":"kb","steam_id":76561198115914109,"connected_time":1541000000000,"state":"active","ping":46},{"user_id":50,"name":"lost in spaaaaace","steam_id":76561199085974120,"connected_time":163000000000,"state":"active","ping":53},{"user_id":52,"name":"carrion goat","steam_id":76561198262064871,"connected_time":133000000000,"state":"active","ping":46},{"user_id":53,"name":"LordMuffins033","steam_id":76561198046026414,"connected_time":79000000000,"state":"active","ping":95},{"user_id":8,"name":"Noelle Holiday","steam_id":76561198359994674,"connected_time":2941000000000,"state":"active","ping":120},{"user_id":54,"name":"Myn","steam_id":76561198055438857,"connected_time":79000000000,"state":"active","ping":64},{"user_id":48,"name":"Johnnyyyy","steam_id":76561198051941113,"connected_time":530000000000,"state":"active","ping":74},{"user_id":45,"name":"Bean0914","steam_id":76561198261906023,"connected_time":886000000000,"state":"active","ping":64},{"user_id":55,"name":"VeeSukz","steam_id":76561198432159276,"connected_time":55000000000,"state":"active","ping":53},{"user_id":57,"name":"LYTEWERK","steam_id":76561198002819791,"connected_time":30000000000,"state":"active","ping":90},{"user_id":49,"name":"IZBOY","steam_id":76561198167640112,"connected_time":413000000000,"state":"active","ping":49},{"user_id":22,"name":"Chillin Turt","steam_id":76561198025796849,"connected_time":1309000000000,"state":"active","ping":73},{"user_id":24,"name":"name420","steam_id":76561198129374525,"connected_time":1271000000000,"state":"active","ping":73},{"user_id":29,"name":"6kre_1t","steam_id":76561198106157810,"connected_time":1222000000000,"state":"active","ping":60},{"user_id":40,"name":"simoncrrz","steam_id":76561199133954264,"connected_time":1016000000000,"state":"active","ping":97},{"user_id":30,"name":"Your Local Festive Furry","steam_id":76561199030190462,"connected_time":1208000000000,"state":"active","ping":63},{"user_id":41,"name":"Potato_Patrick","steam_id":76561198126408165,"connected_time":1011000000000,"state":"active","ping":63},{"user_id":42,"name":"Vett","steam_id":76561198977919538,"connected_time":1009000000000,"state":"active","ping":90}]},{"server_id":14,"name":"Uncletopia | New York City | 2 | All Maps","name_short":"nyc-2","host":"nyc-1.us.uncletopia.com","port":27025,"enabled":true,"region":"us-east","cc":"us","latitude":40.73061,"longitude":-73.93524,"reserved":0,"last_update":"0001-01-01T00:00:00Z","name_a2s":"Uncletopia | New York City | 2 | All Maps","protocol":17,"map":"pl_upward","folder":"tf","game":"Team Fortress","app_id":440,"player_count":23,"max_players":24,"Bots":0,"server_type":"Dedicated","server_os":"Linux","password":true,"vac":true,"version":"7723704","steam_id":85568392924469994,"keywords":["nocrits","nodmgspread","payload","uncletopia"],"game_id":440,"stv_port":27026,"stv_name":"Uncletopia | New York City | 2 | All Maps | STV","players":[{"user_id":44,"name":"pim","steam_id":76561198095163441,"connected_time":1553000000000,"state":"active","ping":83},{"user_id":5,"name":"Braamklauw","steam_id":76561198283287697,"connected_time":3017000000000,"state":"active","ping":137},{"user_id":7,"name":"Medical Asshat","steam_id":76561198004584315,"connected_time":3016000000000,"state":"active","ping":90},{"user_id":46,"name":"SilentDom","steam_id":76561198008339097,"connected_time":1539000000000,"state":"active","ping":75},{"user_id":9,"name":"iL","steam_id":76561198086331015,"connected_time":3013000000000,"state":"active","ping":33},{"user_id":63,"name":"Shipmunk","steam_id":76561198063062670,"connected_time":329000000000,"state":"active","ping":41},{"user_id":64,"name":"The Kritz Man","steam_id":76561198210972645,"connected_time":318000000000,"state":"active","ping":127},{"user_id":61,"name":"wepry","steam_id":76561198114091417,"connected_time":513000000000,"state":"active","ping":94},{"user_id":65,"name":"Chicken Nugget","steam_id":76561198082601232,"connected_time":288000000000,"state":"active","ping":51},{"user_id":66,"name":"BenjieTheEngi.ttv","steam_id":76561198080819275,"connected_time":283000000000,"state":"active","ping":55},{"user_id":24,"name":"BelK4","steam_id":76561198283982668,"connected_time":2671000000000,"state":"active","ping":75},{"user_id":47,"name":"Zolo","steam_id":76561198088444038,"connected_time":1527000000000,"state":"active","ping":78},{"user_id":59,"name":"JohhnyFromCali :7","steam_id":76561198044015725,"connected_time":676000000000,"state":"active","ping":100},{"user_id":25,"name":"OFF DA GLOOP!!","steam_id":76561198126549311,"connected_time":2666000000000,"state":"active","ping":65},{"user_id":30,"name":"Sir Quacksalot","steam_id":76561198048942777,"connected_time":2557000000000,"state":"active","ping":91},{"user_id":67,"name":"Quansen","steam_id":76561198151594550,"connected_time":274000000000,"state":"active","ping":63},{"user_id":43,"name":"❤♡･ﾟBubbles･ﾟ♡❤","steam_id":76561198041057042,"connected_time":1863000000000,"state":"active","ping":80},{"user_id":48,"name":"JellyParrot","steam_id":76561199190990163,"connected_time":1496000000000,"state":"active","ping":89},{"user_id":49,"name":"globular goo gob","steam_id":76561198353451768,"connected_time":1418000000000,"state":"active","ping":109},{"user_id":62,"name":"raisedbybirds","steam_id":76561198131531646,"connected_time":458000000000,"state":"active","ping":59},{"user_id":52,"name":"no. 1 will toledo kisser","steam_id":76561198421610135,"connected_time":911000000000,"state":"active","ping":48},{"user_id":68,"name":"rlty","steam_id":76561198009395055,"connected_time":194000000000,"state":"active","ping":59},{"user_id":39,"name":"Your Local NPR Station","steam_id":76561198143830279,"connected_time":2335000000000,"state":"active","ping":62}]},{"server_id":15,"name":"Uncletopia | New York City | 3 | Stopwatch Beta","name_short":"nyc-3","host":"nyc-1.us.uncletopia.com","port":27035,"enabled":true,"region":"us-east","cc":"us","latitude":40.73061,"longitude":-73.93524,"reserved":0,"last_update":"0001-01-01T00:00:00Z","name_a2s":"Uncletopia | New York City | 3 | Stopwatch Beta","protocol":17,"map":"cp_mountainlab","folder":"tf","game":"Team Fortress","app_id":440,"player_count":0,"max_players":24,"Bots":0,"server_type":"Dedicated","server_os":"Linux","password":true,"vac":true,"version":"7723704","steam_id":85568392924742820,"keywords":["cp","nocrits","nodmgspread","uncletopia"],"game_id":440,"stv_port":27036,"stv_name":"Uncletopia | New York City | 3 | Stopwatch Beta | STV","players":null},{"server_id":16,"name":"Uncletopia | New York City | 4 | Community","name_short":"nyc-4","host":"nyc-1.us.uncletopia.com","port":27045,"enabled":true,"region":"us-east","cc":"us","latitude":40.73061,"longitude":-73.93524,"reserved":0,"last_update":"0001-01-01T00:00:00Z","name_a2s":"Uncletopia | New York City | 4 | Community","protocol":17,"map":"pl_upward","folder":"tf","game":"Team Fortress","app_id":440,"player_count":0,"max_players":24,"Bots":0,"server_type":"Dedicated","server_os":"Linux","password":true,"vac":true,"version":"7723704","steam_id":85568392924742821,"keywords":["nocrits","nodmgspread","payload","uncletopia"],"game_id":440,"stv_port":27046,"stv_name":"Uncletopia | New York City | 4 | Community | STV","players":null},{"server_id":142,"name":"Uncletopia | São Paulo | 1 | All Maps","name_short":"sao-1","host":"sao-1.br.uncletopia.com","port":27015,"enabled":true,"region":"sa","cc":"br","latitude":-23.533773,"longitude":-46.62529,"reserved":0,"last_update":"0001-01-01T00:00:00Z","name_a2s":"Uncletopia | São Paulo | 1 | All Maps","protocol":17,"map":"koth_highpass","folder":"tf","game":"Team Fortress","app_id":440,"player_count":0,"max_players":24,"Bots":0,"server_type":"Dedicated","server_os":"Linux","password":true,"vac":true,"version":"7723704","steam_id":85568392924469996,"keywords":["cp","nocrits","nodmgspread","uncletopia"],"game_id":440,"stv_port":27016,"stv_name":"Uncletopia | São Paulo | 1 | All Maps | STV","players":null},{"server_id":143,"name":"Uncletopia | São Paulo | 2 | All Maps","name_short":"sao-2","host":"sao-2.br.uncletopia.com","port":27015,"enabled":true,"region":"sa","cc":"br","latitude":-23.533773,"longitude":-46.62529,"reserved":0,"last_update":"0001-01-01T00:00:00Z","name_a2s":"Uncletopia | São Paulo | 2 | All Maps","protocol":17,"map":"koth_cascade","folder":"tf","game":"Team Fortress","app_id":440,"player_count":0,"max_players":24,"Bots":0,"server_type":"Dedicated","server_os":"Linux","password":true,"vac":true,"version":"7723704","steam_id":85568392924485349,"keywords":["cp","nocrits","nodmgspread","uncletopia"],"game_id":440,"stv_port":27016,"stv_name":"Uncletopia | São Paulo | 2 | All Maps | STV","players":null},{"server_id":7,"name":"Uncletopia | Seattle | 1 | All Maps","name_short":"sea-1","host":"sea-1.us.uncletopia.com","port":27015,"enabled":true,"region":"us-west","cc":"us","latitude":47.608013,"longitude":-122.33517,"reserved":0,"last_update":"0001-01-01T00:00:00Z","name_a2s":"Uncletopia | Seattle | 1 | All Maps","protocol":17,"map":"pl_frontier_final","folder":"tf","game":"Team Fortress","app_id":440,"player_count":1,"max_players":24,"Bots":0,"server_type":"Dedicated","server_os":"Linux","password":true,"vac":true,"version":"7723704","steam_id":85568392924469997,"keywords":["nocrits","nodmgspread","payload","uncletopia"],"game_id":440,"stv_port":27016,"stv_name":"Uncletopia | Seattle | 1 | All Maps | STV","players":[{"user_id":20,"name":"Tralf Hardy","steam_id":76561197973818765,"connected_time":318000000000,"state":"active","ping":106}]},{"server_id":119,"name":"Uncletopia | Seattle | 2 | All Maps","name_short":"sea-2","host":"sea-1.us.uncletopia.com","port":27025,"enabled":true,"region":"us-west","cc":"us","latitude":47.608013,"longitude":-122.33517,"reserved":0,"last_update":"0001-01-01T00:00:00Z","name_a2s":"Uncletopia | Seattle | 2 | All Maps","protocol":17,"map":"koth_harvest_final","folder":"tf","game":"Team Fortress","app_id":440,"player_count":24,"max_players":24,"Bots":0,"server_type":"Dedicated","server_os":"Linux","password":true,"vac":true,"version":"7723704","steam_id":85568392924469998,"keywords":["cp","nocrits","nodmgspread","uncletopia"],"game_id":440,"stv_port":27026,"stv_name":"Uncletopia | Seattle | 2 | All Maps | STV","players":[{"user_id":3,"name":"Idontknow","steam_id":76561199207044048,"connected_time":4374000000000,"state":"active","ping":48},{"user_id":46,"name":"dysesthesia","steam_id":76561198027159018,"connected_time":3251000000000,"state":"active","ping":139},{"user_id":56,"name":"Dagsdaf","steam_id":76561198055317112,"connected_time":2727000000000,"state":"active","ping":126},{"user_id":90,"name":"Arkell","steam_id":76561198135884882,"connected_time":480000000000,"state":"active","ping":41},{"user_id":73,"name":"Vagrant","steam_id":76561198242536886,"connected_time":1399000000000,"state":"active","ping":62},{"user_id":91,"name":"Protato","steam_id":76561198053117503,"connected_time":470000000000,"state":"active","ping":59},{"user_id":74,"name":"Thanks Ants","steam_id":76561197966221018,"connected_time":1396000000000,"state":"active","ping":44},{"user_id":11,"name":"BoomieMcBoomPants","steam_id":76561198144516828,"connected_time":4323000000000,"state":"active","ping":75},{"user_id":15,"name":"StarBrigade","steam_id":76561198150224428,"connected_time":4198000000000,"state":"active","ping":88},{"user_id":57,"name":"Cinna Mon","steam_id":76561198005840633,"connected_time":2703000000000,"state":"active","ping":59},{"user_id":48,"name":"grape","steam_id":76561197993980328,"connected_time":3251000000000,"state":"active","ping":53},{"user_id":19,"name":"Dreamzapp","steam_id":76561199084936632,"connected_time":4090000000000,"state":"active","ping":90},{"user_id":93,"name":"Day Man","steam_id":76561198067154807,"connected_time":296000000000,"state":"active","ping":44},{"user_id":82,"name":"squid game","steam_id":76561199248960166,"connected_time":1267000000000,"state":"active","ping":39},{"user_id":83,"name":"Spooky Santabox","steam_id":76561198329679481,"connected_time":1249000000000,"state":"active","ping":50},{"user_id":77,"name":"RighteousICE","steam_id":76561198266993942,"connected_time":1384000000000,"state":"active","ping":79},{"user_id":85,"name":"methanar/brandon","steam_id":76561198049489349,"connected_time":1177000000000,"state":"active","ping":64},{"user_id":72,"name":"McBogie","steam_id":76561198112407807,"connected_time":1403000000000,"state":"active","ping":62},{"user_id":78,"name":"gamer_hater","steam_id":76561198973306314,"connected_time":1374000000000,"state":"active","ping":76},{"user_id":62,"name":"weegeebad","steam_id":76561198280841437,"connected_time":2473000000000,"state":"active","ping":113},{"user_id":92,"name":"DrD","steam_id":76561198067266383,"connected_time":426000000000,"state":"active","ping":32},{"user_id":94,"name":"Mr.Thirteen","steam_id":76561198047468836,"connected_time":171000000000,"state":"active","ping":64},{"user_id":88,"name":"Elias","steam_id":76561198031295139,"connected_time":544000000000,"state":"active","ping":51},{"user_id":70,"name":"SesataPomang","steam_id":76561198145133059,"connected_time":1988000000000,"state":"active","ping":100}]},{"server_id":17,"name":"Uncletopia | San Francisco | 1 | All Maps","name_short":"sfo-1","host":"sfo-1.us.uncletopia.com","port":27015,"enabled":true,"region":"us-west","cc":"us","latitude":37.77397,"longitude":-122.4313,"reserved":0,"last_update":"0001-01-01T00:00:00Z","name_a2s":"Uncletopia | San Francisco | 1 | All Maps","protocol":17,"map":"koth_lakeside_final","folder":"tf","game":"Team Fortress","app_id":440,"player_count":24,"max_players":24,"Bots":0,"server_type":"Dedicated","server_os":"Linux","password":true,"vac":true,"version":"7723704","steam_id":85568392924469999,"keywords":["cp","nocrits","nodmgspread","uncletopia"],"game_id":440,"stv_port":27016,"stv_name":"Uncletopia | San Francisco | 1 | All Maps | STV","players":[{"user_id":3,"name":"Sabag3D","steam_id":76561198094402240,"connected_time":4296000000000,"state":"active","ping":75},{"user_id":12,"name":"Pyrolimited","steam_id":76561198195455657,"connected_time":2710000000000,"state":"active","ping":62},{"user_id":32,"name":"werm","steam_id":76561198111222000,"connected_time":1334000000000,"state":"active","ping":89},{"user_id":50,"name":"starbage","steam_id":76561198269487700,"connected_time":611000000000,"state":"active","ping":78},{"user_id":48,"name":"asterismz","steam_id":76561198271895997,"connected_time":625000000000,"state":"active","ping":78},{"user_id":64,"name":"trackpad gaming | f2p","steam_id":76561198840414371,"connected_time":32000000000,"state":"active","ping":88},{"user_id":52,"name":"Agent Q","steam_id":76561198830829003,"connected_time":523000000000,"state":"active","ping":79},{"user_id":27,"name":"jessica","steam_id":76561198178958761,"connected_time":1632000000000,"state":"active","ping":91},{"user_id":43,"name":"zonk","steam_id":76561198207253121,"connected_time":901000000000,"state":"active","ping":102},{"user_id":53,"name":"kr1tsurf3r","steam_id":76561198076402476,"connected_time":485000000000,"state":"active","ping":59},{"user_id":51,"name":"xbox record that","steam_id":76561198150117455,"connected_time":606000000000,"state":"active","ping":60},{"user_id":44,"name":"Mina's Ninas","steam_id":76561198046502179,"connected_time":900000000000,"state":"active","ping":66},{"user_id":55,"name":"They could be starlings","steam_id":76561198441020995,"connected_time":357000000000,"state":"active","ping":59},{"user_id":45,"name":"lili.winters","steam_id":76561199391478575,"connected_time":897000000000,"state":"active","ping":91},{"user_id":31,"name":"Jayme","steam_id":76561198383110081,"connected_time":1421000000000,"state":"active","ping":119},{"user_id":56,"name":"sora","steam_id":76561198094256973,"connected_time":341000000000,"state":"active","ping":56},{"user_id":57,"name":"EatSomeBEES","steam_id":76561198047334307,"connected_time":305000000000,"state":"active","ping":61},{"user_id":58,"name":"MegaBron James","steam_id":76561198066091050,"connected_time":248000000000,"state":"active","ping":73},{"user_id":59,"name":"lol","steam_id":76561198026491738,"connected_time":210000000000,"state":"active","ping":64},{"user_id":60,"name":"Ch4rl33","steam_id":76561198037008621,"connected_time":171000000000,"state":"active","ping":100},{"user_id":61,"name":"R5-D4","steam_id":76561198025196439,"connected_time":122000000000,"state":"active","ping":65},{"user_id":62,"name":"Kylar","steam_id":76561198196979431,"connected_time":96000000000,"state":"active","ping":69},{"user_id":63,"name":"POV BALLER","steam_id":76561199144340440,"connected_time":95000000000,"state":"active","ping":66},{"user_id":65,"name":"DaBenjle","steam_id":76561198001344159,"connected_time":30000000000,"state":"active","ping":83}]},{"server_id":18,"name":"Uncletopia | San Francisco | 2 | All Maps","name_short":"sfo-2","host":"sfo-1.us.uncletopia.com","port":27025,"enabled":true,"region":"us-west","cc":"us","latitude":37.77397,"longitude":-122.4313,"reserved":0,"last_update":"0001-01-01T00:00:00Z","name_a2s":"Uncletopia | San Francisco | 2 | All Maps","protocol":17,"map":"koth_viaduct","folder":"tf","game":"Team Fortress","app_id":440,"player_count":0,"max_players":24,"Bots":0,"server_type":"Dedicated","server_os":"Linux","password":true,"vac":true,"version":"7723704","steam_id":85568392924470000,"keywords":["cp","nocrits","nodmgspread","uncletopia"],"game_id":440,"stv_port":27026,"stv_name":"Uncletopia | San Francisco | 2 | All Maps | STV","players":null},{"server_id":19,"name":"Uncletopia | San Francisco | 3 | Stopwatch Beta","name_short":"sfo-3","host":"sfo-1.us.uncletopia.com","port":27035,"enabled":true,"region":"us-west","cc":"us","latitude":37.77397,"longitude":-122.4313,"reserved":0,"last_update":"0001-01-01T00:00:00Z","name_a2s":"Uncletopia | San Francisco | 3 | Stopwatch Beta","protocol":17,"map":"workshop/pl_barnblitz_pro7.ugc582280235","folder":"tf","game":"Team Fortress","app_id":440,"player_count":0,"max_players":24,"Bots":0,"server_type":"Dedicated","server_os":"Linux","password":true,"vac":true,"version":"7723704","steam_id":85568392924742824,"keywords":["nocrits","nodmgspread","payload","uncletopia"],"game_id":440,"stv_port":27036,"stv_name":"Uncletopia | San Francisco | 3 | Stopwatch Beta | STV","players":null},{"server_id":20,"name":"Uncletopia | San Francisco | 4 | Community","name_short":"sfo-4","host":"sfo-1.us.uncletopia.com","port":27045,"enabled":true,"region":"us-west","cc":"us","latitude":37.77397,"longitude":-122.4313,"reserved":0,"last_update":"0001-01-01T00:00:00Z","name_a2s":"Uncletopia | San Francisco | 4 | Community","protocol":17,"map":"workshop/cp_reckoner_rc6.ugc674719999","folder":"tf","game":"Team Fortress","app_id":440,"player_count":0,"max_players":24,"Bots":0,"server_type":"Dedicated","server_os":"Linux","password":true,"vac":true,"version":"7723704","steam_id":85568392924742826,"keywords":["cp","nocrits","nodmgspread","uncletopia"],"game_id":440,"stv_port":27046,"stv_name":"Uncletopia | San Francisco | 4 | Community | STV","players":null},{"server_id":141,"name":"Uncletopia | Sydney | 1 | All Maps","name_short":"syd-1","host":"syd-1.au.uncletopia.com","port":27015,"enabled":true,"region":"au","cc":"au","latitude":-33.865143,"longitude":151.2099,"reserved":0,"last_update":"0001-01-01T00:00:00Z","name_a2s":"Uncletopia | Sydney | 1 | All Maps","protocol":17,"map":"plr_bananabay","folder":"tf","game":"Team Fortress","app_id":440,"player_count":0,"max_players":24,"Bots":0,"server_type":"Dedicated","server_os":"Linux","password":true,"vac":true,"version":"7723704","steam_id":85568392924470001,"keywords":["nocrits","nodmgspread","payload","uncletopia"],"game_id":440,"stv_port":27016,"stv_name":"Uncletopia | Sydney | 1 | All Maps | STV","players":null},{"server_id":123,"name":"Uncletopia | Sydney | 2 | All Maps","name_short":"syd-2","host":"syd-1.au.uncletopia.com","port":27025,"enabled":true,"region":"au","cc":"au","latitude":-33.865143,"longitude":151.2099,"reserved":0,"last_update":"0001-01-01T00:00:00Z","name_a2s":"Uncletopia | Sydney | 2 | All Maps","protocol":17,"map":"cp_dustbowl","folder":"tf","game":"Team Fortress","app_id":440,"player_count":24,"max_players":24,"Bots":0,"server_type":"Dedicated","server_os":"Linux","password":true,"vac":true,"version":"7723704","steam_id":85568392924470002,"keywords":["cp","nocrits","nodmgspread","uncletopia"],"game_id":440,"stv_port":27026,"stv_name":"Uncletopia | Sydney | 2 | All Maps | STV","players":[{"user_id":38,"name":"Grecko","steam_id":76561198032976002,"connected_time":1652000000000,"state":"active","ping":59},{"user_id":20,"name":"carrot monster","steam_id":76561199056025092,"connected_time":2461000000000,"state":"active","ping":33},{"user_id":10,"name":"Nyda","steam_id":76561198152311904,"connected_time":4275000000000,"state":"active","ping":65},{"user_id":45,"name":"krandlez` (Any/All)","steam_id":76561198044839726,"connected_time":1247000000000,"state":"active","ping":33},{"user_id":56,"name":"Zoey","steam_id":76561198126153554,"connected_time":405000000000,"state":"active","ping":95},{"user_id":41,"name":"Qucumber","steam_id":76561199232727317,"connected_time":1410000000000,"state":"active","ping":74},{"user_id":46,"name":"wse.","steam_id":76561198272148020,"connected_time":1161000000000,"state":"active","ping":45},{"user_id":19,"name":"Heaviest heavy main","steam_id":76561199443552014,"connected_time":2767000000000,"state":"active","ping":165},{"user_id":42,"name":"Glockenspe (She/Her)","steam_id":76561199184115241,"connected_time":1368000000000,"state":"active","ping":43},{"user_id":22,"name":"Mission","steam_id":76561199218935728,"connected_time":2416000000000,"state":"active","ping":65},{"user_id":57,"name":"Big Booty Llama","steam_id":76561198074422721,"connected_time":104000000000,"state":"active","ping":66},{"user_id":24,"name":"LightningBlock","steam_id":76561198289997742,"connected_time":2318000000000,"state":"active","ping":41},{"user_id":50,"name":"҂Storm","steam_id":76561198073213264,"connected_time":856000000000,"state":"active","ping":41},{"user_id":48,"name":"Bin","steam_id":76561199117653318,"connected_time":1022000000000,"state":"active","ping":80},{"user_id":27,"name":"丂匚ㄖ尺几","steam_id":76561199270176682,"connected_time":2268000000000,"state":"active","ping":69},{"user_id":43,"name":"korn","steam_id":76561198022563294,"connected_time":1339000000000,"state":"active","ping":108},{"user_id":58,"name":"SaltierThanYou","steam_id":76561198444395188,"connected_time":51000000000,"state":"active","ping":98},{"user_id":30,"name":"oldbie","steam_id":76561198053297711,"connected_time":2069000000000,"state":"active","ping":64},{"user_id":44,"name":"blicky","steam_id":76561198029829077,"connected_time":1314000000000,"state":"active","ping":91},{"user_id":33,"name":"Owlenstein™","steam_id":76561198093983826,"connected_time":1969000000000,"state":"active","ping":118},{"user_id":51,"name":"Dr Barry Mundy PhD","steam_id":76561198034512686,"connected_time":663000000000,"state":"active","ping":38},{"user_id":54,"name":"¯\\_(ツ)_/¯","steam_id":76561199206182584,"connected_time":456000000000,"state":"active","ping":50},{"user_id":36,"name":"franky meatballs","steam_id":76561198048120251,"connected_time":1923000000000,"state":"active","ping":84},{"user_id":55,"name":"Pickled Cow","steam_id":76561198292517991,"connected_time":455000000000,"state":"active","ping":44}]},{"server_id":395,"name":"Uncletopia | Sydney | 3 | All Maps","name_short":"syd-3","host":"syd-1.au.uncletopia.com","port":27035,"enabled":true,"region":"au","cc":"au","latitude":-33.865143,"longitude":151.2099,"reserved":0,"last_update":"0001-01-01T00:00:00Z","name_a2s":"Uncletopia | Sydney | 3 | All Maps","protocol":17,"map":"koth_lakeside_final","folder":"tf","game":"Team Fortress","app_id":440,"player_count":0,"max_players":24,"Bots":0,"server_type":"Dedicated","server_os":"Linux","password":true,"vac":true,"version":"7723704","steam_id":85568392925194467,"keywords":["cp","nocrits","nodmgspread","uncletopia"],"game_id":440,"stv_port":27036,"stv_name":"Uncletopia | Sydney | 3 | All Maps | STV","players":null},{"server_id":396,"name":"Uncletopia | Sydney | 4 | All Maps","name_short":"syd-4","host":"syd-1.au.uncletopia.com","port":27045,"enabled":true,"region":"au","cc":"au","latitude":-33.865143,"longitude":151.2099,"reserved":0,"last_update":"0001-01-01T00:00:00Z","name_a2s":"Uncletopia | Sydney | 4 | All Maps","protocol":17,"map":"cp_snakewater_final1","folder":"tf","game":"Team Fortress","app_id":440,"player_count":0,"max_players":24,"Bots":0,"server_type":"Dedicated","server_os":"Linux","password":true,"vac":true,"version":"7723704","steam_id":85568392925397958,"keywords":["cp","nocrits","nodmgspread","uncletopia"],"game_id":440,"stv_port":27046,"stv_name":"Uncletopia | Sydney | 4 | All Maps | STV","players":null},{"server_id":58,"name":"Uncletopia | Sydney | 5 | No Payload","name_short":"syd-5","host":"syd-1.au.uncletopia.com","port":27055,"enabled":true,"region":"au","cc":"au","latitude":-33.865143,"longitude":151.2099,"reserved":0,"last_update":"0001-01-01T00:00:00Z","name_a2s":"Uncletopia | Sydney | 5 | No Payload","protocol":17,"map":"ctf_turbine","folder":"tf","game":"Team Fortress","app_id":440,"player_count":0,"max_players":24,"Bots":0,"server_type":"Dedicated","server_os":"Linux","password":true,"vac":true,"version":"7723704","steam_id":85568392925397959,"keywords":["ctf","nocrits","nodmgspread","uncletopia"],"game_id":440,"stv_port":27056,"stv_name":"Uncletopia | Sydney | 5 | No Payload | STV","players":null},{"server_id":59,"name":"Uncletopia | Sydney | 6 | Community","name_short":"syd-6","host":"syd-1.au.uncletopia.com","port":27065,"enabled":true,"region":"au","cc":"au","latitude":-33.865143,"longitude":151.2099,"reserved":0,"last_update":"0001-01-01T00:00:00Z","name_a2s":"Uncletopia | Sydney | 6 | Community","protocol":17,"map":"koth_lakeside_final","folder":"tf","game":"Team Fortress","app_id":440,"player_count":0,"max_players":24,"Bots":0,"server_type":"Dedicated","server_os":"Linux","password":true,"vac":true,"version":"7723704","steam_id":85568392925397960,"keywords":["cp","nocrits","nodmgspread","uncletopia"],"game_id":440,"stv_port":27066,"stv_name":"Uncletopia | Sydney | 6 | Community | STV","players":null},{"server_id":49,"name":"Uncletopia | Warsaw | 1 | All Maps","name_short":"waw-1","host":"waw-1.pl.uncletopia.com","port":27015,"enabled":true,"region":"eu","cc":"pl","latitude":52.2297,"longitude":21.017532,"reserved":0,"last_update":"0001-01-01T00:00:00Z","name_a2s":"Uncletopia | Warsaw | 1 | All Maps","protocol":17,"map":"koth_viaduct","folder":"tf","game":"Team Fortress","app_id":440,"player_count":0,"max_players":24,"Bots":0,"server_type":"Dedicated","server_os":"Linux","password":true,"vac":true,"version":"7723704","steam_id":85568392925397850,"keywords":["cp","nocrits","nodmgspread","uncletopia"],"game_id":440,"stv_port":27016,"stv_name":"Uncletopia | Warsaw | 1 | All Maps | STV","players":null},{"server_id":50,"name":"Uncletopia | Warsaw | 2 | All Maps","name_short":"waw-2","host":"waw-1.pl.uncletopia.com","port":27025,"enabled":true,"region":"eu","cc":"pl","latitude":52.2297,"longitude":21.017532,"reserved":0,"last_update":"0001-01-01T00:00:00Z","name_a2s":"Uncletopia | Warsaw | 2 | All Maps","protocol":17,"map":"pl_badwater","folder":"tf","game":"Team Fortress","app_id":440,"player_count":0,"max_players":24,"Bots":0,"server_type":"Dedicated","server_os":"Linux","password":true,"vac":true,"version":"7723704","steam_id":85568392925397851,"keywords":["nocrits","nodmgspread","payload","uncletopia"],"game_id":440,"stv_port":27026,"stv_name":"Uncletopia | Warsaw | 2 | All Maps | STV","players":null},{"server_id":51,"name":"Uncletopia | Warsaw | 3 | All Maps","name_short":"waw-3","host":"waw-1.pl.uncletopia.com","port":27035,"enabled":true,"region":"eu","cc":"pl","latitude":52.2297,"longitude":21.017532,"reserved":0,"last_update":"0001-01-01T00:00:00Z","name_a2s":"Uncletopia | Warsaw | 3 | All Maps","protocol":17,"map":"cp_dustbowl","folder":"tf","game":"Team Fortress","app_id":440,"player_count":0,"max_players":24,"Bots":0,"server_type":"Dedicated","server_os":"Linux","password":true,"vac":true,"version":"7723704","steam_id":85568392925397852,"keywords":["cp","nocrits","nodmgspread","uncletopia"],"game_id":440,"stv_port":27036,"stv_name":"Uncletopia | Warsaw | 3 | All Maps | STV","players":null},{"server_id":52,"name":"Uncletopia | Warsaw | 4 | All Maps","name_short":"waw-4","host":"waw-1.pl.uncletopia.com","port":27045,"enabled":true,"region":"eu","cc":"pl","latitude":52.2297,"longitude":21.017532,"reserved":0,"last_update":"0001-01-01T00:00:00Z","name_a2s":"Uncletopia | Warsaw | 4 | All Maps","protocol":17,"map":"cp_snakewater_final1","folder":"tf","game":"Team Fortress","app_id":440,"player_count":0,"max_players":24,"Bots":0,"server_type":"Dedicated","server_os":"Linux","password":true,"vac":true,"version":"7723704","steam_id":85568392925397853,"keywords":["cp","nocrits","nodmgspread","uncletopia"],"game_id":440,"stv_port":27046,"stv_name":"Uncletopia | Warsaw | 4 | All Maps | STV","players":null},{"server_id":53,"name":"Uncletopia | Warsaw | 5 | No Payload","name_short":"waw-5","host":"waw-1.pl.uncletopia.com","port":27055,"enabled":true,"region":"eu","cc":"pl","latitude":52.2297,"longitude":21.017532,"reserved":0,"last_update":"0001-01-01T00:00:00Z","name_a2s":"Uncletopia | Warsaw | 5 | No Payload","protocol":17,"map":"cp_freight_final1","folder":"tf","game":"Team Fortress","app_id":440,"player_count":0,"max_players":24,"Bots":0,"server_type":"Dedicated","server_os":"Linux","password":true,"vac":true,"version":"7723704","steam_id":85568392925397854,"keywords":["cp","nocrits","nodmgspread","uncletopia"],"game_id":440,"stv_port":27056,"stv_name":"Uncletopia | Warsaw | 5 | No Payload | STV","players":null},{"server_id":54,"name":"Uncletopia | Warsaw | 6 | Community","name_short":"waw-6","host":"waw-1.pl.uncletopia.com","port":27065,"enabled":true,"region":"eu","cc":"pl","latitude":52.2297,"longitude":21.017532,"reserved":0,"last_update":"0001-01-01T00:00:00Z","name_a2s":"Uncletopia | Warsaw | 6 | Community","protocol":17,"map":"workshop/koth_ashville_final.ugc2130459942","folder":"tf","game":"Team Fortress","app_id":440,"player_count":0,"max_players":24,"Bots":0,"server_type":"Dedicated","server_os":"Linux","password":true,"vac":true,"version":"7723704","steam_id":85568392925397856,"keywords":["cp","nocrits","nodmgspread","uncletopia"],"game_id":440,"stv_port":27066,"stv_name":"Uncletopia | Warsaw | 6 | Community | STV","players":null}]}