{"status":true,"message":"","result":[{"server_id":9,"name":"Uncletopia | Atlanta | 1 | All Maps","name_short":"atl-1","host":"atl-1.us.uncletopia.com","port":27015,"enabled":true,"region":"us-east","cc":"us","latitude":33.753746,"longitude":-84.38633,"reserved":0,"last_update":"0001-01-01T00:00:00Z","name_a2s":"Uncletopia | Atlanta | 1 | All Maps","protocol":17,"map":"pl_borneo","folder":"tf","game":"Team Fortress","app_id":440,"player_count":0,"max_players":24,"Bots":0,"server_type":"Dedicated","server_os":"Linux","password":true,"vac":true,"version":"7932396","steam_id":85568392924469982,"keywords":["nocrits","nodmgspread","payload","uncletopia"],"game_id":440,"stv_port":27016,"stv_name":"Uncletopia | Atlanta | 1 | All Maps | STV","players":null},{"server_id":104,"name":"Uncletopia | Atlanta | 2 | All Maps","name_short":"atl-2","host":"atl-1.us.uncletopia.com","port":27025,"enabled":true,"region":"us-east","cc":"us","latitude":33.753746,"longitude":-84.38633,"reserved":0,"last_update":"0001-01-01T00:00:00Z","name_a2s":"Uncletopia | Atlanta | 2 | All Maps","protocol":17,"map":"cp_altitude","folder":"tf","game":"Team Fortress","app_id":440,"player_count":0,"max_players":24,"Bots":0,"server_type":"Dedicated","server_os":"Linux","password":true,"vac":true,"version":"7932396","steam_id":85568392924469983,"keywords":["cp","nocrits","nodmgspread","uncletopia"],"game_id":440,"stv_port":27026,"stv_name":"Uncletopia | Atlanta | 2 | All Maps | STV","players":null},{"server_id":400,"name":"Uncletopia | Atlanta | 3 | Community","name_short":"atl-3","host":"atl-1.us.uncletopia.com","port":27035,"enabled":true,"region":"us-east","cc":"us","latitude":33.753746,"longitude":-84.38633,"reserved":0,"last_update":"0001-01-01T00:00:00Z","name_a2s":"Uncletopia | Atlanta | 3 | Community","protocol":17,"map":"workshop/pl_divulgence_b4b.ugc2884808746","folder":"tf","game":"Team Fortress","app_id":440,"player_count":0,"max_players":24,"Bots":0,"server_type":"Dedicated","server_os":"Linux","password":true,"vac":true,"version":"7932396","steam_id":85568392924515187,"keywords":["nocrits","nodmgspread","payload","uncletopia"],"game_id":440,"stv_port":27036,"stv_name":"Uncletopia | Atlanta | 3 | Community | STV","players":null},{"server_id":401,"name":"Uncletopia | Atlanta | 4 | No Payload","name_short":"atl-4","host":"atl-1.us.uncletopia.com","port":27045,"enabled":true,"region":"us-east","cc":"us","latitude":33.753746,"longitude":-84.38633,"reserved":0,"last_update":"0001-01-01T00:00:00Z","name_a2s":"","protocol":0,"map":"","folder":"","game":"","app_id":0,"player_count":0,"max_players":0,"Bots":0,"server_type":"","server_os":"","password":false,"vac":false,"version":"","steam_id":0,"keywords":null,"game_id":0,"stv_port":0,"stv_name":"","players":null},{"server_id":2,"name":"Uncletopia | Chicago | 1 | All Maps","name_short":"chi-1","host":"chi-1.us.uncletopia.com","port":27015,"enabled":true,"region":"us-central","cc":"us","latitude":41.881832,"longitude":-87.62318,"reserved":0,"last_update":"0001-01-01T00:00:00Z","name_a2s":"Uncletopia | Chicago | 1 | All Maps","protocol":17,"map":"pl_barnblitz","folder":"tf","game":"Team Fortress","app_id":440,"player_count":3,"max_players":24,"Bots":0,"server_type":"Dedicated","server_os":"Linux","password":true,"vac":true,"version":"7932396","steam_id":85568392924469984,"keywords":["nocrits","nodmgspread","payload","uncletopia"],"game_id":440,"stv_port":27016,"stv_name":"Uncletopia | Chicago | 1 | All Maps | STV","players":[{"user_id":7,"name":"two one middle road","steam_id":76561198060868125,"connected_time":679000000000,"state":"active","ping":64},{"user_id":9,"name":"AwesomeAEA","steam_id":76561198303978260,"connected_time":436000000000,"state":"active","ping":73},{"user_id":11,"name":"Mr. Fluffy Penguins","steam_id":76561198172538149,"connected_time":2000000000,"state":"spawning","ping":73}]},{"server_id":106,"name":"Uncletopia | Chicago | 2 | All Maps","name_short":"chi-2","host":"chi-1.us.uncletopia.com","port":27025,"enabled":true,"region":"us-central","cc":"us","latitude":41.881832,"longitude":-87.62318,"reserved":0,"last_update":"0001-01-01T00:00:00Z","name_a2s":"Uncletopia | Chicago | 2 | All Maps","protocol":17,"map":"cp_snakewater_final1","folder":"tf","game":"Team Fortress","app_id":440,"player_count":23,"max_players":24,"Bots":0,"server_type":"Dedicated","server_os":"Linux","password":true,"vac":true,"version":"7932396","steam_id":85568392924469985,"keywords":["cp","nocrits","nodmgspread","uncletopia"],"game_id":440,"stv_port":27026,"stv_name":"Uncletopia | Chicago | 2 | All Maps | STV","players":[{"user_id":148,"name":"Stoney","steam_id":76561198132197135,"connected_time":2722000000000,"state":"active","ping":45},{"user_id":155,"name":"Blitzy","steam_id":76561198149472890,"connected_time":2203000000000,"state":"active","ping":63},{"user_id":167,"name":"Shrekcellent","steam_id":76561198031390417,"connected_time":566000000000,"state":"active","ping":72},{"user_id":164,"name":"Animal Slices","steam_id":76561198137545511,"connected_time":1423000000000,"state":"active","ping":49},{"user_id":170,"name":"Pete","steam_id":76561198044797506,"connected_time":61000000000,"state":"active","ping":75},{"user_id":169,"name":"JoCaleb02","steam_id":76561198272389829,"connected_time":62000000000,"state":"active","ping":74},{"user_id":125,"name":"Impresio","steam_id":76561198129127347,"connected_time":4295000000000,"state":"active","ping":55},{"user_id":174,"name":"so really cool","steam_id":76561198804598184,"connected_time":47000000000,"state":"active","ping":84},{"user_id":111,"name":"Shark Sandwich","steam_id":76561198025007938,"connected_time":4727000000000,"state":"active","ping":130},{"user_id":166,"name":"Mixomin","steam_id":76561198295061570,"connected_time":700000000000,"state":"active","ping":47},{"user_id":175,"name":"hobgob","steam_id":76561198148549095,"connected_time":12000000000,"state":"active","ping":74},{"user_id":117,"name":"Shrimp","steam_id":76561198170433177,"connected_time":4621000000000,"state":"active","ping":115},{"user_id":161,"name":"Gailus","steam_id":76561198319509387,"connected_time":1672000000000,"state":"active","ping":60},{"user_id":165,"name":"Florist","steam_id":76561198009121060,"connected_time":1270000000000,"state":"active","ping":90},{"user_id":163,"name":"FunGi","steam_id":76561198881418662,"connected_time":1568000000000,"state":"active","ping":73},{"user_id":149,"name":"TheSecretNewbie","steam_id":76561198194671218,"connected_time":2721000000000,"state":"active","ping":45},{"user_id":129,"name":"Phocae {She/Her}","steam_id":76561199317584594,"connected_time":4095000000000,"state":"active","ping":70},{"user_id":158,"name":"Golumpus","steam_id":76561198053549635,"connected_time":2148000000000,"state":"active","ping":75},{"user_id":143,"name":"Tannerdino","steam_id":76561198238169678,"connected_time":2891000000000,"state":"active","ping":83},{"user_id":171,"name":"krueger","steam_id":76561198268654031,"connected_time":58000000000,"state":"active","ping":46},{"user_id":105,"name":"majorbobfunction","steam_id":76561198042464632,"connected_time":5323000000000,"state":"active","ping":48},{"user_id":119,"name":"daemon","steam_id":76561198001541433,"connected_time":4563000000000,"state":"active","ping":47},{"user_id":131,"name":"Im High","steam_id":76561198049954886,"connected_time":3892000000000,"state":"active","ping":62}]},{"server_id":402,"name":"Uncletopia | Chicago | 3 | All Maps","name_short":"chi-3","host":"chi-1.us.uncletopia.com","port":27035,"enabled":true,"region":"us-central","cc":"us","latitude":41.881832,"longitude":-87.62318,"reserved":0,"last_update":"0001-01-01T00:00:00Z","name_a2s":"Uncletopia | Chicago | 3 | All Maps","protocol":17,"map":"cp_snakewater_final1","folder":"tf","game":"Team Fortress","app_id":440,"player_count":0,"max_players":24,"Bots":0,"server_type":"Dedicated","server_os":"Linux","password":true,"vac":true,"version":"7932396","steam_id":85568392924515191,"keywords":["cp","nocrits","nodmgspread","uncletopia"],"game_id":440,"stv_port":27036,"stv_name":"Uncletopia | Chicago | 3 | All Maps | STV","players":null},{"server_id":403,"name":"Uncletopia | Chicago | 4 | All Maps","name_short":"chi-4","host":"chi-1.us.uncletopia.com","port":27045,"enabled":true,"region":"us-central","cc":"us","latitude":41.881832,"longitude":-87.62318,"reserved":0,"last_update":"0001-01-01T00:00:00Z","name_a2s":"Uncletopia | Chicago | 4 | All Maps","protocol":17,"map":"pl_upward","folder":"tf","game":"Team Fortress","app_id":440,"player_count":22,"max_players":24,"Bots":0,"server_type":"Dedicated","server_os":"Linux","password":true,"vac":true,"version":"7932396","steam_id":85568392924515193,"keywords":["nocrits","nodmgspread","payload","uncletopia"],"game_id":440,"stv_port":27046,"stv_name":"Uncletopia | Chicago | 4 | All Maps | STV","players":[{"user_id":6,"name":"chum","steam_id":76561198057431789,"connected_time":2743000000000,"state":"active","ping":71},{"user_id":7,"name":"PlugFromBehind","steam_id":76561198143283800,"connected_time":2705000000000,"state":"active","ping":60},{"user_id":8,"name":"Bee_Pirate","steam_id":76561199000599111,"connected_time":2651000000000,"state":"active","ping":62},{"user_id":46,"name":"team foolery 2","steam_id":76561199118049168,"connected_time":712000000000,"state":"active","ping":98},{"user_id":10,"name":"Mongee","steam_id":76561198161610684,"connected_time":2329000000000,"state":"active","ping":75},{"user_id":15,"name":"Waddlehi","steam_id":76561198072553840,"connected_time":1682000000000,"state":"active","ping":56},{"user_id":16,"name":"GameboyAdvancedSPMobileHotspot","steam_id":76561198413739460,"connected_time":1677000000000,"state":"active","ping":112},{"user_id":17,"name":"forg","steam_id":76561199160422863,"connected_time":1621000000000,"state":"active","ping":127},{"user_id":18,"name":"Felipe the Mexican Samurai","steam_id":76561198831997540,"connected_time":1590000000000,"state":"active","ping":89},{"user_id":35,"name":"advasky","steam_id":76561198058586854,"connected_time":1045000000000,"state":"active","ping":64},{"user_id":53,"name":"Sal_","steam_id":76561198373633209,"connected_time":514000000000,"state":"active","ping":116},{"user_id":45,"name":"Nopers","steam_id":76561198021447487,"connected_time":721000000000,"state":"active","ping":84},{"user_id":54,"name":"chaffy","steam_id":76561198021754567,"connected_time":187000000000,"state":"active","ping":60},{"user_id":49,"name":"hrrsnONLINE","steam_id":76561198132903596,"connected_time":598000000000,"state":"active","ping":76},{"user_id":37,"name":"Sunshine","steam_id":76561198885528098,"connected_time":1025000000000,"state":"active","ping":67},{"user_id":28,"name":"THE CUMEST LORD","steam_id":76561198061412592,"connected_time":1230000000000,"state":"active","ping":64},{"user_id":52,"name":"The sad vanilla","steam_id":76561198268621447,"connected_time":532000000000,"state":"active","ping":92},{"user_id":40,"name":"Kedata","steam_id":76561198047750050,"connected_time":937000000000,"state":"active","ping":46},{"user_id":31,"name":"dos","steam_id":76561198370614805,"connected_time":1195000000000,"state":"active","ping":80},{"user_id":34,"name":"Femcel Avery","steam_id":76561199035402139,"connected_time":1077000000000,"state":"active","ping":83},{"user_id":33,"name":"Xx_gam3rberg_xX","steam_id":76561199035781025,"connected_time":1177000000000,"state":"active","ping":94},{"user_id":41,"name":"Lilith83","steam_id":76561198193656669,"connected_time":927000000000,"state":"active","ping":60}]},{"server_id":36,"name":"Uncletopia | Chicago | 5 | All Maps","name_short":"chi-5","host":"chi-2.us.uncletopia.com","port":27015,"enabled":true,"region":"us-central","cc":"us","latitude":41.881832,"longitude":-87.62318,"reserved":0,"last_update":"0001-01-01T00:00:00Z","name_a2s":"Uncletopia | Chicago | 5 | All Maps","protocol":17,"map":"pl_snowycoast","folder":"tf","game":"Team Fortress","app_id":440,"player_count":24,"max_players":24,"Bots":0,"server_type":"Dedicated","server_os":"Linux","password":true,"vac":true,"version":"7932396","steam_id":85568392924866362,"keywords":["nocrits","nodmgspread","payload","uncletopia"],"game_id":440,"stv_port":27016,"stv_name":"Uncletopia | Chicago | 5 | All Maps | STV","players":[{"user_id":186,"name":"Jango","steam_id":76561198084589742,"connected_time":833000000000,"state":"active","ping":75},{"user_id":171,"name":"Mr Nep Nep","steam_id":76561198198179821,"connected_time":1639000000000,"state":"active","ping":98},{"user_id":162,"name":"venomew2","steam_id":76561198327081077,"connected_time":2619000000000,"state":"active","ping":84},{"user_id":177,"name":"TeeTree","steam_id":76561198862307874,"connected_time":1368000000000,"state":"active","ping":59},{"user_id":193,"name":"fifteen22","steam_id":76561198138781868,"connected_time":178000000000,"state":"active","ping":69},{"user_id":180,"name":"NOBODY","steam_id":76561198094578887,"connected_time":992000000000,"state":"active","ping":55},{"user_id":182,"name":"Hope","steam_id":76561199201900779,"connected_time":929000000000,"state":"active","ping":79},{"user_id":169,"name":"30-50 feral hogs","steam_id":76561198073587145,"connected_time":1794000000000,"state":"active","ping":118},{"user_id":183,"name":"playguy carter","steam_id":76561198080679337,"connected_time":906000000000,"state":"active","ping":55},{"user_id":149,"name":"Allegro","steam_id":76561198084599587,"connected_time":3994000000000,"state":"active","ping":72},{"user_id":170,"name":"nanner","steam_id":76561198302275134,"connected_time":1791000000000,"state":"active","ping":86},{"user_id":175,"name":"FanGirl (Punks)","steam_id":76561199140940650,"connected_time":1514000000000,"state":"active","ping":58},{"user_id":192,"name":"roto","steam_id":76561198138735860,"connected_time":242000000000,"state":"active","ping":68},{"user_id":184,"name":"MrsJenniferBongleaf","steam_id":76561198004882625,"connected_time":894000000000,"state":"active","ping":105},{"user_id":194,"name":"Malevo","steam_id":76561198148606522,"connected_time":76000000000,"state":"active","ping":77},{"user_id":187,"name":"Lamb Dilemma","steam_id":76561197995711892,"connected_time":708000000000,"state":"active","ping":74},{"user_id":156,"name":"Broadsword","steam_id":76561198011160411,"connected_time":3400000000000,"state":"active","ping":85},{"user_id":188,"name":"garfield","steam_id":76561198114119308,"connected_time":616000000000,"state":"active","ping":66},{"user_id":168,"name":"StarakKrall","steam_id":76561198388556361,"connected_time":2270000000000,"state":"active","ping":120},{"user_id":139,"name":"B.","steam_id":76561198040445907,"connected_time":5195000000000,"state":"active","ping":74},{"user_id":167,"name":"LunarDark","steam_id":76561199225446889,"connected_time":2352000000000,"state":"active","ping":87},{"user_id":166,"name":"Mr. Durian","steam_id":76561198093813212,"connected_time":2561000000000,"state":"active","ping":76},{"user_id":173,"name":"Moop","steam_id":76561198096984681,"connected_time":1574000000000,"state":"active","ping":84},{"user_id":109,"name":"Lifial","steam_id":76561198271885819,"connected_time":6828000000000,"state":"active","ping":76}]},{"server_id":37,"name":"Uncletopia | Chicago | 6 | All Maps","name_short":"chi-6","host":"chi-2.us.uncletopia.com","port":27025,"enabled":true,"region":"us-central","cc":"us","latitude":41.881832,"longitude":-87.62318,"reserved":0,"last_update":"0001-01-01T00:00:00Z","name_a2s":"Uncletopia | Chicago | 6 | All Maps","protocol":17,"map":"koth_highpass","folder":"tf","game":"Team Fortress","app_id":440,"player_count":24,"max_players":24,"Bots":0,"server_type":"Dedicated","server_os":"Linux","password":true,"vac":true,"version":"7932396","steam_id":85568392924866363,"keywords":["cp","nocrits","nodmgspread","uncletopia"],"game_id":440,"stv_port":27026,"stv_name":"Uncletopia | Chicago | 6 | All Maps | STV","players":[{"user_id":248,"name":"Za Zombie","steam_id":76561198055545262,"connected_time":1034000000000,"state":"active","ping":68},{"user_id":253,"name":"Hope","steam_id":76561199182558088,"connected_time":494000000000,"state":"active","ping":67},{"user_id":247,"name":"Souperkool","steam_id":76561198280409165,"connected_time":1061000000000,"state":"active","ping":63},{"user_id":239,"name":"Breach","steam_id":76561198045060392,"connected_time":1542000000000,"state":"active","ping":46},{"user_id":249,"name":"agert","steam_id":76561199028751406,"connected_time":905000000000,"state":"active","ping":88},{"user_id":254,"name":"Shaunt","steam_id":76561198171551057,"connected_time":452000000000,"state":"active","ping":50},{"user_id":183,"name":"jooby","steam_id":76561198131065492,"connected_time":5886000000000,"state":"active","ping":66},{"user_id":240,"name":"Fun and Interactive","steam_id":76561198382572522,"connected_time":1516000000000,"state":"active","ping":66},{"user_id":236,"name":"fudge lord","steam_id":76561198118318422,"connected_time":1696000000000,"state":"active","ping":96},{"user_id":237,"name":"Obelix","steam_id":76561198274715109,"connected_time":1613000000000,"state":"active","ping":48},{"user_id":196,"name":"Buakaw","steam_id":76561199067143694,"connected_time":4811000000000,"state":"active","ping":104},{"user_id":232,"name":"Flombo","steam_id":76561198384115638,"connected_time":2181000000000,"state":"active","ping":73},{"user_id":241,"name":"128gb sd card","steam_id":76561198043636749,"connected_time":1485000000000,"state":"active","ping":105},{"user_id":244,"name":"puffy","steam_id":76561198411347037,"connected_time":1396000000000,"state":"active","ping":73},{"user_id":229,"name":"your wickedness is cringe","steam_id":76561198016826181,"connected_time":2229000000000,"state":"active","ping":73},{"user_id":250,"name":"OpenDown","steam_id":76561198064132688,"connected_time":851000000000,"state":"active","ping":65},{"user_id":258,"name":"indi","steam_id":76561198045917538,"connected_time":144000000000,"state":"active","ping":51},{"user_id":246,"name":"beats fembaj?","steam_id":76561199245717718,"connected_time":1334000000000,"state":"active","ping":56},{"user_id":255,"name":"catrinaisahuman","steam_id":76561198281355729,"connected_time":446000000000,"state":"active","ping":66},{"user_id":252,"name":"rocketspeed16","steam_id":76561198246227992,"connected_time":804000000000,"state":"active","ping":79},{"user_id":256,"name":"point man","steam_id":76561199037528097,"connected_time":347000000000,"state":"active","ping":75},{"user_id":257,"name":"Queen Frau the Round","steam_id":76561197999942134,"connected_time":310000000000,"state":"active","ping":45},{"user_id":226,"name":"Poo","steam_id":76561198265144507,"connected_time":2517000000000,"state":"active","ping":94},{"user_id":235,"name":"Not so local trans hottie","steam_id":76561198085813708,"connected_time":1975000000000,"state":"active","ping":72}]},{"server_id":38,"name":"Uncletopia | Chicago | 7 | Stopwatch Beta","name_short":"chi-7","host":"chi-2.us.uncletopia.com","port":27035,"enabled":true,"region":"us-central","cc":"us","latitude":41.881832,"longitude":-87.62318,"reserved":0,"last_update":"0001-01-01T00:00:00Z","name_a2s":"Uncletopia | Chicago | 7 | Stopwatch Beta","protocol":17,"map":"koth_highpass","folder":"tf","game":"Team Fortress","app_id":440,"player_count":0,"max_players":24,"Bots":0,"server_type":"Dedicated","server_os":"Linux","password":true,"vac":true,"version":"7932396","steam_id":85568392924866364,"keywords":["cp","nocrits","nodmgspread","uncletopia"],"game_id":440,"stv_port":27036,"stv_name":"Uncletopia | Chicago | 7 | Stopwatch Beta | STV","players":null},{"server_id":39,"name":"Uncletopia | Chicago | 8 | Community","name_short":"chi-8","host":"chi-2.us.uncletopia.com","port":27045,"enabled":true,"region":"us-central","cc":"us","latitude":41.881832,"longitude":-87.62318,"reserved":0,"last_update":"0001-01-01T00:00:00Z","name_a2s":"Uncletopia | Chicago | 8 | Community","protocol":17,"map":"pl_frontier_final","folder":"tf","game":"Team Fortress","app_id":440,"player_count":0,"max_players":24,"Bots":0,"server_type":"Dedicated","server_os":"Linux","password":true,"vac":true,"version":"7932396","steam_id":85568392924866365,"keywords":["nocrits","nodmgspread","payload","uncletopia"],"game_id":440,"stv_port":27046,"stv_name":"Uncletopia | Chicago | 8 | Community | STV","players":null},{"server_id":8,"name":"Uncletopia | Dallas | 1 | All Maps","name_short":"dal-1","host":"dal-1.us.uncletopia.com","port":27015,"enabled":true,"region":"us-central","cc":"us","latitude":32.779167,"longitude":-96.80889,"reserved":0,"last_update":"0001-01-01T00:00:00Z","name_a2s":"Uncletopia | Dallas | 1 | All Maps","protocol":17,"map":"koth_viaduct","folder":"tf","game":"Team Fortress","app_id":440,"player_count":2,"max_players":24,"Bots":0,"server_type":"Dedicated","server_os":"Linux","password":true,"vac":true,"version":"7932396","steam_id":85568392924469986,"keywords":["cp","nocrits","nodmgspread","uncletopia"],"game_id":440,"stv_port":27016,"stv_name":"Uncletopia | Dallas | 1 | All Maps | STV","players":[{"user_id":11,"name":"Ruby Gillman","steam_id":76561198366299848,"connected_time":1013000000000,"state":"active","ping":62},{"user_id":12,"name":"Critical","steam_id":76561198123744966,"connected_time":786000000000,"state":"active","ping":84}]},{"server_id":108,"name":"Uncletopia | Dallas | 2 | All Maps","name_short":"dal-2","host":"dal-1.us.uncletopia.com","port":27025,"enabled":true,"region":"us-central","cc":"us","latitude":32.779167,"longitude":-96.80889,"reserved":0,"last_update":"0001-01-01T00:00:00Z","name_a2s":"Uncletopia | Dallas | 2 | All Maps","protocol":17,"map":"koth_lakeside_final","folder":"tf","game":"Team Fortress","app_id":440,"player_count":0,"max_players":24,"Bots":0,"server_type":"Dedicated","server_os":"Linux","password":true,"vac":true,"version":"7932396","steam_id":85568392924469988,"keywords":["cp","nocrits","nodmgspread","uncletopia"],"game_id":440,"stv_port":27026,"stv_name":"Uncletopia | Dallas | 2 | All Maps | STV","players":null},{"server_id":5,"name":"Uncletopia | Frankfurt | 1 | All Maps","name_short":"frk-1","host":"frk-1.de.uncletopia.com","port":27015,"enabled":true,"region":"eu","cc":"de","latitude":50.110924,"longitude":8.682127,"reserved":0,"last_update":"0001-01-01T00:00:00Z","name_a2s":"Uncletopia | Frankfurt | 1 | All Maps","protocol":17,"map":"pl_upward","folder":"tf","game":"Team Fortress","app_id":440,"player_count":24,"max_players":24,"Bots":0,"server_type":"Dedicated","server_os":"Linux","password":true,"vac":true,"version":"7932396","steam_id":85568392924469989,"keywords":["nocrits","nodmgspread","payload","uncletopia"],"game_id":440,"stv_port":27016,"stv_name":"Uncletopia | Frankfurt | 1 | All Maps | STV","players":[{"user_id":286,"name":"Ratatatatatatouille","steam_id":76561198182267098,"connected_time":5140000000000,"state":"active","ping":90},{"user_id":51,"name":"す LightFlight し","steam_id":76561198079007530,"connected_time":19618000000000,"state":"active","ping":66},{"user_id":335,"name":"I sell exotic parrots","steam_id":76561199192434258,"connected_time":2082000000000,"state":"active","ping":77},{"user_id":318,"name":"็McTK","steam_id":76561199384193338,"connected_time":3242000000000,"state":"active","ping":58},{"user_id":301,"name":"I eat human babys","steam_id":76561199248584098,"connected_time":4133000000000,"state":"active","ping":93},{"user_id":278,"name":"Пися Толстый","steam_id":76561198172046813,"connected_time":5761000000000,"state":"active","ping":74},{"user_id":319,"name":"cister0","steam_id":76561198130195469,"connected_time":3218000000000,"state":"active","ping":77},{"user_id":349,"name":"Accident","steam_id":76561198037232641,"connected_time":254000000000,"state":"active","ping":75},{"user_id":341,"name":"Doriian","steam_id":76561198071438810,"connected_time":1643000000000,"state":"active","ping":76},{"user_id":342,"name":"vdl","steam_id":76561198044583116,"connected_time":1364000000000,"state":"active","ping":95},{"user_id":327,"name":"vadr","steam_id":76561198334528186,"connected_time":2613000000000,"state":"active","ping":58},{"user_id":287,"name":"I jazzed myself","steam_id":76561198203016603,"connected_time":5069000000000,"state":"active","ping":76},{"user_id":281,"name":"Dr. B.S. O'Dee","steam_id":76561198199978731,"connected_time":5700000000000,"state":"active","ping":75},{"user_id":343,"name":"[P-roc] Cmm Bert","steam_id":76561198016658674,"connected_time":1300000000000,"state":"active","ping":70},{"user_id":344,"name":"pakin157","steam_id":76561198035125667,"connected_time":1266000000000,"state":"active","ping":84},{"user_id":345,"name":"CollDragon","steam_id":76561198067534450,"connected_time":1230000000000,"state":"active","ping":140},{"user_id":346,"name":"calum92","steam_id":76561197992188760,"connected_time":506000000000,"state":"active","ping":80},{"user_id":316,"name":"Saltzpyre_Gaiming","steam_id":76561198295461185,"connected_time":3593000000000,"state":"active","ping":106},{"user_id":348,"name":"Cenni","steam_id":76561198236644024,"connected_time":291000000000,"state":"active","ping":54},{"user_id":347,"name":"DrExplosive","steam_id":76561198063678579,"connected_time":497000000000,"state":"active","ping":54},{"user_id":268,"name":"joachym","steam_id":76561198428579761,"connected_time":7022000000000,"state":"active","ping":63},{"user_id":313,"name":"Zerkath","steam_id":76561198040883286,"connected_time":3655000000000,"state":"active","ping":87},{"user_id":328,"name":"zeppa114","steam_id":76561198065192734,"connected_time":2592000000000,"state":"active","ping":68},{"user_id":299,"name":"modavak","steam_id":76561198946290908,"connected_time":4621000000000,"state":"active","ping":105}]},{"server_id":110,"name":"Uncletopia | Frankfurt | 2 | All Maps","name_short":"frk-2","host":"frk-1.de.uncletopia.com","port":27025,"enabled":true,"region":"eu","cc":"de","latitude":50.110924,"longitude":8.682127,"reserved":0,"last_update":"0001-01-01T00:00:00Z","name_a2s":"Uncletopia | Frankfurt | 2 | All Maps","protocol":17,"map":"koth_harvest_final","folder":"tf","game":"Team Fortress","app_id":440,"player_count":22,"max_players":24,"Bots":0,"server_type":"Dedicated","server_os":"Linux","password":true,"vac":true,"version":"7932396","steam_id":85568392924469990,"keywords":["cp","nocrits","nodmgspread","uncletopia"],"game_id":440,"stv_port":27026,"stv_name":"Uncletopia | Frankfurt | 2 | All Maps | STV","players":[{"user_id":328,"name":"The Green Uncle","steam_id":76561198257163156,"connected_time":996000000000,"state":"active","ping":60},{"user_id":325,"name":"えななん","steam_id":76561199427679148,"connected_time":1267000000000,"state":"active","ping":62},{"user_id":341,"name":":","steam_id":76561198093458326,"connected_time":37000000000,"state":"active","ping":53},{"user_id":296,"name":"Kiss Me On My Lips","steam_id":76561199487787306,"connected_time":3350000000000,"state":"active","ping":54},{"user_id":250,"name":"Filin_Fill","steam_id":76561198044037139,"connected_time":5962000000000,"state":"active","ping":87},{"user_id":334,"name":"Kover","steam_id":76561198041945279,"connected_time":768000000000,"state":"active","ping":136},{"user_id":323,"name":"justajem101","steam_id":76561199228510573,"connected_time":1405000000000,"state":"active","ping":82},{"user_id":329,"name":"trapperino di cinisello","steam_id":76561199199758759,"connected_time":995000000000,"state":"active","ping":59},{"user_id":330,"name":"Dagoth Ur","steam_id":76561198220232352,"connected_time":994000000000,"state":"active","ping":59},{"user_id":316,"name":"Gene Takovic","steam_id":76561198202990635,"connected_time":2063000000000,"state":"active","ping":60},{"user_id":340,"name":"skith","steam_id":76561198192190569,"connected_time":174000000000,"state":"active","ping":75},{"user_id":320,"name":"insanitY","steam_id":76561198055666742,"connected_time":1793000000000,"state":"active","ping":96},{"user_id":306,"name":"TonTon","steam_id":76561198145468895,"connected_time":2575000000000,"state":"active","ping":47},{"user_id":338,"name":"Comrade Doge","steam_id":76561198087157027,"connected_time":319000000000,"state":"active","ping":105},{"user_id":209,"name":"♛perry the platypus♛","steam_id":76561199379159771,"connected_time":9178000000000,"state":"active","ping":138},{"user_id":339,"name":"FastestDuckAlive","steam_id":76561198063138371,"connected_time":280000000000,"state":"active","ping":62},{"user_id":311,"name":"MooK","steam_id":76561198361784169,"connected_time":2438000000000,"state":"active","ping":69},{"user_id":324,"name":"Eme","steam_id":76561198171619442,"connected_time":1336000000000,"state":"active","ping":87},{"user_id":287,"name":"K'aax Itzam","steam_id":76561198044024509,"connected_time":4027000000000,"state":"active","ping":100},{"user_id":318,"name":"Penis Contortionist","steam_id":76561198073663784,"connected_time":1893000000000,"state":"active","ping":50},{"user_id":333,"name":"Creative","steam_id":76561198835034247,"connected_time":946000000000,"state":"active","ping":75},{"user_id":289,"name":"HwK!","steam_id":76561198287835588,"connected_time":4005000000000,"state":"active","ping":88}]},{"server_id":308,"name":"Uncletopia | Frankfurt | 3 | All Maps","name_short":"frk-3","host":"frk-1.de.uncletopia.com","port":27035,"enabled":true,"region":"eu","cc":"de","latitude":50.110924,"longitude":8.682127,"reserved":0,"last_update":"0001-01-01T00:00:00Z","name_a2s":"Uncletopia | Frankfurt | 3 | All Maps","protocol":17,"map":"pl_upward","folder":"tf","game":"Team Fortress","app_id":440,"player_count":24,"max_players":24,"Bots":0,"server_type":"Dedicated","server_os":"Linux","password":true,"vac":true,"version":"7932396","steam_id":85568392924504274,"keywords":["nocrits","nodmgspread","payload","uncletopia"],"game_id":440,"stv_port":27036,"stv_name":"Uncletopia | Frankfurt | 3 | All Maps | STV","players":[{"user_id":303,"name":"ossop","steam_id":76561198045271499,"connected_time":1184000000000,"state":"active","ping":71},{"user_id":275,"name":"Watermelon","steam_id":76561198078349914,"connected_time":2503000000000,"state":"active","ping":65},{"user_id":321,"name":"Umbro","steam_id":76561198087930438,"connected_time":324000000000,"state":"active","ping":75},{"user_id":320,"name":"Anadest","steam_id":76561198992528373,"connected_time":335000000000,"state":"active","ping":64},{"user_id":260,"name":"mob","steam_id":76561198099696876,"connected_time":3360000000000,"state":"active","ping":61},{"user_id":270,"name":"AverageName","steam_id":76561199114333959,"connected_time":2875000000000,"state":"active","ping":55},{"user_id":306,"name":"oh","steam_id":76561198805181599,"connected_time":1132000000000,"state":"active","ping":64},{"user_id":256,"name":"Max Power","steam_id":76561198019269089,"connected_time":3689000000000,"state":"active","ping":50},{"user_id":301,"name":"Numbe","steam_id":76561198269614930,"connected_time":1318000000000,"state":"active","ping":97},{"user_id":317,"name":"fat man","steam_id":76561199042470246,"connected_time":546000000000,"state":"active","ping":57},{"user_id":307,"name":"LOBZIK","steam_id":76561198114830120,"connected_time":1116000000000,"state":"active","ping":78},{"user_id":261,"name":"[CC]Nyafka","steam_id":76561198289878090,"connected_time":3360000000000,"state":"active","ping":119},{"user_id":283,"name":"iq drops","steam_id":76561198035795130,"connected_time":2329000000000,"state":"active","ping":63},{"user_id":308,"name":"swueuws","steam_id":76561198020716743,"connected_time":1112000000000,"state":"active","ping":50},{"user_id":319,"name":"ccardenaz29","steam_id":76561199430657783,"connected_time":497000000000,"state":"active","ping":150},{"user_id":277,"name":"cosmetical","steam_id":76561198444036574,"connected_time":2477000000000,"state":"active","ping":68},{"user_id":302,"name":"zWerTy69","steam_id":76561197995660453,"connected_time":1262000000000,"state":"active","ping":82},{"user_id":300,"name":"KnugenIV","steam_id":76561198127091993,"connected_time":1330000000000,"state":"active","ping":56},{"user_id":290,"name":"Leibeigener","steam_id":76561199275478305,"connected_time":2013000000000,"state":"active","ping":37},{"user_id":279,"name":"طالب ما عنده حياة","steam_id":76561199441131396,"connected_time":2438000000000,"state":"active","ping":136},{"user_id":291,"name":"Dry","steam_id":76561198027164095,"connected_time":2012000000000,"state":"active","ping":119},{"user_id":239,"name":"YuraGreek","steam_id":76561198050182252,"connected_time":4356000000000,"state":"active","ping":75},{"user_id":310,"name":"MixailSend","steam_id":76561198992531145,"connected_time":1069000000000,"state":"active","ping":92},{"user_id":318,"name":"Toyota AE86","steam_id":76561198984074413,"connected_time":525000000000,"state":"active","ping":73}]},{"server_id":309,"name":"Uncletopia | Frankfurt | 4 | All Maps","name_short":"frk-4","host":"frk-1.de.uncletopia.com","port":27045,"enabled":true,"region":"eu","cc":"de","latitude":50.110924,"longitude":8.682127,"reserved":0,"last_update":"0001-01-01T00:00:00Z","name_a2s":"Uncletopia | Frankfurt | 4 | All Maps","protocol":17,"map":"cp_dustbowl","folder":"tf","game":"Team Fortress","app_id":440,"player_count":18,"max_players":24,"Bots":0,"server_type":"Dedicated","server_os":"Linux","password":true,"vac":true,"version":"7932396","steam_id":85568392924504275,"keywords":["cp","nocrits","nodmgspread","uncletopia"],"game_id":440,"stv_port":27046,"stv_name":"Uncletopia | Frankfurt | 4 | All Maps | STV","players":[{"user_id":24,"name":"Malik794","steam_id":76561198967164437,"connected_time":682000000000,"state":"active","ping":107},{"user_id":14,"name":"the_Qcumber","steam_id":76561199152515819,"connected_time":1808000000000,"state":"active","ping":73},{"user_id":25,"name":"Spamton G Spamton","steam_id":76561198916276543,"connected_time":554000000000,"state":"active","ping":64},{"user_id":13,"name":"Jeffrey Harpen","steam_id":76561199073314677,"connected_time":2250000000000,"state":"active","ping":62},{"user_id":15,"name":"sunshine (he/him)","steam_id":76561198084597975,"connected_time":1781000000000,"state":"active","ping":67},{"user_id":16,"name":"The Funny Cat-Heaby","steam_id":76561198439978112,"connected_time":1431000000000,"state":"active","ping":112},{"user_id":21,"name":"MR.P","steam_id":76561199215384048,"connected_time":1184000000000,"state":"active","ping":211},{"user_id":18,"name":"Bullet magnet (FIN)","steam_id":76561197975715220,"connected_time":1373000000000,"state":"active","ping":81},{"user_id":19,"name":"Radegast the Brown","steam_id":76561198075489505,"connected_time":1335000000000,"state":"active","ping":59},{"user_id":22,"name":"Nickel","steam_id":76561199037745941,"connected_time":1127000000000,"state":"active","ping":128},{"user_id":26,"name":"Ponizio","steam_id":76561198980040878,"connected_time":546000000000,"state":"active","ping":76},{"user_id":31,"name":"Wujek Cacek","steam_id":76561198010267943,"connected_time":173000000000,"state":"active","ping":65},{"user_id":28,"name":"dakotztda","steam_id":76561198044189114,"connected_time":271000000000,"state":"active","ping":57},{"user_id":29,"name":"Leg dealer","steam_id":76561198805497603,"connected_time":263000000000,"state":"active","ping":220},{"user_id":30,"name":"Shelly1052","steam_id":76561199043551053,"connected_time":220000000000,"state":"active","ping":57},{"user_id":32,"name":"My Wife Beats Me","steam_id":76561198070137469,"connected_time":138000000000,"state":"active","ping":85},{"user_id":34,"name":"One-Face","steam_id":76561197999384826,"connected_time":3000000000,"state":"spawning","ping":128},{"user_id":35,"name":"CEO of homophobia","steam_id":76561198959502757,"connected_time":0,"state":"spawning","ping":51}]},{"server_id":310,"name":"Uncletopia | Frankfurt | 5 | All Maps","name_short":"frk-5","host":"frk-1.de.uncletopia.com","port":27055,"enabled":true,"region":"eu","cc":"de","latitude":50.110924,"longitude":8.682127,"reserved":0,"last_update":"0001-01-01T00:00:00Z","name_a2s":"Uncletopia | Frankfurt | 5 | All Maps","protocol":17,"map":"pl_snowycoast","folder":"tf","game":"Team Fortress","app_id":440,"player_count":18,"max_players":24,"Bots":0,"server_type":"Dedicated","server_os":"Linux","password":true,"vac":true,"version":"7932396","steam_id":85568392924504277,"keywords":["nocrits","nodmgspread","payload","uncletopia"],"game_id":440,"stv_port":27056,"stv_name":"Uncletopia | Frankfurt | 5 | All Maps | STV","players":[{"user_id":173,"name":"vadim_kotler","steam_id":76561199016634369,"connected_time":154000000000,"state":"active","ping":116},{"user_id":171,"name":"Tristan Tate","steam_id":76561198308490265,"connected_time":221000000000,"state":"active","ping":56},{"user_id":144,"name":"Minister of cocks","steam_id":76561198829740342,"connected_time":1626000000000,"state":"active","ping":86},{"user_id":76,"name":"ehehehehehhe","steam_id":76561198044502435,"connected_time":6017000000000,"state":"active","ping":85},{"user_id":135,"name":"Operunter","steam_id":76561198059937616,"connected_time":2434000000000,"state":"active","ping":68},{"user_id":119,"name":"mixxxa_french","steam_id":76561198085098243,"connected_time":3406000000000,"state":"active","ping":112},{"user_id":162,"name":"njits23","steam_id":76561198031194977,"connected_time":479000000000,"state":"active","ping":60},{"user_id":142,"name":"WICKED BARSIK","steam_id":76561198120927230,"connected_time":1686000000000,"state":"active","ping":113},{"user_id":127,"name":"Nyhde","steam_id":76561198012771416,"connected_time":3106000000000,"state":"active","ping":105},{"user_id":141,"name":"XPullaHiiri","steam_id":76561198031652375,"connected_time":1753000000000,"state":"active","ping":91},{"user_id":172,"name":"Kocham Wode z Filtra","steam_id":76561198016042113,"connected_time":218000000000,"state":"active","ping":80},{"user_id":140,"name":"SoupER","steam_id":76561198063056668,"connected_time":2022000000000,"state":"active","ping":58},{"user_id":124,"name":"eva.","steam_id":76561198054474684,"connected_time":3317000000000,"state":"active","ping":77},{"user_id":148,"name":"Impressive Knight of Stirling","steam_id":76561197992844841,"connected_time":1533000000000,"state":"active","ping":49},{"user_id":165,"name":"dafydd","steam_id":76561198052200325,"connected_time":384000000000,"state":"active","ping":76},{"user_id":153,"name":"Zegon (Limited Edition)","steam_id":76561198196418618,"connected_time":1433000000000,"state":"active","ping":48},{"user_id":115,"name":"Hexagon","steam_id":76561198151205758,"connected_time":3768000000000,"state":"active","ping":47},{"user_id":167,"name":"Chief Executive Officer of Sex","steam_id":76561198385989487,"connected_time":306000000000,"state":"active","ping":126}]},{"server_id":311,"name":"Uncletopia | Frankfurt | 6 | All Maps","name_short":"frk-6","host":"frk-1.de.uncletopia.com","port":27065,"enabled":true,"region":"eu","cc":"de","latitude":50.110924,"longitude":8.682127,"reserved":0,"last_update":"0001-01-01T00:00:00Z","name_a2s":"Uncletopia | Frankfurt | 6 | All Maps","protocol":17,"map":"koth_highpass","folder":"tf","game":"Team Fortress","app_id":440,"player_count":0,"max_players":24,"Bots":0,"server_type":"Dedicated","server_os":"Linux","password":true,"vac":true,"version":"7932396","steam_id":85568392924504278,"keywords":["cp","nocrits","nodmgspread","uncletopia"],"game_id":440,"stv_port":27066,"stv_name":"Uncletopia | Frankfurt | 6 | All Maps | STV","players":null},{"server_id":23,"name":"Uncletopia | Frankfurt | 7 | Stopwatch Beta","name_short":"frk-7","host":"frk-1.de.uncletopia.com","port":27075,"enabled":true,"region":"eu","cc":"de","latitude":50.110924,"longitude":8.682127,"reserved":0,"last_update":"0001-01-01T00:00:00Z","name_a2s":"Uncletopia | Frankfurt | 7 | Stopwatch Beta","protocol":17,"map":"cp_snakewater_final1","folder":"tf","game":"Team Fortress","app_id":440,"player_count":0,"max_players":24,"Bots":0,"server_type":"Dedicated","server_os":"Linux","password":true,"vac":true,"version":"7932396","steam_id":85568392924742827,"keywords":["cp","nocrits","nodmgspread","uncletopia"],"game_id":440,"stv_port":27076,"stv_name":"Uncletopia | Frankfurt | 7 | Stopwatch Beta | STV","players":null},{"server_id":24,"name":"Uncletopia | Frankfurt | 8 | Community","name_short":"frk-8","host":"frk-1.de.uncletopia.com","port":27085,"enabled":true,"region":"eu","cc":"de","latitude":50.110924,"longitude":8.682127,"reserved":0,"last_update":"0001-01-01T00:00:00Z","name_a2s":"Uncletopia | Frankfurt | 8 | Community","protocol":17,"map":"workshop/koth_slaughter_rc1.ugc1712845210","folder":"tf","game":"Team Fortress","app_id":440,"player_count":0,"max_players":24,"Bots":0,"server_type":"Dedicated","server_os":"Linux","password":true,"vac":true,"version":"7932396","steam_id":85568392924742828,"keywords":["cp","nocrits","nodmgspread","uncletopia"],"game_id":440,"stv_port":27086,"stv_name":"Uncletopia | Frankfurt | 8 | Community | STV","players":null},{"server_id":202,"name":"Uncletopia | Hong Kong | 1 | All Maps","name_short":"hgk-1","host":"hgk-1.hk.uncletopia.com","port":27015,"enabled":true,"region":"asia","cc":"hk","latitude":22.302711,"longitude":114.177216,"reserved":0,"last_update":"0001-01-01T00:00:00Z","name_a2s":"Uncletopia | Hong Kong | 1 | All Maps","protocol":17,"map":"pl_swiftwater_final1","folder":"tf","game":"Team Fortress","app_id":440,"player_count":19,"max_players":24,"Bots":0,"server_type":"Dedicated","server_os":"Linux","password":true,"vac":true,"version":"7932396","steam_id":85568392924494504,"keywords":["nocrits","nodmgspread","payload","uncletopia"],"game_id":440,"stv_port":27016,"stv_name":"Uncletopia | Hong Kong | 1 | All Maps | STV","players":[{"user_id":348,"name":"KHMaster","steam_id":76561199198453345,"connected_time":349000000000,"state":"active","ping":79},{"user_id":311,"name":"p1st0n","steam_id":76561198992723983,"connected_time":3721000000000,"state":"active","ping":97},{"user_id":231,"name":"tiden2000","steam_id":76561198092969425,"connected_time":10731000000000,"state":"active","ping":99},{"user_id":342,"name":"Nulifye","steam_id":76561199004775558,"connected_time":901000000000,"state":"active","ping":98},{"user_id":349,"name":"17","steam_id":76561198241530712,"connected_time":339000000000,"state":"active","ping":47},{"user_id":317,"name":"val | hotel wifi gaming","steam_id":76561198981897135,"connected_time":3031000000000,"state":"active","ping":135},{"user_id":335,"name":"Battery","steam_id":76561198004583032,"connected_time":1598000000000,"state":"active","ping":90},{"user_id":302,"name":"Seiko Shinohara.png","steam_id":76561198089493039,"connected_time":4108000000000,"state":"active","ping":92},{"user_id":337,"name":"NOPE","steam_id":76561199244543572,"connected_time":1456000000000,"state":"active","ping":64},{"user_id":318,"name":"PapaFranku69","steam_id":76561199446266814,"connected_time":2931000000000,"state":"active","ping":93},{"user_id":285,"name":"UZ","steam_id":76561198179320563,"connected_time":5708000000000,"state":"active","ping":82},{"user_id":340,"name":"Stupid B","steam_id":76561198131423270,"connected_time":1314000000000,"state":"active","ping":119},{"user_id":334,"name":"얍","steam_id":76561198190485757,"connected_time":1813000000000,"state":"active","ping":85},{"user_id":258,"name":"쿠키","steam_id":76561197997220367,"connected_time":9543000000000,"state":"active","ping":48},{"user_id":194,"name":"ArcticDolphin","steam_id":76561198203626319,"connected_time":13553000000000,"state":"active","ping":148},{"user_id":328,"name":"P","steam_id":76561198304514505,"connected_time":2385000000000,"state":"active","ping":74},{"user_id":331,"name":"no_op","steam_id":76561197967217488,"connected_time":2159000000000,"state":"active","ping":89},{"user_id":332,"name":"screamer","steam_id":76561198147950041,"connected_time":2142000000000,"state":"active","ping":78},{"user_id":275,"name":"母の肉団子@hao123.com","steam_id":76561198069561896,"connected_time":6712000000000,"state":"active","ping":34}]},{"server_id":1,"name":"Uncletopia | Los Angeles | 1 | All Maps","name_short":"lax-1","host":"lax-1.us.uncletopia.com","port":27015,"enabled":true,"region":"us-west","cc":"us","latitude":33.94279,"longitude":-118.41004,"reserved":0,"last_update":"0001-01-01T00:00:00Z","name_a2s":"Uncletopia | Los Angeles | 1 | All Maps","protocol":17,"map":"cp_sunshine","folder":"tf","game":"Team Fortress","app_id":440,"player_count":0,"max_players":24,"Bots":0,"server_type":"Dedicated","server_os":"Linux","password":true,"vac":true,"version":"7932396","steam_id":85568392924469991,"keywords":["cp","nocrits","nodmgspread","uncletopia"],"game_id":440,"stv_port":27016,"stv_name":"Uncletopia | Los Angeles | 1 | All Maps | STV","players":null},{"server_id":112,"name":"Uncletopia | Los Angeles | 2 | All Maps","name_short":"lax-2","host":"lax-1.us.uncletopia.com","port":27025,"enabled":true,"region":"us-west","cc":"us","latitude":33.94279,"longitude":-118.41004,"reserved":0,"last_update":"0001-01-01T00:00:00Z","name_a2s":"Uncletopia | Los Angeles | 2 | All Maps","protocol":17,"map":"cp_dustbowl","folder":"tf","game":"Team Fortress","app_id":440,"player_count":0,"max_players":24,"Bots":0,"server_type":"Dedicated","server_os":"Linux","password":true,"vac":true,"version":"7932396","steam_id":85568392924469992,"keywords":["cp","nocrits","nodmgspread","uncletopia"],"game_id":440,"stv_port":27026,"stv_name":"Uncletopia | Los Angeles | 2 | All Maps | STV","players":null},{"server_id":324,"name":"Uncletopia | Los Angeles | 3 | All Maps","name_short":"lax-3","host":"lax-1.us.uncletopia.com","port":27035,"enabled":true,"region":"us-west","cc":"us","latitude":33.94279,"longitude":-118.41004,"reserved":0,"last_update":"0001-01-01T00:00:00Z","name_a2s":"Uncletopia | Los Angeles | 3 | All Maps","protocol":17,"map":"koth_cascade","folder":"tf","game":"Team Fortress","app_id":440,"player_count":0,"max_players":24,"Bots":0,"server_type":"Dedicated","server_os":"Linux","password":true,"vac":true,"version":"7932396","steam_id":85568392924510198,"keywords":["cp","nocrits","nodmgspread","uncletopia"],"game_id":440,"stv_port":27036,"stv_name":"Uncletopia | Los Angeles | 3 | All Maps | STV","players":null},{"server_id":25,"name":"Uncletopia | Los Angeles | 4 | Stopwatch Beta","name_short":"lax-4","host":"lax-1.us.uncletopia.com","port":27045,"enabled":true,"region":"us-west","cc":"us","latitude":33.94279,"longitude":-118.41004,"reserved":0,"last_update":"0001-01-01T00:00:00Z","name_a2s":"Uncletopia | Los Angeles | 4 | Stopwatch Beta","protocol":17,"map":"koth_viaduct","folder":"tf","game":"Team Fortress","app_id":440,"player_count":0,"max_players":24,"Bots":0,"server_type":"Dedicated","server_os":"Linux","password":true,"vac":true,"version":"7932396","steam_id":85568392924510199,"keywords":["cp","nocrits","nodmgspread","uncletopia"],"game_id":440,"stv_port":27046,"stv_name":"Uncletopia | Los Angeles | 4 | Stopwatch Beta | STV","players":null},{"server_id":11,"name":"Uncletopia | London | 1 | All Maps","name_short":"lon-1","host":"lon-1.uk.uncletopia.com","port":27015,"enabled":true,"region":"eu","cc":"gb","latitude":51.509865,"longitude":-0.118092,"reserved":0,"last_update":"0001-01-01T00:00:00Z","name_a2s":"Uncletopia | London | 1 | All Maps","protocol":17,"map":"koth_viaduct","folder":"tf","game":"Team Fortress","app_id":440,"player_count":23,"max_players":24,"Bots":0,"server_type":"Dedicated","server_os":"Linux","password":true,"vac":true,"version":"7932396","steam_id":85568392924367362,"keywords":["cp","nocrits","nodmgspread","uncletopia"],"game_id":440,"stv_port":27016,"stv_name":"Uncletopia | London | 1 | All Maps | STV","players":[{"user_id":300,"name":"Vital","steam_id":76561198062052388,"connected_time":1892000000000,"state":"active","ping":59},{"user_id":324,"name":"Monsieur Patate","steam_id":76561198073950004,"connected_time":396000000000,"state":"active","ping":39},{"user_id":312,"name":"Milk","steam_id":76561198125876588,"connected_time":750000000000,"state":"active","ping":39},{"user_id":311,"name":"silicon based life form","steam_id":76561199127121346,"connected_time":1012000000000,"state":"active","ping":51},{"user_id":194,"name":"Grander","steam_id":76561198011492179,"connected_time":10682000000000,"state":"active","ping":97},{"user_id":317,"name":"thebananabomb00","steam_id":76561198296409283,"connected_time":654000000000,"state":"active","ping":85},{"user_id":325,"name":"Lario","steam_id":76561198121286517,"connected_time":370000000000,"state":"active","ping":30},{"user_id":321,"name":"MondoDong","steam_id":76561197991400109,"connected_time":589000000000,"state":"active","ping":128},{"user_id":319,"name":"Sabesaroo","steam_id":76561198098751074,"connected_time":635000000000,"state":"active","ping":45},{"user_id":301,"name":"Saturn","steam_id":76561198062878645,"connected_time":1885000000000,"state":"active","ping":95},{"user_id":315,"name":"le unfunny dog","steam_id":76561198415020571,"connected_time":676000000000,"state":"active","ping":75},{"user_id":320,"name":"TomNoSocks","steam_id":76561198114071046,"connected_time":624000000000,"state":"active","ping":58},{"user_id":296,"name":"The Skeleton","steam_id":76561198173218318,"connected_time":2108000000000,"state":"active","ping":44},{"user_id":329,"name":"Prome","steam_id":76561199050383942,"connected_time":150000000000,"state":"active","ping":55},{"user_id":304,"name":"lego_taxi7","steam_id":76561198807233328,"connected_time":1871000000000,"state":"active","ping":64},{"user_id":272,"name":"Sixie","steam_id":76561198251675360,"connected_time":3801000000000,"state":"active","ping":51},{"user_id":330,"name":"Eujekas","steam_id":76561198010527145,"connected_time":141000000000,"state":"active","ping":105},{"user_id":305,"name":"Sim","steam_id":76561198086641180,"connected_time":1871000000000,"state":"active","ping":86},{"user_id":291,"name":"Sham!","steam_id":76561198050434275,"connected_time":2584000000000,"state":"active","ping":59},{"user_id":316,"name":"ShIpDI De Tartle","steam_id":76561198033099511,"connected_time":674000000000,"state":"active","ping":84},{"user_id":331,"name":"Sarah Obama Michella","steam_id":76561198078996559,"connected_time":132000000000,"state":"active","ping":86},{"user_id":332,"name":"Ferlo","steam_id":76561198095561504,"connected_time":110000000000,"state":"active","ping":59},{"user_id":310,"name":"OliTheRockHardCockJohnson","steam_id":76561198251293288,"connected_time":1091000000000,"state":"active","ping":79}]},{"server_id":114,"name":"Uncletopia | London | 2 | All Maps","name_short":"lon-2","host":"lon-1.uk.uncletopia.com","port":27025,"enabled":true,"region":"eu","cc":"gb","latitude":51.509865,"longitude":-0.118092,"reserved":0,"last_update":"0001-01-01T00:00:00Z","name_a2s":"Uncletopia | London | 2 | All Maps","protocol":17,"map":"pl_snowycoast","folder":"tf","game":"Team Fortress","app_id":440,"player_count":7,"max_players":24,"Bots":0,"server_type":"Dedicated","server_os":"Linux","password":true,"vac":true,"version":"7932396","steam_id":85568392924470941,"keywords":["nocrits","nodmgspread","payload","uncletopia"],"game_id":440,"stv_port":27026,"stv_name":"Uncletopia | London | 2 | All Maps | STV","players":[{"user_id":12,"name":"Microwave_Man","steam_id":76561198981460724,"connected_time":1927000000000,"state":"active","ping":52},{"user_id":13,"name":"Soaya","steam_id":76561199101510855,"connected_time":1588000000000,"state":"active","ping":45},{"user_id":16,"name":"wide appreciator","steam_id":76561198083286511,"connected_time":1262000000000,"state":"active","ping":32},{"user_id":19,"name":"error666alpha","steam_id":76561199380336197,"connected_time":686000000000,"state":"active","ping":218},{"user_id":20,"name":"funky meatloaf","steam_id":76561199135835032,"connected_time":512000000000,"state":"active","ping":99},{"user_id":21,"name":"Gaem Geck","steam_id":76561198057966907,"connected_time":36000000000,"state":"active","ping":86},{"user_id":23,"name":"Avitz","steam_id":76561197986150359,"connected_time":4000000000,"state":"spawning","ping":33}]},{"server_id":320,"name":"Uncletopia | London | 3 | All Maps","name_short":"lon-3","host":"lon-1.uk.uncletopia.com","port":27035,"enabled":true,"region":"eu","cc":"gb","latitude":51.509865,"longitude":-0.118092,"reserved":0,"last_update":"0001-01-01T00:00:00Z","name_a2s":"Uncletopia | London | 3 | All Maps","protocol":17,"map":"pl_barnblitz","folder":"tf","game":"Team Fortress","app_id":440,"player_count":23,"max_players":24,"Bots":0,"server_type":"Dedicated","server_os":"Linux","password":true,"vac":true,"version":"7932396","steam_id":85568392924510192,"keywords":["nocrits","nodmgspread","payload","uncletopia"],"game_id":440,"stv_port":27036,"stv_name":"Uncletopia | London | 3 | All Maps | STV","players":[{"user_id":81,"name":"maakgis","steam_id":76561198851703804,"connected_time":6083000000000,"state":"active","ping":146},{"user_id":44,"name":"GhostJuice","steam_id":76561198164087698,"connected_time":8121000000000,"state":"active","ping":87},{"user_id":135,"name":"Purplenoogie","steam_id":76561198081872160,"connected_time":2160000000000,"state":"active","ping":36},{"user_id":146,"name":"Soerlssoelssöen","steam_id":76561197993060585,"connected_time":1055000000000,"state":"active","ping":78},{"user_id":157,"name":"Bread","steam_id":76561198145232617,"connected_time":221000000000,"state":"active","ping":39},{"user_id":145,"name":"Cars","steam_id":76561198173329977,"connected_time":1510000000000,"state":"active","ping":48},{"user_id":159,"name":"flr","steam_id":76561198249327786,"connected_time":147000000000,"state":"active","ping":62},{"user_id":85,"name":"Houlles","steam_id":76561198095277383,"connected_time":5864000000000,"state":"active","ping":50},{"user_id":148,"name":"on1on (scrambled)","steam_id":76561197995304137,"connected_time":1030000000000,"state":"active","ping":75},{"user_id":142,"name":"Bari Sex","steam_id":76561199077027954,"connected_time":1893000000000,"state":"active","ping":152},{"user_id":91,"name":"beurgeur","steam_id":76561198872426314,"connected_time":5042000000000,"state":"active","ping":37},{"user_id":151,"name":"Munibe","steam_id":76561198107967904,"connected_time":946000000000,"state":"active","ping":65},{"user_id":158,"name":"Darakrish","steam_id":76561198133126686,"connected_time":213000000000,"state":"active","ping":151},{"user_id":46,"name":"john fortress","steam_id":76561198013237629,"connected_time":8118000000000,"state":"active","ping":93},{"user_id":150,"name":"Chambersite","steam_id":76561198197022399,"connected_time":974000000000,"state":"active","ping":75},{"user_id":156,"name":"minitel","steam_id":76561198056336216,"connected_time":298000000000,"state":"active","ping":50},{"user_id":153,"name":"Dog ?","steam_id":76561198347020945,"connected_time":789000000000,"state":"active","ping":93},{"user_id":141,"name":"Girlboy Theenie","steam_id":76561198029025500,"connected_time":2025000000000,"state":"active","ping":59},{"user_id":155,"name":"Cosmetic brain","steam_id":76561198055936410,"connected_time":637000000000,"state":"active","ping":87},{"user_id":79,"name":"NO end to POOTIS","steam_id":76561198144879361,"connected_time":6352000000000,"state":"active","ping":117},{"user_id":89,"name":"Suspicious Cabin","steam_id":76561198083261198,"connected_time":5425000000000,"state":"active","ping":55},{"user_id":131,"name":"Irony","steam_id":76561198275161347,"connected_time":2688000000000,"state":"active","ping":130},{"user_id":154,"name":"conk creat","steam_id":76561198083122882,"connected_time":772000000000,"state":"active","ping":33}]},{"server_id":321,"name":"Uncletopia | London | 4 | All Maps","name_short":"lon-4","host":"lon-1.uk.uncletopia.com","port":27045,"enabled":true,"region":"eu","cc":"gb","latitude":51.509865,"longitude":-0.118092,"reserved":0,"last_update":"0001-01-01T00:00:00Z","name_a2s":"Uncletopia | London | 4 | All Maps","protocol":17,"map":"pl_swiftwater_final1","folder":"tf","game":"Team Fortress","app_id":440,"player_count":0,"max_players":24,"Bots":0,"server_type":"Dedicated","server_os":"Linux","password":true,"vac":true,"version":"7932396","steam_id":85568392924510193,"keywords":["nocrits","nodmgspread","payload","uncletopia"],"game_id":440,"stv_port":27046,"stv_name":"Uncletopia | London | 4 | All Maps | STV","players":null},{"server_id":21,"name":"Uncletopia | London | 5 | All Maps","name_short":"lon-5","host":"lon-1.uk.uncletopia.com","port":27055,"enabled":true,"region":"eu","cc":"gb","latitude":51.509865,"longitude":-0.118092,"reserved":0,"last_update":"0001-01-01T00:00:00Z","name_a2s":"Uncletopia | London | 5 | All Maps","protocol":17,"map":"pl_upward","folder":"tf","game":"Team Fortress","app_id":440,"player_count":24,"max_players":24,"Bots":0,"server_type":"Dedicated","server_os":"Linux","password":true,"vac":true,"version":"7932396","steam_id":85568392924742829,"keywords":["nocrits","nodmgspread","payload","uncletopia"],"game_id":440,"stv_port":27056,"stv_name":"Uncletopia | London | 5 | All Maps | STV","players":[{"user_id":99,"name":"nimbus","steam_id":76561199049550830,"connected_time":256000000000,"state":"active","ping":105},{"user_id":47,"name":"TheMasterOfTheZaZa","steam_id":76561197994310420,"connected_time":4718000000000,"state":"active","ping":60},{"user_id":100,"name":"Lassie","steam_id":76561198131924713,"connected_time":243000000000,"state":"active","ping":54},{"user_id":23,"name":"ja","steam_id":76561199228540618,"connected_time":5771000000000,"state":"active","ping":70},{"user_id":91,"name":"Klunkerino","steam_id":76561197971081655,"connected_time":826000000000,"state":"active","ping":75},{"user_id":93,"name":"SpilledMilk","steam_id":76561198174123971,"connected_time":693000000000,"state":"active","ping":69},{"user_id":102,"name":"fence_","steam_id":76561198150386379,"connected_time":191000000000,"state":"active","ping":44},{"user_id":101,"name":"meatsoupcube","steam_id":76561198276802249,"connected_time":232000000000,"state":"active","ping":107},{"user_id":98,"name":"RXQ","steam_id":76561199423258992,"connected_time":414000000000,"state":"active","ping":172},{"user_id":85,"name":"♥aura♥","steam_id":76561198066258544,"connected_time":1035000000000,"state":"active","ping":61},{"user_id":27,"name":"clunk","steam_id":76561198836460767,"connected_time":5453000000000,"state":"active","ping":71},{"user_id":41,"name":"axalotly-gaming","steam_id":76561199131971501,"connected_time":5215000000000,"state":"active","ping":90},{"user_id":59,"name":"Zerfesh","steam_id":76561198117534358,"connected_time":3407000000000,"state":"active","ping":104},{"user_id":64,"name":"pyromaniac","steam_id":76561198292781255,"connected_time":2711000000000,"state":"active","ping":74},{"user_id":70,"name":"OhNoPhoton","steam_id":76561198119399146,"connected_time":2322000000000,"state":"active","ping":61},{"user_id":96,"name":"Sensei","steam_id":76561198383582429,"connected_time":547000000000,"state":"active","ping":93},{"user_id":83,"name":"Amy2Cute","steam_id":76561198291015553,"connected_time":1152000000000,"state":"active","ping":56},{"user_id":35,"name":"Beelzebeth","steam_id":76561198112544361,"connected_time":5336000000000,"state":"active","ping":44},{"user_id":92,"name":"Charfield","steam_id":76561198029346119,"connected_time":711000000000,"state":"active","ping":61},{"user_id":94,"name":"No | S | uS","steam_id":76561199195727551,"connected_time":622000000000,"state":"active","ping":49},{"user_id":95,"name":"SUPERH⚧T","steam_id":76561198140584050,"connected_time":587000000000,"state":"active","ping":111},{"user_id":97,"name":"PASTAMAN!!!","steam_id":76561198995641765,"connected_time":526000000000,"state":"active","ping":64},{"user_id":72,"name":"Z3TOT","steam_id":76561199053507787,"connected_time":2238000000000,"state":"active","ping":90},{"user_id":87,"name":"UnusedEngine","steam_id":76561199281868902,"connected_time":1023000000000,"state":"active","ping":54}]},{"server_id":22,"name":"Uncletopia | London | 6 | All Maps","name_short":"lon-6","host":"lon-1.uk.uncletopia.com","port":27065,"enabled":true,"region":"eu","cc":"gb","latitude":51.509865,"longitude":-0.118092,"reserved":0,"last_update":"0001-01-01T00:00:00Z","name_a2s":"Uncletopia | London | 6 | All Maps","protocol":17,"map":"cp_altitude","folder":"tf","game":"Team Fortress","app_id":440,"player_count":0,"max_players":24,"Bots":0,"server_type":"Dedicated","server_os":"Linux","password":true,"vac":true,"version":"7932396","steam_id":85568392924742830,"keywords":["cp","nocrits","nodmgspread","uncletopia"],"game_id":440,"stv_port":27066,"stv_name":"Uncletopia | London | 6 | All Maps | STV","players":null},{"server_id":40,"name":"Uncletopia | London | 7 | No Payload","name_short":"lon-7","host":"lon-1.uk.uncletopia.com","port":27075,"enabled":true,"region":"eu","cc":"gb","latitude":51.509865,"longitude":-0.118092,"reserved":0,"last_update":"0001-01-01T00:00:00Z","name_a2s":"Uncletopia | London | 7 | No Payload","protocol":17,"map":"cp_dustbowl","folder":"tf","game":"Team Fortress","app_id":440,"player_count":0,"max_players":24,"Bots":0,"server_type":"Dedicated","server_os":"Linux","password":true,"vac":true,"version":"7932396","steam_id":85568392924964314,"keywords":["cp","nocrits","nodmgspread","uncletopia"],"game_id":440,"stv_port":27076,"stv_name":"Uncletopia | London | 7 | No Payload | STV","players":null},{"server_id":41,"name":"Uncletopia | London | 8 | Community","name_short":"lon-8","host":"lon-1.uk.uncletopia.com","port":27085,"enabled":true,"region":"eu","cc":"gb","latitude":51.509865,"longitude":-0.118092,"reserved":0,"last_update":"0001-01-01T00:00:00Z","name_a2s":"Uncletopia | London | 8 | Community","protocol":17,"map":"workshop/cp_indulge.ugc528106646","folder":"tf","game":"Team Fortress","app_id":440,"player_count":0,"max_players":24,"Bots":0,"server_type":"Dedicated","server_os":"Linux","password":true,"vac":true,"version":"7932396","steam_id":85568392924964315,"keywords":["cp","nocrits","nodmgspread","uncletopia"],"game_id":440,"stv_port":27086,"stv_name":"Uncletopia | London | 8 | Community | STV","players":null},{"server_id":300,"name":"Uncletopia | Montréal | 1 | All Maps","name_short":"mtl-1","host":"mtl-1.ca.uncletopia.com","port":27015,"enabled":true,"region":"us-east","cc":"ca","latitude":45.50889,"longitude":-73.56167,"reserved":0,"last_update":"0001-01-01T00:00:00Z","name_a2s":"Uncletopia | Montréal | 1 | All Maps","protocol":17,"map":"pl_swiftwater_final1","folder":"tf","game":"Team Fortress","app_id":440,"player_count":0,"max_players":24,"Bots":0,"server_type":"Dedicated","server_os":"Linux","password":true,"vac":true,"version":"7932396","steam_id":85568392924500087,"keywords":["nocrits","nodmgspread","payload","uncletopia"],"game_id":440,"stv_port":27016,"stv_name":"Uncletopia | Montréal | 1 | All Maps | STV","players":null},{"server_id":301,"name":"Uncletopia | Montréal | 2 | All Maps","name_short":"mtl-2","host":"mtl-1.ca.uncletopia.com","port":27025,"enabled":true,"region":"us-east","cc":"ca","latitude":45.50889,"longitude":-73.56167,"reserved":0,"last_update":"0001-01-01T00:00:00Z","name_a2s":"Uncletopia | Montréal | 2 | All Maps","protocol":17,"map":"pl_upward","folder":"tf","game":"Team Fortress","app_id":440,"player_count":0,"max_players":24,"Bots":0,"server_type":"Dedicated","server_os":"Linux","password":true,"vac":true,"version":"7932396","steam_id":85568392924500088,"keywords":["nocrits","nodmgspread","payload","uncletopia"],"game_id":440,"stv_port":27026,"stv_name":"Uncletopia | Montréal | 2 | All Maps | STV","players":null},{"server_id":302,"name":"Uncletopia | Montréal | 3 | All Maps","name_short":"mtl-3","host":"mtl-1.ca.uncletopia.com","port":27035,"enabled":true,"region":"us-east","cc":"ca","latitude":45.50889,"longitude":-73.56167,"reserved":0,"last_update":"0001-01-01T00:00:00Z","name_a2s":"Uncletopia | Montréal | 3 | All Maps","protocol":17,"map":"cp_dustbowl","folder":"tf","game":"Team Fortress","app_id":440,"player_count":0,"max_players":24,"Bots":0,"server_type":"Dedicated","server_os":"Linux","password":true,"vac":true,"version":"7932396","steam_id":85568392924500089,"keywords":["cp","nocrits","nodmgspread","uncletopia"],"game_id":440,"stv_port":27036,"stv_name":"Uncletopia | Montréal | 3 | All Maps | STV","players":null},{"server_id":303,"name":"Uncletopia | Montréal | 4 | No Payload","name_short":"mtl-4","host":"mtl-1.ca.uncletopia.com","port":27045,"enabled":true,"region":"us-east","cc":"ca","latitude":45.50889,"longitude":-73.56167,"reserved":0,"last_update":"0001-01-01T00:00:00Z","name_a2s":"Uncletopia | Montréal | 4 | No Payload","protocol":17,"map":"cp_sunshine","folder":"tf","game":"Team Fortress","app_id":440,"player_count":0,"max_players":24,"Bots":0,"server_type":"Dedicated","server_os":"Linux","password":true,"vac":true,"version":"7932396","steam_id":85568392924500090,"keywords":["cp","nocrits","nodmgspread","uncletopia"],"game_id":440,"stv_port":27046,"stv_name":"Uncletopia | Montréal | 4 | No Payload | STV","players":null},{"server_id":13,"name":"Uncletopia | New York City | 1 | All Maps","name_short":"nyc-1","host":"nyc-1.us.uncletopia.com","port":27015,"enabled":true,"region":"us-east","cc":"us","latitude":40.73061,"longitude":-73.93524,"reserved":0,"last_update":"0001-01-01T00:00:00Z","name_a2s":"Uncletopia | New York City | 1 | All Maps","protocol":17,"map":"koth_lakeside_final","folder":"tf","game":"Team Fortress","app_id":440,"player_count":0,"max_players":24,"Bots":0,"server_type":"Dedicated","server_os":"Linux","password":true,"vac":true,"version":"7932396","steam_id":85568392924469993,"keywords":["cp","nocrits","nodmgspread","uncletopia"],"game_id":440,"stv_port":27016,"stv_name":"Uncletopia | New York City | 1 | All Maps | STV","players":null},{"server_id":14,"name":"Uncletopia | New York City | 2 | All Maps","name_short":"nyc-2","host":"nyc-1.us.uncletopia.com","port":27025,"enabled":true,"region":"us-east","cc":"us","latitude":40.73061,"longitude":-73.93524,"reserved":0,"last_update":"0001-01-01T00:00:00Z","name_a2s":"Uncletopia | New York City | 2 | All Maps","protocol":17,"map":"koth_cascade","folder":"tf","game":"Team Fortress","app_id":440,"player_count":0,"max_players":24,"Bots":0,"server_type":"Dedicated","server_os":"Linux","password":true,"vac":true,"version":"7932396","steam_id":85568392924469994,"keywords":["cp","nocrits","nodmgspread","uncletopia"],"game_id":440,"stv_port":27026,"stv_name":"Uncletopia | New York City | 2 | All Maps | STV","players":null},{"server_id":15,"name":"Uncletopia | New York City | 3 | Stopwatch Beta","name_short":"nyc-3","host":"nyc-1.us.uncletopia.com","port":27035,"enabled":true,"region":"us-east","cc":"us","latitude":40.73061,"longitude":-73.93524,"reserved":0,"last_update":"0001-01-01T00:00:00Z","name_a2s":"Uncletopia | New York City | 3 | Stopwatch Beta","protocol":17,"map":"pl_frontier_final","folder":"tf","game":"Team Fortress","app_id":440,"player_count":0,"max_players":24,"Bots":0,"server_type":"Dedicated","server_os":"Linux","password":true,"vac":true,"version":"7932396","steam_id":85568392924742820,"keywords":["nocrits","nodmgspread","payload","uncletopia"],"game_id":440,"stv_port":27036,"stv_name":"Uncletopia | New York City | 3 | Stopwatch Beta | STV","players":null},{"server_id":16,"name":"Uncletopia | New York City | 4 | Community","name_short":"nyc-4","host":"nyc-1.us.uncletopia.com","port":27045,"enabled":true,"region":"us-east","cc":"us","latitude":40.73061,"longitude":-73.93524,"reserved":0,"last_update":"0001-01-01T00:00:00Z","name_a2s":"Uncletopia | New York City | 4 | Community","protocol":17,"map":"koth_highpass","folder":"tf","game":"Team Fortress","app_id":440,"player_count":0,"max_players":24,"Bots":0,"server_type":"Dedicated","server_os":"Linux","password":true,"vac":true,"version":"7932396","steam_id":85568392924742821,"keywords":["cp","nocrits","nodmgspread","uncletopia"],"game_id":440,"stv_port":27046,"stv_name":"Uncletopia | New York City | 4 | Community | STV","players":null},{"server_id":142,"name":"Uncletopia | São Paulo | 1 | All Maps","name_short":"sao-1","host":"sao-1.br.uncletopia.com","port":27015,"enabled":true,"region":"sa","cc":"br","latitude":-23.533773,"longitude":-46.62529,"reserved":0,"last_update":"0001-01-01T00:00:00Z","name_a2s":"Uncletopia | São Paulo | 1 | All Maps","protocol":17,"map":"koth_highpass","folder":"tf","game":"Team Fortress","app_id":440,"player_count":0,"max_players":24,"Bots":0,"server_type":"Dedicated","server_os":"Linux","password":true,"vac":true,"version":"7932396","steam_id":85568392924469996,"keywords":["cp","nocrits","nodmgspread","uncletopia"],"game_id":440,"stv_port":27016,"stv_name":"Uncletopia | São Paulo | 1 | All Maps | STV","players":null},{"server_id":143,"name":"Uncletopia | São Paulo | 2 | All Maps","name_short":"sao-2","host":"sao-2.br.uncletopia.com","port":27015,"enabled":true,"region":"sa","cc":"br","latitude":-23.533773,"longitude":-46.62529,"reserved":0,"last_update":"0001-01-01T00:00:00Z","name_a2s":"Uncletopia | São Paulo | 2 | All Maps","protocol":17,"map":"pl_pier","folder":"tf","game":"Team Fortress","app_id":440,"player_count":0,"max_players":24,"Bots":0,"server_type":"Dedicated","server_os":"Linux","password":true,"vac":true,"version":"7932396","steam_id":85568392924485349,"keywords":["nocrits","nodmgspread","payload","uncletopia"],"game_id":440,"stv_port":27016,"stv_name":"Uncletopia | São Paulo | 2 | All Maps | STV","players":null},{"server_id":7,"name":"Uncletopia | Seattle | 1 | All Maps","name_short":"sea-1","host":"sea-1.us.uncletopia.com","port":27015,"enabled":true,"region":"us-west","cc":"us","latitude":47.608013,"longitude":-122.33517,"reserved":0,"last_update":"0001-01-01T00:00:00Z","name_a2s":"Uncletopia | Seattle | 1 | All Maps","protocol":17,"map":"koth_king","folder":"tf","game":"Team Fortress","app_id":440,"player_count":7,"max_players":24,"Bots":0,"server_type":"Dedicated","server_os":"Linux","password":true,"vac":true,"version":"7932396","steam_id":85568392924469997,"keywords":["cp","nocrits","nodmgspread","uncletopia"],"game_id":440,"stv_port":27016,"stv_name":"Uncletopia | Seattle | 1 | All Maps | STV","players":[{"user_id":17,"name":"reiidaya","steam_id":76561198325306660,"connected_time":1931000000000,"state":"active","ping":54},{"user_id":19,"name":"Ira","steam_id":76561198855586261,"connected_time":1840000000000,"state":"active","ping":72},{"user_id":21,"name":"BlazedBunny","steam_id":76561198243610560,"connected_time":693000000000,"state":"active","ping":70},{"user_id":24,"name":"DistantJragon","steam_id":76561198117563641,"connected_time":293000000000,"state":"active","ping":97},{"user_id":25,"name":"u know i keep","steam_id":76561198094615739,"connected_time":252000000000,"state":"active","ping":71},{"user_id":26,"name":"AudaCD","steam_id":76561198202775853,"connected_time":217000000000,"state":"active","ping":75},{"user_id":27,"name":"Themasterman75","steam_id":76561199385573293,"connected_time":30000000000,"state":"active","ping":78}]},{"server_id":119,"name":"Uncletopia | Seattle | 2 | All Maps","name_short":"sea-2","host":"sea-1.us.uncletopia.com","port":27025,"enabled":true,"region":"us-west","cc":"us","latitude":47.608013,"longitude":-122.33517,"reserved":0,"last_update":"0001-01-01T00:00:00Z","name_a2s":"Uncletopia | Seattle | 2 | All Maps","protocol":17,"map":"koth_highpass","folder":"tf","game":"Team Fortress","app_id":440,"player_count":0,"max_players":24,"Bots":0,"server_type":"Dedicated","server_os":"Linux","password":true,"vac":true,"version":"7932396","steam_id":85568392924469998,"keywords":["cp","nocrits","nodmgspread","uncletopia"],"game_id":440,"stv_port":27026,"stv_name":"Uncletopia | Seattle | 2 | All Maps | STV","players":null},{"server_id":406,"name":"Uncletopia | Seattle | 3 | Stopwatch Beta","name_short":"sea-3","host":"sea-1.us.uncletopia.com","port":27035,"enabled":true,"region":"us-west","cc":"us","latitude":47.608013,"longitude":-122.33517,"reserved":0,"last_update":"0001-01-01T00:00:00Z","name_a2s":"Uncletopia | Seattle | 3 | Stopwatch Beta","protocol":17,"map":"workshop/koth_bagel_rc6.ugc2514036946","folder":"tf","game":"Team Fortress","app_id":440,"player_count":0,"max_players":24,"Bots":0,"server_type":"Dedicated","server_os":"Linux","password":true,"vac":true,"version":"7932396","steam_id":85568392924515217,"keywords":["cp","nocrits","nodmgspread","uncletopia"],"game_id":440,"stv_port":27036,"stv_name":"Uncletopia | Seattle | 3 | Stopwatch Beta | STV","players":null},{"server_id":17,"name":"Uncletopia | San Francisco | 1 | All Maps","name_short":"sfo-1","host":"sfo-1.us.uncletopia.com","port":27015,"enabled":true,"region":"us-west","cc":"us","latitude":37.77397,"longitude":-122.4313,"reserved":0,"last_update":"0001-01-01T00:00:00Z","name_a2s":"Uncletopia | San Francisco | 1 | All Maps","protocol":17,"map":"pl_swiftwater_final1","folder":"tf","game":"Team Fortress","app_id":440,"player_count":0,"max_players":24,"Bots":0,"server_type":"Dedicated","server_os":"Linux","password":true,"vac":true,"version":"7932396","steam_id":85568392924469999,"keywords":["nocrits","nodmgspread","payload","uncletopia"],"game_id":440,"stv_port":27016,"stv_name":"Uncletopia | San Francisco | 1 | All Maps | STV","players":null},{"server_id":18,"name":"Uncletopia | San Francisco | 2 | All Maps","name_short":"sfo-2","host":"sfo-1.us.uncletopia.com","port":27025,"enabled":true,"region":"us-west","cc":"us","latitude":37.77397,"longitude":-122.4313,"reserved":0,"last_update":"0001-01-01T00:00:00Z","name_a2s":"Uncletopia | San Francisco | 2 | All Maps","protocol":17,"map":"cp_snakewater_final1","folder":"tf","game":"Team Fortress","app_id":440,"player_count":0,"max_players":24,"Bots":0,"server_type":"Dedicated","server_os":"Linux","password":true,"vac":true,"version":"7932396","steam_id":85568392924470000,"keywords":["cp","nocrits","nodmgspread","uncletopia"],"game_id":440,"stv_port":27026,"stv_name":"Uncletopia | San Francisco | 2 | All Maps | STV","players":null},{"server_id":19,"name":"Uncletopia | San Francisco | 3 | Stopwatch Beta","name_short":"sfo-3","host":"sfo-1.us.uncletopia.com","port":27035,"enabled":true,"region":"us-west","cc":"us","latitude":37.77397,"longitude":-122.4313,"reserved":0,"last_update":"0001-01-01T00:00:00Z","name_a2s":"Uncletopia | San Francisco | 3 | Stopwatch Beta","protocol":17,"map":"cp_dustbowl","folder":"tf","game":"Team Fortress","app_id":440,"player_count":0,"max_players":24,"Bots":0,"server_type":"Dedicated","server_os":"Linux","password":true,"vac":true,"version":"7932396","steam_id":85568392924742824,"keywords":["cp","nocrits","nodmgspread","uncletopia"],"game_id":440,"stv_port":27036,"stv_name":"Uncletopia | San Francisco | 3 | Stopwatch Beta | STV","players":null},{"server_id":20,"name":"Uncletopia | San Francisco | 4 | Community","name_short":"sfo-4","host":"sfo-1.us.uncletopia.com","port":27045,"enabled":true,"region":"us-west","cc":"us","latitude":37.77397,"longitude":-122.4313,"reserved":0,"last_update":"0001-01-01T00:00:00Z","name_a2s":"Uncletopia | San Francisco | 4 | Community","protocol":17,"map":"workshop/koth_ashville_final.ugc2130459942","folder":"tf","game":"Team Fortress","app_id":440,"player_count":0,"max_players":24,"Bots":0,"server_type":"Dedicated","server_os":"Linux","password":true,"vac":true,"version":"7932396","steam_id":85568392924742826,"keywords":["cp","nocrits","nodmgspread","uncletopia"],"game_id":440,"stv_port":27046,"stv_name":"Uncletopia | San Francisco | 4 | Community | STV","players":null},{"server_id":141,"name":"Uncletopia | Sydney | 1 | All Maps","name_short":"syd-1","host":"syd-1.au.uncletopia.com","port":27015,"enabled":true,"region":"au","cc":"au","latitude":-33.865143,"longitude":151.2099,"reserved":0,"last_update":"0001-01-01T00:00:00Z","name_a2s":"Uncletopia | Sydney | 1 | All Maps","protocol":17,"map":"koth_lakeside_final","folder":"tf","game":"Team Fortress","app_id":440,"player_count":0,"max_players":24,"Bots":0,"server_type":"Dedicated","server_os":"Linux","password":true,"vac":true,"version":"7932396","steam_id":85568392924470001,"keywords":["cp","nocrits","nodmgspread","uncletopia"],"game_id":440,"stv_port":27016,"stv_name":"Uncletopia | Sydney | 1 | All Maps | STV","players":null},{"server_id":123,"name":"Uncletopia | Sydney | 2 | All Maps","name_short":"syd-2","host":"syd-1.au.uncletopia.com","port":27025,"enabled":true,"region":"au","cc":"au","latitude":-33.865143,"longitude":151.2099,"reserved":0,"last_update":"0001-01-01T00:00:00Z","name_a2s":"Uncletopia | Sydney | 2 | All Maps","protocol":17,"map":"cp_snakewater_final1","folder":"tf","game":"Team Fortress","app_id":440,"player_count":0,"max_players":24,"Bots":0,"server_type":"Dedicated","server_os":"Linux","password":true,"vac":true,"version":"7932396","steam_id":85568392924470002,"keywords":["cp","nocrits","nodmgspread","uncletopia"],"game_id":440,"stv_port":27026,"stv_name":"Uncletopia | Sydney | 2 | All Maps | STV","players":null},{"server_id":395,"name":"Uncletopia | Sydney | 3 | All Maps","name_short":"syd-3","host":"syd-1.au.uncletopia.com","port":27035,"enabled":true,"region":"au","cc":"au","latitude":-33.865143,"longitude":151.2099,"reserved":0,"last_update":"0001-01-01T00:00:00Z","name_a2s":"Uncletopia | Sydney | 3 | All Maps","protocol":17,"map":"cp_snakewater_final1","folder":"tf","game":"Team Fortress","app_id":440,"player_count":0,"max_players":24,"Bots":0,"server_type":"Dedicated","server_os":"Linux","password":true,"vac":true,"version":"7932396","steam_id":85568392925194467,"keywords":["cp","nocrits","nodmgspread","uncletopia"],"game_id":440,"stv_port":27036,"stv_name":"Uncletopia | Sydney | 3 | All Maps | STV","players":null},{"server_id":396,"name":"Uncletopia | Sydney | 4 | All Maps","name_short":"syd-4","host":"syd-1.au.uncletopia.com","port":27045,"enabled":true,"region":"au","cc":"au","latitude":-33.865143,"longitude":151.2099,"reserved":0,"last_update":"0001-01-01T00:00:00Z","name_a2s":"Uncletopia | Sydney | 4 | All Maps","protocol":17,"map":"koth_lakeside_final","folder":"tf","game":"Team Fortress","app_id":440,"player_count":0,"max_players":24,"Bots":0,"server_type":"Dedicated","server_os":"Linux","password":true,"vac":true,"version":"7932396","steam_id":85568392925397958,"keywords":["cp","nocrits","nodmgspread","uncletopia"],"game_id":440,"stv_port":27046,"stv_name":"Uncletopia | Sydney | 4 | All Maps | STV","players":null},{"server_id":58,"name":"Uncletopia | Sydney | 5 | Stopwatch Beta","name_short":"syd-5","host":"syd-1.au.uncletopia.com","port":27055,"enabled":true,"region":"au","cc":"au","latitude":-33.865143,"longitude":151.2099,"reserved":0,"last_update":"0001-01-01T00:00:00Z","name_a2s":"Uncletopia | Sydney | 5 | Stopwatch Beta","protocol":17,"map":"workshop/koth_clearcut_b15.ugc2107050255","folder":"tf","game":"Team Fortress","app_id":440,"player_count":0,"max_players":24,"Bots":0,"server_type":"Dedicated","server_os":"Linux","password":true,"vac":true,"version":"7932396","steam_id":85568392925397959,"keywords":["cp","nocrits","nodmgspread","uncletopia"],"game_id":440,"stv_port":27056,"stv_name":"Uncletopia | Sydney | 5 | Stopwatch Beta | STV","players":null},{"server_id":59,"name":"Uncletopia | Sydney | 6 | Community","name_short":"syd-6","host":"syd-1.au.uncletopia.com","port":27065,"enabled":true,"region":"au","cc":"au","latitude":-33.865143,"longitude":151.2099,"reserved":0,"last_update":"0001-01-01T00:00:00Z","name_a2s":"Uncletopia | Sydney | 6 | Community","protocol":17,"map":"cp_altitude","folder":"tf","game":"Team Fortress","app_id":440,"player_count":0,"max_players":24,"Bots":0,"server_type":"Dedicated","server_os":"Linux","password":true,"vac":true,"version":"7932396","steam_id":85568392925397960,"keywords":["cp","nocrits","nodmgspread","uncletopia"],"game_id":440,"stv_port":27066,"stv_name":"Uncletopia | Sydney | 6 | Community | STV","players":null},{"server_id":49,"name":"Uncletopia | Warsaw | 1 | All Maps","name_short":"waw-1","host":"waw-1.pl.uncletopia.com","port":27015,"enabled":true,"region":"eu","cc":"pl","latitude":52.2297,"longitude":21.017532,"reserved":0,"last_update":"0001-01-01T00:00:00Z","name_a2s":"","protocol":0,"map":"","folder":"","game":"","app_id":0,"player_count":0,"max_players":0,"Bots":0,"server_type":"","server_os":"","password":false,"vac":false,"version":"","steam_id":0,"keywords":null,"game_id":0,"stv_port":0,"stv_name":"","players":null},{"server_id":50,"name":"Uncletopia | Warsaw | 2 | All Maps","name_short":"waw-2","host":"waw-1.pl.uncletopia.com","port":27025,"enabled":true,"region":"eu","cc":"pl","latitude":52.2297,"longitude":21.017532,"reserved":0,"last_update":"0001-01-01T00:00:00Z","name_a2s":"Uncletopia | Warsaw | 2 | All Maps","protocol":17,"map":"pl_borneo","folder":"tf","game":"Team Fortress","app_id":440,"player_count":0,"max_players":24,"Bots":0,"server_type":"Dedicated","server_os":"Linux","password":true,"vac":true,"version":"7932396","steam_id":85568392925397851,"keywords":["nocrits","nodmgspread","payload","uncletopia"],"game_id":440,"stv_port":27026,"stv_name":"Uncletopia | Warsaw | 2 | All Maps | STV","players":null},{"server_id":51,"name":"Uncletopia | Warsaw | 3 | All Maps","name_short":"waw-3","host":"waw-1.pl.uncletopia.com","port":27035,"enabled":true,"region":"eu","cc":"pl","latitude":52.2297,"longitude":21.017532,"reserved":0,"last_update":"0001-01-01T00:00:00Z","name_a2s":"Uncletopia | Warsaw | 3 | All Maps","protocol":17,"map":"pl_pier","folder":"tf","game":"Team Fortress","app_id":440,"player_count":0,"max_players":24,"Bots":0,"server_type":"Dedicated","server_os":"Linux","password":true,"vac":true,"version":"7932396","steam_id":85568392925397852,"keywords":["nocrits","nodmgspread","payload","uncletopia"],"game_id":440,"stv_port":27036,"stv_name":"Uncletopia | Warsaw | 3 | All Maps | STV","players":null},{"server_id":52,"name":"Uncletopia | Warsaw | 4 | All Maps","name_short":"waw-4","host":"waw-1.pl.uncletopia.com","port":27045,"enabled":true,"region":"eu","cc":"pl","latitude":52.2297,"longitude":21.017532,"reserved":0,"last_update":"0001-01-01T00:00:00Z","name_a2s":"Uncletopia | Warsaw | 4 | All Maps","protocol":17,"map":"koth_lakeside_final","folder":"tf","game":"Team Fortress","app_id":440,"player_count":0,"max_players":24,"Bots":0,"server_type":"Dedicated","server_os":"Linux","password":true,"vac":true,"version":"7932396","steam_id":85568392925397853,"keywords":["cp","nocrits","nodmgspread","uncletopia"],"game_id":440,"stv_port":27046,"stv_name":"Uncletopia | Warsaw | 4 | All Maps | STV","players":null},{"server_id":53,"name":"Uncletopia | Warsaw | 5 | Stopwatch Beta","name_short":"waw-5","host":"waw-1.pl.uncletopia.com","port":27055,"enabled":true,"region":"eu","cc":"pl","latitude":52.2297,"longitude":21.017532,"reserved":0,"last_update":"0001-01-01T00:00:00Z","name_a2s":"Uncletopia | Warsaw | 5 | Stopwatch Beta","protocol":17,"map":"koth_cascade","folder":"tf","game":"Team Fortress","app_id":440,"player_count":0,"max_players":24,"Bots":0,"server_type":"Dedicated","server_os":"Linux","password":true,"vac":true,"version":"7932396","steam_id":85568392925397854,"keywords":["cp","nocrits","nodmgspread","uncletopia"],"game_id":440,"stv_port":27056,"stv_name":"Uncletopia | Warsaw | 5 | Stopwatch Beta | STV","players":null},{"server_id":54,"name":"Uncletopia | Warsaw | 6 | Community","name_short":"waw-6","host":"waw-1.pl.uncletopia.com","port":27065,"enabled":true,"region":"eu","cc":"pl","latitude":52.2297,"longitude":21.017532,"reserved":0,"last_update":"0001-01-01T00:00:00Z","name_a2s":"Uncletopia | Warsaw | 6 | Community","protocol":17,"map":"pl_frontier_final","folder":"tf","game":"Team Fortress","app_id":440,"player_count":0,"max_players":24,"Bots":0,"server_type":"Dedicated","server_os":"Linux","password":true,"vac":true,"version":"7932396","steam_id":85568392925397856,"keywords":["nocrits","nodmgspread","payload","uncletopia"],"game_id":440,"stv_port":27066,"stv_name":"Uncletopia | Warsaw | 6 | Community | STV","players":null}]}