{"status":true,"message":"","result":[{"server_id":9,"name":"Uncletopia | Atlanta | 1 | All Maps","name_short":"atl-1","host":"atl-1.us.uncletopia.com","port":27015,"enabled":true,"region":"us-east","cc":"us","latitude":33.753746,"longitude":-84.38633,"reserved":0,"last_update":"0001-01-01T00:00:00Z","name_a2s":"Uncletopia | Atlanta | 1 | All Maps","protocol":17,"map":"pl_borneo","folder":"tf","game":"Team Fortress","app_id":440,"player_count":24,"max_players":24,"Bots":0,"server_type":"Dedicated","server_os":"Linux","password":true,"vac":true,"version":"7757534","steam_id":85568392924469982,"keywords":["nocrits","nodmgspread","payload","uncletopia"],"game_id":440,"stv_port":27016,"stv_name":"Uncletopia | Atlanta | 1 | All Maps | STV","players":[{"user_id":655,"name":"cass","steam_id":76561198074502046,"connected_time":1752000000000,"state":"active","ping":58},{"user_id":645,"name":"Gumit","steam_id":76561198208126512,"connected_time":2386000000000,"state":"active","ping":77},{"user_id":631,"name":"‚áå StriKeR ‚áã","steam_id":76561199389089862,"connected_time":3342000000000,"state":"active","ping":135},{"user_id":672,"name":"Mage","steam_id":76561198285026879,"connected_time":554000000000,"state":"active","ping":78},{"user_id":646,"name":"[Squiddy]","steam_id":76561198027757551,"connected_time":2219000000000,"state":"active","ping":101},{"user_id":657,"name":"Halcyon","steam_id":76561199103213955,"connected_time":1678000000000,"state":"active","ping":115},{"user_id":638,"name":"DistantJragon","steam_id":76561198117563641,"connected_time":2602000000000,"state":"active","ping":68},{"user_id":639,"name":"Blu Solo Cup","steam_id":76561198337725075,"connected_time":2600000000000,"state":"active","ping":89},{"user_id":647,"name":"W1CKEDY","steam_id":76561198353447602,"connected_time":2206000000000,"state":"active","ping":92},{"user_id":648,"name":"Abbashea","steam_id":76561199182136969,"connected_time":2168000000000,"state":"active","ping":102},{"user_id":654,"name":"Pizza Party","steam_id":76561198165730754,"connected_time":1776000000000,"state":"active","ping":71},{"user_id":649,"name":"seth","steam_id":76561198154531635,"connected_time":2067000000000,"state":"active","ping":74},{"user_id":667,"name":"RED1 | Le4n!!!","steam_id":76561198045522596,"connected_time":653000000000,"state":"active","ping":72},{"user_id":610,"name":"Albino Jellyfish","steam_id":76561198208561097,"connected_time":4995000000000,"state":"active","ping":67},{"user_id":669,"name":"yomo","steam_id":76561198063175935,"connected_time":616000000000,"state":"active","ping":56},{"user_id":670,"name":"Tesman James","steam_id":76561199093793428,"connected_time":604000000000,"state":"active","ping":78},{"user_id":653,"name":"Friggy","steam_id":76561198131467867,"connected_time":1816000000000,"state":"active","ping":91},{"user_id":658,"name":"vid_","steam_id":76561198065159053,"connected_time":1678000000000,"state":"active","ping":51},{"user_id":665,"name":"Bimbli","steam_id":76561198058948629,"connected_time":1127000000000,"state":"active","ping":85},{"user_id":671,"name":"Soggy","steam_id":76561198202751364,"connected_time":575000000000,"state":"active","ping":65},{"user_id":660,"name":"FemboyNate","steam_id":76561198146636410,"connected_time":1639000000000,"state":"active","ping":60},{"user_id":664,"name":"\u003e^\u003e","steam_id":76561199151398882,"connected_time":1502000000000,"state":"active","ping":111},{"user_id":662,"name":"JoFu2","steam_id":76561197968413118,"connected_time":1615000000000,"state":"active","ping":59},{"user_id":673,"name":"lightingd619","steam_id":76561198374758113,"connected_time":549000000000,"state":"active","ping":68}]},{"server_id":400,"name":"Uncletopia | Atlanta | 3 | Community","name_short":"atl-3","host":"atl-1.us.uncletopia.com","port":27035,"enabled":true,"region":"us-east","cc":"us","latitude":33.753746,"longitude":-84.38633,"reserved":0,"last_update":"0001-01-01T00:00:00Z","name_a2s":"Uncletopia | Atlanta | 3 | Community","protocol":17,"map":"workshop/koth_trenchfoot_b1a.ugc731436616","folder":"tf","game":"Team Fortress","app_id":440,"player_count":0,"max_players":32,"Bots":0,"server_type":"Dedicated","server_os":"Linux","password":true,"vac":true,"version":"7757534","steam_id":85568392924515187,"keywords":["cp","increased_maxplayers","nocrits","nodmgspread","uncletopia"],"game_id":440,"stv_port":27036,"stv_name":"Uncletopia | Atlanta | 3 | Community | STV","players":null},{"server_id":401,"name":"Uncletopia | Atlanta | 4 | No Payload","name_short":"atl-4","host":"atl-1.us.uncletopia.com","port":27045,"enabled":true,"region":"us-east","cc":"us","latitude":33.753746,"longitude":-84.38633,"reserved":0,"last_update":"0001-01-01T00:00:00Z","name_a2s":"","protocol":0,"map":"","folder":"","game":"","app_id":0,"player_count":0,"max_players":0,"Bots":0,"server_type":"","server_os":"","password":false,"vac":false,"version":"","steam_id":0,"keywords":null,"game_id":0,"stv_port":0,"stv_name":"","players":null},{"server_id":2,"name":"Uncletopia | Chicago | 1 | All Maps","name_short":"chi-1","host":"chi-1.us.uncletopia.com","port":27015,"enabled":true,"region":"us-central","cc":"us","latitude":41.881832,"longitude":-87.62318,"reserved":0,"last_update":"0001-01-01T00:00:00Z","name_a2s":"Uncletopia | Chicago | 1 | All Maps","protocol":17,"map":"pl_swiftwater_final1","folder":"tf","game":"Team Fortress","app_id":440,"player_count":22,"max_players":24,"Bots":0,"server_type":"Dedicated","server_os":"Linux","password":true,"vac":true,"version":"7757534","steam_id":85568392924469984,"keywords":["nocrits","nodmgspread","payload","uncletopia"],"game_id":440,"stv_port":27016,"stv_name":"Uncletopia | Chicago | 1 | All Maps | STV","players":[{"user_id":822,"name":"Kapitan Bomba","steam_id":76561199102087660,"connected_time":1737000000000,"state":"active","ping":68},{"user_id":828,"name":"drift","steam_id":76561198093781093,"connected_time":1012000000000,"state":"active","ping":52},{"user_id":838,"name":"Money Collector","steam_id":76561198046249467,"connected_time":82000000000,"state":"active","ping":50},{"user_id":802,"name":"king of bogers","steam_id":76561198045731295,"connected_time":3592000000000,"state":"active","ping":61},{"user_id":768,"name":"Kaluka","steam_id":76561198036861445,"connected_time":6250000000000,"state":"active","ping":68},{"user_id":799,"name":"K—îliŒ∑ ‚òÑ‚òÑ‚òÑ","steam_id":76561198025495912,"connected_time":3763000000000,"state":"active","ping":59},{"user_id":823,"name":"Phantom","steam_id":76561198434128945,"connected_time":1645000000000,"state":"active","ping":76},{"user_id":814,"name":"The Bravest of Warriors","steam_id":76561198048289242,"connected_time":2570000000000,"state":"active","ping":119},{"user_id":829,"name":"seats","steam_id":76561197998756039,"connected_time":995000000000,"state":"active","ping":103},{"user_id":818,"name":"boomerangutang","steam_id":76561198151407214,"connected_time":2031000000000,"state":"active","ping":61},{"user_id":831,"name":"Brendan","steam_id":76561198041079914,"connected_time":962000000000,"state":"active","ping":70},{"user_id":787,"name":"Delta_4K","steam_id":76561198878343222,"connected_time":4962000000000,"state":"active","ping":58},{"user_id":834,"name":"Gabinator32","steam_id":76561198872467183,"connected_time":833000000000,"state":"active","ping":49},{"user_id":816,"name":"Kero","steam_id":76561198343231436,"connected_time":2371000000000,"state":"active","ping":61},{"user_id":839,"name":"reni","steam_id":76561199192183787,"connected_time":30000000000,"state":"active","ping":105},{"user_id":811,"name":"mumbles","steam_id":76561197994528974,"connected_time":3037000000000,"state":"active","ping":129},{"user_id":833,"name":"JimboSlice","steam_id":76561199225336634,"connected_time":886000000000,"state":"active","ping":64},{"user_id":824,"name":"Z4lTte","steam_id":76561198283258068,"connected_time":1614000000000,"state":"active","ping":60},{"user_id":837,"name":"[chef] iron","steam_id":76561197970888616,"connected_time":691000000000,"state":"active","ping":46},{"user_id":835,"name":"Tones","steam_id":76561198039572032,"connected_time":748000000000,"state":"active","ping":61},{"user_id":819,"name":"Hindmost","steam_id":76561199081837220,"connected_time":1972000000000,"state":"active","ping":81},{"user_id":777,"name":"The Announcer's Feet","steam_id":76561199443456893,"connected_time":6121000000000,"state":"active","ping":100}]},{"server_id":106,"name":"Uncletopia | Chicago | 2 | All Maps","name_short":"chi-2","host":"chi-1.us.uncletopia.com","port":27025,"enabled":true,"region":"us-central","cc":"us","latitude":41.881832,"longitude":-87.62318,"reserved":0,"last_update":"0001-01-01T00:00:00Z","name_a2s":"Uncletopia | Chicago | 2 | All Maps","protocol":17,"map":"pl_pier","folder":"tf","game":"Team Fortress","app_id":440,"player_count":24,"max_players":24,"Bots":0,"server_type":"Dedicated","server_os":"Linux","password":true,"vac":true,"version":"7757534","steam_id":85568392924469985,"keywords":["nocrits","nodmgspread","payload","uncletopia"],"game_id":440,"stv_port":27026,"stv_name":"Uncletopia | Chicago | 2 | All Maps | STV","players":[{"user_id":967,"name":"Kubloo","steam_id":76561198067391168,"connected_time":286000000000,"state":"active","ping":63},{"user_id":926,"name":"DarthRevan","steam_id":76561198164492361,"connected_time":3567000000000,"state":"active","ping":65},{"user_id":931,"name":"A Puppy","steam_id":76561198828184456,"connected_time":2902000000000,"state":"active","ping":58},{"user_id":950,"name":"Seuzon","steam_id":76561198416448649,"connected_time":1271000000000,"state":"active","ping":176},{"user_id":907,"name":"RedSock","steam_id":76561198161243404,"connected_time":4280000000000,"state":"active","ping":32},{"user_id":956,"name":"Toxorhynchites","steam_id":76561198009389357,"connected_time":934000000000,"state":"active","ping":82},{"user_id":968,"name":"mommy","steam_id":76561198129195009,"connected_time":277000000000,"state":"active","ping":74},{"user_id":966,"name":"Reisen","steam_id":76561199174579733,"connected_time":312000000000,"state":"active","ping":76},{"user_id":935,"name":"ITSmeTOXIC","steam_id":76561199067764423,"connected_time":2816000000000,"state":"active","ping":77},{"user_id":913,"name":"leeeeeeeeeeeeeeeeeeeeeeeeeee","steam_id":76561199083322731,"connected_time":3845000000000,"state":"active","ping":90},{"user_id":957,"name":"jubb","steam_id":76561198186865526,"connected_time":920000000000,"state":"active","ping":114},{"user_id":917,"name":"Deathninja952","steam_id":76561199066489355,"connected_time":3789000000000,"state":"active","ping":87},{"user_id":954,"name":"Hernandez$","steam_id":76561198019324588,"connected_time":977000000000,"state":"active","ping":89},{"user_id":958,"name":"Ham","steam_id":76561198219857080,"connected_time":891000000000,"state":"active","ping":70},{"user_id":965,"name":"Mara Roo","steam_id":76561198279341789,"connected_time":586000000000,"state":"active","ping":73},{"user_id":960,"name":"Samplee","steam_id":76561198063406140,"connected_time":881000000000,"state":"active","ping":145},{"user_id":961,"name":"¬Æ","steam_id":76561198276258112,"connected_time":861000000000,"state":"active","ping":77},{"user_id":962,"name":"Omnospy","steam_id":76561198046937102,"connected_time":861000000000,"state":"active","ping":137},{"user_id":922,"name":"CakeCadaver","steam_id":76561198080388883,"connected_time":3700000000000,"state":"active","ping":99},{"user_id":884,"name":"leopardo123atl","steam_id":76561198872648238,"connected_time":5894000000000,"state":"active","ping":110},{"user_id":969,"name":"Jezzus","steam_id":76561199289676387,"connected_time":146000000000,"state":"active","ping":85},{"user_id":970,"name":"Don Pyro y sus Marihuanos","steam_id":76561199144020745,"connected_time":42000000000,"state":"active","ping":118},{"user_id":972,"name":"Nerpuge","steam_id":76561198032316546,"connected_time":1000000000,"state":"spawning","ping":61},{"user_id":964,"name":"j4miecl4rk","steam_id":76561198404312721,"connected_time":793000000000,"state":"active","ping":56}]},{"server_id":402,"name":"Uncletopia | Chicago | 3 | All Maps","name_short":"chi-3","host":"chi-1.us.uncletopia.com","port":27035,"enabled":true,"region":"us-central","cc":"us","latitude":41.881832,"longitude":-87.62318,"reserved":0,"last_update":"0001-01-01T00:00:00Z","name_a2s":"Uncletopia | Chicago | 3 | All Maps","protocol":17,"map":"koth_cascade","folder":"tf","game":"Team Fortress","app_id":440,"player_count":21,"max_players":24,"Bots":0,"server_type":"Dedicated","server_os":"Linux","password":true,"vac":true,"version":"7757534","steam_id":85568392924515191,"keywords":["cp","nocrits","nodmgspread","uncletopia"],"game_id":440,"stv_port":27036,"stv_name":"Uncletopia | Chicago | 3 | All Maps | STV","players":[{"user_id":643,"name":"SenTreats","steam_id":76561198085835841,"connected_time":3071000000000,"state":"active","ping":117},{"user_id":647,"name":"AJW701","steam_id":76561198965505907,"connected_time":2460000000000,"state":"active","ping":104},{"user_id":661,"name":"Stock Medic","steam_id":76561198065479730,"connected_time":20000000000,"state":"active","ping":42},{"user_id":652,"name":"Lilac","steam_id":76561198977523626,"connected_time":1418000000000,"state":"active","ping":67},{"user_id":607,"name":"chicken wit dah eggrow","steam_id":76561198115458307,"connected_time":4735000000000,"state":"active","ping":105},{"user_id":631,"name":"Fudge_Cake","steam_id":76561198059218167,"connected_time":3616000000000,"state":"active","ping":59},{"user_id":653,"name":"crayonnipple","steam_id":76561198070253331,"connected_time":1384000000000,"state":"active","ping":63},{"user_id":610,"name":"horny eyelander femboy","steam_id":76561198164986938,"connected_time":4710000000000,"state":"active","ping":62},{"user_id":650,"name":"Dot.","steam_id":76561198149463984,"connected_time":2118000000000,"state":"active","ping":46},{"user_id":654,"name":"Doug Dick Me Down","steam_id":76561198823249112,"connected_time":1384000000000,"state":"active","ping":77},{"user_id":632,"name":"Quaker Oats","steam_id":76561197992800293,"connected_time":3500000000000,"state":"active","ping":94},{"user_id":660,"name":"Macko","steam_id":76561198452005461,"connected_time":52000000000,"state":"active","ping":78},{"user_id":637,"name":"morbissey","steam_id":76561198072592880,"connected_time":3364000000000,"state":"active","ping":42},{"user_id":629,"name":"CandorDanceFloor","steam_id":76561198062980511,"connected_time":3967000000000,"state":"active","ping":66},{"user_id":655,"name":"rudy","steam_id":76561198088712799,"connected_time":1376000000000,"state":"active","ping":73},{"user_id":638,"name":"cornshot","steam_id":76561198043496387,"connected_time":3336000000000,"state":"active","ping":95},{"user_id":656,"name":"ilovelatinahead","steam_id":76561198081303855,"connected_time":1369000000000,"state":"active","ping":60},{"user_id":619,"name":"Candy Sparkles","steam_id":76561198126871264,"connected_time":4387000000000,"state":"active","ping":85},{"user_id":648,"name":"AmySuneku","steam_id":76561198205051269,"connected_time":2311000000000,"state":"active","ping":82},{"user_id":640,"name":"TimTam Tom","steam_id":76561198045988062,"connected_time":3321000000000,"state":"active","ping":77},{"user_id":657,"name":"Squid121","steam_id":76561198038832034,"connected_time":1350000000000,"state":"active","ping":105}]},{"server_id":403,"name":"Uncletopia | Chicago | 4 | All Maps","name_short":"chi-4","host":"chi-1.us.uncletopia.com","port":27045,"enabled":true,"region":"us-central","cc":"us","latitude":41.881832,"longitude":-87.62318,"reserved":0,"last_update":"0001-01-01T00:00:00Z","name_a2s":"Uncletopia | Chicago | 4 | All Maps","protocol":17,"map":"pl_swiftwater_final1","folder":"tf","game":"Team Fortress","app_id":440,"player_count":24,"max_players":24,"Bots":0,"server_type":"Dedicated","server_os":"Linux","password":true,"vac":true,"version":"7757534","steam_id":85568392924515193,"keywords":["nocrits","nodmgspread","payload","uncletopia"],"game_id":440,"stv_port":27046,"stv_name":"Uncletopia | Chicago | 4 | All Maps | STV","players":[{"user_id":716,"name":"Mr.Pwng3","steam_id":76561198139469530,"connected_time":5410000000000,"state":"active","ping":73},{"user_id":725,"name":"Scalie with Soup","steam_id":76561198126745958,"connected_time":4816000000000,"state":"active","ping":78},{"user_id":809,"name":"daxter4hire","steam_id":76561198250722116,"connected_time":683000000000,"state":"active","ping":96},{"user_id":770,"name":"SHUT 'EM DOWN","steam_id":76561198111259720,"connected_time":2418000000000,"state":"active","ping":67},{"user_id":797,"name":"C papi","steam_id":76561198027779564,"connected_time":1528000000000,"state":"active","ping":57},{"user_id":810,"name":"Hydra","steam_id":76561198053290948,"connected_time":668000000000,"state":"active","ping":86},{"user_id":806,"name":"survivalist keeda","steam_id":76561198277979851,"connected_time":877000000000,"state":"active","ping":91},{"user_id":780,"name":"Sora the Sorcerer","steam_id":76561198162077961,"connected_time":2099000000000,"state":"active","ping":72},{"user_id":786,"name":"Skeet Skoot","steam_id":76561198044127612,"connected_time":1882000000000,"state":"active","ping":102},{"user_id":759,"name":"fish","steam_id":76561198054070811,"connected_time":2945000000000,"state":"active","ping":104},{"user_id":718,"name":"Bombat","steam_id":76561198083096946,"connected_time":5404000000000,"state":"active","ping":108},{"user_id":775,"name":"Gnarterps","steam_id":76561198440842920,"connected_time":2293000000000,"state":"active","ping":84},{"user_id":776,"name":"Bliztank | RGL.gg","steam_id":76561198019252798,"connected_time":2251000000000,"state":"active","ping":60},{"user_id":807,"name":"Jackwebb1112","steam_id":76561198165753695,"connected_time":874000000000,"state":"active","ping":97},{"user_id":784,"name":"SilentToast","steam_id":76561199091600684,"connected_time":1974000000000,"state":"active","ping":63},{"user_id":799,"name":"magickxanadu","steam_id":76561199117360103,"connected_time":1497000000000,"state":"active","ping":78},{"user_id":781,"name":"Buttons :)","steam_id":76561198139478534,"connected_time":2092000000000,"state":"active","ping":105},{"user_id":812,"name":"Huey","steam_id":76561198972816386,"connected_time":222000000000,"state":"active","ping":75},{"user_id":805,"name":"served","steam_id":76561199438267625,"connected_time":973000000000,"state":"active","ping":110},{"user_id":792,"name":"LightBulbGlue #SaveTF2","steam_id":76561198329573529,"connected_time":1756000000000,"state":"active","ping":70},{"user_id":811,"name":"Banana es","steam_id":76561199051216149,"connected_time":604000000000,"state":"active","ping":87},{"user_id":794,"name":"M√©xico","steam_id":76561198238059280,"connected_time":1743000000000,"state":"active","ping":113},{"user_id":795,"name":"[GL] Lord Stolas","steam_id":76561199228319575,"connected_time":1737000000000,"state":"active","ping":92},{"user_id":804,"name":"moint pan","steam_id":76561198968773067,"connected_time":1102000000000,"state":"active","ping":100}]},{"server_id":36,"name":"Uncletopia | Chicago | 5 | All Maps","name_short":"chi-5","host":"chi-2.us.uncletopia.com","port":27015,"enabled":true,"region":"us-central","cc":"us","latitude":41.881832,"longitude":-87.62318,"reserved":0,"last_update":"0001-01-01T00:00:00Z","name_a2s":"Uncletopia | Chicago | 5 | All Maps","protocol":17,"map":"pl_upward","folder":"tf","game":"Team Fortress","app_id":440,"player_count":24,"max_players":24,"Bots":0,"server_type":"Dedicated","server_os":"Linux","password":true,"vac":true,"version":"7757534","steam_id":85568392924866362,"keywords":["nocrits","nodmgspread","payload","uncletopia"],"game_id":440,"stv_port":27016,"stv_name":"Uncletopia | Chicago | 5 | All Maps | STV","players":[{"user_id":509,"name":"RURU","steam_id":76561198039758987,"connected_time":2646000000000,"state":"active","ping":97},{"user_id":503,"name":"G3rockwood","steam_id":76561198103583658,"connected_time":3563000000000,"state":"active","ping":57},{"user_id":523,"name":"Mr Stinky","steam_id":76561198077439868,"connected_time":1074000000000,"state":"active","ping":107},{"user_id":464,"name":"Medic gaming","steam_id":76561199053687718,"connected_time":5852000000000,"state":"active","ping":141},{"user_id":496,"name":"Andy Hue","steam_id":76561198176949919,"connected_time":3881000000000,"state":"active","ping":97},{"user_id":512,"name":"Jimmy","steam_id":76561198208935045,"connected_time":1680000000000,"state":"active","ping":53},{"user_id":466,"name":"Darghul the Skeleton Lord","steam_id":76561198004140161,"connected_time":5750000000000,"state":"active","ping":45},{"user_id":520,"name":"Bzamo","steam_id":76561198039883392,"connected_time":1181000000000,"state":"active","ping":57},{"user_id":468,"name":"Mr.Silver","steam_id":76561198156382508,"connected_time":5631000000000,"state":"active","ping":59},{"user_id":486,"name":"Verethrogna","steam_id":76561198882117325,"connected_time":4909000000000,"state":"active","ping":74},{"user_id":471,"name":"biofio","steam_id":76561198019094571,"connected_time":5378000000000,"state":"active","ping":107},{"user_id":472,"name":"Creyon","steam_id":76561198812104058,"connected_time":5228000000000,"state":"active","ping":58},{"user_id":485,"name":"Just A Skull","steam_id":76561198404410574,"connected_time":4918000000000,"state":"active","ping":75},{"user_id":524,"name":"pete_the_cat_2014","steam_id":76561198199266047,"connected_time":729000000000,"state":"active","ping":53},{"user_id":505,"name":"Fermenting Kiwi","steam_id":76561198253303497,"connected_time":2889000000000,"state":"active","ping":74},{"user_id":501,"name":"SpinetinglingToast","steam_id":76561198099470670,"connected_time":3683000000000,"state":"active","ping":73},{"user_id":521,"name":"Duncle Frazzle","steam_id":76561198145596626,"connected_time":1175000000000,"state":"active","ping":100},{"user_id":480,"name":"saucy jack","steam_id":76561198307012859,"connected_time":4950000000000,"state":"active","ping":76},{"user_id":519,"name":"BeansMan","steam_id":76561198349672838,"connected_time":1283000000000,"state":"active","ping":190},{"user_id":481,"name":"J O S H¬≥¬≤","steam_id":76561198122603779,"connected_time":4945000000000,"state":"active","ping":97},{"user_id":525,"name":"be","steam_id":76561198000824533,"connected_time":544000000000,"state":"active","ping":84},{"user_id":482,"name":"robot with human hair","steam_id":76561198018691308,"connected_time":4938000000000,"state":"active","ping":77},{"user_id":483,"name":"Unc4nny","steam_id":76561198131507408,"connected_time":4937000000000,"state":"active","ping":58},{"user_id":506,"name":"Lazulf","steam_id":76561198041410859,"connected_time":2679000000000,"state":"active","ping":104}]},{"server_id":37,"name":"Uncletopia | Chicago | 6 | All Maps","name_short":"chi-6","host":"chi-2.us.uncletopia.com","port":27025,"enabled":true,"region":"us-central","cc":"us","latitude":41.881832,"longitude":-87.62318,"reserved":0,"last_update":"0001-01-01T00:00:00Z","name_a2s":"Uncletopia | Chicago | 6 | All Maps","protocol":17,"map":"koth_viaduct","folder":"tf","game":"Team Fortress","app_id":440,"player_count":2,"max_players":24,"Bots":0,"server_type":"Dedicated","server_os":"Linux","password":true,"vac":true,"version":"7757534","steam_id":85568392924866363,"keywords":["cp","nocrits","nodmgspread","uncletopia"],"game_id":440,"stv_port":27026,"stv_name":"Uncletopia | Chicago | 6 | All Maps | STV","players":[{"user_id":454,"name":"DenverDSnail","steam_id":76561198182543578,"connected_time":207000000000,"state":"active","ping":62},{"user_id":455,"name":"Slider","steam_id":76561198014504435,"connected_time":203000000000,"state":"active","ping":255}]},{"server_id":38,"name":"Uncletopia | Chicago | 7 | Stopwatch Beta","name_short":"chi-7","host":"chi-2.us.uncletopia.com","port":27035,"enabled":true,"region":"us-central","cc":"us","latitude":41.881832,"longitude":-87.62318,"reserved":0,"last_update":"0001-01-01T00:00:00Z","name_a2s":"Uncletopia | Chicago | 7 | Stopwatch Beta","protocol":17,"map":"workshop/koth_ashville_final.ugc2130459942","folder":"tf","game":"Team Fortress","app_id":440,"player_count":0,"max_players":24,"Bots":0,"server_type":"Dedicated","server_os":"Linux","password":true,"vac":true,"version":"7757534","steam_id":85568392924866364,"keywords":["cp","nocrits","nodmgspread","uncletopia"],"game_id":440,"stv_port":27036,"stv_name":"Uncletopia | Chicago | 7 | Stopwatch Beta | STV","players":null},{"server_id":39,"name":"Uncletopia | Chicago | 8 | Community","name_short":"chi-8","host":"chi-2.us.uncletopia.com","port":27045,"enabled":true,"region":"us-central","cc":"us","latitude":41.881832,"longitude":-87.62318,"reserved":0,"last_update":"0001-01-01T00:00:00Z","name_a2s":"Uncletopia | Chicago | 8 | Community","protocol":17,"map":"workshop/koth_ramjam_rc1.ugc459778887","folder":"tf","game":"Team Fortress","app_id":440,"player_count":0,"max_players":24,"Bots":0,"server_type":"Dedicated","server_os":"Linux","password":true,"vac":true,"version":"7757534","steam_id":85568392924866365,"keywords":["cp","nocrits","nodmgspread","uncletopia"],"game_id":440,"stv_port":27046,"stv_name":"Uncletopia | Chicago | 8 | Community | STV","players":null},{"server_id":8,"name":"Uncletopia | Dallas | 1 | All Maps","name_short":"dal-1","host":"dal-1.us.uncletopia.com","port":27015,"enabled":true,"region":"us-central","cc":"us","latitude":32.779167,"longitude":-96.80889,"reserved":0,"last_update":"0001-01-01T00:00:00Z","name_a2s":"Uncletopia | Dallas | 1 | All Maps","protocol":17,"map":"cp_snakewater_final1","folder":"tf","game":"Team Fortress","app_id":440,"player_count":24,"max_players":24,"Bots":0,"server_type":"Dedicated","server_os":"Linux","password":true,"vac":true,"version":"7757534","steam_id":85568392924469986,"keywords":["cp","nocrits","nodmgspread","uncletopia"],"game_id":440,"stv_port":27016,"stv_name":"Uncletopia | Dallas | 1 | All Maps | STV","players":[{"user_id":682,"name":"Blue Protogen - 001198","steam_id":76561198145791867,"connected_time":3153000000000,"state":"active","ping":80},{"user_id":724,"name":"3-13","steam_id":76561198063929021,"connected_time":1166000000000,"state":"active","ping":54},{"user_id":692,"name":"Drakon","steam_id":76561198078210822,"connected_time":2865000000000,"state":"active","ping":83},{"user_id":709,"name":"Len","steam_id":76561199141913673,"connected_time":1519000000000,"state":"active","ping":69},{"user_id":683,"name":"Can Of Pepsi","steam_id":76561198799099659,"connected_time":3133000000000,"state":"active","ping":135},{"user_id":720,"name":"Rudy","steam_id":76561198013456828,"connected_time":1404000000000,"state":"active","ping":75},{"user_id":732,"name":"ShadowDragon0125","steam_id":76561198343849022,"connected_time":268000000000,"state":"active","ping":80},{"user_id":723,"name":"Dell Conagher (real)","steam_id":76561198220120368,"connected_time":1327000000000,"state":"active","ping":34},{"user_id":649,"name":"MerlinTheWizard","steam_id":76561198171472393,"connected_time":5044000000000,"state":"active","ping":72},{"user_id":711,"name":"for the king","steam_id":76561197973488858,"connected_time":1495000000000,"state":"active","ping":73},{"user_id":687,"name":"Aonator","steam_id":76561198252312446,"connected_time":3069000000000,"state":"active","ping":109},{"user_id":707,"name":"Cookies The Fox","steam_id":76561198200960402,"connected_time":1573000000000,"state":"active","ping":89},{"user_id":725,"name":"Praxis","steam_id":76561197960794303,"connected_time":1139000000000,"state":"active","ping":144},{"user_id":693,"name":"gasparmx","steam_id":76561197998611994,"connected_time":2865000000000,"state":"active","ping":88},{"user_id":733,"name":"Rowrel","steam_id":76561198394319452,"connected_time":157000000000,"state":"active","ping":98},{"user_id":726,"name":"Mrtakeyotaco","steam_id":76561199429653513,"connected_time":1113000000000,"state":"active","ping":126},{"user_id":694,"name":"[S]Mr. X [No Monitor]","steam_id":76561197963746035,"connected_time":2854000000000,"state":"active","ping":123},{"user_id":718,"name":"DubiousDodo","steam_id":76561198828172686,"connected_time":1430000000000,"state":"active","ping":110},{"user_id":728,"name":"Spoons With Wolves","steam_id":76561198000964188,"connected_time":921000000000,"state":"active","ping":73},{"user_id":729,"name":"heisenberg","steam_id":76561198075341060,"connected_time":811000000000,"state":"active","ping":93},{"user_id":722,"name":"TF.jubjub","steam_id":76561197996052825,"connected_time":1353000000000,"state":"active","ping":89},{"user_id":695,"name":"trash beast","steam_id":76561198015792736,"connected_time":2850000000000,"state":"active","ping":82},{"user_id":730,"name":"Getter Ray (Mute)","steam_id":76561198037784368,"connected_time":453000000000,"state":"active","ping":75},{"user_id":719,"name":"DonnaJello","steam_id":76561198407401570,"connected_time":1430000000000,"state":"active","ping":85}]},{"server_id":108,"name":"Uncletopia | Dallas | 2 | All Maps","name_short":"dal-2","host":"dal-1.us.uncletopia.com","port":27025,"enabled":true,"region":"us-central","cc":"us","latitude":32.779167,"longitude":-96.80889,"reserved":0,"last_update":"0001-01-01T00:00:00Z","name_a2s":"Uncletopia | Dallas | 2 | All Maps","protocol":17,"map":"pl_frontier_final","folder":"tf","game":"Team Fortress","app_id":440,"player_count":0,"max_players":24,"Bots":0,"server_type":"Dedicated","server_os":"Linux","password":true,"vac":true,"version":"7757534","steam_id":85568392924469988,"keywords":["nocrits","nodmgspread","payload","uncletopia"],"game_id":440,"stv_port":27026,"stv_name":"Uncletopia | Dallas | 2 | All Maps | STV","players":null},{"server_id":5,"name":"Uncletopia | Frankfurt | 1 | All Maps","name_short":"frk-1","host":"frk-1.de.uncletopia.com","port":27015,"enabled":true,"region":"eu","cc":"de","latitude":50.110924,"longitude":8.682127,"reserved":0,"last_update":"0001-01-01T00:00:00Z","name_a2s":"Uncletopia | Frankfurt | 1 | All Maps","protocol":17,"map":"cp_dustbowl","folder":"tf","game":"Team Fortress","app_id":440,"player_count":0,"max_players":24,"Bots":0,"server_type":"Dedicated","server_os":"Linux","password":true,"vac":true,"version":"7757534","steam_id":85568392924469989,"keywords":["cp","nocrits","nodmgspread","uncletopia"],"game_id":440,"stv_port":27016,"stv_name":"Uncletopia | Frankfurt | 1 | All Maps | STV","players":null},{"server_id":110,"name":"Uncletopia | Frankfurt | 2 | All Maps","name_short":"frk-2","host":"frk-1.de.uncletopia.com","port":27025,"enabled":true,"region":"eu","cc":"de","latitude":50.110924,"longitude":8.682127,"reserved":0,"last_update":"0001-01-01T00:00:00Z","name_a2s":"Uncletopia | Frankfurt | 2 | All Maps","protocol":17,"map":"pl_snowycoast","folder":"tf","game":"Team Fortress","app_id":440,"player_count":0,"max_players":24,"Bots":0,"server_type":"Dedicated","server_os":"Linux","password":true,"vac":true,"version":"7757534","steam_id":85568392924469990,"keywords":["nocrits","nodmgspread","payload","uncletopia"],"game_id":440,"stv_port":27026,"stv_name":"Uncletopia | Frankfurt | 2 | All Maps | STV","players":null},{"server_id":308,"name":"Uncletopia | Frankfurt | 3 | All Maps","name_short":"frk-3","host":"frk-1.de.uncletopia.com","port":27035,"enabled":true,"region":"eu","cc":"de","latitude":50.110924,"longitude":8.682127,"reserved":0,"last_update":"0001-01-01T00:00:00Z","name_a2s":"Uncletopia | Frankfurt | 3 | All Maps","protocol":17,"map":"cp_altitude","folder":"tf","game":"Team Fortress","app_id":440,"player_count":0,"max_players":24,"Bots":0,"server_type":"Dedicated","server_os":"Linux","password":true,"vac":true,"version":"7757534","steam_id":85568392924504274,"keywords":["cp","nocrits","nodmgspread","uncletopia"],"game_id":440,"stv_port":27036,"stv_name":"Uncletopia | Frankfurt | 3 | All Maps | STV","players":null},{"server_id":309,"name":"Uncletopia | Frankfurt | 4 | All Maps","name_short":"frk-4","host":"frk-1.de.uncletopia.com","port":27045,"enabled":true,"region":"eu","cc":"de","latitude":50.110924,"longitude":8.682127,"reserved":0,"last_update":"0001-01-01T00:00:00Z","name_a2s":"Uncletopia | Frankfurt | 4 | All Maps","protocol":17,"map":"cp_altitude","folder":"tf","game":"Team Fortress","app_id":440,"player_count":0,"max_players":24,"Bots":0,"server_type":"Dedicated","server_os":"Linux","password":true,"vac":true,"version":"7757534","steam_id":85568392924504275,"keywords":["cp","nocrits","nodmgspread","uncletopia"],"game_id":440,"stv_port":27046,"stv_name":"Uncletopia | Frankfurt | 4 | All Maps | STV","players":null},{"server_id":310,"name":"Uncletopia | Frankfurt | 5 | All Maps","name_short":"frk-5","host":"frk-1.de.uncletopia.com","port":27055,"enabled":true,"region":"eu","cc":"de","latitude":50.110924,"longitude":8.682127,"reserved":0,"last_update":"0001-01-01T00:00:00Z","name_a2s":"Uncletopia | Frankfurt | 5 | All Maps","protocol":17,"map":"cp_altitude","folder":"tf","game":"Team Fortress","app_id":440,"player_count":0,"max_players":24,"Bots":0,"server_type":"Dedicated","server_os":"Linux","password":true,"vac":true,"version":"7757534","steam_id":85568392924504277,"keywords":["cp","nocrits","nodmgspread","uncletopia"],"game_id":440,"stv_port":27056,"stv_name":"Uncletopia | Frankfurt | 5 | All Maps | STV","players":null},{"server_id":311,"name":"Uncletopia | Frankfurt | 6 | All Maps","name_short":"frk-6","host":"frk-1.de.uncletopia.com","port":27065,"enabled":true,"region":"eu","cc":"de","latitude":50.110924,"longitude":8.682127,"reserved":0,"last_update":"0001-01-01T00:00:00Z","name_a2s":"Uncletopia | Frankfurt | 6 | All Maps","protocol":17,"map":"koth_highpass","folder":"tf","game":"Team Fortress","app_id":440,"player_count":0,"max_players":24,"Bots":0,"server_type":"Dedicated","server_os":"Linux","password":true,"vac":true,"version":"7757534","steam_id":85568392924504278,"keywords":["cp","nocrits","nodmgspread","uncletopia"],"game_id":440,"stv_port":27066,"stv_name":"Uncletopia | Frankfurt | 6 | All Maps | STV","players":null},{"server_id":23,"name":"Uncletopia | Frankfurt | 7 | Stopwatch Beta","name_short":"frk-7","host":"frk-1.de.uncletopia.com","port":27075,"enabled":true,"region":"eu","cc":"de","latitude":50.110924,"longitude":8.682127,"reserved":0,"last_update":"0001-01-01T00:00:00Z","name_a2s":"Uncletopia | Frankfurt | 7 | Stopwatch Beta","protocol":17,"map":"pl_frontier_final","folder":"tf","game":"Team Fortress","app_id":440,"player_count":0,"max_players":24,"Bots":0,"server_type":"Dedicated","server_os":"Linux","password":true,"vac":true,"version":"7757534","steam_id":85568392924742827,"keywords":["nocrits","nodmgspread","payload","uncletopia"],"game_id":440,"stv_port":27076,"stv_name":"Uncletopia | Frankfurt | 7 | Stopwatch Beta | STV","players":null},{"server_id":24,"name":"Uncletopia | Frankfurt | 8 | Community","name_short":"frk-8","host":"frk-1.de.uncletopia.com","port":27085,"enabled":true,"region":"eu","cc":"de","latitude":50.110924,"longitude":8.682127,"reserved":0,"last_update":"0001-01-01T00:00:00Z","name_a2s":"Uncletopia | Frankfurt | 8 | Community","protocol":17,"map":"pl_badwater","folder":"tf","game":"Team Fortress","app_id":440,"player_count":0,"max_players":24,"Bots":0,"server_type":"Dedicated","server_os":"Linux","password":true,"vac":true,"version":"7757534","steam_id":85568392924742828,"keywords":["nocrits","nodmgspread","payload","uncletopia"],"game_id":440,"stv_port":27086,"stv_name":"Uncletopia | Frankfurt | 8 | Community | STV","players":null},{"server_id":202,"name":"Uncletopia | Hong Kong | 1 | All Maps","name_short":"hgk-1","host":"hgk-1.hk.uncletopia.com","port":27015,"enabled":true,"region":"asia","cc":"hk","latitude":22.302711,"longitude":114.177216,"reserved":0,"last_update":"0001-01-01T00:00:00Z","name_a2s":"Uncletopia | Hong Kong | 1 | All Maps","protocol":17,"map":"pl_swiftwater_final1","folder":"tf","game":"Team Fortress","app_id":440,"player_count":0,"max_players":24,"Bots":0,"server_type":"Dedicated","server_os":"Linux","password":true,"vac":true,"version":"7757534","steam_id":85568392924494504,"keywords":["nocrits","nodmgspread","payload","uncletopia"],"game_id":440,"stv_port":27016,"stv_name":"Uncletopia | Hong Kong | 1 | All Maps | STV","players":null},{"server_id":1,"name":"Uncletopia | Los Angeles | 1 | All Maps","name_short":"lax-1","host":"lax-1.us.uncletopia.com","port":27015,"enabled":true,"region":"us-west","cc":"us","latitude":33.94279,"longitude":-118.41004,"reserved":0,"last_update":"0001-01-01T00:00:00Z","name_a2s":"Uncletopia | Los Angeles | 1 | All Maps","protocol":17,"map":"pl_goldrush","folder":"tf","game":"Team Fortress","app_id":440,"player_count":18,"max_players":24,"Bots":0,"server_type":"Dedicated","server_os":"Linux","password":true,"vac":true,"version":"7757534","steam_id":85568392924469991,"keywords":["nocrits","nodmgspread","payload","uncletopia"],"game_id":440,"stv_port":27016,"stv_name":"Uncletopia | Los Angeles | 1 | All Maps | STV","players":[{"user_id":476,"name":"PeptoBismol","steam_id":76561198082669076,"connected_time":4236000000000,"state":"active","ping":64},{"user_id":471,"name":"IHUNTZ","steam_id":76561198390109907,"connected_time":4532000000000,"state":"active","ping":51},{"user_id":512,"name":"Rakk","steam_id":76561198855176174,"connected_time":1857000000000,"state":"active","ping":47},{"user_id":505,"name":"Butterfly Pancakes","steam_id":76561198286158414,"connected_time":2777000000000,"state":"active","ping":79},{"user_id":514,"name":"48","steam_id":76561198894676484,"connected_time":1854000000000,"state":"active","ping":50},{"user_id":515,"name":"land0","steam_id":76561198321264704,"connected_time":1824000000000,"state":"active","ping":65},{"user_id":516,"name":"Caramel_Chalice","steam_id":76561198307609692,"connected_time":1804000000000,"state":"active","ping":88},{"user_id":510,"name":"Medium Flopper","steam_id":76561198109324901,"connected_time":1932000000000,"state":"active","ping":94},{"user_id":465,"name":"MinusSoup918","steam_id":76561198060902773,"connected_time":5061000000000,"state":"active","ping":60},{"user_id":523,"name":"zinnk","steam_id":76561198092081825,"connected_time":1235000000000,"state":"active","ping":45},{"user_id":532,"name":"Shamrock Shake Oct.10.2020 @8pm","steam_id":76561198833313201,"connected_time":172000000000,"state":"active","ping":55},{"user_id":527,"name":"EatSomeBEES","steam_id":76561198047334307,"connected_time":619000000000,"state":"active","ping":82},{"user_id":529,"name":"Ping Pong Dingus","steam_id":76561198072502345,"connected_time":390000000000,"state":"active","ping":69},{"user_id":494,"name":"Mr.Hands","steam_id":76561199024146278,"connected_time":3556000000000,"state":"active","ping":56},{"user_id":443,"name":"M.L.JEW","steam_id":76561198997375055,"connected_time":7259000000000,"state":"active","ping":100},{"user_id":495,"name":"Aspa","steam_id":76561199048815630,"connected_time":3553000000000,"state":"active","ping":91},{"user_id":506,"name":"HeroOfTime","steam_id":76561199096218001,"connected_time":2775000000000,"state":"active","ping":53},{"user_id":531,"name":"El Viejo Paulino","steam_id":76561198211944169,"connected_time":353000000000,"state":"active","ping":90}]},{"server_id":112,"name":"Uncletopia | Los Angeles | 2 | All Maps","name_short":"lax-2","host":"lax-1.us.uncletopia.com","port":27025,"enabled":true,"region":"us-west","cc":"us","latitude":33.94279,"longitude":-118.41004,"reserved":0,"last_update":"0001-01-01T00:00:00Z","name_a2s":"Uncletopia | Los Angeles | 2 | All Maps","protocol":17,"map":"koth_highpass","folder":"tf","game":"Team Fortress","app_id":440,"player_count":0,"max_players":24,"Bots":0,"server_type":"Dedicated","server_os":"Linux","password":true,"vac":true,"version":"7757534","steam_id":85568392924469992,"keywords":["cp","nocrits","nodmgspread","uncletopia"],"game_id":440,"stv_port":27026,"stv_name":"Uncletopia | Los Angeles | 2 | All Maps | STV","players":null},{"server_id":324,"name":"Uncletopia | Los Angeles | 3 | All Maps","name_short":"lax-3","host":"lax-1.us.uncletopia.com","port":27035,"enabled":true,"region":"us-west","cc":"us","latitude":33.94279,"longitude":-118.41004,"reserved":0,"last_update":"0001-01-01T00:00:00Z","name_a2s":"Uncletopia | Los Angeles | 3 | All Maps","protocol":17,"map":"koth_viaduct","folder":"tf","game":"Team Fortress","app_id":440,"player_count":24,"max_players":24,"Bots":0,"server_type":"Dedicated","server_os":"Linux","password":true,"vac":true,"version":"7757534","steam_id":85568392924510198,"keywords":["cp","nocrits","nodmgspread","uncletopia"],"game_id":440,"stv_port":27036,"stv_name":"Uncletopia | Los Angeles | 3 | All Maps | STV","players":[{"user_id":288,"name":"Asticky","steam_id":76561198060706875,"connected_time":507000000000,"state":"active","ping":81},{"user_id":289,"name":"Durazorn","steam_id":76561198096327396,"connected_time":475000000000,"state":"active","ping":112},{"user_id":296,"name":"goldhed","steam_id":76561198051751133,"connected_time":211000000000,"state":"active","ping":84},{"user_id":290,"name":"Xtar","steam_id":76561198301774048,"connected_time":461000000000,"state":"active","ping":84},{"user_id":301,"name":"LasagnaLary","steam_id":76561198051016438,"connected_time":129000000000,"state":"active","ping":112},{"user_id":271,"name":"ghostglitch","steam_id":76561197991608573,"connected_time":2764000000000,"state":"active","ping":49},{"user_id":257,"name":"max poop retention","steam_id":76561199050461421,"connected_time":4037000000000,"state":"active","ping":68},{"user_id":291,"name":"TheLuckyJinks","steam_id":76561198154340722,"connected_time":457000000000,"state":"active","ping":118},{"user_id":250,"name":"who is doug","steam_id":76561198858328080,"connected_time":4185000000000,"state":"active","ping":36},{"user_id":266,"name":"oil","steam_id":76561198099980149,"connected_time":3332000000000,"state":"active","ping":50},{"user_id":292,"name":"Sugercrash","steam_id":76561199187685119,"connected_time":406000000000,"state":"active","ping":101},{"user_id":284,"name":"Ash!‚ù§","steam_id":76561198070398840,"connected_time":701000000000,"state":"active","ping":72},{"user_id":195,"name":"Lambchop","steam_id":76561198043900363,"connected_time":6894000000000,"state":"active","ping":74},{"user_id":285,"name":"Reagent","steam_id":76561198039663113,"connected_time":679000000000,"state":"active","ping":54},{"user_id":281,"name":"Buddyram5","steam_id":76561198409858620,"connected_time":1030000000000,"state":"active","ping":86},{"user_id":298,"name":"rat eater","steam_id":76561198955453886,"connected_time":195000000000,"state":"active","ping":95},{"user_id":299,"name":"Juri Han","steam_id":76561198041678517,"connected_time":166000000000,"state":"active","ping":61},{"user_id":300,"name":"i am clinically insane","steam_id":76561199013323529,"connected_time":161000000000,"state":"active","ping":60},{"user_id":283,"name":"Panzerschreck Bath Water","steam_id":76561198178133625,"connected_time":1029000000000,"state":"active","ping":50},{"user_id":274,"name":"Antzen","steam_id":76561198041343470,"connected_time":2599000000000,"state":"active","ping":59},{"user_id":295,"name":"cbagels","steam_id":76561198453866972,"connected_time":286000000000,"state":"active","ping":70},{"user_id":258,"name":"BionicApe","steam_id":76561198154637711,"connected_time":4020000000000,"state":"active","ping":60},{"user_id":261,"name":"Frogzilla","steam_id":76561198077657538,"connected_time":3891000000000,"state":"active","ping":115},{"user_id":302,"name":"opal","steam_id":76561198964638272,"connected_time":95000000000,"state":"active","ping":81}]},{"server_id":25,"name":"Uncletopia | Los Angeles | 4 | Stopwatch Beta","name_short":"lax-4","host":"lax-1.us.uncletopia.com","port":27045,"enabled":true,"region":"us-west","cc":"us","latitude":33.94279,"longitude":-118.41004,"reserved":0,"last_update":"0001-01-01T00:00:00Z","name_a2s":"Uncletopia | Los Angeles | 4 | Stopwatch Beta","protocol":17,"map":"pl_frontier_final","folder":"tf","game":"Team Fortress","app_id":440,"player_count":0,"max_players":24,"Bots":0,"server_type":"Dedicated","server_os":"Linux","password":true,"vac":true,"version":"7757534","steam_id":85568392924510199,"keywords":["nocrits","nodmgspread","payload","uncletopia"],"game_id":440,"stv_port":27046,"stv_name":"Uncletopia | Los Angeles | 4 | Stopwatch Beta | STV","players":null},{"server_id":11,"name":"Uncletopia | London | 1 | All Maps","name_short":"lon-1","host":"lon-1.uk.uncletopia.com","port":27015,"enabled":true,"region":"eu","cc":"gb","latitude":51.509865,"longitude":-0.118092,"reserved":0,"last_update":"0001-01-01T00:00:00Z","name_a2s":"Uncletopia | London | 1 | All Maps","protocol":17,"map":"koth_viaduct","folder":"tf","game":"Team Fortress","app_id":440,"player_count":7,"max_players":24,"Bots":0,"server_type":"Dedicated","server_os":"Linux","password":true,"vac":true,"version":"7757534","steam_id":85568392924367362,"keywords":["cp","nocrits","nodmgspread","uncletopia"],"game_id":440,"stv_port":27016,"stv_name":"Uncletopia | London | 1 | All Maps | STV","players":[{"user_id":4,"name":"MtnDew","steam_id":76561199100059743,"connected_time":3265000000000,"state":"active","ping":104},{"user_id":9,"name":"kbbq","steam_id":76561198346638308,"connected_time":888000000000,"state":"active","ping":58},{"user_id":6,"name":"Rambi","steam_id":76561199058078505,"connected_time":2915000000000,"state":"active","ping":166},{"user_id":10,"name":"Momma_Milky123","steam_id":76561199149697526,"connected_time":311000000000,"state":"active","ping":209},{"user_id":11,"name":"Sophie","steam_id":76561198970075085,"connected_time":303000000000,"state":"active","ping":44},{"user_id":14,"name":"Arky ü¶ë","steam_id":76561198027448234,"connected_time":51000000000,"state":"active","ping":72},{"user_id":13,"name":"Yakub","steam_id":76561198014279521,"connected_time":108000000000,"state":"active","ping":127}]},{"server_id":114,"name":"Uncletopia | London | 2 | All Maps","name_short":"lon-2","host":"lon-1.uk.uncletopia.com","port":27025,"enabled":true,"region":"eu","cc":"gb","latitude":51.509865,"longitude":-0.118092,"reserved":0,"last_update":"0001-01-01T00:00:00Z","name_a2s":"Uncletopia | London | 2 | All Maps","protocol":17,"map":"cp_dustbowl","folder":"tf","game":"Team Fortress","app_id":440,"player_count":0,"max_players":24,"Bots":0,"server_type":"Dedicated","server_os":"Linux","password":true,"vac":true,"version":"7757534","steam_id":85568392924470941,"keywords":["cp","nocrits","nodmgspread","uncletopia"],"game_id":440,"stv_port":27026,"stv_name":"Uncletopia | London | 2 | All Maps | STV","players":null},{"server_id":320,"name":"Uncletopia | London | 3 | All Maps","name_short":"lon-3","host":"lon-1.uk.uncletopia.com","port":27035,"enabled":true,"region":"eu","cc":"gb","latitude":51.509865,"longitude":-0.118092,"reserved":0,"last_update":"0001-01-01T00:00:00Z","name_a2s":"Uncletopia | London | 3 | All Maps","protocol":17,"map":"pl_badwater","folder":"tf","game":"Team Fortress","app_id":440,"player_count":0,"max_players":24,"Bots":0,"server_type":"Dedicated","server_os":"Linux","password":true,"vac":true,"version":"7757534","steam_id":85568392924510192,"keywords":["nocrits","nodmgspread","payload","uncletopia"],"game_id":440,"stv_port":27036,"stv_name":"Uncletopia | London | 3 | All Maps | STV","players":null},{"server_id":321,"name":"Uncletopia | London | 4 | All Maps","name_short":"lon-4","host":"lon-1.uk.uncletopia.com","port":27045,"enabled":true,"region":"eu","cc":"gb","latitude":51.509865,"longitude":-0.118092,"reserved":0,"last_update":"0001-01-01T00:00:00Z","name_a2s":"Uncletopia | London | 4 | All Maps","protocol":17,"map":"koth_viaduct","folder":"tf","game":"Team Fortress","app_id":440,"player_count":0,"max_players":24,"Bots":0,"server_type":"Dedicated","server_os":"Linux","password":true,"vac":true,"version":"7757534","steam_id":85568392924510193,"keywords":["cp","nocrits","nodmgspread","uncletopia"],"game_id":440,"stv_port":27046,"stv_name":"Uncletopia | London | 4 | All Maps | STV","players":null},{"server_id":21,"name":"Uncletopia | London | 5 | All Maps","name_short":"lon-5","host":"lon-1.uk.uncletopia.com","port":27055,"enabled":true,"region":"eu","cc":"gb","latitude":51.509865,"longitude":-0.118092,"reserved":0,"last_update":"0001-01-01T00:00:00Z","name_a2s":"Uncletopia | London | 5 | All Maps","protocol":17,"map":"plr_pipeline","folder":"tf","game":"Team Fortress","app_id":440,"player_count":0,"max_players":24,"Bots":0,"server_type":"Dedicated","server_os":"Linux","password":true,"vac":true,"version":"7757534","steam_id":85568392924742829,"keywords":["nocrits","nodmgspread","payload","uncletopia"],"game_id":440,"stv_port":27056,"stv_name":"Uncletopia | London | 5 | All Maps | STV","players":null},{"server_id":22,"name":"Uncletopia | London | 6 | All Maps","name_short":"lon-6","host":"lon-1.uk.uncletopia.com","port":27065,"enabled":true,"region":"eu","cc":"gb","latitude":51.509865,"longitude":-0.118092,"reserved":0,"last_update":"0001-01-01T00:00:00Z","name_a2s":"Uncletopia | London | 6 | All Maps","protocol":17,"map":"koth_cascade","folder":"tf","game":"Team Fortress","app_id":440,"player_count":0,"max_players":24,"Bots":0,"server_type":"Dedicated","server_os":"Linux","password":true,"vac":true,"version":"7757534","steam_id":85568392924742830,"keywords":["cp","nocrits","nodmgspread","uncletopia"],"game_id":440,"stv_port":27066,"stv_name":"Uncletopia | London | 6 | All Maps | STV","players":null},{"server_id":40,"name":"Uncletopia | London | 7 | No Payload","name_short":"lon-7","host":"lon-1.uk.uncletopia.com","port":27075,"enabled":true,"region":"eu","cc":"gb","latitude":51.509865,"longitude":-0.118092,"reserved":0,"last_update":"0001-01-01T00:00:00Z","name_a2s":"Uncletopia | London | 7 | No Payload","protocol":17,"map":"cp_process_final","folder":"tf","game":"Team Fortress","app_id":440,"player_count":0,"max_players":24,"Bots":0,"server_type":"Dedicated","server_os":"Linux","password":true,"vac":true,"version":"7757534","steam_id":85568392924964314,"keywords":["cp","nocrits","nodmgspread","uncletopia"],"game_id":440,"stv_port":27076,"stv_name":"Uncletopia | London | 7 | No Payload | STV","players":null},{"server_id":41,"name":"Uncletopia | London | 8 | Community","name_short":"lon-8","host":"lon-1.uk.uncletopia.com","port":27085,"enabled":true,"region":"eu","cc":"gb","latitude":51.509865,"longitude":-0.118092,"reserved":0,"last_update":"0001-01-01T00:00:00Z","name_a2s":"Uncletopia | London | 8 | Community","protocol":17,"map":"pl_upward","folder":"tf","game":"Team Fortress","app_id":440,"player_count":0,"max_players":24,"Bots":0,"server_type":"Dedicated","server_os":"Linux","password":true,"vac":true,"version":"7757534","steam_id":85568392924964315,"keywords":["nocrits","nodmgspread","payload","uncletopia"],"game_id":440,"stv_port":27086,"stv_name":"Uncletopia | London | 8 | Community | STV","players":null},{"server_id":300,"name":"Uncletopia | Montr√©al | 1 | All Maps","name_short":"mtl-1","host":"mtl-1.ca.uncletopia.com","port":27015,"enabled":true,"region":"us-east","cc":"ca","latitude":45.50889,"longitude":-73.56167,"reserved":0,"last_update":"0001-01-01T00:00:00Z","name_a2s":"Uncletopia | Montr√©al | 1 | All Maps","protocol":17,"map":"cp_snakewater_final1","folder":"tf","game":"Team Fortress","app_id":440,"player_count":0,"max_players":24,"Bots":0,"server_type":"Dedicated","server_os":"Linux","password":true,"vac":true,"version":"7757534","steam_id":85568392924500087,"keywords":["cp","nocrits","nodmgspread","uncletopia"],"game_id":440,"stv_port":27016,"stv_name":"Uncletopia | Montr√©al | 1 | All Maps | STV","players":null},{"server_id":301,"name":"Uncletopia | Montr√©al | 2 | All Maps","name_short":"mtl-2","host":"mtl-1.ca.uncletopia.com","port":27025,"enabled":true,"region":"us-east","cc":"ca","latitude":45.50889,"longitude":-73.56167,"reserved":0,"last_update":"0001-01-01T00:00:00Z","name_a2s":"Uncletopia | Montr√©al | 2 | All Maps","protocol":17,"map":"cp_dustbowl","folder":"tf","game":"Team Fortress","app_id":440,"player_count":0,"max_players":24,"Bots":0,"server_type":"Dedicated","server_os":"Linux","password":true,"vac":true,"version":"7757534","steam_id":85568392924500088,"keywords":["cp","nocrits","nodmgspread","uncletopia"],"game_id":440,"stv_port":27026,"stv_name":"Uncletopia | Montr√©al | 2 | All Maps | STV","players":null},{"server_id":302,"name":"Uncletopia | Montr√©al | 3 | All Maps","name_short":"mtl-3","host":"mtl-1.ca.uncletopia.com","port":27035,"enabled":true,"region":"us-east","cc":"ca","latitude":45.50889,"longitude":-73.56167,"reserved":0,"last_update":"0001-01-01T00:00:00Z","name_a2s":"Uncletopia | Montr√©al | 3 | All Maps","protocol":17,"map":"cp_mountainlab","folder":"tf","game":"Team Fortress","app_id":440,"player_count":0,"max_players":24,"Bots":0,"server_type":"Dedicated","server_os":"Linux","password":true,"vac":true,"version":"7757534","steam_id":85568392924500089,"keywords":["cp","nocrits","nodmgspread","uncletopia"],"game_id":440,"stv_port":27036,"stv_name":"Uncletopia | Montr√©al | 3 | All Maps | STV","players":null},{"server_id":303,"name":"Uncletopia | Montr√©al | 4 | No Payload","name_short":"mtl-4","host":"mtl-1.ca.uncletopia.com","port":27045,"enabled":true,"region":"us-east","cc":"ca","latitude":45.50889,"longitude":-73.56167,"reserved":0,"last_update":"0001-01-01T00:00:00Z","name_a2s":"Uncletopia | Montr√©al | 4 | No Payload","protocol":17,"map":"koth_nucleus","folder":"tf","game":"Team Fortress","app_id":440,"player_count":3,"max_players":24,"Bots":0,"server_type":"Dedicated","server_os":"Linux","password":true,"vac":true,"version":"7757534","steam_id":85568392924500090,"keywords":["cp","nocrits","nodmgspread","uncletopia"],"game_id":440,"stv_port":27046,"stv_name":"Uncletopia | Montr√©al | 4 | No Payload | STV","players":[{"user_id":14,"name":"IceyKnight","steam_id":76561199189125310,"connected_time":799000000000,"state":"active","ping":299},{"user_id":17,"name":"Maple","steam_id":76561199124216704,"connected_time":210000000000,"state":"active","ping":304},{"user_id":18,"name":"maniacalparagraph","steam_id":76561198094123992,"connected_time":181000000000,"state":"active","ping":84}]},{"server_id":13,"name":"Uncletopia | New York City | 1 | All Maps","name_short":"nyc-1","host":"nyc-1.us.uncletopia.com","port":27015,"enabled":true,"region":"us-east","cc":"us","latitude":40.73061,"longitude":-73.93524,"reserved":0,"last_update":"0001-01-01T00:00:00Z","name_a2s":"Uncletopia | New York City | 1 | All Maps","protocol":17,"map":"pl_upward","folder":"tf","game":"Team Fortress","app_id":440,"player_count":0,"max_players":24,"Bots":0,"server_type":"Dedicated","server_os":"Linux","password":true,"vac":true,"version":"7757534","steam_id":85568392924469993,"keywords":["nocrits","nodmgspread","payload","uncletopia"],"game_id":440,"stv_port":27016,"stv_name":"Uncletopia | New York City | 1 | All Maps | STV","players":null},{"server_id":14,"name":"Uncletopia | New York City | 2 | All Maps","name_short":"nyc-2","host":"nyc-1.us.uncletopia.com","port":27025,"enabled":true,"region":"us-east","cc":"us","latitude":40.73061,"longitude":-73.93524,"reserved":0,"last_update":"0001-01-01T00:00:00Z","name_a2s":"Uncletopia | New York City | 2 | All Maps","protocol":17,"map":"pl_swiftwater_final1","folder":"tf","game":"Team Fortress","app_id":440,"player_count":0,"max_players":24,"Bots":0,"server_type":"Dedicated","server_os":"Linux","password":true,"vac":true,"version":"7757534","steam_id":85568392924469994,"keywords":["nocrits","nodmgspread","payload","uncletopia"],"game_id":440,"stv_port":27026,"stv_name":"Uncletopia | New York City | 2 | All Maps | STV","players":null},{"server_id":15,"name":"Uncletopia | New York City | 3 | Stopwatch Beta","name_short":"nyc-3","host":"nyc-1.us.uncletopia.com","port":27035,"enabled":true,"region":"us-east","cc":"us","latitude":40.73061,"longitude":-73.93524,"reserved":0,"last_update":"0001-01-01T00:00:00Z","name_a2s":"Uncletopia | New York City | 3 | Stopwatch Beta","protocol":17,"map":"koth_highpass","folder":"tf","game":"Team Fortress","app_id":440,"player_count":0,"max_players":24,"Bots":0,"server_type":"Dedicated","server_os":"Linux","password":true,"vac":true,"version":"7757534","steam_id":85568392924742820,"keywords":["cp","nocrits","nodmgspread","uncletopia"],"game_id":440,"stv_port":27036,"stv_name":"Uncletopia | New York City | 3 | Stopwatch Beta | STV","players":null},{"server_id":16,"name":"Uncletopia | New York City | 4 | Community","name_short":"nyc-4","host":"nyc-1.us.uncletopia.com","port":27045,"enabled":true,"region":"us-east","cc":"us","latitude":40.73061,"longitude":-73.93524,"reserved":0,"last_update":"0001-01-01T00:00:00Z","name_a2s":"Uncletopia | New York City | 4 | Community","protocol":17,"map":"workshop/pl_cashworks_final1.ugc2904065412","folder":"tf","game":"Team Fortress","app_id":440,"player_count":0,"max_players":24,"Bots":0,"server_type":"Dedicated","server_os":"Linux","password":true,"vac":true,"version":"7757534","steam_id":85568392924742821,"keywords":["nocrits","nodmgspread","payload","uncletopia"],"game_id":440,"stv_port":27046,"stv_name":"Uncletopia | New York City | 4 | Community | STV","players":null},{"server_id":142,"name":"Uncletopia | S√£o Paulo | 1 | All Maps","name_short":"sao-1","host":"sao-1.br.uncletopia.com","port":27015,"enabled":true,"region":"sa","cc":"br","latitude":-23.533773,"longitude":-46.62529,"reserved":0,"last_update":"0001-01-01T00:00:00Z","name_a2s":"Uncletopia | S√£o Paulo | 1 | All Maps","protocol":17,"map":"pl_barnblitz","folder":"tf","game":"Team Fortress","app_id":440,"player_count":0,"max_players":24,"Bots":0,"server_type":"Dedicated","server_os":"Linux","password":true,"vac":true,"version":"7757534","steam_id":85568392924469996,"keywords":["nocrits","nodmgspread","payload","uncletopia"],"game_id":440,"stv_port":27016,"stv_name":"Uncletopia | S√£o Paulo | 1 | All Maps | STV","players":null},{"server_id":143,"name":"Uncletopia | S√£o Paulo | 2 | All Maps","name_short":"sao-2","host":"sao-2.br.uncletopia.com","port":27015,"enabled":true,"region":"sa","cc":"br","latitude":-23.533773,"longitude":-46.62529,"reserved":0,"last_update":"0001-01-01T00:00:00Z","name_a2s":"Uncletopia | S√£o Paulo | 2 | All Maps","protocol":17,"map":"pl_badwater","folder":"tf","game":"Team Fortress","app_id":440,"player_count":0,"max_players":24,"Bots":0,"server_type":"Dedicated","server_os":"Linux","password":true,"vac":true,"version":"7757534","steam_id":85568392924485349,"keywords":["nocrits","nodmgspread","payload","uncletopia"],"game_id":440,"stv_port":27016,"stv_name":"Uncletopia | S√£o Paulo | 2 | All Maps | STV","players":null},{"server_id":7,"name":"Uncletopia | Seattle | 1 | All Maps","name_short":"sea-1","host":"sea-1.us.uncletopia.com","port":27015,"enabled":true,"region":"us-west","cc":"us","latitude":47.608013,"longitude":-122.33517,"reserved":0,"last_update":"0001-01-01T00:00:00Z","name_a2s":"Uncletopia | Seattle | 1 | All Maps","protocol":17,"map":"pl_thundermountain","folder":"tf","game":"Team Fortress","app_id":440,"player_count":24,"max_players":24,"Bots":0,"server_type":"Dedicated","server_os":"Linux","password":true,"vac":true,"version":"7757534","steam_id":85568392924469997,"keywords":["nocrits","nodmgspread","payload","uncletopia"],"game_id":440,"stv_port":27016,"stv_name":"Uncletopia | Seattle | 1 | All Maps | STV","players":[{"user_id":704,"name":"HaphazardHazel","steam_id":76561198316812693,"connected_time":193000000000,"state":"active","ping":135},{"user_id":707,"name":"Dorte Voloxi","steam_id":76561198118620969,"connected_time":147000000000,"state":"active","ping":69},{"user_id":706,"name":"i dont lie","steam_id":76561199472361380,"connected_time":163000000000,"state":"active","ping":192},{"user_id":711,"name":"nescoceo","steam_id":76561198040801160,"connected_time":13000000000,"state":"active","ping":76},{"user_id":708,"name":"dirty30","steam_id":76561198021226566,"connected_time":113000000000,"state":"active","ping":45},{"user_id":680,"name":"Doc","steam_id":76561198453335611,"connected_time":2416000000000,"state":"active","ping":87},{"user_id":692,"name":"Dumbassary on Main","steam_id":76561198355168188,"connected_time":1335000000000,"state":"active","ping":117},{"user_id":604,"name":"Strikerbolt","steam_id":76561199095622897,"connected_time":10528000000000,"state":"active","ping":89},{"user_id":671,"name":"Jorge_dude_2008","steam_id":76561198870649125,"connected_time":3979000000000,"state":"active","ping":88},{"user_id":690,"name":"Milotic","steam_id":76561198047995713,"connected_time":1634000000000,"state":"active","ping":93},{"user_id":631,"name":"s0da","steam_id":76561198882033703,"connected_time":7199000000000,"state":"active","ping":130},{"user_id":699,"name":"Endstar","steam_id":76561198326392714,"connected_time":982000000000,"state":"active","ping":64},{"user_id":694,"name":"alenku","steam_id":76561198997139815,"connected_time":1289000000000,"state":"active","ping":56},{"user_id":664,"name":"The Population of Sweden","steam_id":76561198202201644,"connected_time":4921000000000,"state":"active","ping":42},{"user_id":705,"name":"KnotsAreUs","steam_id":76561198306522669,"connected_time":182000000000,"state":"active","ping":83},{"user_id":683,"name":"Jazz Hands","steam_id":76561199225708271,"connected_time":2069000000000,"state":"active","ping":71},{"user_id":591,"name":"Jarvendis","steam_id":76561198056583581,"connected_time":11778000000000,"state":"active","ping":86},{"user_id":709,"name":"DK360","steam_id":76561198796783094,"connected_time":59000000000,"state":"active","ping":60},{"user_id":696,"name":"Euphoria","steam_id":76561198187168787,"connected_time":1201000000000,"state":"active","ping":75},{"user_id":710,"name":"Mexicanboi","steam_id":76561199207696533,"connected_time":56000000000,"state":"active","ping":66},{"user_id":687,"name":"Knifeagent701","steam_id":76561198080002386,"connected_time":2018000000000,"state":"active","ping":133},{"user_id":697,"name":"Shpadukin","steam_id":76561198160248914,"connected_time":1193000000000,"state":"active","ping":73},{"user_id":703,"name":"Cam(era)","steam_id":76561198285054047,"connected_time":203000000000,"state":"active","ping":79},{"user_id":702,"name":"Archimedes!","steam_id":76561199446023933,"connected_time":205000000000,"state":"active","ping":88}]},{"server_id":119,"name":"Uncletopia | Seattle | 2 | All Maps","name_short":"sea-2","host":"sea-1.us.uncletopia.com","port":27025,"enabled":true,"region":"us-west","cc":"us","latitude":47.608013,"longitude":-122.33517,"reserved":0,"last_update":"0001-01-01T00:00:00Z","name_a2s":"Uncletopia | Seattle | 2 | All Maps","protocol":17,"map":"pl_frontier_final","folder":"tf","game":"Team Fortress","app_id":440,"player_count":24,"max_players":24,"Bots":0,"server_type":"Dedicated","server_os":"Linux","password":true,"vac":true,"version":"7757534","steam_id":85568392924469998,"keywords":["nocrits","nodmgspread","payload","uncletopia"],"game_id":440,"stv_port":27026,"stv_name":"Uncletopia | Seattle | 2 | All Maps | STV","players":[{"user_id":797,"name":"wallet wont fold","steam_id":76561198169755734,"connected_time":4769000000000,"state":"active","ping":62},{"user_id":834,"name":"Chrongus","steam_id":76561198067425730,"connected_time":1196000000000,"state":"active","ping":65},{"user_id":841,"name":"Quietsharp","steam_id":76561198277968438,"connected_time":283000000000,"state":"active","ping":84},{"user_id":835,"name":"Ducks","steam_id":76561198130038345,"connected_time":1098000000000,"state":"active","ping":69},{"user_id":816,"name":"Sniff","steam_id":76561198010270922,"connected_time":3310000000000,"state":"active","ping":41},{"user_id":794,"name":"Immunized","steam_id":76561197985889870,"connected_time":5003000000000,"state":"active","ping":44},{"user_id":842,"name":"Gary, 40, soul sucking 9-5","steam_id":76561198073812888,"connected_time":120000000000,"state":"active","ping":43},{"user_id":843,"name":"rorywashere /·ê† - Àï -„Éû ‚≥ä","steam_id":76561198065825165,"connected_time":50000000000,"state":"active","ping":159},{"user_id":823,"name":"WalkinMan","steam_id":76561198047941142,"connected_time":2362000000000,"state":"active","ping":58},{"user_id":839,"name":"brobtlcehc","steam_id":76561198043558709,"connected_time":362000000000,"state":"active","ping":46},{"user_id":825,"name":"Batso","steam_id":76561198106589452,"connected_time":2324000000000,"state":"active","ping":80},{"user_id":802,"name":"p9 jorts","steam_id":76561199041179985,"connected_time":4520000000000,"state":"active","ping":71},{"user_id":822,"name":"gorlab","steam_id":76561198025089694,"connected_time":2366000000000,"state":"active","ping":64},{"user_id":807,"name":"level 1 pyro","steam_id":76561198281197072,"connected_time":4078000000000,"state":"active","ping":108},{"user_id":821,"name":"Dunkle","steam_id":76561198041903573,"connected_time":2717000000000,"state":"active","ping":53},{"user_id":813,"name":"ORANGE","steam_id":76561198000401769,"connected_time":3935000000000,"state":"active","ping":48},{"user_id":837,"name":"Tyzombiecrusher","steam_id":76561198175855278,"connected_time":379000000000,"state":"active","ping":91},{"user_id":827,"name":"the","steam_id":76561198202246951,"connected_time":2006000000000,"state":"active","ping":78},{"user_id":800,"name":"NEBULA","steam_id":76561198086878595,"connected_time":4560000000000,"state":"active","ping":75},{"user_id":838,"name":"Florist","steam_id":76561198009121060,"connected_time":379000000000,"state":"active","ping":46},{"user_id":824,"name":"resh","steam_id":76561198239598834,"connected_time":2362000000000,"state":"active","ping":136},{"user_id":840,"name":"Stev the Prurient Oxymoron","steam_id":76561197999442625,"connected_time":362000000000,"state":"active","ping":65},{"user_id":829,"name":"squash","steam_id":76561198150281353,"connected_time":1968000000000,"state":"active","ping":60},{"user_id":801,"name":"elixir mixer","steam_id":76561198131166135,"connected_time":4557000000000,"state":"active","ping":45}]},{"server_id":406,"name":"Uncletopia | Seattle | 3 | Stopwatch Beta","name_short":"sea-3","host":"sea-1.us.uncletopia.com","port":27035,"enabled":true,"region":"us-west","cc":"us","latitude":47.608013,"longitude":-122.33517,"reserved":0,"last_update":"0001-01-01T00:00:00Z","name_a2s":"Uncletopia | Seattle | 3 | Stopwatch Beta","protocol":17,"map":"workshop/koth_product_final.ugc454272353","folder":"tf","game":"Team Fortress","app_id":440,"player_count":0,"max_players":24,"Bots":0,"server_type":"Dedicated","server_os":"Linux","password":true,"vac":true,"version":"7757534","steam_id":85568392924515217,"keywords":["cp","nocrits","nodmgspread","uncletopia"],"game_id":440,"stv_port":27036,"stv_name":"Uncletopia | Seattle | 3 | Stopwatch Beta | STV","players":null},{"server_id":17,"name":"Uncletopia | San Francisco | 1 | All Maps","name_short":"sfo-1","host":"sfo-1.us.uncletopia.com","port":27015,"enabled":true,"region":"us-west","cc":"us","latitude":37.77397,"longitude":-122.4313,"reserved":0,"last_update":"0001-01-01T00:00:00Z","name_a2s":"Uncletopia | San Francisco | 1 | All Maps","protocol":17,"map":"koth_lakeside_final","folder":"tf","game":"Team Fortress","app_id":440,"player_count":0,"max_players":24,"Bots":0,"server_type":"Dedicated","server_os":"Linux","password":true,"vac":true,"version":"7757534","steam_id":85568392924469999,"keywords":["cp","nocrits","nodmgspread","uncletopia"],"game_id":440,"stv_port":27016,"stv_name":"Uncletopia | San Francisco | 1 | All Maps | STV","players":null},{"server_id":18,"name":"Uncletopia | San Francisco | 2 | All Maps","name_short":"sfo-2","host":"sfo-1.us.uncletopia.com","port":27025,"enabled":true,"region":"us-west","cc":"us","latitude":37.77397,"longitude":-122.4313,"reserved":0,"last_update":"0001-01-01T00:00:00Z","name_a2s":"Uncletopia | San Francisco | 2 | All Maps","protocol":17,"map":"koth_viaduct","folder":"tf","game":"Team Fortress","app_id":440,"player_count":0,"max_players":24,"Bots":0,"server_type":"Dedicated","server_os":"Linux","password":true,"vac":true,"version":"7757534","steam_id":85568392924470000,"keywords":["cp","nocrits","nodmgspread","uncletopia"],"game_id":440,"stv_port":27026,"stv_name":"Uncletopia | San Francisco | 2 | All Maps | STV","players":null},{"server_id":19,"name":"Uncletopia | San Francisco | 3 | Stopwatch Beta","name_short":"sfo-3","host":"sfo-1.us.uncletopia.com","port":27035,"enabled":true,"region":"us-west","cc":"us","latitude":37.77397,"longitude":-122.4313,"reserved":0,"last_update":"0001-01-01T00:00:00Z","name_a2s":"Uncletopia | San Francisco | 3 | Stopwatch Beta","protocol":17,"map":"pl_borneo","folder":"tf","game":"Team Fortress","app_id":440,"player_count":0,"max_players":24,"Bots":0,"server_type":"Dedicated","server_os":"Linux","password":true,"vac":true,"version":"7757534","steam_id":85568392924742824,"keywords":["nocrits","nodmgspread","payload","uncletopia"],"game_id":440,"stv_port":27036,"stv_name":"Uncletopia | San Francisco | 3 | Stopwatch Beta | STV","players":null},{"server_id":20,"name":"Uncletopia | San Francisco | 4 | Community","name_short":"sfo-4","host":"sfo-1.us.uncletopia.com","port":27045,"enabled":true,"region":"us-west","cc":"us","latitude":37.77397,"longitude":-122.4313,"reserved":0,"last_update":"0001-01-01T00:00:00Z","name_a2s":"Uncletopia | San Francisco | 4 | Community","protocol":17,"map":"workshop/pl_highwood_b13.ugc1769496557","folder":"tf","game":"Team Fortress","app_id":440,"player_count":0,"max_players":24,"Bots":0,"server_type":"Dedicated","server_os":"Linux","password":true,"vac":true,"version":"7757534","steam_id":85568392924742826,"keywords":["nocrits","nodmgspread","payload","uncletopia"],"game_id":440,"stv_port":27046,"stv_name":"Uncletopia | San Francisco | 4 | Community | STV","players":null},{"server_id":141,"name":"Uncletopia | Sydney | 1 | All Maps","name_short":"syd-1","host":"syd-1.au.uncletopia.com","port":27015,"enabled":true,"region":"au","cc":"au","latitude":-33.865143,"longitude":151.2099,"reserved":0,"last_update":"0001-01-01T00:00:00Z","name_a2s":"Uncletopia | Sydney | 1 | All Maps","protocol":17,"map":"pl_borneo","folder":"tf","game":"Team Fortress","app_id":440,"player_count":22,"max_players":24,"Bots":0,"server_type":"Dedicated","server_os":"Linux","password":true,"vac":true,"version":"7757534","steam_id":85568392924470001,"keywords":["nocrits","nodmgspread","payload","uncletopia"],"game_id":440,"stv_port":27016,"stv_name":"Uncletopia | Sydney | 1 | All Maps | STV","players":[{"user_id":341,"name":"tiktok","steam_id":76561198087803935,"connected_time":2082000000000,"state":"active","ping":49},{"user_id":373,"name":"voxii","steam_id":76561198099698281,"connected_time":347000000000,"state":"active","ping":65},{"user_id":375,"name":"Not_Marie","steam_id":76561199085742525,"connected_time":107000000000,"state":"active","ping":206},{"user_id":376,"name":"J959","steam_id":76561198855585931,"connected_time":44000000000,"state":"spawning","ping":44},{"user_id":330,"name":"Jellyfish_kurage","steam_id":76561198425670698,"connected_time":3138000000000,"state":"active","ping":56},{"user_id":365,"name":"MrMuffin16","steam_id":76561198257303774,"connected_time":894000000000,"state":"active","ping":60},{"user_id":346,"name":"dad","steam_id":76561198063032696,"connected_time":1711000000000,"state":"active","ping":59},{"user_id":347,"name":"Easel (any/all)","steam_id":76561198049213583,"connected_time":1667000000000,"state":"active","ping":74},{"user_id":329,"name":"dinxie","steam_id":76561199448765541,"connected_time":3228000000000,"state":"active","ping":67},{"user_id":372,"name":"Ponderosa","steam_id":76561199436707447,"connected_time":390000000000,"state":"active","ping":57},{"user_id":368,"name":"Dangerous DPad","steam_id":76561198452829128,"connected_time":657000000000,"state":"active","ping":61},{"user_id":331,"name":"Worst Sniper","steam_id":76561198025733081,"connected_time":3040000000000,"state":"active","ping":79},{"user_id":364,"name":"A Spaceman","steam_id":76561198400378180,"connected_time":1088000000000,"state":"active","ping":52},{"user_id":374,"name":"FriskyPotato","steam_id":76561198061320611,"connected_time":233000000000,"state":"active","ping":58},{"user_id":336,"name":"YungBingchilling","steam_id":76561199215980456,"connected_time":2615000000000,"state":"active","ping":145},{"user_id":362,"name":"doctor morbin' (real)","steam_id":76561199365241695,"connected_time":1145000000000,"state":"active","ping":123},{"user_id":377,"name":"iCreepAround","steam_id":76561198146258786,"connected_time":28000000000,"state":"active","ping":213},{"user_id":340,"name":"DragRiper","steam_id":76561198050917553,"connected_time":2390000000000,"state":"active","ping":59},{"user_id":355,"name":"Silent Llama","steam_id":76561198091589936,"connected_time":1396000000000,"state":"active","ping":99},{"user_id":358,"name":"Scetaril","steam_id":76561199232961168,"connected_time":1297000000000,"state":"active","ping":60},{"user_id":369,"name":"shaggy","steam_id":76561198124366634,"connected_time":466000000000,"state":"active","ping":55},{"user_id":363,"name":"FIX","steam_id":76561197995157189,"connected_time":1135000000000,"state":"active","ping":52}]},{"server_id":123,"name":"Uncletopia | Sydney | 2 | All Maps","name_short":"syd-2","host":"syd-1.au.uncletopia.com","port":27025,"enabled":true,"region":"au","cc":"au","latitude":-33.865143,"longitude":151.2099,"reserved":0,"last_update":"0001-01-01T00:00:00Z","name_a2s":"Uncletopia | Sydney | 2 | All Maps","protocol":17,"map":"pl_thundermountain","folder":"tf","game":"Team Fortress","app_id":440,"player_count":19,"max_players":24,"Bots":0,"server_type":"Dedicated","server_os":"Linux","password":true,"vac":true,"version":"7757534","steam_id":85568392924470002,"keywords":["nocrits","nodmgspread","payload","uncletopia"],"game_id":440,"stv_port":27026,"stv_name":"Uncletopia | Sydney | 2 | All Maps | STV","players":[{"user_id":142,"name":"Crimson Aurora","steam_id":76561198157492747,"connected_time":372000000000,"state":"active","ping":105},{"user_id":42,"name":"SUSHIMAN","steam_id":76561199089989428,"connected_time":9061000000000,"state":"active","ping":83},{"user_id":143,"name":"Patroid","steam_id":76561198320888586,"connected_time":258000000000,"state":"active","ping":55},{"user_id":139,"name":"beth.cubitt","steam_id":76561198454733447,"connected_time":628000000000,"state":"active","ping":83},{"user_id":135,"name":"Nuker","steam_id":76561198207761688,"connected_time":834000000000,"state":"active","ping":41},{"user_id":124,"name":"StarFraud96","steam_id":76561198351146153,"connected_time":2001000000000,"state":"active","ping":68},{"user_id":96,"name":"Empr","steam_id":76561198024387396,"connected_time":4361000000000,"state":"active","ping":67},{"user_id":140,"name":"Lloydy","steam_id":76561198142971098,"connected_time":626000000000,"state":"active","ping":65},{"user_id":122,"name":"lofty","steam_id":76561198380588357,"connected_time":2214000000000,"state":"active","ping":70},{"user_id":146,"name":"Tenous","steam_id":76561198143631024,"connected_time":228000000000,"state":"active","ping":59},{"user_id":120,"name":"flatty rob","steam_id":76561198946898233,"connected_time":2566000000000,"state":"active","ping":50},{"user_id":126,"name":"wirthy","steam_id":76561198061532381,"connected_time":1812000000000,"state":"active","ping":79},{"user_id":127,"name":"Yric","steam_id":76561198050493469,"connected_time":1787000000000,"state":"active","ping":45},{"user_id":145,"name":"pablo.rodriguez.2015","steam_id":76561198166909147,"connected_time":243000000000,"state":"active","ping":31},{"user_id":129,"name":"freek","steam_id":76561198406237673,"connected_time":1704000000000,"state":"active","ping":60},{"user_id":113,"name":"the lad#savetf2","steam_id":76561198865537226,"connected_time":3205000000000,"state":"active","ping":88},{"user_id":116,"name":"k1ll4r","steam_id":76561198195519834,"connected_time":2770000000000,"state":"active","ping":34},{"user_id":106,"name":"now's the time to invest","steam_id":76561198223331996,"connected_time":3647000000000,"state":"active","ping":74},{"user_id":104,"name":"chopspot","steam_id":76561198420572723,"connected_time":3800000000000,"state":"active","ping":84}]},{"server_id":395,"name":"Uncletopia | Sydney | 3 | All Maps","name_short":"syd-3","host":"syd-1.au.uncletopia.com","port":27035,"enabled":true,"region":"au","cc":"au","latitude":-33.865143,"longitude":151.2099,"reserved":0,"last_update":"0001-01-01T00:00:00Z","name_a2s":"Uncletopia | Sydney | 3 | All Maps","protocol":17,"map":"cp_snakewater_final1","folder":"tf","game":"Team Fortress","app_id":440,"player_count":0,"max_players":24,"Bots":0,"server_type":"Dedicated","server_os":"Linux","password":true,"vac":true,"version":"7757534","steam_id":85568392925194467,"keywords":["cp","nocrits","nodmgspread","uncletopia"],"game_id":440,"stv_port":27036,"stv_name":"Uncletopia | Sydney | 3 | All Maps | STV","players":null},{"server_id":396,"name":"Uncletopia | Sydney | 4 | All Maps","name_short":"syd-4","host":"syd-1.au.uncletopia.com","port":27045,"enabled":true,"region":"au","cc":"au","latitude":-33.865143,"longitude":151.2099,"reserved":0,"last_update":"0001-01-01T00:00:00Z","name_a2s":"Uncletopia | Sydney | 4 | All Maps","protocol":17,"map":"koth_lakeside_final","folder":"tf","game":"Team Fortress","app_id":440,"player_count":0,"max_players":24,"Bots":0,"server_type":"Dedicated","server_os":"Linux","password":true,"vac":true,"version":"7757534","steam_id":85568392925397958,"keywords":["cp","nocrits","nodmgspread","uncletopia"],"game_id":440,"stv_port":27046,"stv_name":"Uncletopia | Sydney | 4 | All Maps | STV","players":null},{"server_id":58,"name":"Uncletopia | Sydney | 5 | Stopwatch Beta","name_short":"syd-5","host":"syd-1.au.uncletopia.com","port":27055,"enabled":true,"region":"au","cc":"au","latitude":-33.865143,"longitude":151.2099,"reserved":0,"last_update":"0001-01-01T00:00:00Z","name_a2s":"Uncletopia | Sydney | 5 | Stopwatch Beta","protocol":17,"map":"koth_lakeside_final","folder":"tf","game":"Team Fortress","app_id":440,"player_count":0,"max_players":24,"Bots":0,"server_type":"Dedicated","server_os":"Linux","password":true,"vac":true,"version":"7757534","steam_id":85568392925397959,"keywords":["cp","nocrits","nodmgspread","uncletopia"],"game_id":440,"stv_port":27056,"stv_name":"Uncletopia | Sydney | 5 | Stopwatch Beta | STV","players":null},{"server_id":59,"name":"Uncletopia | Sydney | 6 | Community","name_short":"syd-6","host":"syd-1.au.uncletopia.com","port":27065,"enabled":true,"region":"au","cc":"au","latitude":-33.865143,"longitude":151.2099,"reserved":0,"last_update":"0001-01-01T00:00:00Z","name_a2s":"Uncletopia | Sydney | 6 | Community","protocol":17,"map":"cp_sunshine","folder":"tf","game":"Team Fortress","app_id":440,"player_count":0,"max_players":24,"Bots":0,"server_type":"Dedicated","server_os":"Linux","password":true,"vac":true,"version":"7757534","steam_id":85568392925397960,"keywords":["cp","nocrits","nodmgspread","uncletopia"],"game_id":440,"stv_port":27066,"stv_name":"Uncletopia | Sydney | 6 | Community | STV","players":null},{"server_id":49,"name":"Uncletopia | Warsaw | 1 | All Maps","name_short":"waw-1","host":"waw-1.pl.uncletopia.com","port":27015,"enabled":true,"region":"eu","cc":"pl","latitude":52.2297,"longitude":21.017532,"reserved":0,"last_update":"0001-01-01T00:00:00Z","name_a2s":"","protocol":0,"map":"","folder":"","game":"","app_id":0,"player_count":0,"max_players":0,"Bots":0,"server_type":"","server_os":"","password":false,"vac":false,"version":"","steam_id":0,"keywords":null,"game_id":0,"stv_port":0,"stv_name":"","players":null},{"server_id":50,"name":"Uncletopia | Warsaw | 2 | All Maps","name_short":"waw-2","host":"waw-1.pl.uncletopia.com","port":27025,"enabled":true,"region":"eu","cc":"pl","latitude":52.2297,"longitude":21.017532,"reserved":0,"last_update":"0001-01-01T00:00:00Z","name_a2s":"Uncletopia | Warsaw | 2 | All Maps","protocol":17,"map":"cp_process_final","folder":"tf","game":"Team Fortress","app_id":440,"player_count":0,"max_players":24,"Bots":0,"server_type":"Dedicated","server_os":"Linux","password":true,"vac":true,"version":"7757534","steam_id":85568392925397851,"keywords":["cp","nocrits","nodmgspread","uncletopia"],"game_id":440,"stv_port":27026,"stv_name":"Uncletopia | Warsaw | 2 | All Maps | STV","players":null},{"server_id":51,"name":"Uncletopia | Warsaw | 3 | All Maps","name_short":"waw-3","host":"waw-1.pl.uncletopia.com","port":27035,"enabled":true,"region":"eu","cc":"pl","latitude":52.2297,"longitude":21.017532,"reserved":0,"last_update":"0001-01-01T00:00:00Z","name_a2s":"Uncletopia | Warsaw | 3 | All Maps","protocol":17,"map":"pl_barnblitz","folder":"tf","game":"Team Fortress","app_id":440,"player_count":0,"max_players":24,"Bots":0,"server_type":"Dedicated","server_os":"Linux","password":true,"vac":true,"version":"7757534","steam_id":85568392925397852,"keywords":["nocrits","nodmgspread","payload","uncletopia"],"game_id":440,"stv_port":27036,"stv_name":"Uncletopia | Warsaw | 3 | All Maps | STV","players":null},{"server_id":52,"name":"Uncletopia | Warsaw | 4 | All Maps","name_short":"waw-4","host":"waw-1.pl.uncletopia.com","port":27045,"enabled":true,"region":"eu","cc":"pl","latitude":52.2297,"longitude":21.017532,"reserved":0,"last_update":"0001-01-01T00:00:00Z","name_a2s":"Uncletopia | Warsaw | 4 | All Maps","protocol":17,"map":"pl_snowycoast","folder":"tf","game":"Team Fortress","app_id":440,"player_count":0,"max_players":24,"Bots":0,"server_type":"Dedicated","server_os":"Linux","password":true,"vac":true,"version":"7757534","steam_id":85568392925397853,"keywords":["nocrits","nodmgspread","payload","uncletopia"],"game_id":440,"stv_port":27046,"stv_name":"Uncletopia | Warsaw | 4 | All Maps | STV","players":null},{"server_id":53,"name":"Uncletopia | Warsaw | 5 | Stopwatch Beta","name_short":"waw-5","host":"waw-1.pl.uncletopia.com","port":27055,"enabled":true,"region":"eu","cc":"pl","latitude":52.2297,"longitude":21.017532,"reserved":0,"last_update":"0001-01-01T00:00:00Z","name_a2s":"Uncletopia | Warsaw | 5 | Stopwatch Beta","protocol":17,"map":"pl_barnblitz","folder":"tf","game":"Team Fortress","app_id":440,"player_count":0,"max_players":24,"Bots":0,"server_type":"Dedicated","server_os":"Linux","password":true,"vac":true,"version":"7757534","steam_id":85568392925397854,"keywords":["nocrits","nodmgspread","payload","uncletopia"],"game_id":440,"stv_port":27056,"stv_name":"Uncletopia | Warsaw | 5 | Stopwatch Beta | STV","players":null},{"server_id":54,"name":"Uncletopia | Warsaw | 6 | Community","name_short":"waw-6","host":"waw-1.pl.uncletopia.com","port":27065,"enabled":true,"region":"eu","cc":"pl","latitude":52.2297,"longitude":21.017532,"reserved":0,"last_update":"0001-01-01T00:00:00Z","name_a2s":"Uncletopia | Warsaw | 6 | Community","protocol":17,"map":"pl_swiftwater_final1","folder":"tf","game":"Team Fortress","app_id":440,"player_count":0,"max_players":24,"Bots":0,"server_type":"Dedicated","server_os":"Linux","password":true,"vac":true,"version":"7757534","steam_id":85568392925397856,"keywords":["nocrits","nodmgspread","payload","uncletopia"],"game_id":440,"stv_port":27066,"stv_name":"Uncletopia | Warsaw | 6 | Community | STV","players":null}]}