{"status":true,"message":"","result":[{"server_id":9,"name":"Uncletopia | Atlanta | 1 | All Maps","name_short":"atl-1","host":"atl-1.us.uncletopia.com","port":27015,"enabled":true,"region":"us-east","cc":"us","latitude":33.753746,"longitude":-84.38633,"reserved":0,"last_update":"0001-01-01T00:00:00Z","name_a2s":"Uncletopia | Atlanta | 1 | All Maps","protocol":17,"map":"pl_borneo","folder":"tf","game":"Team Fortress","app_id":440,"player_count":24,"max_players":24,"Bots":0,"server_type":"Dedicated","server_os":"Linux","password":true,"vac":true,"version":"7961495","steam_id":85568392924469982,"keywords":["nocrits","nodmgspread","payload","uncletopia"],"game_id":440,"stv_port":27016,"stv_name":"Uncletopia | Atlanta | 1 | All Maps | STV","players":null},{"server_id":104,"name":"Uncletopia | Atlanta | 2 | All Maps","name_short":"atl-2","host":"atl-1.us.uncletopia.com","port":27025,"enabled":true,"region":"us-east","cc":"us","latitude":33.753746,"longitude":-84.38633,"reserved":0,"last_update":"0001-01-01T00:00:00Z","name_a2s":"Uncletopia | Atlanta | 2 | All Maps","protocol":17,"map":"koth_viaduct","folder":"tf","game":"Team Fortress","app_id":440,"player_count":0,"max_players":24,"Bots":0,"server_type":"Dedicated","server_os":"Linux","password":true,"vac":true,"version":"7961495","steam_id":85568392924469983,"keywords":["cp","nocrits","nodmgspread","uncletopia"],"game_id":440,"stv_port":27026,"stv_name":"Uncletopia | Atlanta | 2 | All Maps | STV","players":null},{"server_id":400,"name":"Uncletopia | Atlanta | 3 | Stopwatch","name_short":"atl-3","host":"atl-1.us.uncletopia.com","port":27035,"enabled":true,"region":"us-east","cc":"us","latitude":33.753746,"longitude":-84.38633,"reserved":0,"last_update":"0001-01-01T00:00:00Z","name_a2s":"Uncletopia | Atlanta | 3 | Stopwatch","protocol":17,"map":"koth_clearcut_b15","folder":"tf","game":"Team Fortress","app_id":440,"player_count":0,"max_players":24,"Bots":0,"server_type":"Dedicated","server_os":"Linux","password":true,"vac":true,"version":"7961495","steam_id":85568392924515187,"keywords":["cp","nocrits","nodmgspread","uncletopia"],"game_id":440,"stv_port":27036,"stv_name":"Uncletopia | Atlanta | 3 | Stopwatch | STV","players":null},{"server_id":401,"name":"Uncletopia | Atlanta | 4 | Community","name_short":"atl-4","host":"atl-1.us.uncletopia.com","port":27045,"enabled":true,"region":"us-east","cc":"us","latitude":33.753746,"longitude":-84.38633,"reserved":0,"last_update":"0001-01-01T00:00:00Z","name_a2s":"Uncletopia | Atlanta | 4 | Community","protocol":17,"map":"koth_product_final","folder":"tf","game":"Team Fortress","app_id":440,"player_count":0,"max_players":24,"Bots":0,"server_type":"Dedicated","server_os":"Linux","password":true,"vac":true,"version":"7961495","steam_id":85568392924515188,"keywords":["cp","nocrits","nodmgspread","uncletopia"],"game_id":440,"stv_port":27046,"stv_name":"Uncletopia | Atlanta | 4 | Community | STV","players":null},{"server_id":2,"name":"Uncletopia | Chicago | 1 | All Maps","name_short":"chi-1","host":"chi-1.us.uncletopia.com","port":27015,"enabled":true,"region":"us-central","cc":"us","latitude":41.881832,"longitude":-87.62318,"reserved":0,"last_update":"0001-01-01T00:00:00Z","name_a2s":"Uncletopia | Chicago | 1 | All Maps","protocol":17,"map":"cp_process_final","folder":"tf","game":"Team Fortress","app_id":440,"player_count":0,"max_players":24,"Bots":0,"server_type":"Dedicated","server_os":"Linux","password":true,"vac":true,"version":"7961495","steam_id":85568392924469984,"keywords":["cp","nocrits","nodmgspread","uncletopia"],"game_id":440,"stv_port":27016,"stv_name":"Uncletopia | Chicago | 1 | All Maps | STV","players":null},{"server_id":106,"name":"Uncletopia | Chicago | 2 | All Maps","name_short":"chi-2","host":"chi-1.us.uncletopia.com","port":27025,"enabled":true,"region":"us-central","cc":"us","latitude":41.881832,"longitude":-87.62318,"reserved":0,"last_update":"0001-01-01T00:00:00Z","name_a2s":"Uncletopia | Chicago | 2 | All Maps","protocol":17,"map":"pl_swiftwater_final1","folder":"tf","game":"Team Fortress","app_id":440,"player_count":18,"max_players":24,"Bots":0,"server_type":"Dedicated","server_os":"Linux","password":true,"vac":true,"version":"7961495","steam_id":85568392924469985,"keywords":["nocrits","nodmgspread","payload","uncletopia"],"game_id":440,"stv_port":27026,"stv_name":"Uncletopia | Chicago | 2 | All Maps | STV","players":[{"user_id":816,"name":"pim","steam_id":76561198095163441,"connected_time":1807000000000,"state":"active","ping":60},{"user_id":821,"name":"Porky Minch","steam_id":76561198116168773,"connected_time":1443000000000,"state":"active","ping":58},{"user_id":820,"name":"ShadowDragon0125","steam_id":76561198343849022,"connected_time":1551000000000,"state":"active","ping":72},{"user_id":835,"name":"Zero","steam_id":76561198033384990,"connected_time":641000000000,"state":"active","ping":51},{"user_id":817,"name":"Filthy Acts at Reasonable Price","steam_id":76561198354615890,"connected_time":1721000000000,"state":"active","ping":55},{"user_id":834,"name":"bbb","steam_id":76561198091328388,"connected_time":706000000000,"state":"active","ping":52},{"user_id":838,"name":"dilfbot","steam_id":76561198099988165,"connected_time":595000000000,"state":"active","ping":70},{"user_id":800,"name":"Decapitation Station","steam_id":76561198201796098,"connected_time":3050000000000,"state":"active","ping":93},{"user_id":824,"name":"rudy","steam_id":76561198088712799,"connected_time":1402000000000,"state":"active","ping":74},{"user_id":808,"name":"mwee machine","steam_id":76561198047126327,"connected_time":2747000000000,"state":"active","ping":60},{"user_id":825,"name":"TheMaskedMan725","steam_id":76561198278582926,"connected_time":1378000000000,"state":"active","ping":115},{"user_id":802,"name":"Raccoon Wizard","steam_id":76561198072562591,"connected_time":3021000000000,"state":"active","ping":83},{"user_id":826,"name":"skaska4","steam_id":76561198080606141,"connected_time":1333000000000,"state":"active","ping":111},{"user_id":841,"name":"The Spanish Inquisition","steam_id":76561198109322171,"connected_time":359000000000,"state":"active","ping":55},{"user_id":811,"name":"DinosaurBeard100","steam_id":76561198122256369,"connected_time":2120000000000,"state":"active","ping":60},{"user_id":827,"name":"Juanseparra564","steam_id":76561198176662903,"connected_time":1308000000000,"state":"active","ping":127},{"user_id":836,"name":"Bloodgoat","steam_id":76561198047407295,"connected_time":632000000000,"state":"active","ping":70},{"user_id":840,"name":"Oopsie Daisy ‚ùã","steam_id":76561198042144492,"connected_time":424000000000,"state":"active","ping":77}]},{"server_id":402,"name":"Uncletopia | Chicago | 3 | All Maps","name_short":"chi-3","host":"chi-1.us.uncletopia.com","port":27035,"enabled":true,"region":"us-central","cc":"us","latitude":41.881832,"longitude":-87.62318,"reserved":0,"last_update":"0001-01-01T00:00:00Z","name_a2s":"Uncletopia | Chicago | 3 | All Maps","protocol":17,"map":"pl_badwater","folder":"tf","game":"Team Fortress","app_id":440,"player_count":24,"max_players":24,"Bots":0,"server_type":"Dedicated","server_os":"Linux","password":true,"vac":true,"version":"7961495","steam_id":85568392924515191,"keywords":["nocrits","nodmgspread","payload","uncletopia"],"game_id":440,"stv_port":27036,"stv_name":"Uncletopia | Chicago | 3 | All Maps | STV","players":[{"user_id":396,"name":"Neophyte","steam_id":76561198027183394,"connected_time":3019000000000,"state":"active","ping":89},{"user_id":403,"name":"Skyblade64","steam_id":76561198042177790,"connected_time":1751000000000,"state":"active","ping":56},{"user_id":413,"name":"benny worm","steam_id":76561198163238434,"connected_time":1112000000000,"state":"active","ping":64},{"user_id":418,"name":"Double Tapp","steam_id":76561197993847700,"connected_time":235000000000,"state":"active","ping":112},{"user_id":407,"name":"Scruga","steam_id":76561197993476998,"connected_time":1615000000000,"state":"active","ping":135},{"user_id":406,"name":"PTR","steam_id":76561198237253772,"connected_time":1641000000000,"state":"active","ping":80},{"user_id":409,"name":"Lemons","steam_id":76561198125139930,"connected_time":1539000000000,"state":"active","ping":57},{"user_id":411,"name":"Lord Cutler Beckett","steam_id":76561198091356047,"connected_time":1297000000000,"state":"active","ping":51},{"user_id":370,"name":"Walt","steam_id":76561198964107245,"connected_time":4922000000000,"state":"active","ping":90},{"user_id":395,"name":"gorpus","steam_id":76561198413125750,"connected_time":3049000000000,"state":"active","ping":62},{"user_id":415,"name":"Hamz","steam_id":76561199287459211,"connected_time":308000000000,"state":"active","ping":65},{"user_id":386,"name":"TruthHut","steam_id":76561198093452436,"connected_time":3518000000000,"state":"active","ping":82},{"user_id":416,"name":"com lag","steam_id":76561198019019392,"connected_time":296000000000,"state":"active","ping":57},{"user_id":326,"name":"FireQuiz","steam_id":76561198107357249,"connected_time":7752000000000,"state":"active","ping":100},{"user_id":368,"name":"Dick Grimes","steam_id":76561198157414556,"connected_time":5454000000000,"state":"active","ping":88},{"user_id":367,"name":"Jesse","steam_id":76561198157305426,"connected_time":5527000000000,"state":"active","ping":60},{"user_id":354,"name":"stormfoam","steam_id":76561198936871387,"connected_time":6107000000000,"state":"active","ping":60},{"user_id":417,"name":"bikerkid207","steam_id":76561198390782783,"connected_time":291000000000,"state":"active","ping":69},{"user_id":419,"name":"Five","steam_id":76561198026640473,"connected_time":87000000000,"state":"active","ping":75},{"user_id":400,"name":"TheRealFrain","steam_id":76561199368476461,"connected_time":2384000000000,"state":"active","ping":86},{"user_id":389,"name":"Blobbyfish","steam_id":76561198822962650,"connected_time":3435000000000,"state":"active","ping":71},{"user_id":414,"name":"ZBaldTop","steam_id":76561199396318132,"connected_time":1090000000000,"state":"active","ping":49},{"user_id":397,"name":"roo the observer","steam_id":76561198120684348,"connected_time":2934000000000,"state":"active","ping":63},{"user_id":412,"name":"Dan","steam_id":76561199236719411,"connected_time":1189000000000,"state":"active","ping":74}]},{"server_id":403,"name":"Uncletopia | Chicago | 4 | All Maps","name_short":"chi-4","host":"chi-1.us.uncletopia.com","port":27045,"enabled":true,"region":"us-central","cc":"us","latitude":41.881832,"longitude":-87.62318,"reserved":0,"last_update":"0001-01-01T00:00:00Z","name_a2s":"Uncletopia | Chicago | 4 | All Maps","protocol":17,"map":"pl_swiftwater_final1","folder":"tf","game":"Team Fortress","app_id":440,"player_count":23,"max_players":24,"Bots":0,"server_type":"Dedicated","server_os":"Linux","password":true,"vac":true,"version":"7961495","steam_id":85568392924515193,"keywords":["nocrits","nodmgspread","payload","uncletopia"],"game_id":440,"stv_port":27046,"stv_name":"Uncletopia | Chicago | 4 | All Maps | STV","players":[{"user_id":847,"name":"The Law","steam_id":76561198202209948,"connected_time":3156000000000,"state":"active","ping":47},{"user_id":850,"name":"Nebuchadnezzar","steam_id":76561198131348690,"connected_time":2751000000000,"state":"active","ping":99},{"user_id":871,"name":"`-w üêß‚ú®","steam_id":76561198125261443,"connected_time":342000000000,"state":"active","ping":114},{"user_id":861,"name":"Just-Some-Menace","steam_id":76561198152324397,"connected_time":1728000000000,"state":"active","ping":74},{"user_id":855,"name":"Atoc","steam_id":76561198300877325,"connected_time":2446000000000,"state":"active","ping":60},{"user_id":805,"name":"Keith Cozart","steam_id":76561198146090015,"connected_time":6403000000000,"state":"active","ping":48},{"user_id":867,"name":"An Erect Penis :)","steam_id":76561198086477485,"connected_time":723000000000,"state":"active","ping":40},{"user_id":707,"name":"Kickbakk","steam_id":76561198042335947,"connected_time":10297000000000,"state":"active","ping":69},{"user_id":840,"name":"cass","steam_id":76561198074502046,"connected_time":3306000000000,"state":"active","ping":102},{"user_id":856,"name":"lynt","steam_id":76561198988333976,"connected_time":2429000000000,"state":"active","ping":60},{"user_id":842,"name":"Theus117 [ „ÉÅ„É´„Éé‚ë®]","steam_id":76561198108902928,"connected_time":3269000000000,"state":"active","ping":60},{"user_id":834,"name":"Monsterjessy","steam_id":76561198035630985,"connected_time":3710000000000,"state":"active","ping":59},{"user_id":843,"name":"Aeris","steam_id":76561198287271028,"connected_time":3259000000000,"state":"active","ping":56},{"user_id":808,"name":"rum nitty","steam_id":76561198174788846,"connected_time":6334000000000,"state":"active","ping":55},{"user_id":827,"name":"Rira","steam_id":76561197995224164,"connected_time":4461000000000,"state":"active","ping":58},{"user_id":783,"name":"chiswola","steam_id":76561198046920142,"connected_time":7980000000000,"state":"active","ping":71},{"user_id":845,"name":"Lollipop rh","steam_id":76561198823983639,"connected_time":3194000000000,"state":"active","ping":76},{"user_id":859,"name":"Rein | Comms Open","steam_id":76561198300340427,"connected_time":1835000000000,"state":"active","ping":60},{"user_id":873,"name":"dunker","steam_id":76561198066114874,"connected_time":220000000000,"state":"active","ping":105},{"user_id":872,"name":"KATSURB","steam_id":76561199172118456,"connected_time":312000000000,"state":"active","ping":67},{"user_id":860,"name":"bluetacos","steam_id":76561198880622349,"connected_time":1828000000000,"state":"active","ping":109},{"user_id":874,"name":"sloppy blowjob devil","steam_id":76561198089852954,"connected_time":159000000000,"state":"active","ping":84},{"user_id":863,"name":"murmaider","steam_id":76561198882758067,"connected_time":1668000000000,"state":"active","ping":43}]},{"server_id":36,"name":"Uncletopia | Chicago | 5 | All Maps","name_short":"chi-5","host":"chi-2.us.uncletopia.com","port":27015,"enabled":true,"region":"us-central","cc":"us","latitude":41.881832,"longitude":-87.62318,"reserved":0,"last_update":"0001-01-01T00:00:00Z","name_a2s":"Uncletopia | Chicago | 5 | All Maps","protocol":17,"map":"koth_viaduct","folder":"tf","game":"Team Fortress","app_id":440,"player_count":12,"max_players":24,"Bots":0,"server_type":"Dedicated","server_os":"Linux","password":true,"vac":true,"version":"7961495","steam_id":85568392924866362,"keywords":["cp","nocrits","nodmgspread","uncletopia"],"game_id":440,"stv_port":27016,"stv_name":"Uncletopia | Chicago | 5 | All Maps | STV","players":[{"user_id":184,"name":"ANoNameIs","steam_id":76561197974931667,"connected_time":2645000000000,"state":"active","ping":90},{"user_id":187,"name":"Cam","steam_id":76561198139174433,"connected_time":2630000000000,"state":"active","ping":81},{"user_id":188,"name":"chaotic bug goblin creature","steam_id":76561198079437901,"connected_time":2626000000000,"state":"active","ping":60},{"user_id":189,"name":"Mike","steam_id":76561198122500429,"connected_time":2616000000000,"state":"active","ping":69},{"user_id":192,"name":"Zthandrapus","steam_id":76561198083562708,"connected_time":2559000000000,"state":"active","ping":87},{"user_id":195,"name":"bunsy","steam_id":76561198097292857,"connected_time":2487000000000,"state":"active","ping":60},{"user_id":209,"name":"Alex","steam_id":76561198176724251,"connected_time":151000000000,"state":"active","ping":91},{"user_id":197,"name":"wG dogmeat","steam_id":76561198964002142,"connected_time":1577000000000,"state":"active","ping":111},{"user_id":198,"name":"Ken","steam_id":76561198233988068,"connected_time":872000000000,"state":"active","ping":68},{"user_id":199,"name":"Mr Business","steam_id":76561199193931762,"connected_time":835000000000,"state":"active","ping":65},{"user_id":210,"name":"the munch","steam_id":76561199164347838,"connected_time":142000000000,"state":"active","ping":64},{"user_id":204,"name":"J O S H¬≥¬≤","steam_id":76561198122603779,"connected_time":548000000000,"state":"active","ping":96}]},{"server_id":37,"name":"Uncletopia | Chicago | 6 | All Maps","name_short":"chi-6","host":"chi-2.us.uncletopia.com","port":27025,"enabled":true,"region":"us-central","cc":"us","latitude":41.881832,"longitude":-87.62318,"reserved":0,"last_update":"0001-01-01T00:00:00Z","name_a2s":"Uncletopia | Chicago | 6 | All Maps","protocol":17,"map":"cp_dustbowl","folder":"tf","game":"Team Fortress","app_id":440,"player_count":22,"max_players":24,"Bots":0,"server_type":"Dedicated","server_os":"Linux","password":true,"vac":true,"version":"7961495","steam_id":85568392924866363,"keywords":["cp","nocrits","nodmgspread","uncletopia"],"game_id":440,"stv_port":27026,"stv_name":"Uncletopia | Chicago | 6 | All Maps | STV","players":[{"user_id":528,"name":"little_neb","steam_id":76561198117396733,"connected_time":2913000000000,"state":"active","ping":82},{"user_id":556,"name":"Based Hadrian","steam_id":76561197989062069,"connected_time":1035000000000,"state":"active","ping":84},{"user_id":530,"name":"ropesnek","steam_id":76561198140591498,"connected_time":2882000000000,"state":"active","ping":74},{"user_id":565,"name":"TheDemoKnight","steam_id":76561198035168657,"connected_time":131000000000,"state":"active","ping":168},{"user_id":566,"name":"Marksu","steam_id":76561198104187404,"connected_time":123000000000,"state":"active","ping":118},{"user_id":534,"name":"Brabentris","steam_id":76561198123276956,"connected_time":2511000000000,"state":"active","ping":114},{"user_id":558,"name":"jaker","steam_id":76561198088031993,"connected_time":1006000000000,"state":"active","ping":111},{"user_id":535,"name":"Shioumi","steam_id":76561198143540176,"connected_time":2506000000000,"state":"active","ping":110},{"user_id":536,"name":"DaMultiversalist","steam_id":76561198239552412,"connected_time":2379000000000,"state":"active","ping":63},{"user_id":539,"name":"Prof Leafeon","steam_id":76561198123549027,"connected_time":2236000000000,"state":"active","ping":72},{"user_id":562,"name":"sawrik","steam_id":76561198018808213,"connected_time":865000000000,"state":"active","ping":62},{"user_id":541,"name":"‚ô°Josuee !!‚ô°","steam_id":76561198289833607,"connected_time":2229000000000,"state":"active","ping":93},{"user_id":542,"name":"Ayylmao","steam_id":76561198104780147,"connected_time":2212000000000,"state":"active","ping":45},{"user_id":543,"name":"idarmed","steam_id":76561198420064361,"connected_time":2192000000000,"state":"active","ping":74},{"user_id":559,"name":"amberenix","steam_id":76561198805110908,"connected_time":956000000000,"state":"active","ping":74},{"user_id":560,"name":"MisterCue","steam_id":76561198147371234,"connected_time":943000000000,"state":"active","ping":168},{"user_id":545,"name":"stupid ape","steam_id":76561198350027075,"connected_time":2150000000000,"state":"active","ping":55},{"user_id":553,"name":"MR. BEEEEEEEEEEEEEAAAAAAAAAAST","steam_id":76561198205346760,"connected_time":1580000000000,"state":"active","ping":44},{"user_id":546,"name":"Mrpeagod","steam_id":76561198138985101,"connected_time":2077000000000,"state":"active","ping":83},{"user_id":547,"name":"Quebec","steam_id":76561198865760503,"connected_time":1961000000000,"state":"active","ping":69},{"user_id":561,"name":"Emy","steam_id":76561198083016925,"connected_time":927000000000,"state":"active","ping":88},{"user_id":554,"name":"xXQuarter_Pounder_With_CheeseX","steam_id":76561198142629517,"connected_time":1537000000000,"state":"active","ping":73}]},{"server_id":38,"name":"Uncletopia | Chicago | 7 | Stopwatch","name_short":"chi-7","host":"chi-2.us.uncletopia.com","port":27035,"enabled":true,"region":"us-central","cc":"us","latitude":41.881832,"longitude":-87.62318,"reserved":0,"last_update":"0001-01-01T00:00:00Z","name_a2s":"Uncletopia | Chicago | 7 | Stopwatch","protocol":17,"map":"workshop/cp_reckoner_rc6.ugc674719999","folder":"tf","game":"Team Fortress","app_id":440,"player_count":17,"max_players":24,"Bots":0,"server_type":"Dedicated","server_os":"Linux","password":true,"vac":true,"version":"7961495","steam_id":85568392924866364,"keywords":["cp","nocrits","nodmgspread","uncletopia"],"game_id":440,"stv_port":27036,"stv_name":"Uncletopia | Chicago | 7 | Stopwatch | STV","players":[{"user_id":150,"name":"YungLink64","steam_id":76561198393995651,"connected_time":1973000000000,"state":"active","ping":89},{"user_id":166,"name":"Peppino Spaghetti","steam_id":76561198329087915,"connected_time":300000000000,"state":"active","ping":99},{"user_id":156,"name":"cilo","steam_id":76561198046163502,"connected_time":1156000000000,"state":"active","ping":60},{"user_id":167,"name":"catlord746","steam_id":76561198977887550,"connected_time":246000000000,"state":"active","ping":66},{"user_id":157,"name":"Delta","steam_id":76561198158985472,"connected_time":1029000000000,"state":"active","ping":127},{"user_id":168,"name":"pandanation00","steam_id":76561199225708310,"connected_time":141000000000,"state":"active","ping":111},{"user_id":165,"name":"Maldini.aa","steam_id":76561198258915431,"connected_time":671000000000,"state":"active","ping":105},{"user_id":161,"name":"lorelius hogglefart","steam_id":76561198211781375,"connected_time":719000000000,"state":"active","ping":78},{"user_id":136,"name":"Danmar33","steam_id":76561198056453091,"connected_time":2978000000000,"state":"active","ping":46},{"user_id":141,"name":"Reisen Udongein Inaba","steam_id":76561198051082314,"connected_time":2665000000000,"state":"active","ping":100},{"user_id":113,"name":"JSG","steam_id":76561198138261545,"connected_time":5187000000000,"state":"active","ping":109},{"user_id":114,"name":"GornroX","steam_id":76561198219303908,"connected_time":5097000000000,"state":"active","ping":119},{"user_id":142,"name":"Junko","steam_id":76561198146089003,"connected_time":2659000000000,"state":"active","ping":46},{"user_id":163,"name":"Acidbrawler","steam_id":76561198174803983,"connected_time":701000000000,"state":"active","ping":112},{"user_id":144,"name":"igor","steam_id":76561198984517474,"connected_time":2517000000000,"state":"active","ping":181},{"user_id":164,"name":"sicksick50","steam_id":76561198078415931,"connected_time":697000000000,"state":"active","ping":98},{"user_id":129,"name":"SaCCcCCc","steam_id":76561198309927068,"connected_time":3721000000000,"state":"active","ping":115}]},{"server_id":39,"name":"Uncletopia | Chicago | 8 | Community","name_short":"chi-8","host":"chi-2.us.uncletopia.com","port":27045,"enabled":true,"region":"us-central","cc":"us","latitude":41.881832,"longitude":-87.62318,"reserved":0,"last_update":"0001-01-01T00:00:00Z","name_a2s":"Uncletopia | Chicago | 8 | Community","protocol":17,"map":"workshop/koth_kemptown_rc1.ugc767410655","folder":"tf","game":"Team Fortress","app_id":440,"player_count":0,"max_players":24,"Bots":0,"server_type":"Dedicated","server_os":"Linux","password":true,"vac":true,"version":"7961495","steam_id":85568392924866365,"keywords":["cp","nocrits","nodmgspread","uncletopia"],"game_id":440,"stv_port":27046,"stv_name":"Uncletopia | Chicago | 8 | Community | STV","players":null},{"server_id":8,"name":"Uncletopia | Dallas | 1 | All Maps","name_short":"dal-1","host":"dal-1.us.uncletopia.com","port":27015,"enabled":true,"region":"us-central","cc":"us","latitude":32.779167,"longitude":-96.80889,"reserved":0,"last_update":"0001-01-01T00:00:00Z","name_a2s":"Uncletopia | Dallas | 1 | All Maps","protocol":17,"map":"koth_lazarus","folder":"tf","game":"Team Fortress","app_id":440,"player_count":24,"max_players":24,"Bots":0,"server_type":"Dedicated","server_os":"Linux","password":true,"vac":true,"version":"7961495","steam_id":85568392924469986,"keywords":["cp","nocrits","nodmgspread","uncletopia"],"game_id":440,"stv_port":27016,"stv_name":"Uncletopia | Dallas | 1 | All Maps | STV","players":[{"user_id":676,"name":"Sableye","steam_id":76561198061247147,"connected_time":974000000000,"state":"active","ping":75},{"user_id":644,"name":"Gammaplex","steam_id":76561198981228176,"connected_time":3161000000000,"state":"active","ping":75},{"user_id":650,"name":"FluttyPutty","steam_id":76561198218446556,"connected_time":2847000000000,"state":"active","ping":72},{"user_id":685,"name":"Prime72","steam_id":76561198345733164,"connected_time":380000000000,"state":"active","ping":64},{"user_id":664,"name":"loser","steam_id":76561198259380127,"connected_time":1424000000000,"state":"active","ping":76},{"user_id":666,"name":"Fire Wizard","steam_id":76561198972006814,"connected_time":1383000000000,"state":"active","ping":67},{"user_id":679,"name":"ratthew","steam_id":76561198418172095,"connected_time":478000000000,"state":"active","ping":89},{"user_id":686,"name":"zoggers","steam_id":76561198124806458,"connected_time":379000000000,"state":"active","ping":57},{"user_id":657,"name":"raya","steam_id":76561198051504581,"connected_time":2145000000000,"state":"active","ping":46},{"user_id":656,"name":"Censure","steam_id":76561198850891374,"connected_time":2181000000000,"state":"active","ping":95},{"user_id":675,"name":"TechnoBear2099","steam_id":76561198238863596,"connected_time":1022000000000,"state":"active","ping":49},{"user_id":690,"name":"WesyUWU (The mini crit pig)","steam_id":76561198069188177,"connected_time":129000000000,"state":"active","ping":76},{"user_id":665,"name":"Trashgaming","steam_id":76561199184268442,"connected_time":1412000000000,"state":"active","ping":96},{"user_id":687,"name":"SGT Disoriented","steam_id":76561198058177958,"connected_time":351000000000,"state":"active","ping":63},{"user_id":504,"name":"THRONGLER","steam_id":76561198198563466,"connected_time":12802000000000,"state":"active","ping":43},{"user_id":670,"name":"The_RainbowTrout","steam_id":76561199309554436,"connected_time":1198000000000,"state":"active","ping":93},{"user_id":635,"name":"doro","steam_id":76561198099041747,"connected_time":3734000000000,"state":"active","ping":77},{"user_id":691,"name":"Sir Grey The Ranger","steam_id":76561198096235582,"connected_time":52000000000,"state":"active","ping":75},{"user_id":688,"name":"HUMBY","steam_id":76561198065045867,"connected_time":179000000000,"state":"active","ping":108},{"user_id":636,"name":"Tommy Provolone","steam_id":76561198170062377,"connected_time":3734000000000,"state":"active","ping":69},{"user_id":684,"name":"CurveKiller","steam_id":76561198351012705,"connected_time":406000000000,"state":"active","ping":68},{"user_id":628,"name":"shitass (Reaping and Sowing)","steam_id":76561198210572481,"connected_time":4647000000000,"state":"active","ping":61},{"user_id":689,"name":"Snivy","steam_id":76561198135488292,"connected_time":172000000000,"state":"active","ping":74},{"user_id":674,"name":"BLU Sniper","steam_id":76561198936412406,"connected_time":1152000000000,"state":"active","ping":94}]},{"server_id":108,"name":"Uncletopia | Dallas | 2 | All Maps","name_short":"dal-2","host":"dal-1.us.uncletopia.com","port":27025,"enabled":true,"region":"us-central","cc":"us","latitude":32.779167,"longitude":-96.80889,"reserved":0,"last_update":"0001-01-01T00:00:00Z","name_a2s":"Uncletopia | Dallas | 2 | All Maps","protocol":17,"map":"pl_barnblitz","folder":"tf","game":"Team Fortress","app_id":440,"player_count":11,"max_players":24,"Bots":0,"server_type":"Dedicated","server_os":"Linux","password":true,"vac":true,"version":"7961495","steam_id":85568392924469988,"keywords":["nocrits","nodmgspread","payload","uncletopia"],"game_id":440,"stv_port":27026,"stv_name":"Uncletopia | Dallas | 2 | All Maps | STV","players":[{"user_id":539,"name":"squirtle gang","steam_id":76561199087568105,"connected_time":2364000000000,"state":"active","ping":59},{"user_id":562,"name":"Dgekson","steam_id":76561198015489423,"connected_time":252000000000,"state":"active","ping":224},{"user_id":551,"name":"Sp√ºkiiTV","steam_id":76561198098281824,"connected_time":1351000000000,"state":"active","ping":87},{"user_id":553,"name":"Shmuzy","steam_id":76561198252123826,"connected_time":1003000000000,"state":"active","ping":169},{"user_id":514,"name":"Hindmost","steam_id":76561199081837220,"connected_time":4564000000000,"state":"active","ping":68},{"user_id":561,"name":"Sucks-At-Aiming","steam_id":76561198027487285,"connected_time":598000000000,"state":"active","ping":88},{"user_id":555,"name":"buckydargon","steam_id":76561197991480502,"connected_time":922000000000,"state":"active","ping":64},{"user_id":547,"name":"RUF","steam_id":76561198062315805,"connected_time":1878000000000,"state":"active","ping":84},{"user_id":536,"name":"FIveinchpython","steam_id":76561198978526738,"connected_time":2950000000000,"state":"active","ping":64},{"user_id":534,"name":"Ghost","steam_id":76561198426370628,"connected_time":3361000000000,"state":"active","ping":104},{"user_id":520,"name":"Chaos","steam_id":76561198130585921,"connected_time":4241000000000,"state":"active","ping":53}]},{"server_id":404,"name":"Uncletopia | Dallas | 3 | All Maps","name_short":"dal-3","host":"dal-1.us.uncletopia.com","port":27035,"enabled":true,"region":"us-central","cc":"us","latitude":32.779167,"longitude":-96.80889,"reserved":0,"last_update":"0001-01-01T00:00:00Z","name_a2s":"Uncletopia | Dallas | 3 | All Maps","protocol":17,"map":"pl_barnblitz","folder":"tf","game":"Team Fortress","app_id":440,"player_count":24,"max_players":24,"Bots":0,"server_type":"Dedicated","server_os":"Linux","password":true,"vac":true,"version":"7961495","steam_id":85568392924515219,"keywords":["nocrits","nodmgspread","payload","uncletopia"],"game_id":440,"stv_port":27036,"stv_name":"Uncletopia | Dallas | 3 | All Maps | STV","players":[{"user_id":254,"name":"Cocksneed Fartin","steam_id":76561198126675787,"connected_time":5183000000000,"state":"active","ping":48},{"user_id":304,"name":"indyjacob","steam_id":76561198065158713,"connected_time":826000000000,"state":"active","ping":103},{"user_id":291,"name":"Stan","steam_id":76561198272621601,"connected_time":1806000000000,"state":"active","ping":81},{"user_id":306,"name":"CandorDanceFloor","steam_id":76561198062980511,"connected_time":492000000000,"state":"active","ping":94},{"user_id":195,"name":"Goblin","steam_id":76561199384665653,"connected_time":10365000000000,"state":"active","ping":69},{"user_id":299,"name":"Tuffcookie34","steam_id":76561198309031637,"connected_time":1055000000000,"state":"active","ping":54},{"user_id":305,"name":"aight, who shit myself","steam_id":76561198062763756,"connected_time":628000000000,"state":"active","ping":73},{"user_id":279,"name":"H2OBourne","steam_id":76561198396293109,"connected_time":2280000000000,"state":"active","ping":68},{"user_id":236,"name":"Jetstream Sam","steam_id":76561198842076296,"connected_time":6703000000000,"state":"active","ping":53},{"user_id":296,"name":"Mega Chode","steam_id":76561198301441345,"connected_time":1501000000000,"state":"active","ping":80},{"user_id":235,"name":"skegeton","steam_id":76561198095581099,"connected_time":6803000000000,"state":"active","ping":55},{"user_id":302,"name":"EnragedWaters","steam_id":76561198317135757,"connected_time":960000000000,"state":"active","ping":88},{"user_id":258,"name":"Mint Jelly","steam_id":76561197991286751,"connected_time":4754000000000,"state":"active","ping":67},{"user_id":294,"name":"Tenori","steam_id":76561198046773795,"connected_time":1592000000000,"state":"active","ping":97},{"user_id":34,"name":"CeLeb144","steam_id":76561199089907740,"connected_time":21235000000000,"state":"active","ping":63},{"user_id":298,"name":"'the' professional","steam_id":76561199164971892,"connected_time":1081000000000,"state":"active","ping":124},{"user_id":284,"name":"Benign","steam_id":76561198357477886,"connected_time":2167000000000,"state":"active","ping":96},{"user_id":289,"name":"Cartman","steam_id":76561198264777865,"connected_time":2014000000000,"state":"active","ping":91},{"user_id":300,"name":"gretchling","steam_id":76561198046111695,"connected_time":1051000000000,"state":"active","ping":45},{"user_id":287,"name":"studdedscot","steam_id":76561198069118787,"connected_time":2090000000000,"state":"active","ping":106},{"user_id":252,"name":"tydogzilla","steam_id":76561198054254518,"connected_time":5230000000000,"state":"active","ping":105},{"user_id":91,"name":"leesh","steam_id":76561198079603938,"connected_time":17390000000000,"state":"active","ping":60},{"user_id":233,"name":"BamBam","steam_id":76561198063110026,"connected_time":6950000000000,"state":"active","ping":80},{"user_id":303,"name":"Epifiny","steam_id":76561198027958086,"connected_time":924000000000,"state":"active","ping":87}]},{"server_id":405,"name":"Uncletopia | Dallas | 4 | Community","name_short":"dal-4","host":"dal-1.us.uncletopia.com","port":27045,"enabled":true,"region":"us-central","cc":"us","latitude":32.779167,"longitude":-96.80889,"reserved":0,"last_update":"0001-01-01T00:00:00Z","name_a2s":"Uncletopia | Dallas | 4 | Community","protocol":17,"map":"workshop/koth_ashville_final.ugc2130459942","folder":"tf","game":"Team Fortress","app_id":440,"player_count":0,"max_players":24,"Bots":0,"server_type":"Dedicated","server_os":"Linux","password":true,"vac":true,"version":"7961495","steam_id":85568392924515220,"keywords":["cp","nocrits","nodmgspread","uncletopia"],"game_id":440,"stv_port":27046,"stv_name":"Uncletopia | Dallas | 4 | Community | STV","players":null},{"server_id":5,"name":"Uncletopia | Frankfurt | 1 | All Maps","name_short":"frk-1","host":"frk-1.de.uncletopia.com","port":27015,"enabled":true,"region":"eu","cc":"de","latitude":50.110924,"longitude":8.682127,"reserved":0,"last_update":"0001-01-01T00:00:00Z","name_a2s":"Uncletopia | Frankfurt | 1 | All Maps","protocol":17,"map":"koth_highpass","folder":"tf","game":"Team Fortress","app_id":440,"player_count":0,"max_players":24,"Bots":0,"server_type":"Dedicated","server_os":"Linux","password":true,"vac":true,"version":"7961495","steam_id":85568392924469989,"keywords":["cp","nocrits","nodmgspread","uncletopia"],"game_id":440,"stv_port":27016,"stv_name":"Uncletopia | Frankfurt | 1 | All Maps | STV","players":null},{"server_id":110,"name":"Uncletopia | Frankfurt | 2 | All Maps","name_short":"frk-2","host":"frk-1.de.uncletopia.com","port":27025,"enabled":true,"region":"eu","cc":"de","latitude":50.110924,"longitude":8.682127,"reserved":0,"last_update":"0001-01-01T00:00:00Z","name_a2s":"Uncletopia | Frankfurt | 2 | All Maps","protocol":17,"map":"cp_dustbowl","folder":"tf","game":"Team Fortress","app_id":440,"player_count":0,"max_players":24,"Bots":0,"server_type":"Dedicated","server_os":"Linux","password":true,"vac":true,"version":"7961495","steam_id":85568392924469990,"keywords":["cp","nocrits","nodmgspread","uncletopia"],"game_id":440,"stv_port":27026,"stv_name":"Uncletopia | Frankfurt | 2 | All Maps | STV","players":null},{"server_id":308,"name":"Uncletopia | Frankfurt | 3 | All Maps","name_short":"frk-3","host":"frk-1.de.uncletopia.com","port":27035,"enabled":true,"region":"eu","cc":"de","latitude":50.110924,"longitude":8.682127,"reserved":0,"last_update":"0001-01-01T00:00:00Z","name_a2s":"Uncletopia | Frankfurt | 3 | All Maps","protocol":17,"map":"pl_barnblitz","folder":"tf","game":"Team Fortress","app_id":440,"player_count":0,"max_players":24,"Bots":0,"server_type":"Dedicated","server_os":"Linux","password":true,"vac":true,"version":"7961495","steam_id":85568392924504274,"keywords":["nocrits","nodmgspread","payload","uncletopia"],"game_id":440,"stv_port":27036,"stv_name":"Uncletopia | Frankfurt | 3 | All Maps | STV","players":null},{"server_id":309,"name":"Uncletopia | Frankfurt | 4 | All Maps","name_short":"frk-4","host":"frk-1.de.uncletopia.com","port":27045,"enabled":true,"region":"eu","cc":"de","latitude":50.110924,"longitude":8.682127,"reserved":0,"last_update":"0001-01-01T00:00:00Z","name_a2s":"Uncletopia | Frankfurt | 4 | All Maps","protocol":17,"map":"koth_highpass","folder":"tf","game":"Team Fortress","app_id":440,"player_count":0,"max_players":24,"Bots":0,"server_type":"Dedicated","server_os":"Linux","password":true,"vac":true,"version":"7961495","steam_id":85568392924504275,"keywords":["cp","nocrits","nodmgspread","uncletopia"],"game_id":440,"stv_port":27046,"stv_name":"Uncletopia | Frankfurt | 4 | All Maps | STV","players":null},{"server_id":310,"name":"Uncletopia | Frankfurt | 5 | All Maps","name_short":"frk-5","host":"frk-1.de.uncletopia.com","port":27055,"enabled":true,"region":"eu","cc":"de","latitude":50.110924,"longitude":8.682127,"reserved":0,"last_update":"0001-01-01T00:00:00Z","name_a2s":"Uncletopia | Frankfurt | 5 | All Maps","protocol":17,"map":"pl_badwater","folder":"tf","game":"Team Fortress","app_id":440,"player_count":0,"max_players":24,"Bots":0,"server_type":"Dedicated","server_os":"Linux","password":true,"vac":true,"version":"7961495","steam_id":85568392924504277,"keywords":["nocrits","nodmgspread","payload","uncletopia"],"game_id":440,"stv_port":27056,"stv_name":"Uncletopia | Frankfurt | 5 | All Maps | STV","players":null},{"server_id":311,"name":"Uncletopia | Frankfurt | 6 | All Maps","name_short":"frk-6","host":"frk-1.de.uncletopia.com","port":27065,"enabled":true,"region":"eu","cc":"de","latitude":50.110924,"longitude":8.682127,"reserved":0,"last_update":"0001-01-01T00:00:00Z","name_a2s":"Uncletopia | Frankfurt | 6 | All Maps","protocol":17,"map":"cp_altitude","folder":"tf","game":"Team Fortress","app_id":440,"player_count":0,"max_players":24,"Bots":0,"server_type":"Dedicated","server_os":"Linux","password":true,"vac":true,"version":"7961495","steam_id":85568392924504278,"keywords":["cp","nocrits","nodmgspread","uncletopia"],"game_id":440,"stv_port":27066,"stv_name":"Uncletopia | Frankfurt | 6 | All Maps | STV","players":null},{"server_id":23,"name":"Uncletopia | Frankfurt | 7 | Stopwatch","name_short":"frk-7","host":"frk-1.de.uncletopia.com","port":27075,"enabled":true,"region":"eu","cc":"de","latitude":50.110924,"longitude":8.682127,"reserved":0,"last_update":"0001-01-01T00:00:00Z","name_a2s":"Uncletopia | Frankfurt | 7 | Stopwatch","protocol":17,"map":"pl_frontier_final","folder":"tf","game":"Team Fortress","app_id":440,"player_count":0,"max_players":24,"Bots":0,"server_type":"Dedicated","server_os":"Linux","password":true,"vac":true,"version":"7961495","steam_id":85568392924742827,"keywords":["nocrits","nodmgspread","payload","uncletopia"],"game_id":440,"stv_port":27076,"stv_name":"Uncletopia | Frankfurt | 7 | Stopwatch | STV","players":null},{"server_id":24,"name":"Uncletopia | Frankfurt | 8 | Community","name_short":"frk-8","host":"frk-1.de.uncletopia.com","port":27085,"enabled":true,"region":"eu","cc":"de","latitude":50.110924,"longitude":8.682127,"reserved":0,"last_update":"0001-01-01T00:00:00Z","name_a2s":"Uncletopia | Frankfurt | 8 | Community","protocol":17,"map":"cp_mountainlab","folder":"tf","game":"Team Fortress","app_id":440,"player_count":0,"max_players":24,"Bots":0,"server_type":"Dedicated","server_os":"Linux","password":true,"vac":true,"version":"7961495","steam_id":85568392924742828,"keywords":["cp","nocrits","nodmgspread","uncletopia"],"game_id":440,"stv_port":27086,"stv_name":"Uncletopia | Frankfurt | 8 | Community | STV","players":null},{"server_id":202,"name":"Uncletopia | Hong Kong | 1 | All Maps","name_short":"hgk-1","host":"hgk-1.hk.uncletopia.com","port":27015,"enabled":true,"region":"asia","cc":"hk","latitude":22.302711,"longitude":114.177216,"reserved":0,"last_update":"0001-01-01T00:00:00Z","name_a2s":"Uncletopia | Hong Kong | 1 | All Maps","protocol":17,"map":"pl_upward","folder":"tf","game":"Team Fortress","app_id":440,"player_count":0,"max_players":24,"Bots":0,"server_type":"Dedicated","server_os":"Linux","password":true,"vac":true,"version":"7961495","steam_id":85568392924494504,"keywords":["nocrits","nodmgspread","payload","uncletopia"],"game_id":440,"stv_port":27016,"stv_name":"Uncletopia | Hong Kong | 1 | All Maps | STV","players":null},{"server_id":1,"name":"Uncletopia | Los Angeles | 1 | All Maps","name_short":"lax-1","host":"lax-1.us.uncletopia.com","port":27015,"enabled":true,"region":"us-west","cc":"us","latitude":33.94279,"longitude":-118.41004,"reserved":0,"last_update":"0001-01-01T00:00:00Z","name_a2s":"Uncletopia | Los Angeles | 1 | All Maps","protocol":17,"map":"pl_borneo","folder":"tf","game":"Team Fortress","app_id":440,"player_count":24,"max_players":24,"Bots":0,"server_type":"Dedicated","server_os":"Linux","password":true,"vac":true,"version":"7961495","steam_id":85568392924469991,"keywords":["nocrits","nodmgspread","payload","uncletopia"],"game_id":440,"stv_port":27016,"stv_name":"Uncletopia | Los Angeles | 1 | All Maps | STV","players":[{"user_id":414,"name":"CLB","steam_id":76561198057971005,"connected_time":2587000000000,"state":"active","ping":73},{"user_id":335,"name":"Satori Komeiji","steam_id":76561198158211423,"connected_time":8968000000000,"state":"active","ping":47},{"user_id":460,"name":"what're ya buyin","steam_id":76561199277633460,"connected_time":287000000000,"state":"active","ping":44},{"user_id":340,"name":"sleepy","steam_id":76561198255015060,"connected_time":8845000000000,"state":"active","ping":56},{"user_id":461,"name":"zeel107","steam_id":76561198063892990,"connected_time":255000000000,"state":"active","ping":82},{"user_id":462,"name":"BluNight","steam_id":76561198037116567,"connected_time":231000000000,"state":"active","ping":121},{"user_id":463,"name":"lol","steam_id":76561198026491738,"connected_time":157000000000,"state":"active","ping":58},{"user_id":444,"name":"VoodooPapa","steam_id":76561199160439066,"connected_time":949000000000,"state":"active","ping":63},{"user_id":428,"name":"Action-Flash","steam_id":76561198042438122,"connected_time":2118000000000,"state":"active","ping":138},{"user_id":459,"name":"KaosInfinite","steam_id":76561198009126350,"connected_time":335000000000,"state":"active","ping":50},{"user_id":464,"name":"xD","steam_id":76561198149683030,"connected_time":148000000000,"state":"active","ping":72},{"user_id":445,"name":"Do cOck","steam_id":76561198132755619,"connected_time":945000000000,"state":"active","ping":41},{"user_id":472,"name":"BurningKev","steam_id":76561198057688837,"connected_time":53000000000,"state":"active","ping":75},{"user_id":466,"name":"B class hero","steam_id":76561198066091050,"connected_time":141000000000,"state":"active","ping":76},{"user_id":467,"name":"Gr4yy„ÉÉ","steam_id":76561198126936736,"connected_time":132000000000,"state":"active","ping":122},{"user_id":468,"name":"Metalogic","steam_id":76561198049469629,"connected_time":128000000000,"state":"active","ping":87},{"user_id":451,"name":"4 life","steam_id":76561198175961598,"connected_time":659000000000,"state":"active","ping":60},{"user_id":412,"name":"Evanb","steam_id":76561198042057792,"connected_time":2756000000000,"state":"active","ping":74},{"user_id":454,"name":"red","steam_id":76561198067289381,"connected_time":612000000000,"state":"active","ping":107},{"user_id":469,"name":"Saristan","steam_id":76561198093346048,"connected_time":116000000000,"state":"active","ping":103},{"user_id":345,"name":"Fruity","steam_id":76561198999674564,"connected_time":8803000000000,"state":"active","ping":118},{"user_id":470,"name":"‚ô•‚ô°‚àûiMaCH‚àû‚ô°‚ô•","steam_id":76561198820527565,"connected_time":109000000000,"state":"active","ping":78},{"user_id":471,"name":"Whiskey","steam_id":76561198858154667,"connected_time":65000000000,"state":"active","ping":46},{"user_id":473,"name":"Dry Nutty Parmesan","steam_id":76561198167127580,"connected_time":16000000000,"state":"active","ping":63}]},{"server_id":112,"name":"Uncletopia | Los Angeles | 2 | All Maps","name_short":"lax-2","host":"lax-1.us.uncletopia.com","port":27025,"enabled":true,"region":"us-west","cc":"us","latitude":33.94279,"longitude":-118.41004,"reserved":0,"last_update":"0001-01-01T00:00:00Z","name_a2s":"Uncletopia | Los Angeles | 2 | All Maps","protocol":17,"map":"pl_badwater","folder":"tf","game":"Team Fortress","app_id":440,"player_count":18,"max_players":24,"Bots":0,"server_type":"Dedicated","server_os":"Linux","password":true,"vac":true,"version":"7961495","steam_id":85568392924469992,"keywords":["nocrits","nodmgspread","payload","uncletopia"],"game_id":440,"stv_port":27026,"stv_name":"Uncletopia | Los Angeles | 2 | All Maps | STV","players":[{"user_id":72,"name":"Alchemist","steam_id":76561198094238189,"connected_time":3668000000000,"state":"active","ping":45},{"user_id":108,"name":"Puskinti","steam_id":76561198032120688,"connected_time":1265000000000,"state":"active","ping":81},{"user_id":115,"name":"Schnitz","steam_id":76561198265484253,"connected_time":351000000000,"state":"active","ping":57},{"user_id":112,"name":"californjoe","steam_id":76561197965047795,"connected_time":900000000000,"state":"active","ping":45},{"user_id":92,"name":"PieSpie","steam_id":76561198054531169,"connected_time":2287000000000,"state":"active","ping":153},{"user_id":117,"name":"Silverman_Cam","steam_id":76561198936168937,"connected_time":31000000000,"state":"spawning","ping":47},{"user_id":93,"name":"jovial","steam_id":76561198297130941,"connected_time":2123000000000,"state":"active","ping":51},{"user_id":91,"name":"monkey squirts","steam_id":76561197983101644,"connected_time":2293000000000,"state":"active","ping":46},{"user_id":116,"name":"Carne Asada?","steam_id":76561198157252638,"connected_time":94000000000,"state":"active","ping":54},{"user_id":97,"name":"Loogey03","steam_id":76561198155483586,"connected_time":1783000000000,"state":"active","ping":89},{"user_id":110,"name":"actual subhuman garbage","steam_id":76561198056367220,"connected_time":1135000000000,"state":"active","ping":74},{"user_id":113,"name":"Genius Meme","steam_id":76561198162911254,"connected_time":881000000000,"state":"active","ping":70},{"user_id":99,"name":"The_Pacific_gamer","steam_id":76561198089491446,"connected_time":1738000000000,"state":"active","ping":75},{"user_id":89,"name":"Bad Dragon quality assurance","steam_id":76561198065662025,"connected_time":2694000000000,"state":"active","ping":57},{"user_id":101,"name":"Dekameter","steam_id":76561198000808543,"connected_time":1736000000000,"state":"active","ping":68},{"user_id":71,"name":"dP | I'm in a Wookie Suit","steam_id":76561198083307644,"connected_time":3909000000000,"state":"active","ping":84},{"user_id":53,"name":"MancalaMadMan","steam_id":76561198347324053,"connected_time":5226000000000,"state":"active","ping":96},{"user_id":90,"name":"FROYO b4nny","steam_id":76561197970669109,"connected_time":2420000000000,"state":"active","ping":51}]},{"server_id":324,"name":"Uncletopia | Los Angeles | 3 | All Maps","name_short":"lax-3","host":"lax-1.us.uncletopia.com","port":27035,"enabled":true,"region":"us-west","cc":"us","latitude":33.94279,"longitude":-118.41004,"reserved":0,"last_update":"0001-01-01T00:00:00Z","name_a2s":"Uncletopia | Los Angeles | 3 | All Maps","protocol":17,"map":"ctf_2fort","folder":"tf","game":"Team Fortress","app_id":440,"player_count":5,"max_players":24,"Bots":0,"server_type":"Dedicated","server_os":"Linux","password":true,"vac":true,"version":"7961495","steam_id":85568392924510198,"keywords":["ctf","nocrits","nodmgspread","uncletopia"],"game_id":440,"stv_port":27036,"stv_name":"Uncletopia | Los Angeles | 3 | All Maps | STV","players":[{"user_id":246,"name":"ShadowZiki","steam_id":76561198145930013,"connected_time":1631000000000,"state":"active","ping":45},{"user_id":253,"name":"2","steam_id":76561198037332418,"connected_time":343000000000,"state":"active","ping":60},{"user_id":254,"name":"Fizzle","steam_id":76561199259837426,"connected_time":213000000000,"state":"active","ping":187},{"user_id":219,"name":"sola venereum","steam_id":76561198368179166,"connected_time":5268000000000,"state":"active","ping":42},{"user_id":222,"name":"Ft. Vergil from the DMC Series","steam_id":76561198296557689,"connected_time":4820000000000,"state":"active","ping":43}]},{"server_id":25,"name":"Uncletopia | Los Angeles | 4 | Stopwatch","name_short":"lax-4","host":"lax-1.us.uncletopia.com","port":27045,"enabled":true,"region":"us-west","cc":"us","latitude":33.94279,"longitude":-118.41004,"reserved":0,"last_update":"0001-01-01T00:00:00Z","name_a2s":"Uncletopia | Los Angeles | 4 | Stopwatch","protocol":17,"map":"cp_process_final","folder":"tf","game":"Team Fortress","app_id":440,"player_count":0,"max_players":24,"Bots":0,"server_type":"Dedicated","server_os":"Linux","password":true,"vac":true,"version":"7961495","steam_id":85568392924510199,"keywords":["cp","nocrits","nodmgspread","uncletopia"],"game_id":440,"stv_port":27046,"stv_name":"Uncletopia | Los Angeles | 4 | Stopwatch | STV","players":null},{"server_id":11,"name":"Uncletopia | London | 1 | All Maps","name_short":"lon-1","host":"lon-1.uk.uncletopia.com","port":27015,"enabled":true,"region":"eu","cc":"gb","latitude":51.509865,"longitude":-0.118092,"reserved":0,"last_update":"0001-01-01T00:00:00Z","name_a2s":"Uncletopia | London | 1 | All Maps","protocol":17,"map":"koth_highpass","folder":"tf","game":"Team Fortress","app_id":440,"player_count":0,"max_players":24,"Bots":0,"server_type":"Dedicated","server_os":"Linux","password":true,"vac":true,"version":"7961495","steam_id":85568392924367362,"keywords":["cp","nocrits","nodmgspread","uncletopia"],"game_id":440,"stv_port":27016,"stv_name":"Uncletopia | London | 1 | All Maps | STV","players":null},{"server_id":114,"name":"Uncletopia | London | 2 | All Maps","name_short":"lon-2","host":"lon-1.uk.uncletopia.com","port":27025,"enabled":true,"region":"eu","cc":"gb","latitude":51.509865,"longitude":-0.118092,"reserved":0,"last_update":"0001-01-01T00:00:00Z","name_a2s":"Uncletopia | London | 2 | All Maps","protocol":17,"map":"koth_lakeside_final","folder":"tf","game":"Team Fortress","app_id":440,"player_count":0,"max_players":24,"Bots":0,"server_type":"Dedicated","server_os":"Linux","password":true,"vac":true,"version":"7961495","steam_id":85568392924470941,"keywords":["cp","nocrits","nodmgspread","uncletopia"],"game_id":440,"stv_port":27026,"stv_name":"Uncletopia | London | 2 | All Maps | STV","players":null},{"server_id":320,"name":"Uncletopia | London | 3 | All Maps","name_short":"lon-3","host":"lon-1.uk.uncletopia.com","port":27035,"enabled":true,"region":"eu","cc":"gb","latitude":51.509865,"longitude":-0.118092,"reserved":0,"last_update":"0001-01-01T00:00:00Z","name_a2s":"Uncletopia | London | 3 | All Maps","protocol":17,"map":"cp_process_final","folder":"tf","game":"Team Fortress","app_id":440,"player_count":0,"max_players":24,"Bots":0,"server_type":"Dedicated","server_os":"Linux","password":true,"vac":true,"version":"7961495","steam_id":85568392924510192,"keywords":["cp","nocrits","nodmgspread","uncletopia"],"game_id":440,"stv_port":27036,"stv_name":"Uncletopia | London | 3 | All Maps | STV","players":null},{"server_id":321,"name":"Uncletopia | London | 4 | All Maps","name_short":"lon-4","host":"lon-1.uk.uncletopia.com","port":27045,"enabled":true,"region":"eu","cc":"gb","latitude":51.509865,"longitude":-0.118092,"reserved":0,"last_update":"0001-01-01T00:00:00Z","name_a2s":"Uncletopia | London | 4 | All Maps","protocol":17,"map":"koth_cascade","folder":"tf","game":"Team Fortress","app_id":440,"player_count":0,"max_players":24,"Bots":0,"server_type":"Dedicated","server_os":"Linux","password":true,"vac":true,"version":"7961495","steam_id":85568392924510193,"keywords":["cp","nocrits","nodmgspread","uncletopia"],"game_id":440,"stv_port":27046,"stv_name":"Uncletopia | London | 4 | All Maps | STV","players":null},{"server_id":21,"name":"Uncletopia | London | 5 | All Maps","name_short":"lon-5","host":"lon-1.uk.uncletopia.com","port":27055,"enabled":true,"region":"eu","cc":"gb","latitude":51.509865,"longitude":-0.118092,"reserved":0,"last_update":"0001-01-01T00:00:00Z","name_a2s":"Uncletopia | London | 5 | All Maps","protocol":17,"map":"koth_lakeside_final","folder":"tf","game":"Team Fortress","app_id":440,"player_count":0,"max_players":24,"Bots":0,"server_type":"Dedicated","server_os":"Linux","password":true,"vac":true,"version":"7961495","steam_id":85568392924742829,"keywords":["cp","nocrits","nodmgspread","uncletopia"],"game_id":440,"stv_port":27056,"stv_name":"Uncletopia | London | 5 | All Maps | STV","players":null},{"server_id":22,"name":"Uncletopia | London | 6 | All Maps","name_short":"lon-6","host":"lon-1.uk.uncletopia.com","port":27065,"enabled":true,"region":"eu","cc":"gb","latitude":51.509865,"longitude":-0.118092,"reserved":0,"last_update":"0001-01-01T00:00:00Z","name_a2s":"Uncletopia | London | 6 | All Maps","protocol":17,"map":"cp_dustbowl","folder":"tf","game":"Team Fortress","app_id":440,"player_count":0,"max_players":24,"Bots":0,"server_type":"Dedicated","server_os":"Linux","password":true,"vac":true,"version":"7961495","steam_id":85568392924742830,"keywords":["cp","nocrits","nodmgspread","uncletopia"],"game_id":440,"stv_port":27066,"stv_name":"Uncletopia | London | 6 | All Maps | STV","players":null},{"server_id":40,"name":"Uncletopia | London | 7 | Stopwatch","name_short":"lon-7","host":"lon-1.uk.uncletopia.com","port":27075,"enabled":true,"region":"eu","cc":"gb","latitude":51.509865,"longitude":-0.118092,"reserved":0,"last_update":"0001-01-01T00:00:00Z","name_a2s":"Uncletopia | London | 7 | Stopwatch","protocol":17,"map":"koth_lakeside_final","folder":"tf","game":"Team Fortress","app_id":440,"player_count":0,"max_players":24,"Bots":0,"server_type":"Dedicated","server_os":"Linux","password":true,"vac":true,"version":"7961495","steam_id":85568392924964314,"keywords":["cp","nocrits","nodmgspread","uncletopia"],"game_id":440,"stv_port":27076,"stv_name":"Uncletopia | London | 7 | Stopwatch | STV","players":null},{"server_id":41,"name":"Uncletopia | London | 8 | Community","name_short":"lon-8","host":"lon-1.uk.uncletopia.com","port":27085,"enabled":true,"region":"eu","cc":"gb","latitude":51.509865,"longitude":-0.118092,"reserved":0,"last_update":"0001-01-01T00:00:00Z","name_a2s":"Uncletopia | London | 8 | Community","protocol":17,"map":"cp_snakewater_final1","folder":"tf","game":"Team Fortress","app_id":440,"player_count":0,"max_players":24,"Bots":0,"server_type":"Dedicated","server_os":"Linux","password":true,"vac":true,"version":"7961495","steam_id":85568392924964315,"keywords":["cp","nocrits","nodmgspread","uncletopia"],"game_id":440,"stv_port":27086,"stv_name":"Uncletopia | London | 8 | Community | STV","players":null},{"server_id":300,"name":"Uncletopia | Montr√©al | 1 | One Thousand Uncles","name_short":"mtl-1","host":"mtl-1.ca.uncletopia.com","port":27015,"enabled":true,"region":"us-east","cc":"ca","latitude":45.50889,"longitude":-73.56167,"reserved":0,"last_update":"0001-01-01T00:00:00Z","name_a2s":"","protocol":0,"map":"","folder":"","game":"","app_id":0,"player_count":8,"max_players":0,"Bots":0,"server_type":"","server_os":"","password":false,"vac":false,"version":"","steam_id":0,"keywords":null,"game_id":0,"stv_port":0,"stv_name":"","players":[{"user_id":177,"name":"jorts","steam_id":76561199041179985,"connected_time":3692000000000,"state":"active","ping":121},{"user_id":19,"name":"1-800-GHOST-DANCE","steam_id":76561198835430429,"connected_time":7841000000000,"state":"active","ping":75},{"user_id":205,"name":"Plashe","steam_id":76561198146667385,"connected_time":1647000000000,"state":"active","ping":59},{"user_id":204,"name":"QueenCake575","steam_id":76561198996882407,"connected_time":2031000000000,"state":"active","ping":131},{"user_id":113,"name":"elephant thumb","steam_id":76561198118859752,"connected_time":5626000000000,"state":"active","ping":118},{"user_id":55,"name":"ChozoChorizo","steam_id":76561198272609196,"connected_time":7230000000000,"state":"active","ping":61},{"user_id":176,"name":"Amber","steam_id":76561198031298701,"connected_time":3805000000000,"state":"active","ping":59},{"user_id":178,"name":"fungi bowie.gg","steam_id":76561198169755734,"connected_time":3636000000000,"state":"active","ping":115}]},{"server_id":301,"name":"Uncletopia | Montr√©al | 2 | One Thousand Uncles","name_short":"mtl-2","host":"mtl-1.ca.uncletopia.com","port":27025,"enabled":true,"region":"us-east","cc":"ca","latitude":45.50889,"longitude":-73.56167,"reserved":0,"last_update":"0001-01-01T00:00:00Z","name_a2s":"","protocol":0,"map":"","folder":"","game":"","app_id":0,"player_count":3,"max_players":0,"Bots":0,"server_type":"","server_os":"","password":false,"vac":false,"version":"","steam_id":0,"keywords":null,"game_id":0,"stv_port":0,"stv_name":"","players":[{"user_id":74,"name":"Ze_√úber_Nerd","steam_id":76561198091148675,"connected_time":3296000000000,"state":"active","ping":121},{"user_id":123,"name":"Top Quacker","steam_id":76561198261316128,"connected_time":1026000000000,"state":"active","ping":51},{"user_id":124,"name":"PyroManiac","steam_id":76561198453038261,"connected_time":311000000000,"state":"active","ping":60}]},{"server_id":302,"name":"Uncletopia | Montr√©al | 3 | One Thousand Uncles","name_short":"mtl-3","host":"mtl-1.ca.uncletopia.com","port":27035,"enabled":true,"region":"us-east","cc":"ca","latitude":45.50889,"longitude":-73.56167,"reserved":0,"last_update":"0001-01-01T00:00:00Z","name_a2s":"","protocol":0,"map":"","folder":"","game":"","app_id":0,"player_count":1,"max_players":0,"Bots":0,"server_type":"","server_os":"","password":false,"vac":false,"version":"","steam_id":0,"keywords":null,"game_id":0,"stv_port":0,"stv_name":"","players":[{"user_id":141,"name":"Hoxatron","steam_id":76561198136288818,"connected_time":1613000000000,"state":"active","ping":88}]},{"server_id":13,"name":"Uncletopia | New York City | 1 | All Maps","name_short":"nyc-1","host":"nyc-1.us.uncletopia.com","port":27015,"enabled":true,"region":"us-east","cc":"us","latitude":40.73061,"longitude":-73.93524,"reserved":0,"last_update":"0001-01-01T00:00:00Z","name_a2s":"Uncletopia | New York City | 1 | All Maps","protocol":17,"map":"pl_badwater","folder":"tf","game":"Team Fortress","app_id":440,"player_count":22,"max_players":24,"Bots":0,"server_type":"Dedicated","server_os":"Linux","password":true,"vac":true,"version":"7961495","steam_id":85568392924469993,"keywords":["nocrits","nodmgspread","payload","uncletopia"],"game_id":440,"stv_port":27016,"stv_name":"Uncletopia | New York City | 1 | All Maps | STV","players":[{"user_id":400,"name":"Feathercrown","steam_id":76561198397221488,"connected_time":6858000000000,"state":"active","ping":72},{"user_id":261,"name":"A Puppy","steam_id":76561198828184456,"connected_time":17974000000000,"state":"active","ping":44},{"user_id":484,"name":"Jango","steam_id":76561198084589742,"connected_time":318000000000,"state":"active","ping":75},{"user_id":485,"name":"NOBODY","steam_id":76561198094578887,"connected_time":281000000000,"state":"active","ping":45},{"user_id":472,"name":"Asanez3","steam_id":76561198037381436,"connected_time":1429000000000,"state":"active","ping":144},{"user_id":454,"name":"Bewen","steam_id":76561198325334261,"connected_time":2413000000000,"state":"active","ping":34},{"user_id":473,"name":"Exio","steam_id":76561198218639325,"connected_time":1394000000000,"state":"active","ping":63},{"user_id":457,"name":"·óúÀ¨·óú","steam_id":76561198049076233,"connected_time":2324000000000,"state":"active","ping":51},{"user_id":460,"name":"Samercam","steam_id":76561198189403190,"connected_time":2209000000000,"state":"active","ping":70},{"user_id":463,"name":"*Blobfish*","steam_id":76561198260351341,"connected_time":2010000000000,"state":"active","ping":68},{"user_id":487,"name":"CRT Cutie","steam_id":76561198055970193,"connected_time":142000000000,"state":"active","ping":51},{"user_id":342,"name":"ndvr","steam_id":76561199379200102,"connected_time":11085000000000,"state":"active","ping":54},{"user_id":482,"name":"The Morbinator","steam_id":76561198164245258,"connected_time":571000000000,"state":"active","ping":69},{"user_id":475,"name":"Snikerdoodle","steam_id":76561198049832811,"connected_time":1246000000000,"state":"active","ping":70},{"user_id":476,"name":"hashmap","steam_id":76561198043794014,"connected_time":1214000000000,"state":"active","ping":62},{"user_id":483,"name":"Daksuki","steam_id":76561198084127751,"connected_time":446000000000,"state":"active","ping":92},{"user_id":394,"name":"Rigby","steam_id":76561198258121396,"connected_time":7475000000000,"state":"active","ping":80},{"user_id":477,"name":"pharmacist","steam_id":76561198274424248,"connected_time":1206000000000,"state":"active","ping":177},{"user_id":368,"name":"That Sentry Is A Spy!","steam_id":76561198069395625,"connected_time":9835000000000,"state":"active","ping":61},{"user_id":466,"name":"Tunac","steam_id":76561198115533350,"connected_time":1904000000000,"state":"active","ping":59},{"user_id":422,"name":"patdine","steam_id":76561198060865671,"connected_time":4974000000000,"state":"active","ping":62},{"user_id":414,"name":"The Assistant Regional Manager","steam_id":76561199221484936,"connected_time":6488000000000,"state":"active","ping":123}]},{"server_id":14,"name":"Uncletopia | New York City | 2 | All Maps","name_short":"nyc-2","host":"nyc-1.us.uncletopia.com","port":27025,"enabled":true,"region":"us-east","cc":"us","latitude":40.73061,"longitude":-73.93524,"reserved":0,"last_update":"0001-01-01T00:00:00Z","name_a2s":"Uncletopia | New York City | 2 | All Maps","protocol":17,"map":"pl_badwater","folder":"tf","game":"Team Fortress","app_id":440,"player_count":5,"max_players":24,"Bots":0,"server_type":"Dedicated","server_os":"Linux","password":true,"vac":true,"version":"7961495","steam_id":85568392924469994,"keywords":["nocrits","nodmgspread","payload","uncletopia"],"game_id":440,"stv_port":27026,"stv_name":"Uncletopia | New York City | 2 | All Maps | STV","players":[{"user_id":823,"name":"TheWorst","steam_id":76561198151241267,"connected_time":345000000000,"state":"active","ping":71},{"user_id":824,"name":"zynkode","steam_id":76561199385525167,"connected_time":336000000000,"state":"active","ping":148},{"user_id":811,"name":"ANIME-GOD","steam_id":76561198815077196,"connected_time":1951000000000,"state":"active","ping":114},{"user_id":825,"name":"Josuavl","steam_id":76561199206211988,"connected_time":169000000000,"state":"active","ping":267},{"user_id":812,"name":"Dark Souls","steam_id":76561198131174016,"connected_time":1899000000000,"state":"active","ping":99}]},{"server_id":15,"name":"Uncletopia | New York City | 3 | Stopwatch","name_short":"nyc-3","host":"nyc-1.us.uncletopia.com","port":27035,"enabled":true,"region":"us-east","cc":"us","latitude":40.73061,"longitude":-73.93524,"reserved":0,"last_update":"0001-01-01T00:00:00Z","name_a2s":"Uncletopia | New York City | 3 | Stopwatch","protocol":17,"map":"workshop/cp_reckoner_rc6.ugc674719999","folder":"tf","game":"Team Fortress","app_id":440,"player_count":0,"max_players":24,"Bots":0,"server_type":"Dedicated","server_os":"Linux","password":true,"vac":true,"version":"7961495","steam_id":85568392924742820,"keywords":["cp","nocrits","nodmgspread","uncletopia"],"game_id":440,"stv_port":27036,"stv_name":"Uncletopia | New York City | 3 | Stopwatch | STV","players":null},{"server_id":16,"name":"Uncletopia | New York City | 4 | Community","name_short":"nyc-4","host":"nyc-1.us.uncletopia.com","port":27045,"enabled":true,"region":"us-east","cc":"us","latitude":40.73061,"longitude":-73.93524,"reserved":0,"last_update":"0001-01-01T00:00:00Z","name_a2s":"Uncletopia | New York City | 4 | Community","protocol":17,"map":"workshop/cp_sulfur_rc2.ugc619869471","folder":"tf","game":"Team Fortress","app_id":440,"player_count":16,"max_players":24,"Bots":0,"server_type":"Dedicated","server_os":"Linux","password":true,"vac":true,"version":"7961495","steam_id":85568392924742821,"keywords":["cp","nocrits","nodmgspread","uncletopia"],"game_id":440,"stv_port":27046,"stv_name":"Uncletopia | New York City | 4 | Community | STV","players":[{"user_id":277,"name":"Phil Collins","steam_id":76561198068868644,"connected_time":4802000000000,"state":"active","ping":117},{"user_id":279,"name":"deadpixel","steam_id":76561198150249843,"connected_time":4786000000000,"state":"active","ping":62},{"user_id":315,"name":"xenoplex","steam_id":76561198163503192,"connected_time":1084000000000,"state":"active","ping":40},{"user_id":316,"name":"tbrry","steam_id":76561198151465655,"connected_time":1083000000000,"state":"active","ping":75},{"user_id":317,"name":"Generic Name","steam_id":76561198094225684,"connected_time":946000000000,"state":"active","ping":72},{"user_id":318,"name":"Catfish","steam_id":76561198088009583,"connected_time":796000000000,"state":"active","ping":71},{"user_id":206,"name":"Captain Chicken","steam_id":76561198047767530,"connected_time":10066000000000,"state":"active","ping":110},{"user_id":276,"name":"Malina, The Sour Demon","steam_id":76561198149477443,"connected_time":5412000000000,"state":"active","ping":101},{"user_id":314,"name":"Passwordhater","steam_id":76561198039577363,"connected_time":1124000000000,"state":"active","ping":41},{"user_id":321,"name":"Danson","steam_id":76561198165966327,"connected_time":551000000000,"state":"active","ping":61},{"user_id":322,"name":"CarbonNotes","steam_id":76561198042006558,"connected_time":446000000000,"state":"active","ping":95},{"user_id":323,"name":"mevong","steam_id":76561198202904255,"connected_time":379000000000,"state":"active","ping":45},{"user_id":303,"name":"Forehead","steam_id":76561198124151399,"connected_time":2073000000000,"state":"active","ping":55},{"user_id":297,"name":"WitheringLeo","steam_id":76561198046722918,"connected_time":3090000000000,"state":"active","ping":56},{"user_id":304,"name":"euphoricfilth","steam_id":76561198100160865,"connected_time":2049000000000,"state":"active","ping":37},{"user_id":311,"name":"Khorne Looney","steam_id":76561197988500167,"connected_time":1437000000000,"state":"active","ping":69}]},{"server_id":142,"name":"Uncletopia | S√£o Paulo | 1 | All Maps","name_short":"sao-1","host":"sao-1.br.uncletopia.com","port":27015,"enabled":true,"region":"sa","cc":"br","latitude":-23.533773,"longitude":-46.62529,"reserved":0,"last_update":"0001-01-01T00:00:00Z","name_a2s":"Uncletopia | S√£o Paulo | 1 | All Maps","protocol":17,"map":"cp_sunshine","folder":"tf","game":"Team Fortress","app_id":440,"player_count":0,"max_players":24,"Bots":0,"server_type":"Dedicated","server_os":"Linux","password":true,"vac":true,"version":"7961495","steam_id":85568392924469996,"keywords":["cp","nocrits","nodmgspread","uncletopia"],"game_id":440,"stv_port":27016,"stv_name":"Uncletopia | S√£o Paulo | 1 | All Maps | STV","players":null},{"server_id":143,"name":"Uncletopia | S√£o Paulo | 2 | Community","name_short":"sao-2","host":"sao-2.br.uncletopia.com","port":27015,"enabled":true,"region":"sa","cc":"br","latitude":-23.533773,"longitude":-46.62529,"reserved":0,"last_update":"0001-01-01T00:00:00Z","name_a2s":"Uncletopia | S√£o Paulo | 2 | Community","protocol":17,"map":"workshop/koth_ramjam_rc1.ugc459778887","folder":"tf","game":"Team Fortress","app_id":440,"player_count":0,"max_players":24,"Bots":0,"server_type":"Dedicated","server_os":"Linux","password":true,"vac":true,"version":"7961495","steam_id":85568392924485349,"keywords":["cp","nocrits","nodmgspread","uncletopia"],"game_id":440,"stv_port":27016,"stv_name":"Uncletopia | S√£o Paulo | 2 | Community | STV","players":null},{"server_id":7,"name":"Uncletopia | Seattle | 1 | All Maps","name_short":"sea-1","host":"sea-1.us.uncletopia.com","port":27015,"enabled":true,"region":"us-west","cc":"us","latitude":47.608013,"longitude":-122.33517,"reserved":0,"last_update":"0001-01-01T00:00:00Z","name_a2s":"Uncletopia | Seattle | 1 | All Maps","protocol":17,"map":"pl_pier","folder":"tf","game":"Team Fortress","app_id":440,"player_count":24,"max_players":24,"Bots":0,"server_type":"Dedicated","server_os":"Linux","password":true,"vac":true,"version":"7961495","steam_id":85568392924469997,"keywords":["nocrits","nodmgspread","payload","uncletopia"],"game_id":440,"stv_port":27016,"stv_name":"Uncletopia | Seattle | 1 | All Maps | STV","players":[{"user_id":558,"name":"Sniff","steam_id":76561198010270922,"connected_time":5429000000000,"state":"active","ping":58},{"user_id":541,"name":"rat gets the cheese","steam_id":76561198031234032,"connected_time":6563000000000,"state":"active","ping":105},{"user_id":567,"name":"MxProf","steam_id":76561198044519572,"connected_time":4270000000000,"state":"active","ping":60},{"user_id":606,"name":"Ashen One","steam_id":76561198188489245,"connected_time":49000000000,"state":"active","ping":55},{"user_id":599,"name":"Melly","steam_id":76561198045867175,"connected_time":568000000000,"state":"active","ping":77},{"user_id":600,"name":"Patriot Pills","steam_id":76561198381647349,"connected_time":499000000000,"state":"active","ping":123},{"user_id":552,"name":"Ayayayayayahuasca","steam_id":76561199002906056,"connected_time":6334000000000,"state":"active","ping":45},{"user_id":562,"name":"slushy :))","steam_id":76561198135281802,"connected_time":5092000000000,"state":"active","ping":39},{"user_id":601,"name":"FeelingShy","steam_id":76561198197943921,"connected_time":405000000000,"state":"active","ping":45},{"user_id":491,"name":"ilun","steam_id":76561198042913843,"connected_time":11513000000000,"state":"active","ping":58},{"user_id":602,"name":"The Piss Warrior","steam_id":76561198151927029,"connected_time":390000000000,"state":"active","ping":39},{"user_id":587,"name":"Henchie!","steam_id":76561198047567464,"connected_time":2082000000000,"state":"active","ping":86},{"user_id":586,"name":"mub","steam_id":76561197961943948,"connected_time":2100000000000,"state":"active","ping":47},{"user_id":594,"name":"TROY","steam_id":76561197983852176,"connected_time":774000000000,"state":"active","ping":77},{"user_id":589,"name":"Sgt Autmn","steam_id":76561198072047939,"connected_time":1431000000000,"state":"active","ping":47},{"user_id":590,"name":"Level 3 hotdog enjoyer","steam_id":76561198870649125,"connected_time":1430000000000,"state":"active","ping":84},{"user_id":593,"name":"jole","steam_id":76561198037292232,"connected_time":992000000000,"state":"active","ping":120},{"user_id":580,"name":"Widowmaker","steam_id":76561198122310418,"connected_time":3056000000000,"state":"active","ping":59},{"user_id":563,"name":"rushy :))","steam_id":76561198065825165,"connected_time":5038000000000,"state":"active","ping":102},{"user_id":603,"name":"BeanBattles ‚òÖ","steam_id":76561198981921939,"connected_time":352000000000,"state":"active","ping":65},{"user_id":588,"name":"louise sneeze","steam_id":76561198062451648,"connected_time":1462000000000,"state":"active","ping":91},{"user_id":596,"name":"SadFapping","steam_id":76561198076651049,"connected_time":641000000000,"state":"active","ping":46},{"user_id":505,"name":"a cat plushie","steam_id":76561198080046542,"connected_time":10619000000000,"state":"active","ping":51},{"user_id":585,"name":"lusty","steam_id":76561198138478947,"connected_time":2198000000000,"state":"active","ping":36}]},{"server_id":119,"name":"Uncletopia | Seattle | 2 | All Maps","name_short":"sea-2","host":"sea-1.us.uncletopia.com","port":27025,"enabled":true,"region":"us-west","cc":"us","latitude":47.608013,"longitude":-122.33517,"reserved":0,"last_update":"0001-01-01T00:00:00Z","name_a2s":"Uncletopia | Seattle | 2 | All Maps","protocol":17,"map":"pl_snowycoast","folder":"tf","game":"Team Fortress","app_id":440,"player_count":24,"max_players":24,"Bots":0,"server_type":"Dedicated","server_os":"Linux","password":true,"vac":true,"version":"7961495","steam_id":85568392924469998,"keywords":["nocrits","nodmgspread","payload","uncletopia"],"game_id":440,"stv_port":27026,"stv_name":"Uncletopia | Seattle | 2 | All Maps | STV","players":[{"user_id":167,"name":"2Alpha6","steam_id":76561197992690915,"connected_time":5078000000000,"state":"active","ping":88},{"user_id":175,"name":"MyMonkeyBaby","steam_id":76561198046896670,"connected_time":4249000000000,"state":"active","ping":47},{"user_id":159,"name":"totally not a pile of beans","steam_id":76561198119851931,"connected_time":5503000000000,"state":"active","ping":117},{"user_id":220,"name":"Milk T34","steam_id":76561198116115227,"connected_time":636000000000,"state":"active","ping":74},{"user_id":204,"name":"Cyber","steam_id":76561198323298672,"connected_time":2383000000000,"state":"active","ping":46},{"user_id":173,"name":"ùíÜùíóùíäùíçArnoldGamingÔæ†","steam_id":76561198040140247,"connected_time":4449000000000,"state":"active","ping":116},{"user_id":212,"name":"Beef Wellington","steam_id":76561197995635241,"connected_time":1115000000000,"state":"active","ping":175},{"user_id":221,"name":"HanakoToast","steam_id":76561198045233131,"connected_time":444000000000,"state":"active","ping":89},{"user_id":213,"name":"A UsedNom","steam_id":76561198402832756,"connected_time":1114000000000,"state":"active","ping":62},{"user_id":226,"name":"soltuno","steam_id":76561198074430565,"connected_time":9000000000,"state":"active","ping":141},{"user_id":223,"name":"Shibuya 808","steam_id":76561198040462757,"connected_time":329000000000,"state":"active","ping":123},{"user_id":215,"name":"cool, low-key kinda guy","steam_id":76561198123475433,"connected_time":1033000000000,"state":"active","ping":59},{"user_id":202,"name":"muddy","steam_id":76561198035015260,"connected_time":2504000000000,"state":"active","ping":84},{"user_id":208,"name":"mac_cheese","steam_id":76561198071334162,"connected_time":1425000000000,"state":"active","ping":45},{"user_id":191,"name":"Filthy","steam_id":76561199159013724,"connected_time":3201000000000,"state":"active","ping":92},{"user_id":222,"name":"Dr. G. Freeman","steam_id":76561198366596337,"connected_time":378000000000,"state":"active","ping":55},{"user_id":177,"name":"CHIKN","steam_id":76561198277792665,"connected_time":4243000000000,"state":"active","ping":77},{"user_id":225,"name":"Defeat","steam_id":76561198065203818,"connected_time":281000000000,"state":"active","ping":38},{"user_id":216,"name":"yolginmo","steam_id":76561198157985901,"connected_time":1020000000000,"state":"active","ping":46},{"user_id":217,"name":"Boone","steam_id":76561198398931575,"connected_time":984000000000,"state":"active","ping":143},{"user_id":206,"name":"Tsunami","steam_id":76561198097188001,"connected_time":1535000000000,"state":"active","ping":45},{"user_id":218,"name":"Nightstalker","steam_id":76561199004204111,"connected_time":973000000000,"state":"active","ping":58},{"user_id":158,"name":"Zesty Zucchini Ziti","steam_id":76561198092494136,"connected_time":5557000000000,"state":"active","ping":119},{"user_id":219,"name":"liveleak pussy","steam_id":76561198272645467,"connected_time":972000000000,"state":"active","ping":61}]},{"server_id":406,"name":"Uncletopia | Seattle | 3 | Stopwatch","name_short":"sea-3","host":"sea-1.us.uncletopia.com","port":27035,"enabled":true,"region":"us-west","cc":"us","latitude":47.608013,"longitude":-122.33517,"reserved":0,"last_update":"0001-01-01T00:00:00Z","name_a2s":"Uncletopia | Seattle | 3 | Stopwatch","protocol":17,"map":"cp_gullywash_final1","folder":"tf","game":"Team Fortress","app_id":440,"player_count":0,"max_players":24,"Bots":0,"server_type":"Dedicated","server_os":"Linux","password":true,"vac":true,"version":"7961495","steam_id":85568392924515217,"keywords":["cp","nocrits","nodmgspread","uncletopia"],"game_id":440,"stv_port":27036,"stv_name":"Uncletopia | Seattle | 3 | Stopwatch | STV","players":null},{"server_id":17,"name":"Uncletopia | San Francisco | 1 | All Maps","name_short":"sfo-1","host":"sfo-1.us.uncletopia.com","port":27015,"enabled":true,"region":"us-west","cc":"us","latitude":37.77397,"longitude":-122.4313,"reserved":0,"last_update":"0001-01-01T00:00:00Z","name_a2s":"Uncletopia | San Francisco | 1 | All Maps","protocol":17,"map":"pl_upward","folder":"tf","game":"Team Fortress","app_id":440,"player_count":23,"max_players":24,"Bots":0,"server_type":"Dedicated","server_os":"Linux","password":true,"vac":true,"version":"7961495","steam_id":85568392924469999,"keywords":["nocrits","nodmgspread","payload","uncletopia"],"game_id":440,"stv_port":27016,"stv_name":"Uncletopia | San Francisco | 1 | All Maps | STV","players":[{"user_id":158,"name":"Copy","steam_id":76561198025031590,"connected_time":124000000000,"state":"active","ping":62},{"user_id":156,"name":"TheMuffinMan","steam_id":76561198081868066,"connected_time":161000000000,"state":"active","ping":71},{"user_id":136,"name":"Stag","steam_id":76561198058537502,"connected_time":2975000000000,"state":"active","ping":54},{"user_id":159,"name":"Punished Jeff #NeverSimpAgain","steam_id":76561198304252584,"connected_time":116000000000,"state":"active","ping":47},{"user_id":148,"name":"grape","steam_id":76561199071151136,"connected_time":1638000000000,"state":"active","ping":46},{"user_id":141,"name":"podge","steam_id":76561198858474714,"connected_time":2479000000000,"state":"active","ping":71},{"user_id":138,"name":"Melody","steam_id":76561198407789232,"connected_time":2963000000000,"state":"active","ping":75},{"user_id":118,"name":"aBigPoo","steam_id":76561198425027856,"connected_time":3893000000000,"state":"active","ping":43},{"user_id":149,"name":"fitotutus","steam_id":76561197974993253,"connected_time":1489000000000,"state":"active","ping":149},{"user_id":150,"name":"Maid 'n' China","steam_id":76561198423392976,"connected_time":1468000000000,"state":"active","ping":52},{"user_id":160,"name":"Not Slavoj ≈Ωi≈æek","steam_id":76561198004619616,"connected_time":22000000000,"state":"active","ping":64},{"user_id":145,"name":"HAT-WEARING‚Ñ¢ Maggot Gamer Cat","steam_id":76561197973992705,"connected_time":2114000000000,"state":"active","ping":58},{"user_id":127,"name":"Imagine being trash at Medic","steam_id":76561197986530028,"connected_time":3632000000000,"state":"active","ping":99},{"user_id":155,"name":"Boxcars","steam_id":76561198120978767,"connected_time":323000000000,"state":"active","ping":62},{"user_id":152,"name":"Post Traumatic Down Syndrome","steam_id":76561199468843759,"connected_time":1446000000000,"state":"active","ping":144},{"user_id":128,"name":"parallax","steam_id":76561198004438881,"connected_time":3623000000000,"state":"active","ping":62},{"user_id":85,"name":"Defragmented","steam_id":76561198854210081,"connected_time":7290000000000,"state":"active","ping":112},{"user_id":140,"name":"Wang of Wall St","steam_id":76561198047460598,"connected_time":2562000000000,"state":"active","ping":125},{"user_id":125,"name":"WastefulBagel","steam_id":76561198992577833,"connected_time":3672000000000,"state":"active","ping":74},{"user_id":146,"name":"mr.edderkopper","steam_id":76561198152614478,"connected_time":2066000000000,"state":"active","ping":100},{"user_id":102,"name":"FunnyGoomba","steam_id":76561198279865229,"connected_time":6086000000000,"state":"active","ping":84},{"user_id":153,"name":"chanoc","steam_id":76561198026734746,"connected_time":1411000000000,"state":"active","ping":46},{"user_id":142,"name":"Sleezy","steam_id":76561198839500707,"connected_time":2470000000000,"state":"active","ping":55}]},{"server_id":18,"name":"Uncletopia | San Francisco | 2 | All Maps","name_short":"sfo-2","host":"sfo-1.us.uncletopia.com","port":27025,"enabled":true,"region":"us-west","cc":"us","latitude":37.77397,"longitude":-122.4313,"reserved":0,"last_update":"0001-01-01T00:00:00Z","name_a2s":"Uncletopia | San Francisco | 2 | All Maps","protocol":17,"map":"plr_bananabay","folder":"tf","game":"Team Fortress","app_id":440,"player_count":9,"max_players":24,"Bots":0,"server_type":"Dedicated","server_os":"Linux","password":true,"vac":true,"version":"7961495","steam_id":85568392924470000,"keywords":["nocrits","nodmgspread","payload","uncletopia"],"game_id":440,"stv_port":27026,"stv_name":"Uncletopia | San Francisco | 2 | All Maps | STV","players":[{"user_id":234,"name":"ganja gladiator","steam_id":76561198087422193,"connected_time":108000000000,"state":"active","ping":47},{"user_id":215,"name":"Cave Dweller","steam_id":76561198374825685,"connected_time":1360000000000,"state":"active","ping":60},{"user_id":231,"name":"RadioRave","steam_id":76561198240837534,"connected_time":358000000000,"state":"active","ping":56},{"user_id":213,"name":"Ryld","steam_id":76561198010174380,"connected_time":1609000000000,"state":"active","ping":98},{"user_id":222,"name":"TUMMY RUMMBLA LFT","steam_id":76561198167279375,"connected_time":1002000000000,"state":"active","ping":45},{"user_id":220,"name":"anipe10","steam_id":76561199084698417,"connected_time":1333000000000,"state":"active","ping":86},{"user_id":197,"name":"Irony is pretty cringy","steam_id":76561198120391460,"connected_time":2658000000000,"state":"active","ping":51},{"user_id":221,"name":"florence","steam_id":76561198854390990,"connected_time":1270000000000,"state":"active","ping":70},{"user_id":224,"name":"Canis","steam_id":76561198014916042,"connected_time":702000000000,"state":"active","ping":46}]},{"server_id":19,"name":"Uncletopia | San Francisco | 3 | Stopwatch","name_short":"sfo-3","host":"sfo-1.us.uncletopia.com","port":27035,"enabled":true,"region":"us-west","cc":"us","latitude":37.77397,"longitude":-122.4313,"reserved":0,"last_update":"0001-01-01T00:00:00Z","name_a2s":"Uncletopia | San Francisco | 3 | Stopwatch","protocol":17,"map":"cp_gullywash_final1","folder":"tf","game":"Team Fortress","app_id":440,"player_count":0,"max_players":24,"Bots":0,"server_type":"Dedicated","server_os":"Linux","password":true,"vac":true,"version":"7961495","steam_id":85568392924742824,"keywords":["cp","nocrits","nodmgspread","uncletopia"],"game_id":440,"stv_port":27036,"stv_name":"Uncletopia | San Francisco | 3 | Stopwatch | STV","players":null},{"server_id":20,"name":"Uncletopia | San Francisco | 4 | Community","name_short":"sfo-4","host":"sfo-1.us.uncletopia.com","port":27045,"enabled":true,"region":"us-west","cc":"us","latitude":37.77397,"longitude":-122.4313,"reserved":0,"last_update":"0001-01-01T00:00:00Z","name_a2s":"Uncletopia | San Francisco | 4 | Community","protocol":17,"map":"workshop/pl_boundary_final1.ugc456799153","folder":"tf","game":"Team Fortress","app_id":440,"player_count":0,"max_players":24,"Bots":0,"server_type":"Dedicated","server_os":"Linux","password":true,"vac":true,"version":"7961495","steam_id":85568392924742826,"keywords":["nocrits","nodmgspread","payload","uncletopia"],"game_id":440,"stv_port":27046,"stv_name":"Uncletopia | San Francisco | 4 | Community | STV","players":null},{"server_id":141,"name":"Uncletopia | Sydney | 1 | All Maps","name_short":"syd-1","host":"syd-1.au.uncletopia.com","port":27015,"enabled":true,"region":"au","cc":"au","latitude":-33.865143,"longitude":151.2099,"reserved":0,"last_update":"0001-01-01T00:00:00Z","name_a2s":"Uncletopia | Sydney | 1 | All Maps","protocol":17,"map":"pl_pier","folder":"tf","game":"Team Fortress","app_id":440,"player_count":24,"max_players":24,"Bots":0,"server_type":"Dedicated","server_os":"Linux","password":true,"vac":true,"version":"7961495","steam_id":85568392924470001,"keywords":["nocrits","nodmgspread","payload","uncletopia"],"game_id":440,"stv_port":27016,"stv_name":"Uncletopia | Sydney | 1 | All Maps | STV","players":[{"user_id":143,"name":"Citizen Dan","steam_id":76561197970496955,"connected_time":984000000000,"state":"active","ping":68},{"user_id":138,"name":"starlightseraph","steam_id":76561198040766936,"connected_time":997000000000,"state":"active","ping":46},{"user_id":131,"name":"Sentry Gun (EpicGuy4227)","steam_id":76561198094132328,"connected_time":1372000000000,"state":"active","ping":51},{"user_id":122,"name":"slicedtoast98","steam_id":76561199220276252,"connected_time":2575000000000,"state":"active","ping":69},{"user_id":116,"name":"Finios","steam_id":76561198209013071,"connected_time":3063000000000,"state":"active","ping":59},{"user_id":139,"name":"Juniio","steam_id":76561198186655294,"connected_time":992000000000,"state":"active","ping":92},{"user_id":144,"name":"Nyda","steam_id":76561198152311904,"connected_time":744000000000,"state":"active","ping":66},{"user_id":135,"name":"hired goon(er)","steam_id":76561198048064049,"connected_time":1012000000000,"state":"active","ping":75},{"user_id":129,"name":"michael","steam_id":76561198052848358,"connected_time":1654000000000,"state":"active","ping":65},{"user_id":93,"name":"Omniscient Ice","steam_id":76561198041579976,"connected_time":4254000000000,"state":"active","ping":99},{"user_id":114,"name":"Snuky","steam_id":76561198117902338,"connected_time":3182000000000,"state":"active","ping":42},{"user_id":136,"name":"dreadful webbon ·òõ‚ÅêÃ§·ïê·ê∑","steam_id":76561198061998379,"connected_time":1010000000000,"state":"active","ping":46},{"user_id":98,"name":"hyak.","steam_id":76561198175700625,"connected_time":4071000000000,"state":"active","ping":94},{"user_id":126,"name":"Sherpa","steam_id":76561198018913829,"connected_time":1996000000000,"state":"active","ping":55},{"user_id":142,"name":"Owlenstein‚Ñ¢","steam_id":76561198093983826,"connected_time":991000000000,"state":"active","ping":116},{"user_id":132,"name":"Newcastle Basketball","steam_id":76561198079351541,"connected_time":1034000000000,"state":"active","ping":45},{"user_id":133,"name":"local fella","steam_id":76561198000568803,"connected_time":1033000000000,"state":"active","ping":52},{"user_id":106,"name":"rhodrhid","steam_id":76561199012995036,"connected_time":3462000000000,"state":"active","ping":67},{"user_id":107,"name":"Waddings","steam_id":76561198091558023,"connected_time":3405000000000,"state":"active","ping":84},{"user_id":127,"name":"berko","steam_id":76561198012286680,"connected_time":1974000000000,"state":"active","ping":546},{"user_id":117,"name":"zorsploogus justmarrriedus","steam_id":76561198063481761,"connected_time":3055000000000,"state":"active","ping":44},{"user_id":111,"name":"[STAR] Zarom","steam_id":76561198117758383,"connected_time":3268000000000,"state":"active","ping":69},{"user_id":134,"name":"gaunt + pallid","steam_id":76561198025099660,"connected_time":1033000000000,"state":"active","ping":36},{"user_id":125,"name":"Chooka","steam_id":76561197992307814,"connected_time":2027000000000,"state":"active","ping":68}]},{"server_id":123,"name":"Uncletopia | Sydney | 2 | All Maps","name_short":"syd-2","host":"syd-1.au.uncletopia.com","port":27025,"enabled":true,"region":"au","cc":"au","latitude":-33.865143,"longitude":151.2099,"reserved":0,"last_update":"0001-01-01T00:00:00Z","name_a2s":"Uncletopia | Sydney | 2 | All Maps","protocol":17,"map":"koth_lakeside_final","folder":"tf","game":"Team Fortress","app_id":440,"player_count":12,"max_players":24,"Bots":0,"server_type":"Dedicated","server_os":"Linux","password":true,"vac":true,"version":"7961495","steam_id":85568392924470002,"keywords":["cp","nocrits","nodmgspread","uncletopia"],"game_id":440,"stv_port":27026,"stv_name":"Uncletopia | Sydney | 2 | All Maps | STV","players":[{"user_id":6,"name":"Kalcyte","steam_id":76561198101887702,"connected_time":1959000000000,"state":"active","ping":48},{"user_id":7,"name":"The Rizzler","steam_id":76561199160924409,"connected_time":1890000000000,"state":"active","ping":55},{"user_id":8,"name":"thehybridsuperior","steam_id":76561199061718435,"connected_time":1889000000000,"state":"active","ping":69},{"user_id":9,"name":"Dantheenderman","steam_id":76561198963746322,"connected_time":1777000000000,"state":"active","ping":75},{"user_id":11,"name":"Blondie","steam_id":76561198046977058,"connected_time":1665000000000,"state":"active","ping":59},{"user_id":18,"name":"Uncle_Bowlcut","steam_id":76561198225191728,"connected_time":845000000000,"state":"active","ping":57},{"user_id":26,"name":"Majima","steam_id":76561198288970258,"connected_time":233000000000,"state":"active","ping":45},{"user_id":27,"name":"royalCRAZYman98","steam_id":76561199062977658,"connected_time":161000000000,"state":"active","ping":55},{"user_id":22,"name":"Tantei Rotana","steam_id":76561198041204323,"connected_time":594000000000,"state":"active","ping":57},{"user_id":24,"name":"humph","steam_id":76561198083730533,"connected_time":381000000000,"state":"active","ping":56},{"user_id":25,"name":"lemur","steam_id":76561198278239170,"connected_time":288000000000,"state":"active","ping":80},{"user_id":28,"name":"Mazda 787b 4 or 5","steam_id":76561198923066653,"connected_time":41000000000,"state":"spawning","ping":248}]},{"server_id":395,"name":"Uncletopia | Sydney | 3 | All Maps","name_short":"syd-3","host":"syd-1.au.uncletopia.com","port":27035,"enabled":true,"region":"au","cc":"au","latitude":-33.865143,"longitude":151.2099,"reserved":0,"last_update":"0001-01-01T00:00:00Z","name_a2s":"Uncletopia | Sydney | 3 | All Maps","protocol":17,"map":"cp_mountainlab","folder":"tf","game":"Team Fortress","app_id":440,"player_count":0,"max_players":24,"Bots":0,"server_type":"Dedicated","server_os":"Linux","password":true,"vac":true,"version":"7961495","steam_id":85568392925194467,"keywords":["cp","nocrits","nodmgspread","uncletopia"],"game_id":440,"stv_port":27036,"stv_name":"Uncletopia | Sydney | 3 | All Maps | STV","players":null},{"server_id":396,"name":"Uncletopia | Sydney | 4 | All Maps","name_short":"syd-4","host":"syd-1.au.uncletopia.com","port":27045,"enabled":true,"region":"au","cc":"au","latitude":-33.865143,"longitude":151.2099,"reserved":0,"last_update":"0001-01-01T00:00:00Z","name_a2s":"Uncletopia | Sydney | 4 | All Maps","protocol":17,"map":"cp_sunshine","folder":"tf","game":"Team Fortress","app_id":440,"player_count":0,"max_players":24,"Bots":0,"server_type":"Dedicated","server_os":"Linux","password":true,"vac":true,"version":"7961495","steam_id":85568392925397958,"keywords":["cp","nocrits","nodmgspread","uncletopia"],"game_id":440,"stv_port":27046,"stv_name":"Uncletopia | Sydney | 4 | All Maps | STV","players":null},{"server_id":58,"name":"Uncletopia | Sydney | 5 | Stopwatch","name_short":"syd-5","host":"syd-1.au.uncletopia.com","port":27055,"enabled":true,"region":"au","cc":"au","latitude":-33.865143,"longitude":151.2099,"reserved":0,"last_update":"0001-01-01T00:00:00Z","name_a2s":"Uncletopia | Sydney | 5 | Stopwatch","protocol":17,"map":"workshop/koth_ramjam_rc1.ugc459778887","folder":"tf","game":"Team Fortress","app_id":440,"player_count":0,"max_players":24,"Bots":0,"server_type":"Dedicated","server_os":"Linux","password":true,"vac":true,"version":"7961495","steam_id":85568392925397959,"keywords":["cp","nocrits","nodmgspread","uncletopia"],"game_id":440,"stv_port":27056,"stv_name":"Uncletopia | Sydney | 5 | Stopwatch | STV","players":null},{"server_id":59,"name":"Uncletopia | Sydney | 6 | Community","name_short":"syd-6","host":"syd-1.au.uncletopia.com","port":27065,"enabled":true,"region":"au","cc":"au","latitude":-33.865143,"longitude":151.2099,"reserved":0,"last_update":"0001-01-01T00:00:00Z","name_a2s":"Uncletopia | Sydney | 6 | Community","protocol":17,"map":"cp_sunshine","folder":"tf","game":"Team Fortress","app_id":440,"player_count":0,"max_players":24,"Bots":0,"server_type":"Dedicated","server_os":"Linux","password":true,"vac":true,"version":"7961495","steam_id":85568392925397960,"keywords":["cp","nocrits","nodmgspread","uncletopia"],"game_id":440,"stv_port":27066,"stv_name":"Uncletopia | Sydney | 6 | Community | STV","players":null},{"server_id":49,"name":"Uncletopia | Warsaw | 1 | One Thousand Uncles","name_short":"waw-1","host":"waw-1.pl.uncletopia.com","port":27015,"enabled":true,"region":"eu","cc":"pl","latitude":52.2297,"longitude":21.017532,"reserved":0,"last_update":"0001-01-01T00:00:00Z","name_a2s":"Uncletopia | Warsaw | 1 | One Thousand Uncles","protocol":17,"map":"pl_badwater","folder":"tf","game":"Team Fortress","app_id":440,"player_count":0,"max_players":32,"Bots":0,"server_type":"Dedicated","server_os":"Linux","password":true,"vac":true,"version":"7961495","steam_id":85568392925397850,"keywords":["alltalk","danepve","increased_maxplayers","nocrits","norespawntime","payload","uncletopia"],"game_id":440,"stv_port":0,"stv_name":"","players":null},{"server_id":50,"name":"Uncletopia | Warsaw | 2 | One Thousand Uncles","name_short":"waw-2","host":"waw-1.pl.uncletopia.com","port":27025,"enabled":true,"region":"eu","cc":"pl","latitude":52.2297,"longitude":21.017532,"reserved":0,"last_update":"0001-01-01T00:00:00Z","name_a2s":"Uncletopia | Warsaw | 2 | One Thousand Uncles","protocol":17,"map":"cp_dustbowl","folder":"tf","game":"Team Fortress","app_id":440,"player_count":24,"max_players":32,"Bots":16,"server_type":"Dedicated","server_os":"Linux","password":true,"vac":true,"version":"7961495","steam_id":85568392925397851,"keywords":["alltalk","bots","cp","danepve","increased_maxplayers","nocrits","norespawntime","uncletopia"],"game_id":440,"stv_port":0,"stv_name":"","players":[{"user_id":2,"name":"Ran33","steam_id":76561197991474499,"connected_time":4877000000000,"state":"active","ping":109},{"user_id":3,"name":"‚ù§‰∏ÇÂçÑÂçÇÂ∞∫Áâá‚ù§","steam_id":76561199068834644,"connected_time":4873000000000,"state":"active","ping":45},{"user_id":20,"name":"inteli-keeper","steam_id":76561199011763306,"connected_time":4831000000000,"state":"active","ping":78},{"user_id":32,"name":"cock","steam_id":76561198307522022,"connected_time":69000000000,"state":"active","ping":70},{"user_id":25,"name":"Nick","steam_id":76561198100377306,"connected_time":2027000000000,"state":"active","ping":109},{"user_id":28,"name":"Dean Craig Pelton From Communit","steam_id":76561198155010055,"connected_time":1020000000000,"state":"active","ping":144},{"user_id":33,"name":"Jeremiasz Wada","steam_id":76561199085047408,"connected_time":69000000000,"state":"active","ping":74},{"user_id":34,"name":"waltuh","steam_id":76561199012348370,"connected_time":54000000000,"state":"active","ping":532}]},{"server_id":51,"name":"Uncletopia | Warsaw | 3 | All Maps","name_short":"waw-3","host":"waw-1.pl.uncletopia.com","port":27035,"enabled":true,"region":"eu","cc":"pl","latitude":52.2297,"longitude":21.017532,"reserved":0,"last_update":"0001-01-01T00:00:00Z","name_a2s":"Uncletopia | Warsaw | 3 | All Maps","protocol":17,"map":"cp_gorge","folder":"tf","game":"Team Fortress","app_id":440,"player_count":0,"max_players":24,"Bots":0,"server_type":"Dedicated","server_os":"Linux","password":true,"vac":true,"version":"7961495","steam_id":85568392925397852,"keywords":["cp","nocrits","nodmgspread","uncletopia"],"game_id":440,"stv_port":27036,"stv_name":"Uncletopia | Warsaw | 3 | All Maps | STV","players":null},{"server_id":52,"name":"Uncletopia | Warsaw | 4 | All Maps","name_short":"waw-4","host":"waw-1.pl.uncletopia.com","port":27045,"enabled":true,"region":"eu","cc":"pl","latitude":52.2297,"longitude":21.017532,"reserved":0,"last_update":"0001-01-01T00:00:00Z","name_a2s":"Uncletopia | Warsaw | 4 | All Maps","protocol":17,"map":"koth_sawmill","folder":"tf","game":"Team Fortress","app_id":440,"player_count":0,"max_players":24,"Bots":0,"server_type":"Dedicated","server_os":"Linux","password":true,"vac":true,"version":"7961495","steam_id":85568392925397853,"keywords":["cp","nocrits","nodmgspread","uncletopia"],"game_id":440,"stv_port":27046,"stv_name":"Uncletopia | Warsaw | 4 | All Maps | STV","players":null},{"server_id":53,"name":"Uncletopia | Warsaw | 5 | Stopwatch","name_short":"waw-5","host":"waw-1.pl.uncletopia.com","port":27055,"enabled":true,"region":"eu","cc":"pl","latitude":52.2297,"longitude":21.017532,"reserved":0,"last_update":"0001-01-01T00:00:00Z","name_a2s":"Uncletopia | Warsaw | 5 | Stopwatch","protocol":17,"map":"cp_metalworks","folder":"tf","game":"Team Fortress","app_id":440,"player_count":0,"max_players":24,"Bots":0,"server_type":"Dedicated","server_os":"Linux","password":true,"vac":true,"version":"7961495","steam_id":85568392925397854,"keywords":["cp","nocrits","nodmgspread","uncletopia"],"game_id":440,"stv_port":27056,"stv_name":"Uncletopia | Warsaw | 5 | Stopwatch | STV","players":null},{"server_id":54,"name":"Uncletopia | Warsaw | 6 | Community","name_short":"waw-6","host":"waw-1.pl.uncletopia.com","port":27065,"enabled":true,"region":"eu","cc":"pl","latitude":52.2297,"longitude":21.017532,"reserved":0,"last_update":"0001-01-01T00:00:00Z","name_a2s":"Uncletopia | Warsaw | 6 | Community","protocol":17,"map":"workshop/pl_corrode_rc2.ugc546577989","folder":"tf","game":"Team Fortress","app_id":440,"player_count":0,"max_players":24,"Bots":0,"server_type":"Dedicated","server_os":"Linux","password":true,"vac":true,"version":"7961495","steam_id":85568392925397856,"keywords":["nocrits","nodmgspread","payload","uncletopia"],"game_id":440,"stv_port":27066,"stv_name":"Uncletopia | Warsaw | 6 | Community | STV","players":null}]}