{"status":true,"message":"","result":[{"server_id":9,"name":"Uncletopia | Atlanta | 1 | All Maps","name_short":"atl-1","host":"atl-1.us.uncletopia.com","port":27015,"enabled":true,"region":"us-east","cc":"us","latitude":33.753746,"longitude":-84.38633,"reserved":0,"last_update":"0001-01-01T00:00:00Z","name_a2s":"Uncletopia | Atlanta | 1 | All Maps","protocol":17,"map":"koth_cascade","folder":"tf","game":"Team Fortress","app_id":440,"player_count":5,"max_players":24,"Bots":0,"server_type":"Dedicated","server_os":"Linux","password":true,"vac":true,"version":"7757534","steam_id":85568392924469982,"keywords":["cp","nocrits","nodmgspread","uncletopia"],"game_id":440,"stv_port":27016,"stv_name":"Uncletopia | Atlanta | 1 | All Maps | STV","players":[{"user_id":14,"name":"Eosson","steam_id":76561198108642113,"connected_time":164000000000,"state":"active","ping":85},{"user_id":7,"name":"abomination","steam_id":76561198167974713,"connected_time":1402000000000,"state":"active","ping":47},{"user_id":8,"name":"secondaltac","steam_id":76561199350678958,"connected_time":1151000000000,"state":"active","ping":56},{"user_id":11,"name":"President of 2Fort Adolf driper","steam_id":76561199160429755,"connected_time":509000000000,"state":"active","ping":87},{"user_id":13,"name":"Pig master","steam_id":76561199388075545,"connected_time":449000000000,"state":"active","ping":120}]},{"server_id":104,"name":"Uncletopia | Atlanta | 2 | All Maps","name_short":"atl-2","host":"atl-1.us.uncletopia.com","port":27025,"enabled":true,"region":"us-east","cc":"us","latitude":33.753746,"longitude":-84.38633,"reserved":0,"last_update":"0001-01-01T00:00:00Z","name_a2s":"Uncletopia | Atlanta | 2 | All Maps","protocol":17,"map":"cp_dustbowl","folder":"tf","game":"Team Fortress","app_id":440,"player_count":1,"max_players":24,"Bots":0,"server_type":"Dedicated","server_os":"Linux","password":true,"vac":true,"version":"7757534","steam_id":85568392924469983,"keywords":["cp","nocrits","nodmgspread","uncletopia"],"game_id":440,"stv_port":27026,"stv_name":"Uncletopia | Atlanta | 2 | All Maps | STV","players":[{"user_id":4,"name":"sologor","steam_id":76561197979090955,"connected_time":477000000000,"state":"active","ping":59}]},{"server_id":400,"name":"Uncletopia | Atlanta | 3 | Community","name_short":"atl-3","host":"atl-1.us.uncletopia.com","port":27035,"enabled":true,"region":"us-east","cc":"us","latitude":33.753746,"longitude":-84.38633,"reserved":0,"last_update":"0001-01-01T00:00:00Z","name_a2s":"Uncletopia | Atlanta | 3 | Community","protocol":17,"map":"workshop/koth_trenchfoot_b1a.ugc731436616","folder":"tf","game":"Team Fortress","app_id":440,"player_count":0,"max_players":24,"Bots":0,"server_type":"Dedicated","server_os":"Linux","password":true,"vac":true,"version":"7757534","steam_id":85568392924515187,"keywords":["cp","nocrits","nodmgspread","uncletopia"],"game_id":440,"stv_port":27036,"stv_name":"Uncletopia | Atlanta | 3 | Community | STV","players":null},{"server_id":401,"name":"Uncletopia | Atlanta | 4 | No Payload","name_short":"atl-4","host":"atl-1.us.uncletopia.com","port":27045,"enabled":true,"region":"us-east","cc":"us","latitude":33.753746,"longitude":-84.38633,"reserved":0,"last_update":"0001-01-01T00:00:00Z","name_a2s":"","protocol":0,"map":"","folder":"","game":"","app_id":0,"player_count":0,"max_players":0,"Bots":0,"server_type":"","server_os":"","password":false,"vac":false,"version":"","steam_id":0,"keywords":null,"game_id":0,"stv_port":0,"stv_name":"","players":null},{"server_id":2,"name":"Uncletopia | Chicago | 1 | All Maps","name_short":"chi-1","host":"chi-1.us.uncletopia.com","port":27015,"enabled":true,"region":"us-central","cc":"us","latitude":41.881832,"longitude":-87.62318,"reserved":0,"last_update":"0001-01-01T00:00:00Z","name_a2s":"Uncletopia | Chicago | 1 | All Maps","protocol":17,"map":"pl_frontier_final","folder":"tf","game":"Team Fortress","app_id":440,"player_count":0,"max_players":24,"Bots":0,"server_type":"Dedicated","server_os":"Linux","password":true,"vac":true,"version":"7757534","steam_id":85568392924469984,"keywords":["nocrits","nodmgspread","payload","uncletopia"],"game_id":440,"stv_port":27016,"stv_name":"Uncletopia | Chicago | 1 | All Maps | STV","players":null},{"server_id":106,"name":"Uncletopia | Chicago | 2 | All Maps","name_short":"chi-2","host":"chi-1.us.uncletopia.com","port":27025,"enabled":true,"region":"us-central","cc":"us","latitude":41.881832,"longitude":-87.62318,"reserved":0,"last_update":"0001-01-01T00:00:00Z","name_a2s":"Uncletopia | Chicago | 2 | All Maps","protocol":17,"map":"pl_frontier_final","folder":"tf","game":"Team Fortress","app_id":440,"player_count":24,"max_players":24,"Bots":0,"server_type":"Dedicated","server_os":"Linux","password":true,"vac":true,"version":"7757534","steam_id":85568392924469985,"keywords":["nocrits","nodmgspread","payload","uncletopia"],"game_id":440,"stv_port":27026,"stv_name":"Uncletopia | Chicago | 2 | All Maps | STV","players":[{"user_id":132,"name":"L-BOLT","steam_id":76561198200688349,"connected_time":3683000000000,"state":"active","ping":76},{"user_id":146,"name":"popfulmail","steam_id":76561198865971290,"connected_time":1561000000000,"state":"active","ping":84},{"user_id":133,"name":"Kiso 火","steam_id":76561198141026844,"connected_time":3677000000000,"state":"active","ping":137},{"user_id":154,"name":"Sparky","steam_id":76561198086845464,"connected_time":1208000000000,"state":"active","ping":54},{"user_id":140,"name":"Pepsiman","steam_id":76561198085789499,"connected_time":2620000000000,"state":"active","ping":57},{"user_id":124,"name":"kametro4","steam_id":76561198835430429,"connected_time":3729000000000,"state":"active","ping":78},{"user_id":157,"name":"Squirrel","steam_id":76561198213466429,"connected_time":832000000000,"state":"active","ping":91},{"user_id":166,"name":"shadow elite","steam_id":76561198165212575,"connected_time":228000000000,"state":"active","ping":67},{"user_id":147,"name":"Righteou5Dude","steam_id":76561198136291931,"connected_time":1546000000000,"state":"active","ping":85},{"user_id":155,"name":"Mury","steam_id":76561198069743049,"connected_time":1131000000000,"state":"active","ping":97},{"user_id":153,"name":"Ajax","steam_id":76561197962240140,"connected_time":1293000000000,"state":"active","ping":71},{"user_id":160,"name":"WatchWill","steam_id":76561198157237945,"connected_time":400000000000,"state":"active","ping":79},{"user_id":164,"name":"Fat Spy with Unusual Pan","steam_id":76561199027576969,"connected_time":294000000000,"state":"active","ping":162},{"user_id":96,"name":"rad","steam_id":76561198413125750,"connected_time":6350000000000,"state":"active","ping":68},{"user_id":163,"name":"rustyorion","steam_id":76561198439186347,"connected_time":355000000000,"state":"active","ping":93},{"user_id":130,"name":"Delsato","steam_id":76561198304505626,"connected_time":3711000000000,"state":"active","ping":51},{"user_id":158,"name":"Herr Doktor","steam_id":76561198025473302,"connected_time":490000000000,"state":"active","ping":85},{"user_id":167,"name":"roto","steam_id":76561198138735860,"connected_time":135000000000,"state":"active","ping":65},{"user_id":148,"name":"VixianUwU","steam_id":76561198948815060,"connected_time":1535000000000,"state":"active","ping":80},{"user_id":108,"name":"\\|)=|_|=(|/","steam_id":76561198171491110,"connected_time":5520000000000,"state":"active","ping":69},{"user_id":149,"name":"Kazel","steam_id":76561197989757682,"connected_time":1498000000000,"state":"active","ping":63},{"user_id":162,"name":"Goober","steam_id":76561198105930089,"connected_time":369000000000,"state":"active","ping":59},{"user_id":49,"name":"gghfgfgfg","steam_id":76561198064823861,"connected_time":9643000000000,"state":"active","ping":73},{"user_id":125,"name":"roo the observer","steam_id":76561198120684348,"connected_time":3729000000000,"state":"active","ping":52}]},{"server_id":402,"name":"Uncletopia | Chicago | 3 | All Maps","name_short":"chi-3","host":"chi-1.us.uncletopia.com","port":27035,"enabled":true,"region":"us-central","cc":"us","latitude":41.881832,"longitude":-87.62318,"reserved":0,"last_update":"0001-01-01T00:00:00Z","name_a2s":"Uncletopia | Chicago | 3 | All Maps","protocol":17,"map":"koth_highpass","folder":"tf","game":"Team Fortress","app_id":440,"player_count":0,"max_players":24,"Bots":0,"server_type":"Dedicated","server_os":"Linux","password":true,"vac":true,"version":"7757534","steam_id":85568392924515191,"keywords":["cp","nocrits","nodmgspread","uncletopia"],"game_id":440,"stv_port":27036,"stv_name":"Uncletopia | Chicago | 3 | All Maps | STV","players":null},{"server_id":403,"name":"Uncletopia | Chicago | 4 | All Maps","name_short":"chi-4","host":"chi-1.us.uncletopia.com","port":27045,"enabled":true,"region":"us-central","cc":"us","latitude":41.881832,"longitude":-87.62318,"reserved":0,"last_update":"0001-01-01T00:00:00Z","name_a2s":"Uncletopia | Chicago | 4 | All Maps","protocol":17,"map":"koth_lakeside_final","folder":"tf","game":"Team Fortress","app_id":440,"player_count":0,"max_players":24,"Bots":0,"server_type":"Dedicated","server_os":"Linux","password":true,"vac":true,"version":"7757534","steam_id":85568392924515193,"keywords":["cp","nocrits","nodmgspread","uncletopia"],"game_id":440,"stv_port":27046,"stv_name":"Uncletopia | Chicago | 4 | All Maps | STV","players":null},{"server_id":36,"name":"Uncletopia | Chicago | 5 | All Maps","name_short":"chi-5","host":"chi-2.us.uncletopia.com","port":27015,"enabled":true,"region":"us-central","cc":"us","latitude":41.881832,"longitude":-87.62318,"reserved":0,"last_update":"0001-01-01T00:00:00Z","name_a2s":"Uncletopia | Chicago | 5 | All Maps","protocol":17,"map":"koth_cascade","folder":"tf","game":"Team Fortress","app_id":440,"player_count":0,"max_players":24,"Bots":0,"server_type":"Dedicated","server_os":"Linux","password":true,"vac":true,"version":"7757534","steam_id":85568392924866362,"keywords":["cp","nocrits","nodmgspread","uncletopia"],"game_id":440,"stv_port":27016,"stv_name":"Uncletopia | Chicago | 5 | All Maps | STV","players":null},{"server_id":37,"name":"Uncletopia | Chicago | 6 | All Maps","name_short":"chi-6","host":"chi-2.us.uncletopia.com","port":27025,"enabled":true,"region":"us-central","cc":"us","latitude":41.881832,"longitude":-87.62318,"reserved":0,"last_update":"0001-01-01T00:00:00Z","name_a2s":"Uncletopia | Chicago | 6 | All Maps","protocol":17,"map":"pl_borneo","folder":"tf","game":"Team Fortress","app_id":440,"player_count":0,"max_players":24,"Bots":0,"server_type":"Dedicated","server_os":"Linux","password":true,"vac":true,"version":"7757534","steam_id":85568392924866363,"keywords":["nocrits","nodmgspread","payload","uncletopia"],"game_id":440,"stv_port":27026,"stv_name":"Uncletopia | Chicago | 6 | All Maps | STV","players":null},{"server_id":38,"name":"Uncletopia | Chicago | 7 | Stopwatch Beta","name_short":"chi-7","host":"chi-2.us.uncletopia.com","port":27035,"enabled":true,"region":"us-central","cc":"us","latitude":41.881832,"longitude":-87.62318,"reserved":0,"last_update":"0001-01-01T00:00:00Z","name_a2s":"Uncletopia | Chicago | 7 | Stopwatch Beta","protocol":17,"map":"pl_barnblitz","folder":"tf","game":"Team Fortress","app_id":440,"player_count":0,"max_players":24,"Bots":0,"server_type":"Dedicated","server_os":"Linux","password":true,"vac":true,"version":"7757534","steam_id":85568392924866364,"keywords":["nocrits","nodmgspread","payload","uncletopia"],"game_id":440,"stv_port":27036,"stv_name":"Uncletopia | Chicago | 7 | Stopwatch Beta | STV","players":null},{"server_id":39,"name":"Uncletopia | Chicago | 8 | Community","name_short":"chi-8","host":"chi-2.us.uncletopia.com","port":27045,"enabled":true,"region":"us-central","cc":"us","latitude":41.881832,"longitude":-87.62318,"reserved":0,"last_update":"0001-01-01T00:00:00Z","name_a2s":"Uncletopia | Chicago | 8 | Community","protocol":17,"map":"koth_cascade","folder":"tf","game":"Team Fortress","app_id":440,"player_count":0,"max_players":24,"Bots":0,"server_type":"Dedicated","server_os":"Linux","password":true,"vac":true,"version":"7757534","steam_id":85568392924866365,"keywords":["cp","nocrits","nodmgspread","uncletopia"],"game_id":440,"stv_port":27046,"stv_name":"Uncletopia | Chicago | 8 | Community | STV","players":null},{"server_id":8,"name":"Uncletopia | Dallas | 1 | All Maps","name_short":"dal-1","host":"dal-1.us.uncletopia.com","port":27015,"enabled":true,"region":"us-central","cc":"us","latitude":32.779167,"longitude":-96.80889,"reserved":0,"last_update":"0001-01-01T00:00:00Z","name_a2s":"Uncletopia | Dallas | 1 | All Maps","protocol":17,"map":"pl_swiftwater_final1","folder":"tf","game":"Team Fortress","app_id":440,"player_count":24,"max_players":24,"Bots":0,"server_type":"Dedicated","server_os":"Linux","password":true,"vac":true,"version":"7757534","steam_id":85568392924469986,"keywords":["nocrits","nodmgspread","payload","uncletopia"],"game_id":440,"stv_port":27016,"stv_name":"Uncletopia | Dallas | 1 | All Maps | STV","players":[{"user_id":55,"name":"MasterAmongRust","steam_id":76561198010160233,"connected_time":7777000000000,"state":"active","ping":86},{"user_id":111,"name":"I can't heal","steam_id":76561198039763676,"connected_time":3396000000000,"state":"active","ping":73},{"user_id":87,"name":"Quiver Cakes ._.","steam_id":76561198243155576,"connected_time":5222000000000,"state":"active","ping":74},{"user_id":6,"name":"r0zemary","steam_id":76561198128494897,"connected_time":11615000000000,"state":"active","ping":82},{"user_id":145,"name":"{BUB} Royd Rage","steam_id":76561198127591926,"connected_time":969000000000,"state":"active","ping":75},{"user_id":134,"name":"SOULDOG","steam_id":76561199212057006,"connected_time":1400000000000,"state":"active","ping":182},{"user_id":96,"name":"Jarvis from Avengers","steam_id":76561198164035863,"connected_time":4126000000000,"state":"active","ping":82},{"user_id":116,"name":"Goat","steam_id":76561198068447650,"connected_time":2705000000000,"state":"active","ping":60},{"user_id":74,"name":"Bong Rips for Karl","steam_id":76561197976436609,"connected_time":6106000000000,"state":"active","ping":83},{"user_id":113,"name":"XxDragon4321xX","steam_id":76561198046705735,"connected_time":2948000000000,"state":"active","ping":97},{"user_id":119,"name":"HAKEEM","steam_id":76561198849413964,"connected_time":2571000000000,"state":"active","ping":74},{"user_id":140,"name":"the smiling zombie","steam_id":76561199246231090,"connected_time":1228000000000,"state":"active","ping":81},{"user_id":130,"name":"ark","steam_id":76561198041066271,"connected_time":1611000000000,"state":"active","ping":62},{"user_id":125,"name":"Romo","steam_id":76561198243101572,"connected_time":2126000000000,"state":"active","ping":71},{"user_id":141,"name":"SCARY MONSTERS","steam_id":76561198042034176,"connected_time":1148000000000,"state":"active","ping":60},{"user_id":144,"name":"Ulrich Stern","steam_id":76561198101739682,"connected_time":1032000000000,"state":"active","ping":69},{"user_id":150,"name":"bobletoob","steam_id":76561199184464900,"connected_time":88000000000,"state":"active","ping":84},{"user_id":118,"name":"Deleth","steam_id":76561199381418653,"connected_time":2602000000000,"state":"active","ping":168},{"user_id":146,"name":"pencil","steam_id":76561198119826352,"connected_time":959000000000,"state":"active","ping":45},{"user_id":147,"name":"TheDarkTitan","steam_id":76561198304794068,"connected_time":952000000000,"state":"active","ping":99},{"user_id":70,"name":"yourfirewall","steam_id":76561199370630168,"connected_time":6538000000000,"state":"active","ping":101},{"user_id":129,"name":"VaL-ASROC","steam_id":76561198886493635,"connected_time":1675000000000,"state":"active","ping":75},{"user_id":149,"name":"Garfi","steam_id":76561198173914951,"connected_time":545000000000,"state":"active","ping":106},{"user_id":152,"name":"michiuouitalipc","steam_id":76561199122734107,"connected_time":34000000000,"state":"active","ping":193}]},{"server_id":108,"name":"Uncletopia | Dallas | 2 | All Maps","name_short":"dal-2","host":"dal-1.us.uncletopia.com","port":27025,"enabled":true,"region":"us-central","cc":"us","latitude":32.779167,"longitude":-96.80889,"reserved":0,"last_update":"0001-01-01T00:00:00Z","name_a2s":"Uncletopia | Dallas | 2 | All Maps","protocol":17,"map":"koth_highpass","folder":"tf","game":"Team Fortress","app_id":440,"player_count":1,"max_players":24,"Bots":0,"server_type":"Dedicated","server_os":"Linux","password":true,"vac":true,"version":"7757534","steam_id":85568392924469988,"keywords":["cp","nocrits","nodmgspread","uncletopia"],"game_id":440,"stv_port":27026,"stv_name":"Uncletopia | Dallas | 2 | All Maps | STV","players":[{"user_id":8,"name":"cesartele3000","steam_id":76561198142149479,"connected_time":12000000000,"state":"active","ping":91}]},{"server_id":5,"name":"Uncletopia | Frankfurt | 1 | All Maps","name_short":"frk-1","host":"frk-1.de.uncletopia.com","port":27015,"enabled":true,"region":"eu","cc":"de","latitude":50.110924,"longitude":8.682127,"reserved":0,"last_update":"0001-01-01T00:00:00Z","name_a2s":"Uncletopia | Frankfurt | 1 | All Maps","protocol":17,"map":"pl_barnblitz","folder":"tf","game":"Team Fortress","app_id":440,"player_count":24,"max_players":24,"Bots":0,"server_type":"Dedicated","server_os":"Linux","password":true,"vac":true,"version":"7757534","steam_id":85568392924469989,"keywords":["nocrits","nodmgspread","payload","uncletopia"],"game_id":440,"stv_port":27016,"stv_name":"Uncletopia | Frankfurt | 1 | All Maps | STV","players":[{"user_id":344,"name":"highway crusader","steam_id":76561198110470565,"connected_time":1975000000000,"state":"active","ping":94},{"user_id":310,"name":"JeanCorben","steam_id":76561197965133561,"connected_time":4143000000000,"state":"active","ping":45},{"user_id":354,"name":"Mr. Hunts","steam_id":76561197981910397,"connected_time":1554000000000,"state":"active","ping":60},{"user_id":319,"name":"Solymr ibn Wali Barad","steam_id":76561198044008976,"connected_time":3433000000000,"state":"active","ping":73},{"user_id":346,"name":"Renard pos4","steam_id":76561197998908594,"connected_time":1899000000000,"state":"active","ping":69},{"user_id":361,"name":"LoLo","steam_id":76561199403387863,"connected_time":923000000000,"state":"active","ping":63},{"user_id":359,"name":"Poppy Stingray","steam_id":76561198049673783,"connected_time":1043000000000,"state":"active","ping":72},{"user_id":334,"name":"quickfast","steam_id":76561199438900919,"connected_time":2401000000000,"state":"active","ping":54},{"user_id":348,"name":"Yelowchy","steam_id":76561198199416121,"connected_time":1881000000000,"state":"active","ping":63},{"user_id":324,"name":"Mixa.Lv","steam_id":76561198013911804,"connected_time":3254000000000,"state":"active","ping":68},{"user_id":360,"name":"VIN WEASEL","steam_id":76561198014387066,"connected_time":1041000000000,"state":"active","ping":43},{"user_id":355,"name":"LOBZIK","steam_id":76561198114830120,"connected_time":1408000000000,"state":"active","ping":75},{"user_id":315,"name":"Elon Ma","steam_id":76561199018053264,"connected_time":3734000000000,"state":"active","ping":69},{"user_id":339,"name":"Mayor Wank from Wanker Town","steam_id":76561197998253588,"connected_time":2139000000000,"state":"active","ping":51},{"user_id":280,"name":"Spajro","steam_id":76561198257383813,"connected_time":5544000000000,"state":"active","ping":46},{"user_id":311,"name":"Gibbed_GIBus30","steam_id":76561199272782484,"connected_time":4128000000000,"state":"active","ping":59},{"user_id":338,"name":"X45Y","steam_id":76561198112534025,"connected_time":2144000000000,"state":"active","ping":45},{"user_id":350,"name":"Sprayus banditcamp.com","steam_id":76561198399216417,"connected_time":1870000000000,"state":"active","ping":54},{"user_id":336,"name":"RiX","steam_id":76561197969053733,"connected_time":2246000000000,"state":"active","ping":66},{"user_id":342,"name":"AbsurdGallium","steam_id":76561198291120469,"connected_time":2032000000000,"state":"active","ping":47},{"user_id":351,"name":"ricky pee pee","steam_id":76561198152620745,"connected_time":1867000000000,"state":"active","ping":74},{"user_id":364,"name":".erik (real)","steam_id":76561197962112424,"connected_time":223000000000,"state":"active","ping":74},{"user_id":362,"name":"Edla","steam_id":76561198062815315,"connected_time":653000000000,"state":"active","ping":112},{"user_id":365,"name":"daz™","steam_id":76561198177188802,"connected_time":221000000000,"state":"active","ping":129}]},{"server_id":110,"name":"Uncletopia | Frankfurt | 2 | All Maps","name_short":"frk-2","host":"frk-1.de.uncletopia.com","port":27025,"enabled":true,"region":"eu","cc":"de","latitude":50.110924,"longitude":8.682127,"reserved":0,"last_update":"0001-01-01T00:00:00Z","name_a2s":"Uncletopia | Frankfurt | 2 | All Maps","protocol":17,"map":"cp_dustbowl","folder":"tf","game":"Team Fortress","app_id":440,"player_count":0,"max_players":24,"Bots":0,"server_type":"Dedicated","server_os":"Linux","password":true,"vac":true,"version":"7757534","steam_id":85568392924469990,"keywords":["cp","nocrits","nodmgspread","uncletopia"],"game_id":440,"stv_port":27026,"stv_name":"Uncletopia | Frankfurt | 2 | All Maps | STV","players":null},{"server_id":308,"name":"Uncletopia | Frankfurt | 3 | All Maps","name_short":"frk-3","host":"frk-1.de.uncletopia.com","port":27035,"enabled":true,"region":"eu","cc":"de","latitude":50.110924,"longitude":8.682127,"reserved":0,"last_update":"0001-01-01T00:00:00Z","name_a2s":"Uncletopia | Frankfurt | 3 | All Maps","protocol":17,"map":"pl_pier","folder":"tf","game":"Team Fortress","app_id":440,"player_count":0,"max_players":24,"Bots":0,"server_type":"Dedicated","server_os":"Linux","password":true,"vac":true,"version":"7757534","steam_id":85568392924504274,"keywords":["nocrits","nodmgspread","payload","uncletopia"],"game_id":440,"stv_port":27036,"stv_name":"Uncletopia | Frankfurt | 3 | All Maps | STV","players":null},{"server_id":309,"name":"Uncletopia | Frankfurt | 4 | All Maps","name_short":"frk-4","host":"frk-1.de.uncletopia.com","port":27045,"enabled":true,"region":"eu","cc":"de","latitude":50.110924,"longitude":8.682127,"reserved":0,"last_update":"0001-01-01T00:00:00Z","name_a2s":"Uncletopia | Frankfurt | 4 | All Maps","protocol":17,"map":"pl_borneo","folder":"tf","game":"Team Fortress","app_id":440,"player_count":0,"max_players":24,"Bots":0,"server_type":"Dedicated","server_os":"Linux","password":true,"vac":true,"version":"7757534","steam_id":85568392924504275,"keywords":["nocrits","nodmgspread","payload","uncletopia"],"game_id":440,"stv_port":27046,"stv_name":"Uncletopia | Frankfurt | 4 | All Maps | STV","players":null},{"server_id":310,"name":"Uncletopia | Frankfurt | 5 | All Maps","name_short":"frk-5","host":"frk-1.de.uncletopia.com","port":27055,"enabled":true,"region":"eu","cc":"de","latitude":50.110924,"longitude":8.682127,"reserved":0,"last_update":"0001-01-01T00:00:00Z","name_a2s":"Uncletopia | Frankfurt | 5 | All Maps","protocol":17,"map":"koth_lakeside_final","folder":"tf","game":"Team Fortress","app_id":440,"player_count":0,"max_players":24,"Bots":0,"server_type":"Dedicated","server_os":"Linux","password":true,"vac":true,"version":"7757534","steam_id":85568392924504277,"keywords":["cp","nocrits","nodmgspread","uncletopia"],"game_id":440,"stv_port":27056,"stv_name":"Uncletopia | Frankfurt | 5 | All Maps | STV","players":null},{"server_id":311,"name":"Uncletopia | Frankfurt | 6 | All Maps","name_short":"frk-6","host":"frk-1.de.uncletopia.com","port":27065,"enabled":true,"region":"eu","cc":"de","latitude":50.110924,"longitude":8.682127,"reserved":0,"last_update":"0001-01-01T00:00:00Z","name_a2s":"Uncletopia | Frankfurt | 6 | All Maps","protocol":17,"map":"pl_pier","folder":"tf","game":"Team Fortress","app_id":440,"player_count":19,"max_players":24,"Bots":0,"server_type":"Dedicated","server_os":"Linux","password":true,"vac":true,"version":"7757534","steam_id":85568392924504278,"keywords":["nocrits","nodmgspread","payload","uncletopia"],"game_id":440,"stv_port":27066,"stv_name":"Uncletopia | Frankfurt | 6 | All Maps | STV","players":[{"user_id":237,"name":"Kwizine","steam_id":76561198147999400,"connected_time":1481000000000,"state":"spawning","ping":61},{"user_id":247,"name":"YuraGreek","steam_id":76561198050182252,"connected_time":1082000000000,"state":"spawning","ping":79},{"user_id":248,"name":"LivEssense","steam_id":76561198052476979,"connected_time":1078000000000,"state":"spawning","ping":78},{"user_id":259,"name":"Hÿlkje","steam_id":76561198998581449,"connected_time":978000000000,"state":"spawning","ping":80},{"user_id":272,"name":"Dambo","steam_id":76561198227320008,"connected_time":25000000000,"state":"connecting","ping":131},{"user_id":273,"name":"Musik","steam_id":76561199120833084,"connected_time":12000000000,"state":"spawning","ping":83},{"user_id":265,"name":"Farmercy","steam_id":76561198000038039,"connected_time":710000000000,"state":"spawning","ping":64},{"user_id":245,"name":"Sigma","steam_id":76561199088506542,"connected_time":1114000000000,"state":"spawning","ping":257},{"user_id":244,"name":"tqla","steam_id":76561198073092585,"connected_time":1227000000000,"state":"spawning","ping":79},{"user_id":264,"name":"Silent Person","steam_id":76561198107763537,"connected_time":855000000000,"state":"spawning","ping":67},{"user_id":252,"name":"Oct0pusW1zard","steam_id":76561199202988642,"connected_time":1037000000000,"state":"spawning","ping":37},{"user_id":266,"name":"Nassu","steam_id":76561198147367577,"connected_time":680000000000,"state":"spawning","ping":150},{"user_id":255,"name":"Your friend (maybe)","steam_id":76561198240278328,"connected_time":1013000000000,"state":"spawning","ping":63},{"user_id":256,"name":"Zenos","steam_id":76561198212366199,"connected_time":1003000000000,"state":"spawning","ping":61},{"user_id":267,"name":"The Bushman","steam_id":76561198152576682,"connected_time":651000000000,"state":"spawning","ping":62},{"user_id":260,"name":"Tekky","steam_id":76561197990987315,"connected_time":978000000000,"state":"spawning","ping":50},{"user_id":270,"name":"Lionball_3","steam_id":76561199084049796,"connected_time":317000000000,"state":"spawning","ping":48},{"user_id":262,"name":"NLSAM","steam_id":76561199111154916,"connected_time":914000000000,"state":"spawning","ping":47},{"user_id":263,"name":"Professional Drainer","steam_id":76561198402301900,"connected_time":891000000000,"state":"spawning","ping":41}]},{"server_id":23,"name":"Uncletopia | Frankfurt | 7 | Stopwatch Beta","name_short":"frk-7","host":"frk-1.de.uncletopia.com","port":27075,"enabled":true,"region":"eu","cc":"de","latitude":50.110924,"longitude":8.682127,"reserved":0,"last_update":"0001-01-01T00:00:00Z","name_a2s":"Uncletopia | Frankfurt | 7 | Stopwatch Beta","protocol":17,"map":"workshop/koth_ramjam_rc1.ugc459778887","folder":"tf","game":"Team Fortress","app_id":440,"player_count":0,"max_players":24,"Bots":0,"server_type":"Dedicated","server_os":"Linux","password":true,"vac":true,"version":"7757534","steam_id":85568392924742827,"keywords":["cp","nocrits","nodmgspread","uncletopia"],"game_id":440,"stv_port":27076,"stv_name":"Uncletopia | Frankfurt | 7 | Stopwatch Beta | STV","players":null},{"server_id":24,"name":"Uncletopia | Frankfurt | 8 | Community","name_short":"frk-8","host":"frk-1.de.uncletopia.com","port":27085,"enabled":true,"region":"eu","cc":"de","latitude":50.110924,"longitude":8.682127,"reserved":0,"last_update":"0001-01-01T00:00:00Z","name_a2s":"Uncletopia | Frankfurt | 8 | Community","protocol":17,"map":"workshop/cp_bruhstbowl_b5.ugc2878604990","folder":"tf","game":"Team Fortress","app_id":440,"player_count":24,"max_players":24,"Bots":0,"server_type":"Dedicated","server_os":"Linux","password":true,"vac":true,"version":"7757534","steam_id":85568392924742828,"keywords":["cp","nocrits","nodmgspread","uncletopia"],"game_id":440,"stv_port":27086,"stv_name":"Uncletopia | Frankfurt | 8 | Community | STV","players":[{"user_id":70,"name":"๋","steam_id":76561198061433139,"connected_time":2896000000000,"state":"active","ping":84},{"user_id":66,"name":"Dzan50","steam_id":76561198059758591,"connected_time":3307000000000,"state":"active","ping":90},{"user_id":92,"name":"TommyGun","steam_id":76561197995664678,"connected_time":1487000000000,"state":"active","ping":89},{"user_id":112,"name":"Gearless","steam_id":76561198362367074,"connected_time":311000000000,"state":"active","ping":82},{"user_id":8,"name":"Creasman","steam_id":76561198875379322,"connected_time":7094000000000,"state":"active","ping":116},{"user_id":100,"name":"Blaze-A-Glory!","steam_id":76561198133623363,"connected_time":1335000000000,"state":"active","ping":78},{"user_id":115,"name":"Lukas","steam_id":76561198009118452,"connected_time":22000000000,"state":"active","ping":58},{"user_id":81,"name":"CutKan","steam_id":76561198809248662,"connected_time":2040000000000,"state":"active","ping":100},{"user_id":98,"name":"fish","steam_id":76561198205475839,"connected_time":1355000000000,"state":"active","ping":94},{"user_id":86,"name":"FZStick","steam_id":76561198086617223,"connected_time":1757000000000,"state":"active","ping":54},{"user_id":110,"name":"zythe_","steam_id":76561198189909441,"connected_time":491000000000,"state":"active","ping":56},{"user_id":24,"name":"Tails8521","steam_id":76561198051747164,"connected_time":5755000000000,"state":"active","ping":57},{"user_id":49,"name":"acuifex","steam_id":76561198106266513,"connected_time":4599000000000,"state":"active","ping":75},{"user_id":79,"name":"spykerhyk","steam_id":76561198051161355,"connected_time":2170000000000,"state":"active","ping":46},{"user_id":108,"name":"chopsticks","steam_id":76561198045899345,"connected_time":868000000000,"state":"active","ping":90},{"user_id":102,"name":"CODSWOLOP","steam_id":76561199114598660,"connected_time":1194000000000,"state":"active","ping":133},{"user_id":111,"name":"78","steam_id":76561198208328357,"connected_time":444000000000,"state":"active","ping":79},{"user_id":41,"name":"Balls","steam_id":76561198086400484,"connected_time":4944000000000,"state":"active","ping":85},{"user_id":89,"name":"Dreu","steam_id":76561198075647310,"connected_time":1699000000000,"state":"active","ping":61},{"user_id":106,"name":"rob","steam_id":76561198122211848,"connected_time":990000000000,"state":"active","ping":89},{"user_id":113,"name":"Boba","steam_id":76561198261766530,"connected_time":261000000000,"state":"active","ping":100},{"user_id":114,"name":"Wir suchen dich!","steam_id":76561198307613521,"connected_time":49000000000,"state":"active","ping":47},{"user_id":116,"name":"[T]aKer","steam_id":76561198001778013,"connected_time":1000000000,"state":"spawning","ping":40},{"user_id":109,"name":"Havelyn","steam_id":76561198036159862,"connected_time":802000000000,"state":"active","ping":128}]},{"server_id":202,"name":"Uncletopia | Hong Kong | 1 | All Maps","name_short":"hgk-1","host":"hgk-1.hk.uncletopia.com","port":27015,"enabled":true,"region":"asia","cc":"hk","latitude":22.302711,"longitude":114.177216,"reserved":0,"last_update":"0001-01-01T00:00:00Z","name_a2s":"Uncletopia | Hong Kong | 1 | All Maps","protocol":17,"map":"plr_nightfall_final","folder":"tf","game":"Team Fortress","app_id":440,"player_count":11,"max_players":24,"Bots":0,"server_type":"Dedicated","server_os":"Linux","password":true,"vac":true,"version":"7757534","steam_id":85568392924494504,"keywords":["nocrits","nodmgspread","payload","uncletopia"],"game_id":440,"stv_port":27016,"stv_name":"Uncletopia | Hong Kong | 1 | All Maps | STV","players":[{"user_id":256,"name":"rock dog","steam_id":76561198110545854,"connected_time":279000000000,"state":"active","ping":141},{"user_id":254,"name":"shitnex","steam_id":76561199119321538,"connected_time":373000000000,"state":"active","ping":123},{"user_id":250,"name":"Slim3rs","steam_id":76561199088010585,"connected_time":764000000000,"state":"active","ping":170},{"user_id":252,"name":"Peppermint","steam_id":76561198820630422,"connected_time":720000000000,"state":"active","ping":77},{"user_id":232,"name":"killman47","steam_id":76561198348487408,"connected_time":1865000000000,"state":"active","ping":39},{"user_id":187,"name":"쿠키","steam_id":76561197997220367,"connected_time":6309000000000,"state":"active","ping":54},{"user_id":247,"name":"DresatCouchonion","steam_id":76561199388364553,"connected_time":1090000000000,"state":"active","ping":150},{"user_id":248,"name":"Nonexistent","steam_id":76561198980563251,"connected_time":947000000000,"state":"active","ping":78},{"user_id":227,"name":"mister beast","steam_id":76561198346128694,"connected_time":2396000000000,"state":"active","ping":84},{"user_id":230,"name":"Feminine women shall be hated","steam_id":76561198213031155,"connected_time":1961000000000,"state":"active","ping":94},{"user_id":249,"name":"Critical in my ass","steam_id":76561198398974396,"connected_time":778000000000,"state":"active","ping":211}]},{"server_id":1,"name":"Uncletopia | Los Angeles | 1 | All Maps","name_short":"lax-1","host":"lax-1.us.uncletopia.com","port":27015,"enabled":true,"region":"us-west","cc":"us","latitude":33.94279,"longitude":-118.41004,"reserved":0,"last_update":"0001-01-01T00:00:00Z","name_a2s":"Uncletopia | Los Angeles | 1 | All Maps","protocol":17,"map":"koth_lakeside_final","folder":"tf","game":"Team Fortress","app_id":440,"player_count":0,"max_players":24,"Bots":0,"server_type":"Dedicated","server_os":"Linux","password":true,"vac":true,"version":"7757534","steam_id":85568392924469991,"keywords":["cp","nocrits","nodmgspread","uncletopia"],"game_id":440,"stv_port":27016,"stv_name":"Uncletopia | Los Angeles | 1 | All Maps | STV","players":null},{"server_id":112,"name":"Uncletopia | Los Angeles | 2 | All Maps","name_short":"lax-2","host":"lax-1.us.uncletopia.com","port":27025,"enabled":true,"region":"us-west","cc":"us","latitude":33.94279,"longitude":-118.41004,"reserved":0,"last_update":"0001-01-01T00:00:00Z","name_a2s":"Uncletopia | Los Angeles | 2 | All Maps","protocol":17,"map":"pl_badwater","folder":"tf","game":"Team Fortress","app_id":440,"player_count":0,"max_players":24,"Bots":0,"server_type":"Dedicated","server_os":"Linux","password":true,"vac":true,"version":"7757534","steam_id":85568392924469992,"keywords":["nocrits","nodmgspread","payload","uncletopia"],"game_id":440,"stv_port":27026,"stv_name":"Uncletopia | Los Angeles | 2 | All Maps | STV","players":null},{"server_id":324,"name":"Uncletopia | Los Angeles | 3 | All Maps","name_short":"lax-3","host":"lax-1.us.uncletopia.com","port":27035,"enabled":true,"region":"us-west","cc":"us","latitude":33.94279,"longitude":-118.41004,"reserved":0,"last_update":"0001-01-01T00:00:00Z","name_a2s":"Uncletopia | Los Angeles | 3 | All Maps","protocol":17,"map":"pl_barnblitz","folder":"tf","game":"Team Fortress","app_id":440,"player_count":0,"max_players":24,"Bots":0,"server_type":"Dedicated","server_os":"Linux","password":true,"vac":true,"version":"7757534","steam_id":85568392924510198,"keywords":["nocrits","nodmgspread","payload","uncletopia"],"game_id":440,"stv_port":27036,"stv_name":"Uncletopia | Los Angeles | 3 | All Maps | STV","players":null},{"server_id":25,"name":"Uncletopia | Los Angeles | 4 | Stopwatch Beta","name_short":"lax-4","host":"lax-1.us.uncletopia.com","port":27045,"enabled":true,"region":"us-west","cc":"us","latitude":33.94279,"longitude":-118.41004,"reserved":0,"last_update":"0001-01-01T00:00:00Z","name_a2s":"Uncletopia | Los Angeles | 4 | Stopwatch Beta","protocol":17,"map":"pl_swiftwater_final1","folder":"tf","game":"Team Fortress","app_id":440,"player_count":0,"max_players":24,"Bots":0,"server_type":"Dedicated","server_os":"Linux","password":true,"vac":true,"version":"7757534","steam_id":85568392924510199,"keywords":["nocrits","nodmgspread","payload","uncletopia"],"game_id":440,"stv_port":27046,"stv_name":"Uncletopia | Los Angeles | 4 | Stopwatch Beta | STV","players":null},{"server_id":11,"name":"Uncletopia | London | 1 | All Maps","name_short":"lon-1","host":"lon-1.uk.uncletopia.com","port":27015,"enabled":true,"region":"eu","cc":"gb","latitude":51.509865,"longitude":-0.118092,"reserved":0,"last_update":"0001-01-01T00:00:00Z","name_a2s":"Uncletopia | London | 1 | All Maps","protocol":17,"map":"koth_highpass","folder":"tf","game":"Team Fortress","app_id":440,"player_count":3,"max_players":24,"Bots":0,"server_type":"Dedicated","server_os":"Linux","password":true,"vac":true,"version":"7757534","steam_id":85568392924367362,"keywords":["cp","nocrits","nodmgspread","uncletopia"],"game_id":440,"stv_port":27016,"stv_name":"Uncletopia | London | 1 | All Maps | STV","players":[{"user_id":14,"name":"JOHN GAMING (depressed)","steam_id":76561199085822219,"connected_time":658000000000,"state":"active","ping":89},{"user_id":16,"name":"SugarPlumb","steam_id":76561198258269600,"connected_time":533000000000,"state":"active","ping":46},{"user_id":17,"name":"Dr. Cox","steam_id":76561198246629218,"connected_time":421000000000,"state":"active","ping":89}]},{"server_id":114,"name":"Uncletopia | London | 2 | All Maps","name_short":"lon-2","host":"lon-1.uk.uncletopia.com","port":27025,"enabled":true,"region":"eu","cc":"gb","latitude":51.509865,"longitude":-0.118092,"reserved":0,"last_update":"0001-01-01T00:00:00Z","name_a2s":"Uncletopia | London | 2 | All Maps","protocol":17,"map":"pl_badwater","folder":"tf","game":"Team Fortress","app_id":440,"player_count":24,"max_players":24,"Bots":0,"server_type":"Dedicated","server_os":"Linux","password":true,"vac":true,"version":"7757534","steam_id":85568392924470941,"keywords":["nocrits","nodmgspread","payload","uncletopia"],"game_id":440,"stv_port":27026,"stv_name":"Uncletopia | London | 2 | All Maps | STV","players":[{"user_id":307,"name":"wheelie bin","steam_id":76561198040040328,"connected_time":120000000000,"state":"active","ping":45},{"user_id":221,"name":"Zerfesh","steam_id":76561198117534358,"connected_time":6016000000000,"state":"active","ping":98},{"user_id":264,"name":"Kurage","steam_id":76561198021221288,"connected_time":3694000000000,"state":"active","ping":68},{"user_id":240,"name":"gagalak","steam_id":76561198089979108,"connected_time":5042000000000,"state":"active","ping":96},{"user_id":278,"name":"Enigma","steam_id":76561198035401717,"connected_time":3244000000000,"state":"active","ping":65},{"user_id":292,"name":"Fat Pigeon","steam_id":76561198817940142,"connected_time":1860000000000,"state":"active","ping":46},{"user_id":296,"name":"Gimli","steam_id":76561198004149706,"connected_time":1474000000000,"state":"active","ping":70},{"user_id":276,"name":"azzy","steam_id":76561198061293740,"connected_time":3287000000000,"state":"active","ping":75},{"user_id":305,"name":"Fridge","steam_id":76561198071665589,"connected_time":422000000000,"state":"active","ping":105},{"user_id":274,"name":"Birdseye","steam_id":76561198025852216,"connected_time":3298000000000,"state":"active","ping":48},{"user_id":299,"name":"eon","steam_id":76561197971360276,"connected_time":975000000000,"state":"active","ping":67},{"user_id":280,"name":"Bounter","steam_id":76561198072614188,"connected_time":3196000000000,"state":"active","ping":72},{"user_id":265,"name":"Flare","steam_id":76561198039098320,"connected_time":3687000000000,"state":"active","ping":46},{"user_id":308,"name":"hud_saytext_time 0","steam_id":76561198010327228,"connected_time":18000000000,"state":"spawning","ping":124},{"user_id":303,"name":"Lyle","steam_id":76561198145166845,"connected_time":722000000000,"state":"active","ping":152},{"user_id":281,"name":"poliakov.noam","steam_id":76561199259322961,"connected_time":3179000000000,"state":"active","ping":106},{"user_id":291,"name":"Udinese Dion","steam_id":76561198067931573,"connected_time":1978000000000,"state":"active","ping":56},{"user_id":306,"name":"Hoe Biden","steam_id":76561198404802175,"connected_time":398000000000,"state":"active","ping":175},{"user_id":304,"name":"Allereinan","steam_id":76561198342239906,"connected_time":706000000000,"state":"active","ping":84},{"user_id":286,"name":"elio","steam_id":76561198142662131,"connected_time":2222000000000,"state":"active","ping":66},{"user_id":302,"name":"15pounds","steam_id":76561198179606183,"connected_time":793000000000,"state":"active","ping":150},{"user_id":246,"name":"kojitori","steam_id":76561198838072150,"connected_time":4795000000000,"state":"active","ping":45},{"user_id":269,"name":"KAZAM | Tervez","steam_id":76561198045459068,"connected_time":3577000000000,"state":"active","ping":84},{"user_id":270,"name":"Space","steam_id":76561198021572167,"connected_time":3556000000000,"state":"active","ping":45}]},{"server_id":320,"name":"Uncletopia | London | 3 | All Maps","name_short":"lon-3","host":"lon-1.uk.uncletopia.com","port":27035,"enabled":true,"region":"eu","cc":"gb","latitude":51.509865,"longitude":-0.118092,"reserved":0,"last_update":"0001-01-01T00:00:00Z","name_a2s":"Uncletopia | London | 3 | All Maps","protocol":17,"map":"koth_viaduct","folder":"tf","game":"Team Fortress","app_id":440,"player_count":1,"max_players":24,"Bots":0,"server_type":"Dedicated","server_os":"Linux","password":true,"vac":true,"version":"7757534","steam_id":85568392924510192,"keywords":["cp","nocrits","nodmgspread","uncletopia"],"game_id":440,"stv_port":27036,"stv_name":"Uncletopia | London | 3 | All Maps | STV","players":[{"user_id":8,"name":"Frenzy","steam_id":76561199194842456,"connected_time":37000000000,"state":"active","ping":87}]},{"server_id":321,"name":"Uncletopia | London | 4 | All Maps","name_short":"lon-4","host":"lon-1.uk.uncletopia.com","port":27045,"enabled":true,"region":"eu","cc":"gb","latitude":51.509865,"longitude":-0.118092,"reserved":0,"last_update":"0001-01-01T00:00:00Z","name_a2s":"Uncletopia | London | 4 | All Maps","protocol":17,"map":"cp_snakewater_final1","folder":"tf","game":"Team Fortress","app_id":440,"player_count":0,"max_players":24,"Bots":0,"server_type":"Dedicated","server_os":"Linux","password":true,"vac":true,"version":"7757534","steam_id":85568392924510193,"keywords":["cp","nocrits","nodmgspread","uncletopia"],"game_id":440,"stv_port":27046,"stv_name":"Uncletopia | London | 4 | All Maps | STV","players":null},{"server_id":21,"name":"Uncletopia | London | 5 | All Maps","name_short":"lon-5","host":"lon-1.uk.uncletopia.com","port":27055,"enabled":true,"region":"eu","cc":"gb","latitude":51.509865,"longitude":-0.118092,"reserved":0,"last_update":"0001-01-01T00:00:00Z","name_a2s":"Uncletopia | London | 5 | All Maps","protocol":17,"map":"cp_altitude","folder":"tf","game":"Team Fortress","app_id":440,"player_count":0,"max_players":24,"Bots":0,"server_type":"Dedicated","server_os":"Linux","password":true,"vac":true,"version":"7757534","steam_id":85568392924742829,"keywords":["cp","nocrits","nodmgspread","uncletopia"],"game_id":440,"stv_port":27056,"stv_name":"Uncletopia | London | 5 | All Maps | STV","players":null},{"server_id":22,"name":"Uncletopia | London | 6 | All Maps","name_short":"lon-6","host":"lon-1.uk.uncletopia.com","port":27065,"enabled":true,"region":"eu","cc":"gb","latitude":51.509865,"longitude":-0.118092,"reserved":0,"last_update":"0001-01-01T00:00:00Z","name_a2s":"Uncletopia | London | 6 | All Maps","protocol":17,"map":"cp_process_final","folder":"tf","game":"Team Fortress","app_id":440,"player_count":0,"max_players":24,"Bots":0,"server_type":"Dedicated","server_os":"Linux","password":true,"vac":true,"version":"7757534","steam_id":85568392924742830,"keywords":["cp","nocrits","nodmgspread","uncletopia"],"game_id":440,"stv_port":27066,"stv_name":"Uncletopia | London | 6 | All Maps | STV","players":null},{"server_id":40,"name":"Uncletopia | London | 7 | No Payload","name_short":"lon-7","host":"lon-1.uk.uncletopia.com","port":27075,"enabled":true,"region":"eu","cc":"gb","latitude":51.509865,"longitude":-0.118092,"reserved":0,"last_update":"0001-01-01T00:00:00Z","name_a2s":"Uncletopia | London | 7 | No Payload","protocol":17,"map":"koth_lakeside_final","folder":"tf","game":"Team Fortress","app_id":440,"player_count":0,"max_players":24,"Bots":0,"server_type":"Dedicated","server_os":"Linux","password":true,"vac":true,"version":"7757534","steam_id":85568392924964314,"keywords":["cp","nocrits","nodmgspread","uncletopia"],"game_id":440,"stv_port":27076,"stv_name":"Uncletopia | London | 7 | No Payload | STV","players":null},{"server_id":41,"name":"Uncletopia | London | 8 | Community","name_short":"lon-8","host":"lon-1.uk.uncletopia.com","port":27085,"enabled":true,"region":"eu","cc":"gb","latitude":51.509865,"longitude":-0.118092,"reserved":0,"last_update":"0001-01-01T00:00:00Z","name_a2s":"Uncletopia | London | 8 | Community","protocol":17,"map":"workshop/cp_glassworks_rc6a.ugc454118349","folder":"tf","game":"Team Fortress","app_id":440,"player_count":0,"max_players":24,"Bots":0,"server_type":"Dedicated","server_os":"Linux","password":true,"vac":true,"version":"7757534","steam_id":85568392924964315,"keywords":["cp","nocrits","nodmgspread","uncletopia"],"game_id":440,"stv_port":27086,"stv_name":"Uncletopia | London | 8 | Community | STV","players":null},{"server_id":300,"name":"Uncletopia | Montréal | 1 | All Maps","name_short":"mtl-1","host":"mtl-1.ca.uncletopia.com","port":27015,"enabled":true,"region":"us-east","cc":"ca","latitude":45.50889,"longitude":-73.56167,"reserved":0,"last_update":"0001-01-01T00:00:00Z","name_a2s":"Uncletopia | Montréal | 1 | All Maps","protocol":17,"map":"cp_process_final","folder":"tf","game":"Team Fortress","app_id":440,"player_count":0,"max_players":24,"Bots":0,"server_type":"Dedicated","server_os":"Linux","password":true,"vac":true,"version":"7757534","steam_id":85568392924500087,"keywords":["cp","nocrits","nodmgspread","uncletopia"],"game_id":440,"stv_port":27016,"stv_name":"Uncletopia | Montréal | 1 | All Maps | STV","players":null},{"server_id":301,"name":"Uncletopia | Montréal | 2 | All Maps","name_short":"mtl-2","host":"mtl-1.ca.uncletopia.com","port":27025,"enabled":true,"region":"us-east","cc":"ca","latitude":45.50889,"longitude":-73.56167,"reserved":0,"last_update":"0001-01-01T00:00:00Z","name_a2s":"Uncletopia | Montréal | 2 | All Maps","protocol":17,"map":"pl_snowycoast","folder":"tf","game":"Team Fortress","app_id":440,"player_count":0,"max_players":24,"Bots":0,"server_type":"Dedicated","server_os":"Linux","password":true,"vac":true,"version":"7757534","steam_id":85568392924500088,"keywords":["nocrits","nodmgspread","payload","uncletopia"],"game_id":440,"stv_port":27026,"stv_name":"Uncletopia | Montréal | 2 | All Maps | STV","players":null},{"server_id":302,"name":"Uncletopia | Montréal | 3 | All Maps","name_short":"mtl-3","host":"mtl-1.ca.uncletopia.com","port":27035,"enabled":true,"region":"us-east","cc":"ca","latitude":45.50889,"longitude":-73.56167,"reserved":0,"last_update":"0001-01-01T00:00:00Z","name_a2s":"Uncletopia | Montréal | 3 | All Maps","protocol":17,"map":"pl_swiftwater_final1","folder":"tf","game":"Team Fortress","app_id":440,"player_count":0,"max_players":24,"Bots":0,"server_type":"Dedicated","server_os":"Linux","password":true,"vac":true,"version":"7757534","steam_id":85568392924500089,"keywords":["nocrits","nodmgspread","payload","uncletopia"],"game_id":440,"stv_port":27036,"stv_name":"Uncletopia | Montréal | 3 | All Maps | STV","players":null},{"server_id":303,"name":"Uncletopia | Montréal | 4 | No Payload","name_short":"mtl-4","host":"mtl-1.ca.uncletopia.com","port":27045,"enabled":true,"region":"us-east","cc":"ca","latitude":45.50889,"longitude":-73.56167,"reserved":0,"last_update":"0001-01-01T00:00:00Z","name_a2s":"Uncletopia | Montréal | 4 | No Payload","protocol":17,"map":"pl_pier","folder":"tf","game":"Team Fortress","app_id":440,"player_count":0,"max_players":24,"Bots":0,"server_type":"Dedicated","server_os":"Linux","password":true,"vac":true,"version":"7757534","steam_id":85568392924500090,"keywords":["nocrits","nodmgspread","payload","uncletopia"],"game_id":440,"stv_port":27046,"stv_name":"Uncletopia | Montréal | 4 | No Payload | STV","players":null},{"server_id":13,"name":"Uncletopia | New York City | 1 | All Maps","name_short":"nyc-1","host":"nyc-1.us.uncletopia.com","port":27015,"enabled":true,"region":"us-east","cc":"us","latitude":40.73061,"longitude":-73.93524,"reserved":0,"last_update":"0001-01-01T00:00:00Z","name_a2s":"Uncletopia | New York City | 1 | All Maps","protocol":17,"map":"koth_lakeside_final","folder":"tf","game":"Team Fortress","app_id":440,"player_count":0,"max_players":24,"Bots":0,"server_type":"Dedicated","server_os":"Linux","password":true,"vac":true,"version":"7757534","steam_id":85568392924469993,"keywords":["cp","nocrits","nodmgspread","uncletopia"],"game_id":440,"stv_port":27016,"stv_name":"Uncletopia | New York City | 1 | All Maps | STV","players":null},{"server_id":14,"name":"Uncletopia | New York City | 2 | All Maps","name_short":"nyc-2","host":"nyc-1.us.uncletopia.com","port":27025,"enabled":true,"region":"us-east","cc":"us","latitude":40.73061,"longitude":-73.93524,"reserved":0,"last_update":"0001-01-01T00:00:00Z","name_a2s":"Uncletopia | New York City | 2 | All Maps","protocol":17,"map":"pl_barnblitz","folder":"tf","game":"Team Fortress","app_id":440,"player_count":24,"max_players":24,"Bots":0,"server_type":"Dedicated","server_os":"Linux","password":true,"vac":true,"version":"7757534","steam_id":85568392924469994,"keywords":["nocrits","nodmgspread","payload","uncletopia"],"game_id":440,"stv_port":27026,"stv_name":"Uncletopia | New York City | 2 | All Maps | STV","players":[{"user_id":67,"name":"Smiggles","steam_id":76561198203333700,"connected_time":1397000000000,"state":"active","ping":70},{"user_id":12,"name":"LonelyNerd","steam_id":76561198135971292,"connected_time":3329000000000,"state":"active","ping":109},{"user_id":22,"name":"{(.:A.o.S:.)}gumby","steam_id":76561197970528239,"connected_time":3258000000000,"state":"active","ping":76},{"user_id":76,"name":"need a dispenser here","steam_id":76561198060912995,"connected_time":689000000000,"state":"active","ping":44},{"user_id":69,"name":"Schplichael","steam_id":76561198007792525,"connected_time":1383000000000,"state":"active","ping":110},{"user_id":25,"name":"El Laminator","steam_id":76561198170313697,"connected_time":2976000000000,"state":"active","ping":89},{"user_id":38,"name":"『ᴎioƆ』","steam_id":76561198879351372,"connected_time":1903000000000,"state":"active","ping":43},{"user_id":78,"name":"i guess thats it","steam_id":76561198053832401,"connected_time":485000000000,"state":"active","ping":128},{"user_id":74,"name":"silliness inbound","steam_id":76561198350946279,"connected_time":952000000000,"state":"active","ping":45},{"user_id":84,"name":"Bony","steam_id":76561199001748822,"connected_time":162000000000,"state":"active","ping":113},{"user_id":75,"name":"Professional Bushwacker","steam_id":76561198202889470,"connected_time":703000000000,"state":"active","ping":134},{"user_id":41,"name":"Kamikazedoctor","steam_id":76561198157078818,"connected_time":1882000000000,"state":"active","ping":77},{"user_id":80,"name":"CFG Ponder","steam_id":76561198127039453,"connected_time":338000000000,"state":"active","ping":115},{"user_id":62,"name":"chicken","steam_id":76561199090424127,"connected_time":1561000000000,"state":"active","ping":79},{"user_id":45,"name":"King De","steam_id":76561198194427422,"connected_time":1749000000000,"state":"active","ping":70},{"user_id":81,"name":"Tlaloc","steam_id":76561198375215983,"connected_time":277000000000,"state":"active","ping":119},{"user_id":47,"name":"Vensita","steam_id":76561198372434928,"connected_time":1716000000000,"state":"active","ping":86},{"user_id":48,"name":"creepycrawler","steam_id":76561198352016831,"connected_time":1652000000000,"state":"active","ping":76},{"user_id":82,"name":"cleopatra","steam_id":76561199382129166,"connected_time":234000000000,"state":"active","ping":50},{"user_id":60,"name":"sfx","steam_id":76561197963293843,"connected_time":1581000000000,"state":"active","ping":46},{"user_id":73,"name":"Stag Beetle","steam_id":76561199086655413,"connected_time":1045000000000,"state":"active","ping":108},{"user_id":83,"name":"Violet42","steam_id":76561198072927887,"connected_time":228000000000,"state":"active","ping":45},{"user_id":85,"name":"Pancakes","steam_id":76561199075429403,"connected_time":49000000000,"state":"active","ping":119},{"user_id":65,"name":"PyroEagle","steam_id":76561198296434231,"connected_time":1526000000000,"state":"active","ping":90}]},{"server_id":15,"name":"Uncletopia | New York City | 3 | Stopwatch Beta","name_short":"nyc-3","host":"nyc-1.us.uncletopia.com","port":27035,"enabled":true,"region":"us-east","cc":"us","latitude":40.73061,"longitude":-73.93524,"reserved":0,"last_update":"0001-01-01T00:00:00Z","name_a2s":"Uncletopia | New York City | 3 | Stopwatch Beta","protocol":17,"map":"pl_upward","folder":"tf","game":"Team Fortress","app_id":440,"player_count":0,"max_players":24,"Bots":0,"server_type":"Dedicated","server_os":"Linux","password":true,"vac":true,"version":"7757534","steam_id":85568392924742820,"keywords":["nocrits","nodmgspread","payload","uncletopia"],"game_id":440,"stv_port":27036,"stv_name":"Uncletopia | New York City | 3 | Stopwatch Beta | STV","players":null},{"server_id":16,"name":"Uncletopia | New York City | 4 | Community","name_short":"nyc-4","host":"nyc-1.us.uncletopia.com","port":27045,"enabled":true,"region":"us-east","cc":"us","latitude":40.73061,"longitude":-73.93524,"reserved":0,"last_update":"0001-01-01T00:00:00Z","name_a2s":"Uncletopia | New York City | 4 | Community","protocol":17,"map":"pl_swiftwater_final1","folder":"tf","game":"Team Fortress","app_id":440,"player_count":0,"max_players":24,"Bots":0,"server_type":"Dedicated","server_os":"Linux","password":true,"vac":true,"version":"7757534","steam_id":85568392924742821,"keywords":["nocrits","nodmgspread","payload","uncletopia"],"game_id":440,"stv_port":27046,"stv_name":"Uncletopia | New York City | 4 | Community | STV","players":null},{"server_id":142,"name":"Uncletopia | São Paulo | 1 | All Maps","name_short":"sao-1","host":"sao-1.br.uncletopia.com","port":27015,"enabled":true,"region":"sa","cc":"br","latitude":-23.533773,"longitude":-46.62529,"reserved":0,"last_update":"0001-01-01T00:00:00Z","name_a2s":"Uncletopia | São Paulo | 1 | All Maps","protocol":17,"map":"koth_lakeside_final","folder":"tf","game":"Team Fortress","app_id":440,"player_count":0,"max_players":24,"Bots":0,"server_type":"Dedicated","server_os":"Linux","password":true,"vac":true,"version":"7757534","steam_id":85568392924469996,"keywords":["cp","nocrits","nodmgspread","uncletopia"],"game_id":440,"stv_port":27016,"stv_name":"Uncletopia | São Paulo | 1 | All Maps | STV","players":null},{"server_id":143,"name":"Uncletopia | São Paulo | 2 | All Maps","name_short":"sao-2","host":"sao-2.br.uncletopia.com","port":27015,"enabled":true,"region":"sa","cc":"br","latitude":-23.533773,"longitude":-46.62529,"reserved":0,"last_update":"0001-01-01T00:00:00Z","name_a2s":"Uncletopia | São Paulo | 2 | All Maps","protocol":17,"map":"cp_process_final","folder":"tf","game":"Team Fortress","app_id":440,"player_count":0,"max_players":24,"Bots":0,"server_type":"Dedicated","server_os":"Linux","password":true,"vac":true,"version":"7757534","steam_id":85568392924485349,"keywords":["cp","nocrits","nodmgspread","uncletopia"],"game_id":440,"stv_port":27016,"stv_name":"Uncletopia | São Paulo | 2 | All Maps | STV","players":null},{"server_id":7,"name":"Uncletopia | Seattle | 1 | All Maps","name_short":"sea-1","host":"sea-1.us.uncletopia.com","port":27015,"enabled":true,"region":"us-west","cc":"us","latitude":47.608013,"longitude":-122.33517,"reserved":0,"last_update":"0001-01-01T00:00:00Z","name_a2s":"Uncletopia | Seattle | 1 | All Maps","protocol":17,"map":"koth_viaduct","folder":"tf","game":"Team Fortress","app_id":440,"player_count":24,"max_players":24,"Bots":0,"server_type":"Dedicated","server_os":"Linux","password":true,"vac":true,"version":"7757534","steam_id":85568392924469997,"keywords":["cp","nocrits","nodmgspread","uncletopia"],"game_id":440,"stv_port":27016,"stv_name":"Uncletopia | Seattle | 1 | All Maps | STV","players":[{"user_id":92,"name":"secret island","steam_id":76561198286113033,"connected_time":654000000000,"state":"active","ping":120},{"user_id":89,"name":"Zod","steam_id":76561198384630002,"connected_time":681000000000,"state":"active","ping":125},{"user_id":101,"name":"duckmaster200","steam_id":76561199077263469,"connected_time":313000000000,"state":"active","ping":97},{"user_id":20,"name":"Kaluka","steam_id":76561198036861445,"connected_time":4319000000000,"state":"active","ping":115},{"user_id":66,"name":"man behind the slaughter (F2P)","steam_id":76561198854070384,"connected_time":2048000000000,"state":"active","ping":173},{"user_id":80,"name":"yaya","steam_id":76561198086291976,"connected_time":1172000000000,"state":"active","ping":54},{"user_id":53,"name":"mobe","steam_id":76561198121633820,"connected_time":2926000000000,"state":"active","ping":72},{"user_id":90,"name":"GojoPreto","steam_id":76561198979348045,"connected_time":678000000000,"state":"active","ping":136},{"user_id":100,"name":"Florist","steam_id":76561198009121060,"connected_time":407000000000,"state":"active","ping":45},{"user_id":81,"name":"Busness_pig","steam_id":76561199244823990,"connected_time":1112000000000,"state":"active","ping":105},{"user_id":76,"name":"sagekiss","steam_id":76561198038831240,"connected_time":1496000000000,"state":"active","ping":58},{"user_id":91,"name":"AverageJoe","steam_id":76561198313420109,"connected_time":668000000000,"state":"active","ping":105},{"user_id":99,"name":"Mitchell","steam_id":76561197972922328,"connected_time":472000000000,"state":"active","ping":87},{"user_id":18,"name":"Flamin' Hot Cheetos","steam_id":76561198358757709,"connected_time":4369000000000,"state":"active","ping":154},{"user_id":65,"name":"S9","steam_id":76561198065339248,"connected_time":2149000000000,"state":"active","ping":60},{"user_id":32,"name":"Annie DW3","steam_id":76561198268990628,"connected_time":4010000000000,"state":"active","ping":128},{"user_id":98,"name":"PaPá Soulzuneヅ","steam_id":76561198139615052,"connected_time":541000000000,"state":"active","ping":162},{"user_id":45,"name":"the goop slinger","steam_id":76561198271710504,"connected_time":3329000000000,"state":"active","ping":102},{"user_id":75,"name":"Misery ★","steam_id":76561198055710666,"connected_time":1612000000000,"state":"active","ping":46},{"user_id":102,"name":"BerthaEartha","steam_id":76561198799428743,"connected_time":293000000000,"state":"active","ping":130},{"user_id":48,"name":"Winter the Witchie","steam_id":76561198151971178,"connected_time":3184000000000,"state":"active","ping":107},{"user_id":58,"name":"Wacks","steam_id":76561198079476100,"connected_time":2591000000000,"state":"active","ping":71},{"user_id":83,"name":"Banzai","steam_id":76561198196503877,"connected_time":737000000000,"state":"active","ping":45},{"user_id":49,"name":"Olhado","steam_id":76561198390880200,"connected_time":3174000000000,"state":"active","ping":143}]},{"server_id":119,"name":"Uncletopia | Seattle | 2 | All Maps","name_short":"sea-2","host":"sea-1.us.uncletopia.com","port":27025,"enabled":true,"region":"us-west","cc":"us","latitude":47.608013,"longitude":-122.33517,"reserved":0,"last_update":"0001-01-01T00:00:00Z","name_a2s":"Uncletopia | Seattle | 2 | All Maps","protocol":17,"map":"pl_badwater","folder":"tf","game":"Team Fortress","app_id":440,"player_count":0,"max_players":24,"Bots":0,"server_type":"Dedicated","server_os":"Linux","password":true,"vac":true,"version":"7757534","steam_id":85568392924469998,"keywords":["nocrits","nodmgspread","payload","uncletopia"],"game_id":440,"stv_port":27026,"stv_name":"Uncletopia | Seattle | 2 | All Maps | STV","players":null},{"server_id":406,"name":"Uncletopia | Seattle | 3 | Stopwatch Beta","name_short":"sea-3","host":"sea-1.us.uncletopia.com","port":27035,"enabled":true,"region":"us-west","cc":"us","latitude":47.608013,"longitude":-122.33517,"reserved":0,"last_update":"0001-01-01T00:00:00Z","name_a2s":"Uncletopia | Seattle | 3 | Stopwatch Beta","protocol":17,"map":"cp_dustbowl","folder":"tf","game":"Team Fortress","app_id":440,"player_count":0,"max_players":24,"Bots":0,"server_type":"Dedicated","server_os":"Linux","password":true,"vac":true,"version":"7757534","steam_id":85568392924515217,"keywords":["cp","nocrits","nodmgspread","uncletopia"],"game_id":440,"stv_port":27036,"stv_name":"Uncletopia | Seattle | 3 | Stopwatch Beta | STV","players":null},{"server_id":17,"name":"Uncletopia | San Francisco | 1 | All Maps","name_short":"sfo-1","host":"sfo-1.us.uncletopia.com","port":27015,"enabled":true,"region":"us-west","cc":"us","latitude":37.77397,"longitude":-122.4313,"reserved":0,"last_update":"0001-01-01T00:00:00Z","name_a2s":"Uncletopia | San Francisco | 1 | All Maps","protocol":17,"map":"cp_process_final","folder":"tf","game":"Team Fortress","app_id":440,"player_count":0,"max_players":24,"Bots":0,"server_type":"Dedicated","server_os":"Linux","password":true,"vac":true,"version":"7757534","steam_id":85568392924469999,"keywords":["cp","nocrits","nodmgspread","uncletopia"],"game_id":440,"stv_port":27016,"stv_name":"Uncletopia | San Francisco | 1 | All Maps | STV","players":null},{"server_id":18,"name":"Uncletopia | San Francisco | 2 | All Maps","name_short":"sfo-2","host":"sfo-1.us.uncletopia.com","port":27025,"enabled":true,"region":"us-west","cc":"us","latitude":37.77397,"longitude":-122.4313,"reserved":0,"last_update":"0001-01-01T00:00:00Z","name_a2s":"Uncletopia | San Francisco | 2 | All Maps","protocol":17,"map":"koth_highpass","folder":"tf","game":"Team Fortress","app_id":440,"player_count":0,"max_players":24,"Bots":0,"server_type":"Dedicated","server_os":"Linux","password":true,"vac":true,"version":"7757534","steam_id":85568392924470000,"keywords":["cp","nocrits","nodmgspread","uncletopia"],"game_id":440,"stv_port":27026,"stv_name":"Uncletopia | San Francisco | 2 | All Maps | STV","players":null},{"server_id":19,"name":"Uncletopia | San Francisco | 3 | Stopwatch Beta","name_short":"sfo-3","host":"sfo-1.us.uncletopia.com","port":27035,"enabled":true,"region":"us-west","cc":"us","latitude":37.77397,"longitude":-122.4313,"reserved":0,"last_update":"0001-01-01T00:00:00Z","name_a2s":"Uncletopia | San Francisco | 3 | Stopwatch Beta","protocol":17,"map":"koth_lakeside_final","folder":"tf","game":"Team Fortress","app_id":440,"player_count":0,"max_players":24,"Bots":0,"server_type":"Dedicated","server_os":"Linux","password":true,"vac":true,"version":"7757534","steam_id":85568392924742824,"keywords":["cp","nocrits","nodmgspread","uncletopia"],"game_id":440,"stv_port":27036,"stv_name":"Uncletopia | San Francisco | 3 | Stopwatch Beta | STV","players":null},{"server_id":20,"name":"Uncletopia | San Francisco | 4 | Community","name_short":"sfo-4","host":"sfo-1.us.uncletopia.com","port":27045,"enabled":true,"region":"us-west","cc":"us","latitude":37.77397,"longitude":-122.4313,"reserved":0,"last_update":"0001-01-01T00:00:00Z","name_a2s":"Uncletopia | San Francisco | 4 | Community","protocol":17,"map":"cp_altitude","folder":"tf","game":"Team Fortress","app_id":440,"player_count":0,"max_players":24,"Bots":0,"server_type":"Dedicated","server_os":"Linux","password":true,"vac":true,"version":"7757534","steam_id":85568392924742826,"keywords":["cp","nocrits","nodmgspread","uncletopia"],"game_id":440,"stv_port":27046,"stv_name":"Uncletopia | San Francisco | 4 | Community | STV","players":null},{"server_id":141,"name":"Uncletopia | Sydney | 1 | All Maps","name_short":"syd-1","host":"syd-1.au.uncletopia.com","port":27015,"enabled":true,"region":"au","cc":"au","latitude":-33.865143,"longitude":151.2099,"reserved":0,"last_update":"0001-01-01T00:00:00Z","name_a2s":"Uncletopia | Sydney | 1 | All Maps","protocol":17,"map":"pl_pier","folder":"tf","game":"Team Fortress","app_id":440,"player_count":0,"max_players":24,"Bots":0,"server_type":"Dedicated","server_os":"Linux","password":true,"vac":true,"version":"7757534","steam_id":85568392924470001,"keywords":["nocrits","nodmgspread","payload","uncletopia"],"game_id":440,"stv_port":27016,"stv_name":"Uncletopia | Sydney | 1 | All Maps | STV","players":null},{"server_id":123,"name":"Uncletopia | Sydney | 2 | All Maps","name_short":"syd-2","host":"syd-1.au.uncletopia.com","port":27025,"enabled":true,"region":"au","cc":"au","latitude":-33.865143,"longitude":151.2099,"reserved":0,"last_update":"0001-01-01T00:00:00Z","name_a2s":"Uncletopia | Sydney | 2 | All Maps","protocol":17,"map":"cp_steel","folder":"tf","game":"Team Fortress","app_id":440,"player_count":11,"max_players":24,"Bots":0,"server_type":"Dedicated","server_os":"Linux","password":true,"vac":true,"version":"7757534","steam_id":85568392924470002,"keywords":["cp","nocrits","nodmgspread","uncletopia"],"game_id":440,"stv_port":27026,"stv_name":"Uncletopia | Sydney | 2 | All Maps | STV","players":[{"user_id":497,"name":"Etihad Sponsorship (legal)","steam_id":76561198031293430,"connected_time":3209000000000,"state":"active","ping":89},{"user_id":511,"name":"garnish master","steam_id":76561197996551827,"connected_time":2155000000000,"state":"active","ping":58},{"user_id":457,"name":"Tantei Rotana","steam_id":76561198041204323,"connected_time":6296000000000,"state":"active","ping":60},{"user_id":458,"name":"Fleetfoot","steam_id":76561198072845816,"connected_time":6162000000000,"state":"active","ping":52},{"user_id":494,"name":"Yassle","steam_id":76561198329102247,"connected_time":3370000000000,"state":"active","ping":96},{"user_id":418,"name":"Mail Bomb Victim","steam_id":76561198284533039,"connected_time":11484000000000,"state":"active","ping":52},{"user_id":513,"name":"little raw meat boy","steam_id":76561199248254676,"connected_time":2019000000000,"state":"active","ping":45},{"user_id":517,"name":"clownfish","steam_id":76561198190467898,"connected_time":1707000000000,"state":"active","ping":32},{"user_id":506,"name":"Branko","steam_id":76561199262196710,"connected_time":2576000000000,"state":"active","ping":42},{"user_id":523,"name":"¿eTheRealMe?","steam_id":76561198033297147,"connected_time":975000000000,"state":"active","ping":92},{"user_id":469,"name":"GET ON POINT STOOPID","steam_id":76561198108179408,"connected_time":5729000000000,"state":"active","ping":87}]},{"server_id":395,"name":"Uncletopia | Sydney | 3 | All Maps","name_short":"syd-3","host":"syd-1.au.uncletopia.com","port":27035,"enabled":true,"region":"au","cc":"au","latitude":-33.865143,"longitude":151.2099,"reserved":0,"last_update":"0001-01-01T00:00:00Z","name_a2s":"Uncletopia | Sydney | 3 | All Maps","protocol":17,"map":"koth_badlands","folder":"tf","game":"Team Fortress","app_id":440,"player_count":0,"max_players":24,"Bots":0,"server_type":"Dedicated","server_os":"Linux","password":true,"vac":true,"version":"7757534","steam_id":85568392925194467,"keywords":["cp","nocrits","nodmgspread","uncletopia"],"game_id":440,"stv_port":27036,"stv_name":"Uncletopia | Sydney | 3 | All Maps | STV","players":null},{"server_id":396,"name":"Uncletopia | Sydney | 4 | All Maps","name_short":"syd-4","host":"syd-1.au.uncletopia.com","port":27045,"enabled":true,"region":"au","cc":"au","latitude":-33.865143,"longitude":151.2099,"reserved":0,"last_update":"0001-01-01T00:00:00Z","name_a2s":"Uncletopia | Sydney | 4 | All Maps","protocol":17,"map":"koth_highpass","folder":"tf","game":"Team Fortress","app_id":440,"player_count":0,"max_players":24,"Bots":0,"server_type":"Dedicated","server_os":"Linux","password":true,"vac":true,"version":"7757534","steam_id":85568392925397958,"keywords":["cp","nocrits","nodmgspread","uncletopia"],"game_id":440,"stv_port":27046,"stv_name":"Uncletopia | Sydney | 4 | All Maps | STV","players":null},{"server_id":58,"name":"Uncletopia | Sydney | 5 | Stopwatch Beta","name_short":"syd-5","host":"syd-1.au.uncletopia.com","port":27055,"enabled":true,"region":"au","cc":"au","latitude":-33.865143,"longitude":151.2099,"reserved":0,"last_update":"0001-01-01T00:00:00Z","name_a2s":"Uncletopia | Sydney | 5 | Stopwatch Beta","protocol":17,"map":"koth_cascade","folder":"tf","game":"Team Fortress","app_id":440,"player_count":0,"max_players":24,"Bots":0,"server_type":"Dedicated","server_os":"Linux","password":true,"vac":true,"version":"7757534","steam_id":85568392925397959,"keywords":["cp","nocrits","nodmgspread","uncletopia"],"game_id":440,"stv_port":27056,"stv_name":"Uncletopia | Sydney | 5 | Stopwatch Beta | STV","players":null},{"server_id":59,"name":"Uncletopia | Sydney | 6 | Community","name_short":"syd-6","host":"syd-1.au.uncletopia.com","port":27065,"enabled":true,"region":"au","cc":"au","latitude":-33.865143,"longitude":151.2099,"reserved":0,"last_update":"0001-01-01T00:00:00Z","name_a2s":"Uncletopia | Sydney | 6 | Community","protocol":17,"map":"workshop/pl_eruption_b9a.ugc2807898013","folder":"tf","game":"Team Fortress","app_id":440,"player_count":0,"max_players":24,"Bots":0,"server_type":"Dedicated","server_os":"Linux","password":true,"vac":true,"version":"7757534","steam_id":85568392925397960,"keywords":["nocrits","nodmgspread","payload","uncletopia"],"game_id":440,"stv_port":27066,"stv_name":"Uncletopia | Sydney | 6 | Community | STV","players":null},{"server_id":49,"name":"Uncletopia | Warsaw | 1 | All Maps","name_short":"waw-1","host":"waw-1.pl.uncletopia.com","port":27015,"enabled":true,"region":"eu","cc":"pl","latitude":52.2297,"longitude":21.017532,"reserved":0,"last_update":"0001-01-01T00:00:00Z","name_a2s":"","protocol":0,"map":"","folder":"","game":"","app_id":0,"player_count":0,"max_players":0,"Bots":0,"server_type":"","server_os":"","password":false,"vac":false,"version":"","steam_id":0,"keywords":null,"game_id":0,"stv_port":0,"stv_name":"","players":null},{"server_id":50,"name":"Uncletopia | Warsaw | 2 | All Maps","name_short":"waw-2","host":"waw-1.pl.uncletopia.com","port":27025,"enabled":true,"region":"eu","cc":"pl","latitude":52.2297,"longitude":21.017532,"reserved":0,"last_update":"0001-01-01T00:00:00Z","name_a2s":"Uncletopia | Warsaw | 2 | All Maps","protocol":17,"map":"koth_viaduct","folder":"tf","game":"Team Fortress","app_id":440,"player_count":0,"max_players":24,"Bots":0,"server_type":"Dedicated","server_os":"Linux","password":true,"vac":true,"version":"7757534","steam_id":85568392925397851,"keywords":["cp","nocrits","nodmgspread","uncletopia"],"game_id":440,"stv_port":27026,"stv_name":"Uncletopia | Warsaw | 2 | All Maps | STV","players":null},{"server_id":51,"name":"Uncletopia | Warsaw | 3 | All Maps","name_short":"waw-3","host":"waw-1.pl.uncletopia.com","port":27035,"enabled":true,"region":"eu","cc":"pl","latitude":52.2297,"longitude":21.017532,"reserved":0,"last_update":"0001-01-01T00:00:00Z","name_a2s":"Uncletopia | Warsaw | 3 | All Maps","protocol":17,"map":"pl_snowycoast","folder":"tf","game":"Team Fortress","app_id":440,"player_count":13,"max_players":24,"Bots":0,"server_type":"Dedicated","server_os":"Linux","password":true,"vac":true,"version":"7757534","steam_id":85568392925397852,"keywords":["nocrits","nodmgspread","payload","uncletopia"],"game_id":440,"stv_port":27036,"stv_name":"Uncletopia | Warsaw | 3 | All Maps | STV","players":[{"user_id":6,"name":"Brendy","steam_id":76561199140225457,"connected_time":2691000000000,"state":"active","ping":94},{"user_id":7,"name":"Goose Gaming","steam_id":76561198984767795,"connected_time":2648000000000,"state":"active","ping":65},{"user_id":11,"name":"WHAALLEE","steam_id":76561199452819866,"connected_time":1318000000000,"state":"active","ping":83},{"user_id":21,"name":"Flying skyhigh","steam_id":76561198372971096,"connected_time":238000000000,"state":"active","ping":78},{"user_id":15,"name":"If I top 3 my team sucks","steam_id":76561198147668373,"connected_time":564000000000,"state":"active","ping":75},{"user_id":16,"name":"Vibing Wave","steam_id":76561198866358613,"connected_time":511000000000,"state":"active","ping":174},{"user_id":17,"name":"kgf","steam_id":76561198181442259,"connected_time":422000000000,"state":"active","ping":89},{"user_id":18,"name":"weebaru","steam_id":76561198004991633,"connected_time":384000000000,"state":"active","ping":74},{"user_id":19,"name":"Rowan Atkinson","steam_id":76561199378865926,"connected_time":365000000000,"state":"active","ping":132},{"user_id":22,"name":"deflox","steam_id":76561198087450635,"connected_time":226000000000,"state":"active","ping":60},{"user_id":23,"name":"enter","steam_id":76561198048374516,"connected_time":118000000000,"state":"active","ping":144},{"user_id":24,"name":"lore","steam_id":76561198120984188,"connected_time":89000000000,"state":"active","ping":76},{"user_id":25,"name":"Kami Wami","steam_id":76561198158209651,"connected_time":64000000000,"state":"active","ping":84}]},{"server_id":52,"name":"Uncletopia | Warsaw | 4 | All Maps","name_short":"waw-4","host":"waw-1.pl.uncletopia.com","port":27045,"enabled":true,"region":"eu","cc":"pl","latitude":52.2297,"longitude":21.017532,"reserved":0,"last_update":"0001-01-01T00:00:00Z","name_a2s":"Uncletopia | Warsaw | 4 | All Maps","protocol":17,"map":"koth_lakeside_final","folder":"tf","game":"Team Fortress","app_id":440,"player_count":0,"max_players":24,"Bots":0,"server_type":"Dedicated","server_os":"Linux","password":true,"vac":true,"version":"7757534","steam_id":85568392925397853,"keywords":["cp","nocrits","nodmgspread","uncletopia"],"game_id":440,"stv_port":27046,"stv_name":"Uncletopia | Warsaw | 4 | All Maps | STV","players":null},{"server_id":53,"name":"Uncletopia | Warsaw | 5 | Stopwatch Beta","name_short":"waw-5","host":"waw-1.pl.uncletopia.com","port":27055,"enabled":true,"region":"eu","cc":"pl","latitude":52.2297,"longitude":21.017532,"reserved":0,"last_update":"0001-01-01T00:00:00Z","name_a2s":"Uncletopia | Warsaw | 5 | Stopwatch Beta","protocol":17,"map":"pl_borneo","folder":"tf","game":"Team Fortress","app_id":440,"player_count":0,"max_players":24,"Bots":0,"server_type":"Dedicated","server_os":"Linux","password":true,"vac":true,"version":"7757534","steam_id":85568392925397854,"keywords":["nocrits","nodmgspread","payload","uncletopia"],"game_id":440,"stv_port":27056,"stv_name":"Uncletopia | Warsaw | 5 | Stopwatch Beta | STV","players":null},{"server_id":54,"name":"Uncletopia | Warsaw | 6 | Community","name_short":"waw-6","host":"waw-1.pl.uncletopia.com","port":27065,"enabled":true,"region":"eu","cc":"pl","latitude":52.2297,"longitude":21.017532,"reserved":0,"last_update":"0001-01-01T00:00:00Z","name_a2s":"Uncletopia | Warsaw | 6 | Community","protocol":17,"map":"workshop/koth_kemptown_rc1.ugc767410655","folder":"tf","game":"Team Fortress","app_id":440,"player_count":0,"max_players":24,"Bots":0,"server_type":"Dedicated","server_os":"Linux","password":true,"vac":true,"version":"7757534","steam_id":85568392925397856,"keywords":["cp","nocrits","nodmgspread","uncletopia"],"game_id":440,"stv_port":27066,"stv_name":"Uncletopia | Warsaw | 6 | Community | STV","players":null}]}