{"status":true,"message":"","result":[{"server_id":9,"name":"Uncletopia | Atlanta | 1 | All Maps","name_short":"atl-1","host":"atl-1.us.uncletopia.com","port":27015,"enabled":true,"region":"us-east","cc":"us","latitude":33.753746,"longitude":-84.38633,"reserved":0,"last_update":"0001-01-01T00:00:00Z","name_a2s":"Uncletopia | Atlanta | 1 | All Maps","protocol":17,"map":"cp_mountainlab","folder":"tf","game":"Team Fortress","app_id":440,"player_count":24,"max_players":24,"Bots":0,"server_type":"Dedicated","server_os":"Linux","password":true,"vac":true,"version":"7882260","steam_id":85568392924469982,"keywords":["cp","nocrits","nodmgspread","uncletopia"],"game_id":440,"stv_port":27016,"stv_name":"Uncletopia | Atlanta | 1 | All Maps | STV","players":[{"user_id":575,"name":"DragonFalconâ„¢","steam_id":76561198044559930,"connected_time":392000000000,"state":"active","ping":48},{"user_id":573,"name":"Boop","steam_id":76561198376703875,"connected_time":518000000000,"state":"active","ping":72},{"user_id":557,"name":"FRANKY!!!","steam_id":76561199211305343,"connected_time":1910000000000,"state":"active","ping":118},{"user_id":529,"name":"Ghetto Smosh Fan","steam_id":76561198097272509,"connected_time":4210000000000,"state":"active","ping":32},{"user_id":565,"name":"G_Bob","steam_id":76561198098133233,"connected_time":870000000000,"state":"active","ping":55},{"user_id":578,"name":"Ballsâ„¢","steam_id":76561198057538549,"connected_time":172000000000,"state":"active","ping":73},{"user_id":555,"name":"ChickenExploder","steam_id":76561198214199900,"connected_time":2034000000000,"state":"active","ping":69},{"user_id":570,"name":"highschool drop-out","steam_id":76561198366299848,"connected_time":651000000000,"state":"active","ping":52},{"user_id":559,"name":"WaluigiThyme","steam_id":76561198347579460,"connected_time":1815000000000,"state":"active","ping":122},{"user_id":561,"name":"Yummy Kabobz","steam_id":76561198067661705,"connected_time":1597000000000,"state":"active","ping":56},{"user_id":566,"name":"Î»lex","steam_id":76561197990813962,"connected_time":869000000000,"state":"active","ping":74},{"user_id":473,"name":"Save your wifi","steam_id":76561198286147372,"connected_time":9508000000000,"state":"active","ping":65},{"user_id":580,"name":"BoboSmallz","steam_id":76561198198137679,"connected_time":63000000000,"state":"active","ping":142},{"user_id":379,"name":"cola","steam_id":76561198374390458,"connected_time":15667000000000,"state":"active","ping":61},{"user_id":571,"name":"CrumpledDonut","steam_id":76561198107807617,"connected_time":584000000000,"state":"active","ping":103},{"user_id":576,"name":"Budd","steam_id":76561198031660510,"connected_time":337000000000,"state":"active","ping":73},{"user_id":540,"name":"chexo4","steam_id":76561198150532531,"connected_time":2619000000000,"state":"active","ping":47},{"user_id":579,"name":"Im High","steam_id":76561198049954886,"connected_time":142000000000,"state":"active","ping":66},{"user_id":577,"name":"Aedaxe","steam_id":76561198036555143,"connected_time":290000000000,"state":"active","ping":72},{"user_id":536,"name":"adiosToreador","steam_id":76561198297961039,"connected_time":3367000000000,"state":"active","ping":79},{"user_id":563,"name":"Super D Duper","steam_id":76561198078203677,"connected_time":1582000000000,"state":"active","ping":73},{"user_id":556,"name":"AwesomeMissB","steam_id":76561199066244584,"connected_time":2000000000000,"state":"active","ping":52},{"user_id":564,"name":"Trash Rummager","steam_id":76561198085388962,"connected_time":1531000000000,"state":"active","ping":83},{"user_id":528,"name":"jin","steam_id":76561198119873148,"connected_time":4538000000000,"state":"active","ping":65}]},{"server_id":104,"name":"Uncletopia | Atlanta | 2 | All Maps","name_short":"atl-2","host":"atl-1.us.uncletopia.com","port":27025,"enabled":true,"region":"us-east","cc":"us","latitude":33.753746,"longitude":-84.38633,"reserved":0,"last_update":"0001-01-01T00:00:00Z","name_a2s":"Uncletopia | Atlanta | 2 | All Maps","protocol":17,"map":"cp_snakewater_final1","folder":"tf","game":"Team Fortress","app_id":440,"player_count":4,"max_players":24,"Bots":0,"server_type":"Dedicated","server_os":"Linux","password":true,"vac":true,"version":"7882260","steam_id":85568392924469983,"keywords":["cp","nocrits","nodmgspread","uncletopia"],"game_id":440,"stv_port":27026,"stv_name":"Uncletopia | Atlanta | 2 | All Maps | STV","players":[{"user_id":546,"name":"Mg330","steam_id":76561199438395728,"connected_time":613000000000,"state":"active","ping":87},{"user_id":547,"name":"Bogdan Off","steam_id":76561198018604828,"connected_time":338000000000,"state":"active","ping":69},{"user_id":548,"name":"[CHKN]gremlin_lord_404","steam_id":76561198309280029,"connected_time":146000000000,"state":"active","ping":55},{"user_id":525,"name":"Noctis","steam_id":76561198845208323,"connected_time":4363000000000,"state":"active","ping":68}]},{"server_id":400,"name":"Uncletopia | Atlanta | 3 | Community","name_short":"atl-3","host":"atl-1.us.uncletopia.com","port":27035,"enabled":true,"region":"us-east","cc":"us","latitude":33.753746,"longitude":-84.38633,"reserved":0,"last_update":"0001-01-01T00:00:00Z","name_a2s":"Uncletopia | Atlanta | 3 | Community","protocol":17,"map":"workshop/koth_trenchfoot_b1a.ugc731436616","folder":"tf","game":"Team Fortress","app_id":440,"player_count":0,"max_players":24,"Bots":0,"server_type":"Dedicated","server_os":"Linux","password":true,"vac":true,"version":"7882260","steam_id":85568392924515187,"keywords":["cp","nocrits","nodmgspread","uncletopia"],"game_id":440,"stv_port":27036,"stv_name":"Uncletopia | Atlanta | 3 | Community | STV","players":null},{"server_id":401,"name":"Uncletopia | Atlanta | 4 | No Payload","name_short":"atl-4","host":"atl-1.us.uncletopia.com","port":27045,"enabled":true,"region":"us-east","cc":"us","latitude":33.753746,"longitude":-84.38633,"reserved":0,"last_update":"0001-01-01T00:00:00Z","name_a2s":"","protocol":0,"map":"","folder":"","game":"","app_id":0,"player_count":0,"max_players":0,"Bots":0,"server_type":"","server_os":"","password":false,"vac":false,"version":"","steam_id":0,"keywords":null,"game_id":0,"stv_port":0,"stv_name":"","players":null},{"server_id":2,"name":"Uncletopia | Chicago | 1 | All Maps","name_short":"chi-1","host":"chi-1.us.uncletopia.com","port":27015,"enabled":true,"region":"us-central","cc":"us","latitude":41.881832,"longitude":-87.62318,"reserved":0,"last_update":"0001-01-01T00:00:00Z","name_a2s":"Uncletopia | Chicago | 1 | All Maps","protocol":17,"map":"pl_barnblitz","folder":"tf","game":"Team Fortress","app_id":440,"player_count":24,"max_players":24,"Bots":0,"server_type":"Dedicated","server_os":"Linux","password":true,"vac":true,"version":"7882260","steam_id":85568392924469984,"keywords":["nocrits","nodmgspread","payload","uncletopia"],"game_id":440,"stv_port":27016,"stv_name":"Uncletopia | Chicago | 1 | All Maps | STV","players":[{"user_id":625,"name":"ROGUE-PLANET","steam_id":76561198116023052,"connected_time":4484000000000,"state":"active","ping":62},{"user_id":685,"name":"daithy","steam_id":76561198168295777,"connected_time":1221000000000,"state":"active","ping":108},{"user_id":694,"name":"JEFROOO","steam_id":76561198146970071,"connected_time":453000000000,"state":"active","ping":85},{"user_id":695,"name":"Mystikkal","steam_id":76561198003949147,"connected_time":420000000000,"state":"active","ping":115},{"user_id":690,"name":"ðŸ’›MercyðŸ’›","steam_id":76561198147095572,"connected_time":851000000000,"state":"active","ping":51},{"user_id":671,"name":"Alexei Obolensky","steam_id":76561198010339626,"connected_time":2105000000000,"state":"active","ping":85},{"user_id":683,"name":"countrychefbeerboy92","steam_id":76561198132476501,"connected_time":1543000000000,"state":"active","ping":49},{"user_id":689,"name":"he munch","steam_id":76561198339644583,"connected_time":926000000000,"state":"active","ping":59},{"user_id":628,"name":"Human Person","steam_id":76561198283855440,"connected_time":4378000000000,"state":"active","ping":84},{"user_id":598,"name":"GIGAHAXX","steam_id":76561197993714726,"connected_time":6765000000000,"state":"active","ping":60},{"user_id":688,"name":"Jaguar","steam_id":76561197971152439,"connected_time":1122000000000,"state":"active","ping":64},{"user_id":672,"name":"Wizard Raccoon","steam_id":76561198072562591,"connected_time":2080000000000,"state":"active","ping":79},{"user_id":631,"name":"c9","steam_id":76561198136642793,"connected_time":4331000000000,"state":"active","ping":68},{"user_id":673,"name":"WHY U RUNNIN PAPI","steam_id":76561198144766439,"connected_time":2061000000000,"state":"active","ping":45},{"user_id":692,"name":"Clockwick","steam_id":76561198047292719,"connected_time":503000000000,"state":"active","ping":60},{"user_id":660,"name":"meownt evewest :3","steam_id":76561198017686306,"connected_time":2862000000000,"state":"active","ping":160},{"user_id":670,"name":"plb1337","steam_id":76561198072740690,"connected_time":2180000000000,"state":"active","ping":60},{"user_id":654,"name":"m yfrogs","steam_id":76561198371149432,"connected_time":3648000000000,"state":"active","ping":49},{"user_id":691,"name":"Drapph","steam_id":76561199384213314,"connected_time":666000000000,"state":"active","ping":68},{"user_id":676,"name":"Brother Pudge","steam_id":76561198247815090,"connected_time":2007000000000,"state":"active","ping":54},{"user_id":693,"name":"9AM | Lunean","steam_id":76561198106546230,"connected_time":460000000000,"state":"active","ping":63},{"user_id":696,"name":"Flower Kid","steam_id":76561198403266712,"connected_time":198000000000,"state":"active","ping":69},{"user_id":687,"name":"sunny","steam_id":76561198069380992,"connected_time":1190000000000,"state":"active","ping":81},{"user_id":664,"name":"lytewerk","steam_id":76561198002819791,"connected_time":2615000000000,"state":"active","ping":77}]},{"server_id":106,"name":"Uncletopia | Chicago | 2 | All Maps","name_short":"chi-2","host":"chi-1.us.uncletopia.com","port":27025,"enabled":true,"region":"us-central","cc":"us","latitude":41.881832,"longitude":-87.62318,"reserved":0,"last_update":"0001-01-01T00:00:00Z","name_a2s":"Uncletopia | Chicago | 2 | All Maps","protocol":17,"map":"pl_frontier_final","folder":"tf","game":"Team Fortress","app_id":440,"player_count":24,"max_players":24,"Bots":0,"server_type":"Dedicated","server_os":"Linux","password":true,"vac":true,"version":"7882260","steam_id":85568392924469985,"keywords":["nocrits","nodmgspread","payload","uncletopia"],"game_id":440,"stv_port":27026,"stv_name":"Uncletopia | Chicago | 2 | All Maps | STV","players":[{"user_id":443,"name":"Bobby Ray","steam_id":76561198044131188,"connected_time":602000000000,"state":"active","ping":74},{"user_id":435,"name":"AshMouse","steam_id":76561198151145819,"connected_time":1066000000000,"state":"active","ping":70},{"user_id":428,"name":"lana_del_Rei.com","steam_id":76561198172447621,"connected_time":1848000000000,"state":"active","ping":94},{"user_id":436,"name":"Double Tapp","steam_id":76561197993847700,"connected_time":1023000000000,"state":"active","ping":104},{"user_id":420,"name":"squiddy101","steam_id":76561198210199168,"connected_time":2146000000000,"state":"active","ping":80},{"user_id":437,"name":"Tick","steam_id":76561198184161214,"connected_time":996000000000,"state":"active","ping":44},{"user_id":434,"name":"metal pipe","steam_id":76561198849461209,"connected_time":1113000000000,"state":"active","ping":60},{"user_id":408,"name":"BigDeac","steam_id":76561198091237274,"connected_time":2585000000000,"state":"active","ping":61},{"user_id":431,"name":"Frozone","steam_id":76561198259380127,"connected_time":1416000000000,"state":"active","ping":70},{"user_id":440,"name":"raduski","steam_id":76561198795699119,"connected_time":832000000000,"state":"active","ping":89},{"user_id":432,"name":"GuyGoom","steam_id":76561198254522178,"connected_time":1396000000000,"state":"active","ping":53},{"user_id":433,"name":"Zig","steam_id":76561198176048801,"connected_time":1153000000000,"state":"active","ping":69},{"user_id":441,"name":"Testiclees Peesaschmidt","steam_id":76561198050582941,"connected_time":720000000000,"state":"active","ping":59},{"user_id":442,"name":"HundchenTanque","steam_id":76561198122692754,"connected_time":679000000000,"state":"active","ping":59},{"user_id":404,"name":"ttv/Everfrost Samoyed","steam_id":76561198072580699,"connected_time":3025000000000,"state":"active","ping":73},{"user_id":410,"name":"noah","steam_id":76561198173310157,"connected_time":2568000000000,"state":"active","ping":52},{"user_id":444,"name":"keffers","steam_id":76561198202338796,"connected_time":575000000000,"state":"active","ping":73},{"user_id":445,"name":"SpeedBoat404â„¢","steam_id":76561199066348520,"connected_time":543000000000,"state":"active","ping":115},{"user_id":447,"name":"None of that $9.99 bullshit","steam_id":76561198116169903,"connected_time":399000000000,"state":"active","ping":47},{"user_id":448,"name":"BakleBoi","steam_id":76561198294217781,"connected_time":394000000000,"state":"active","ping":119},{"user_id":449,"name":"Dr. Wario","steam_id":76561198901238861,"connected_time":385000000000,"state":"active","ping":101},{"user_id":425,"name":"Meth Goblin","steam_id":76561198086355221,"connected_time":2037000000000,"state":"active","ping":84},{"user_id":450,"name":"Kaldor Draigo","steam_id":76561198317662346,"connected_time":381000000000,"state":"active","ping":80},{"user_id":451,"name":"Manly Emerald","steam_id":76561198245838476,"connected_time":332000000000,"state":"active","ping":60}]},{"server_id":402,"name":"Uncletopia | Chicago | 3 | All Maps","name_short":"chi-3","host":"chi-1.us.uncletopia.com","port":27035,"enabled":true,"region":"us-central","cc":"us","latitude":41.881832,"longitude":-87.62318,"reserved":0,"last_update":"0001-01-01T00:00:00Z","name_a2s":"Uncletopia | Chicago | 3 | All Maps","protocol":17,"map":"pl_pier","folder":"tf","game":"Team Fortress","app_id":440,"player_count":23,"max_players":24,"Bots":0,"server_type":"Dedicated","server_os":"Linux","password":true,"vac":true,"version":"7882260","steam_id":85568392924515191,"keywords":["nocrits","nodmgspread","payload","uncletopia"],"game_id":440,"stv_port":27036,"stv_name":"Uncletopia | Chicago | 3 | All Maps | STV","players":[{"user_id":443,"name":"bingabooga","steam_id":76561198101057741,"connected_time":629000000000,"state":"active","ping":74},{"user_id":449,"name":"Accents","steam_id":76561198038339224,"connected_time":94000000000,"state":"active","ping":87},{"user_id":384,"name":"BBOSensei","steam_id":76561198071548190,"connected_time":5920000000000,"state":"active","ping":62},{"user_id":439,"name":"bill","steam_id":76561199142779872,"connected_time":973000000000,"state":"active","ping":61},{"user_id":411,"name":"objective permanence","steam_id":76561198050393061,"connected_time":3263000000000,"state":"active","ping":72},{"user_id":448,"name":"Jezzus","steam_id":76561199289676387,"connected_time":220000000000,"state":"active","ping":77},{"user_id":442,"name":"Whos Mans Is Dis","steam_id":76561198370978056,"connected_time":747000000000,"state":"active","ping":88},{"user_id":422,"name":"noellehound","steam_id":76561198108844158,"connected_time":2511000000000,"state":"active","ping":92},{"user_id":385,"name":"totally not a pile of beans","steam_id":76561198119851931,"connected_time":5416000000000,"state":"active","ping":80},{"user_id":438,"name":"7 months no shower","steam_id":76561199013337543,"connected_time":1403000000000,"state":"active","ping":61},{"user_id":382,"name":"Technic","steam_id":76561198200302281,"connected_time":6036000000000,"state":"active","ping":75},{"user_id":398,"name":"cataconik","steam_id":76561198145530829,"connected_time":3914000000000,"state":"active","ping":84},{"user_id":446,"name":"josh","steam_id":76561198077902438,"connected_time":507000000000,"state":"active","ping":72},{"user_id":392,"name":"DO NOT call me BART SIMPSON!!","steam_id":76561198069113375,"connected_time":4556000000000,"state":"active","ping":66},{"user_id":426,"name":"stinker","steam_id":76561198295640486,"connected_time":2291000000000,"state":"active","ping":95},{"user_id":450,"name":"ice dweller","steam_id":76561198329367716,"connected_time":84000000000,"state":"active","ping":110},{"user_id":437,"name":"transgender velvet worm","steam_id":76561198181086298,"connected_time":1665000000000,"state":"active","ping":103},{"user_id":451,"name":"Notation","steam_id":76561198119509319,"connected_time":76000000000,"state":"active","ping":60},{"user_id":423,"name":"carly rae jepsen","steam_id":76561198336144991,"connected_time":2503000000000,"state":"active","ping":71},{"user_id":447,"name":"Blitzy","steam_id":76561198149472890,"connected_time":419000000000,"state":"active","ping":74},{"user_id":435,"name":"ElectronX","steam_id":76561198116034988,"connected_time":1808000000000,"state":"active","ping":101},{"user_id":452,"name":"Reverie","steam_id":76561198987005784,"connected_time":64000000000,"state":"active","ping":177},{"user_id":407,"name":"ARGON Soulidity","steam_id":76561198429603550,"connected_time":3560000000000,"state":"active","ping":78}]},{"server_id":403,"name":"Uncletopia | Chicago | 4 | All Maps","name_short":"chi-4","host":"chi-1.us.uncletopia.com","port":27045,"enabled":true,"region":"us-central","cc":"us","latitude":41.881832,"longitude":-87.62318,"reserved":0,"last_update":"0001-01-01T00:00:00Z","name_a2s":"Uncletopia | Chicago | 4 | All Maps","protocol":17,"map":"cp_dustbowl","folder":"tf","game":"Team Fortress","app_id":440,"player_count":24,"max_players":24,"Bots":0,"server_type":"Dedicated","server_os":"Linux","password":true,"vac":true,"version":"7882260","steam_id":85568392924515193,"keywords":["cp","nocrits","nodmgspread","uncletopia"],"game_id":440,"stv_port":27046,"stv_name":"Uncletopia | Chicago | 4 | All Maps | STV","players":[{"user_id":466,"name":"loser","steam_id":76561198171507451,"connected_time":851000000000,"state":"active","ping":100},{"user_id":456,"name":"gromit","steam_id":76561198037746805,"connected_time":1659000000000,"state":"active","ping":68},{"user_id":457,"name":"knatspray","steam_id":76561198832507482,"connected_time":1552000000000,"state":"active","ping":129},{"user_id":389,"name":"Maxxycat","steam_id":76561198194062681,"connected_time":6623000000000,"state":"active","ping":52},{"user_id":458,"name":"jennifer nasb","steam_id":76561198055068182,"connected_time":1515000000000,"state":"active","ping":62},{"user_id":459,"name":"Acto","steam_id":76561198043025164,"connected_time":1495000000000,"state":"active","ping":114},{"user_id":454,"name":"Femtofarad","steam_id":76561198308583053,"connected_time":1748000000000,"state":"active","ping":78},{"user_id":438,"name":"jon pickle water","steam_id":76561199036212135,"connected_time":2552000000000,"state":"active","ping":114},{"user_id":439,"name":"Marion Moseby","steam_id":76561198052477319,"connected_time":2538000000000,"state":"active","ping":48},{"user_id":397,"name":"Horrizan","steam_id":76561197965028480,"connected_time":5848000000000,"state":"active","ping":73},{"user_id":469,"name":"kree","steam_id":76561197979960008,"connected_time":461000000000,"state":"active","ping":59},{"user_id":471,"name":"I. C. Wiener","steam_id":76561198062777610,"connected_time":57000000000,"state":"active","ping":99},{"user_id":453,"name":"Nigel Powers","steam_id":76561198107382571,"connected_time":1828000000000,"state":"active","ping":131},{"user_id":392,"name":":)","steam_id":76561198093921290,"connected_time":6275000000000,"state":"active","ping":46},{"user_id":364,"name":"Spike","steam_id":76561198141356571,"connected_time":8497000000000,"state":"active","ping":59},{"user_id":470,"name":"Antwan","steam_id":76561198246200638,"connected_time":184000000000,"state":"active","ping":69},{"user_id":450,"name":"sodo","steam_id":76561198858474714,"connected_time":2157000000000,"state":"active","ping":105},{"user_id":428,"name":"A Lil Guy","steam_id":76561198135662712,"connected_time":3742000000000,"state":"active","ping":102},{"user_id":461,"name":"Floaty","steam_id":76561198100029503,"connected_time":1474000000000,"state":"active","ping":112},{"user_id":462,"name":"shmarky","steam_id":76561198052104281,"connected_time":1419000000000,"state":"active","ping":96},{"user_id":446,"name":"night.light","steam_id":76561198014557455,"connected_time":2333000000000,"state":"active","ping":56},{"user_id":411,"name":"blossom","steam_id":76561198042735130,"connected_time":4667000000000,"state":"active","ping":107},{"user_id":468,"name":"_","steam_id":76561198191199554,"connected_time":646000000000,"state":"active","ping":61},{"user_id":464,"name":"recycle","steam_id":76561198819562111,"connected_time":1339000000000,"state":"active","ping":70}]},{"server_id":36,"name":"Uncletopia | Chicago | 5 | All Maps","name_short":"chi-5","host":"chi-2.us.uncletopia.com","port":27015,"enabled":true,"region":"us-central","cc":"us","latitude":41.881832,"longitude":-87.62318,"reserved":0,"last_update":"0001-01-01T00:00:00Z","name_a2s":"Uncletopia | Chicago | 5 | All Maps","protocol":17,"map":"koth_lakeside_final","folder":"tf","game":"Team Fortress","app_id":440,"player_count":0,"max_players":24,"Bots":0,"server_type":"Dedicated","server_os":"Linux","password":true,"vac":true,"version":"7882260","steam_id":85568392924866362,"keywords":["cp","nocrits","nodmgspread","uncletopia"],"game_id":440,"stv_port":27016,"stv_name":"Uncletopia | Chicago | 5 | All Maps | STV","players":null},{"server_id":37,"name":"Uncletopia | Chicago | 6 | All Maps","name_short":"chi-6","host":"chi-2.us.uncletopia.com","port":27025,"enabled":true,"region":"us-central","cc":"us","latitude":41.881832,"longitude":-87.62318,"reserved":0,"last_update":"0001-01-01T00:00:00Z","name_a2s":"Uncletopia | Chicago | 6 | All Maps","protocol":17,"map":"pl_upward","folder":"tf","game":"Team Fortress","app_id":440,"player_count":24,"max_players":24,"Bots":0,"server_type":"Dedicated","server_os":"Linux","password":true,"vac":true,"version":"7882260","steam_id":85568392924866363,"keywords":["nocrits","nodmgspread","payload","uncletopia"],"game_id":440,"stv_port":27026,"stv_name":"Uncletopia | Chicago | 6 | All Maps | STV","players":[{"user_id":879,"name":"Glow","steam_id":76561199360481336,"connected_time":792000000000,"state":"active","ping":45},{"user_id":805,"name":"mikhail","steam_id":76561198242175530,"connected_time":6879000000000,"state":"active","ping":66},{"user_id":848,"name":"â€ºâ€º 1dayumay","steam_id":76561198218719943,"connected_time":3328000000000,"state":"active","ping":92},{"user_id":837,"name":"Spillprnz","steam_id":76561198082337619,"connected_time":3791000000000,"state":"active","ping":72},{"user_id":804,"name":"Atlas (Skylar)","steam_id":76561198041531774,"connected_time":6926000000000,"state":"active","ping":51},{"user_id":862,"name":"comet","steam_id":76561198149217841,"connected_time":2045000000000,"state":"active","ping":97},{"user_id":880,"name":"segway cop","steam_id":76561198225609936,"connected_time":786000000000,"state":"active","ping":58},{"user_id":881,"name":"joethefool","steam_id":76561199015436319,"connected_time":748000000000,"state":"active","ping":70},{"user_id":864,"name":"THIRDPIERCE","steam_id":76561198405366314,"connected_time":1967000000000,"state":"active","ping":83},{"user_id":884,"name":"Merchant","steam_id":76561198130468663,"connected_time":243000000000,"state":"active","ping":56},{"user_id":883,"name":"*","steam_id":76561198173047169,"connected_time":495000000000,"state":"active","ping":58},{"user_id":865,"name":"CrizpyCreams","steam_id":76561198353089012,"connected_time":1943000000000,"state":"active","ping":65},{"user_id":873,"name":"(1)milo","steam_id":76561198305384679,"connected_time":1505000000000,"state":"active","ping":107},{"user_id":856,"name":"Nr","steam_id":76561198156798850,"connected_time":2286000000000,"state":"active","ping":62},{"user_id":857,"name":"OneMisguidedSlyGuy","steam_id":76561198372243261,"connected_time":2220000000000,"state":"active","ping":93},{"user_id":858,"name":"n99k","steam_id":76561198203732449,"connected_time":2172000000000,"state":"active","ping":76},{"user_id":859,"name":"alex â˜†","steam_id":76561198197977237,"connected_time":2122000000000,"state":"active","ping":76},{"user_id":860,"name":"Lore","steam_id":76561198098407538,"connected_time":2120000000000,"state":"active","ping":52},{"user_id":876,"name":"twix","steam_id":76561198040912048,"connected_time":1110000000000,"state":"active","ping":59},{"user_id":867,"name":"Save Image As...","steam_id":76561198046603251,"connected_time":1868000000000,"state":"active","ping":65},{"user_id":868,"name":"O-mega","steam_id":76561199175970696,"connected_time":1866000000000,"state":"active","ping":129},{"user_id":872,"name":"sKoOlAiD","steam_id":76561199048847533,"connected_time":1686000000000,"state":"active","ping":67},{"user_id":820,"name":"Townze","steam_id":76561198081827165,"connected_time":5813000000000,"state":"active","ping":60},{"user_id":874,"name":"TheRat","steam_id":76561198006571338,"connected_time":1297000000000,"state":"active","ping":50}]},{"server_id":38,"name":"Uncletopia | Chicago | 7 | Stopwatch Beta","name_short":"chi-7","host":"chi-2.us.uncletopia.com","port":27035,"enabled":true,"region":"us-central","cc":"us","latitude":41.881832,"longitude":-87.62318,"reserved":0,"last_update":"0001-01-01T00:00:00Z","name_a2s":"Uncletopia | Chicago | 7 | Stopwatch Beta","protocol":17,"map":"cp_granary","folder":"tf","game":"Team Fortress","app_id":440,"player_count":0,"max_players":24,"Bots":0,"server_type":"Dedicated","server_os":"Linux","password":true,"vac":true,"version":"7882260","steam_id":85568392924866364,"keywords":["cp","nocrits","nodmgspread","uncletopia"],"game_id":440,"stv_port":27036,"stv_name":"Uncletopia | Chicago | 7 | Stopwatch Beta | STV","players":null},{"server_id":39,"name":"Uncletopia | Chicago | 8 | Community","name_short":"chi-8","host":"chi-2.us.uncletopia.com","port":27045,"enabled":true,"region":"us-central","cc":"us","latitude":41.881832,"longitude":-87.62318,"reserved":0,"last_update":"0001-01-01T00:00:00Z","name_a2s":"Uncletopia | Chicago | 8 | Community","protocol":17,"map":"workshop/pl_barnblitz_pro7.ugc582280235","folder":"tf","game":"Team Fortress","app_id":440,"player_count":0,"max_players":24,"Bots":0,"server_type":"Dedicated","server_os":"Linux","password":true,"vac":true,"version":"7882260","steam_id":85568392924866365,"keywords":["nocrits","nodmgspread","payload","uncletopia"],"game_id":440,"stv_port":27046,"stv_name":"Uncletopia | Chicago | 8 | Community | STV","players":null},{"server_id":8,"name":"Uncletopia | Dallas | 1 | All Maps","name_short":"dal-1","host":"dal-1.us.uncletopia.com","port":27015,"enabled":true,"region":"us-central","cc":"us","latitude":32.779167,"longitude":-96.80889,"reserved":0,"last_update":"0001-01-01T00:00:00Z","name_a2s":"Uncletopia | Dallas | 1 | All Maps","protocol":17,"map":"cp_mountainlab","folder":"tf","game":"Team Fortress","app_id":440,"player_count":24,"max_players":24,"Bots":0,"server_type":"Dedicated","server_os":"Linux","password":true,"vac":true,"version":"7882260","steam_id":85568392924469986,"keywords":["cp","nocrits","nodmgspread","uncletopia"],"game_id":440,"stv_port":27016,"stv_name":"Uncletopia | Dallas | 1 | All Maps | STV","players":[{"user_id":466,"name":"LumaDooma","steam_id":76561198076875817,"connected_time":1413000000000,"state":"active","ping":47},{"user_id":467,"name":"TheAsianMeatball","steam_id":76561198336926133,"connected_time":1410000000000,"state":"active","ping":64},{"user_id":497,"name":"lokm","steam_id":76561198030374238,"connected_time":6000000000,"state":"spawning","ping":76},{"user_id":462,"name":"lustful for PokÃ©mon","steam_id":76561198063713049,"connected_time":2314000000000,"state":"active","ping":56},{"user_id":489,"name":"ciwobalc","steam_id":76561198146241989,"connected_time":471000000000,"state":"active","ping":75},{"user_id":470,"name":"Yoinkinator","steam_id":76561198011366624,"connected_time":1316000000000,"state":"active","ping":82},{"user_id":495,"name":"cesartele3000","steam_id":76561198142149479,"connected_time":92000000000,"state":"active","ping":88},{"user_id":485,"name":"theraeger","steam_id":76561198352132047,"connected_time":1000000000000,"state":"active","ping":86},{"user_id":468,"name":"wilmer el versatil","steam_id":76561198155393832,"connected_time":1405000000000,"state":"active","ping":157},{"user_id":428,"name":"NexFrost","steam_id":76561197985774837,"connected_time":5520000000000,"state":"active","ping":41},{"user_id":464,"name":"the smiling zombie","steam_id":76561199246231090,"connected_time":1915000000000,"state":"active","ping":81},{"user_id":389,"name":"hunterzar","steam_id":76561198347666725,"connected_time":9034000000000,"state":"active","ping":90},{"user_id":471,"name":"Clam","steam_id":76561198288570962,"connected_time":1309000000000,"state":"active","ping":92},{"user_id":487,"name":"supercutebabe","steam_id":76561198283462369,"connected_time":643000000000,"state":"active","ping":86},{"user_id":492,"name":"KevilPo","steam_id":76561199244507267,"connected_time":319000000000,"state":"active","ping":91},{"user_id":446,"name":"ThugSlug","steam_id":76561198086098047,"connected_time":3963000000000,"state":"active","ping":76},{"user_id":454,"name":"Shamrock Shake Oct.10.2020 @8pm","steam_id":76561198833313201,"connected_time":3493000000000,"state":"active","ping":101},{"user_id":490,"name":"Icarus the legend","steam_id":76561199013250091,"connected_time":354000000000,"state":"active","ping":37},{"user_id":477,"name":"Pancakes \u0026 Drugs","steam_id":76561198055473605,"connected_time":1293000000000,"state":"active","ping":71},{"user_id":478,"name":"A Bloody Meat Bicycle","steam_id":76561198358757709,"connected_time":1285000000000,"state":"active","ping":94},{"user_id":480,"name":"slaanesh worshiper","steam_id":76561198017283523,"connected_time":1264000000000,"state":"active","ping":97},{"user_id":493,"name":"Can You Feel It Mr.Krabs","steam_id":76561198128302414,"connected_time":258000000000,"state":"active","ping":67},{"user_id":484,"name":"Nukeboy","steam_id":76561198147058560,"connected_time":1214000000000,"state":"active","ping":81},{"user_id":494,"name":"Purchase your tracks today","steam_id":76561198084422657,"connected_time":239000000000,"state":"active","ping":81}]},{"server_id":108,"name":"Uncletopia | Dallas | 2 | All Maps","name_short":"dal-2","host":"dal-1.us.uncletopia.com","port":27025,"enabled":true,"region":"us-central","cc":"us","latitude":32.779167,"longitude":-96.80889,"reserved":0,"last_update":"0001-01-01T00:00:00Z","name_a2s":"Uncletopia | Dallas | 2 | All Maps","protocol":17,"map":"pl_pier","folder":"tf","game":"Team Fortress","app_id":440,"player_count":13,"max_players":24,"Bots":0,"server_type":"Dedicated","server_os":"Linux","password":true,"vac":true,"version":"7882260","steam_id":85568392924469988,"keywords":["nocrits","nodmgspread","payload","uncletopia"],"game_id":440,"stv_port":27026,"stv_name":"Uncletopia | Dallas | 2 | All Maps | STV","players":[{"user_id":591,"name":"Hentai Lord","steam_id":76561199030449654,"connected_time":992000000000,"state":"active","ping":91},{"user_id":590,"name":"Specterbomb","steam_id":76561198224550712,"connected_time":1060000000000,"state":"active","ping":123},{"user_id":511,"name":"Big Dick Swinging","steam_id":76561198053819929,"connected_time":4416000000000,"state":"active","ping":69},{"user_id":445,"name":"SpecialForce19","steam_id":76561198120974644,"connected_time":7890000000000,"state":"active","ping":90},{"user_id":588,"name":"rat","steam_id":76561198078484417,"connected_time":1157000000000,"state":"active","ping":58},{"user_id":518,"name":"Bikeway Naros","steam_id":76561198086676786,"connected_time":3241000000000,"state":"active","ping":78},{"user_id":607,"name":"LossNonsense","steam_id":76561198077167840,"connected_time":77000000000,"state":"spawning","ping":74},{"user_id":604,"name":"090-nsalih","steam_id":76561199467467873,"connected_time":258000000000,"state":"active","ping":212},{"user_id":599,"name":"The Foolish Samurai","steam_id":76561198094494945,"connected_time":759000000000,"state":"active","ping":83},{"user_id":605,"name":"ScoutRoseDeuce","steam_id":76561198126515375,"connected_time":199000000000,"state":"active","ping":78},{"user_id":606,"name":"Quietsharp","steam_id":76561198277968438,"connected_time":180000000000,"state":"active","ping":83},{"user_id":601,"name":"Kirbothebrony","steam_id":76561198971911330,"connected_time":442000000000,"state":"active","ping":67},{"user_id":514,"name":"ChottoAMinute","steam_id":76561198873157775,"connected_time":4343000000000,"state":"active","ping":44}]},{"server_id":5,"name":"Uncletopia | Frankfurt | 1 | All Maps","name_short":"frk-1","host":"frk-1.de.uncletopia.com","port":27015,"enabled":true,"region":"eu","cc":"de","latitude":50.110924,"longitude":8.682127,"reserved":0,"last_update":"0001-01-01T00:00:00Z","name_a2s":"Uncletopia | Frankfurt | 1 | All Maps","protocol":17,"map":"cp_process_final","folder":"tf","game":"Team Fortress","app_id":440,"player_count":0,"max_players":24,"Bots":0,"server_type":"Dedicated","server_os":"Linux","password":true,"vac":true,"version":"7882260","steam_id":85568392924469989,"keywords":["cp","nocrits","nodmgspread","uncletopia"],"game_id":440,"stv_port":27016,"stv_name":"Uncletopia | Frankfurt | 1 | All Maps | STV","players":null},{"server_id":110,"name":"Uncletopia | Frankfurt | 2 | All Maps","name_short":"frk-2","host":"frk-1.de.uncletopia.com","port":27025,"enabled":true,"region":"eu","cc":"de","latitude":50.110924,"longitude":8.682127,"reserved":0,"last_update":"0001-01-01T00:00:00Z","name_a2s":"Uncletopia | Frankfurt | 2 | All Maps","protocol":17,"map":"pl_swiftwater_final1","folder":"tf","game":"Team Fortress","app_id":440,"player_count":0,"max_players":24,"Bots":0,"server_type":"Dedicated","server_os":"Linux","password":true,"vac":true,"version":"7882260","steam_id":85568392924469990,"keywords":["nocrits","nodmgspread","payload","uncletopia"],"game_id":440,"stv_port":27026,"stv_name":"Uncletopia | Frankfurt | 2 | All Maps | STV","players":null},{"server_id":308,"name":"Uncletopia | Frankfurt | 3 | All Maps","name_short":"frk-3","host":"frk-1.de.uncletopia.com","port":27035,"enabled":true,"region":"eu","cc":"de","latitude":50.110924,"longitude":8.682127,"reserved":0,"last_update":"0001-01-01T00:00:00Z","name_a2s":"Uncletopia | Frankfurt | 3 | All Maps","protocol":17,"map":"pl_snowycoast","folder":"tf","game":"Team Fortress","app_id":440,"player_count":0,"max_players":24,"Bots":0,"server_type":"Dedicated","server_os":"Linux","password":true,"vac":true,"version":"7882260","steam_id":85568392924504274,"keywords":["nocrits","nodmgspread","payload","uncletopia"],"game_id":440,"stv_port":27036,"stv_name":"Uncletopia | Frankfurt | 3 | All Maps | STV","players":null},{"server_id":309,"name":"Uncletopia | Frankfurt | 4 | All Maps","name_short":"frk-4","host":"frk-1.de.uncletopia.com","port":27045,"enabled":true,"region":"eu","cc":"de","latitude":50.110924,"longitude":8.682127,"reserved":0,"last_update":"0001-01-01T00:00:00Z","name_a2s":"Uncletopia | Frankfurt | 4 | All Maps","protocol":17,"map":"pl_upward","folder":"tf","game":"Team Fortress","app_id":440,"player_count":19,"max_players":24,"Bots":0,"server_type":"Dedicated","server_os":"Linux","password":true,"vac":true,"version":"7882260","steam_id":85568392924504275,"keywords":["nocrits","nodmgspread","payload","uncletopia"],"game_id":440,"stv_port":27046,"stv_name":"Uncletopia | Frankfurt | 4 | All Maps | STV","players":[{"user_id":13,"name":"john fortress the second","steam_id":76561198110198881,"connected_time":4157000000000,"state":"active","ping":70},{"user_id":34,"name":"autistic retard","steam_id":76561199474448245,"connected_time":466000000000,"state":"active","ping":77},{"user_id":14,"name":"i ate joe borgar","steam_id":76561198377966913,"connected_time":3818000000000,"state":"active","ping":86},{"user_id":16,"name":"dorak","steam_id":76561198818037965,"connected_time":3608000000000,"state":"active","ping":106},{"user_id":25,"name":"MarkBV","steam_id":76561198427014506,"connected_time":2203000000000,"state":"active","ping":121},{"user_id":26,"name":"Neimon","steam_id":76561198343485710,"connected_time":2147000000000,"state":"active","ping":115},{"user_id":27,"name":"Hussain_144","steam_id":76561198346029208,"connected_time":1835000000000,"state":"active","ping":175},{"user_id":33,"name":"shits in urinals","steam_id":76561199480942903,"connected_time":883000000000,"state":"active","ping":67},{"user_id":42,"name":"Germanium_Ge","steam_id":76561198130561775,"connected_time":88000000000,"state":"active","ping":58},{"user_id":36,"name":"chopsticks","steam_id":76561198045899345,"connected_time":447000000000,"state":"active","ping":101},{"user_id":30,"name":"LSKi","steam_id":76561198215470228,"connected_time":1488000000000,"state":"active","ping":71},{"user_id":37,"name":"Topme","steam_id":76561198091734693,"connected_time":439000000000,"state":"active","ping":70},{"user_id":38,"name":"plainz","steam_id":76561198158549976,"connected_time":409000000000,"state":"active","ping":104},{"user_id":39,"name":"WALTER WHITE","steam_id":76561199147666336,"connected_time":384000000000,"state":"active","ping":60},{"user_id":40,"name":"ÃƒNVS DRÃƒNVS","steam_id":76561198138733015,"connected_time":368000000000,"state":"active","ping":115},{"user_id":41,"name":"0","steam_id":76561199084809092,"connected_time":363000000000,"state":"active","ping":94},{"user_id":43,"name":"UwU Femboy","steam_id":76561198966889321,"connected_time":81000000000,"state":"active","ping":83},{"user_id":44,"name":"Pesky Plumber","steam_id":76561198241999094,"connected_time":69000000000,"state":"active","ping":53},{"user_id":45,"name":".::[SerafeTTiN]::.","steam_id":76561198009471724,"connected_time":21000000000,"state":"active","ping":90}]},{"server_id":310,"name":"Uncletopia | Frankfurt | 5 | All Maps","name_short":"frk-5","host":"frk-1.de.uncletopia.com","port":27055,"enabled":true,"region":"eu","cc":"de","latitude":50.110924,"longitude":8.682127,"reserved":0,"last_update":"0001-01-01T00:00:00Z","name_a2s":"Uncletopia | Frankfurt | 5 | All Maps","protocol":17,"map":"pl_badwater","folder":"tf","game":"Team Fortress","app_id":440,"player_count":0,"max_players":24,"Bots":0,"server_type":"Dedicated","server_os":"Linux","password":true,"vac":true,"version":"7882260","steam_id":85568392924504277,"keywords":["nocrits","nodmgspread","payload","uncletopia"],"game_id":440,"stv_port":27056,"stv_name":"Uncletopia | Frankfurt | 5 | All Maps | STV","players":null},{"server_id":311,"name":"Uncletopia | Frankfurt | 6 | All Maps","name_short":"frk-6","host":"frk-1.de.uncletopia.com","port":27065,"enabled":true,"region":"eu","cc":"de","latitude":50.110924,"longitude":8.682127,"reserved":0,"last_update":"0001-01-01T00:00:00Z","name_a2s":"Uncletopia | Frankfurt | 6 | All Maps","protocol":17,"map":"pl_badwater","folder":"tf","game":"Team Fortress","app_id":440,"player_count":0,"max_players":24,"Bots":0,"server_type":"Dedicated","server_os":"Linux","password":true,"vac":true,"version":"7882260","steam_id":85568392924504278,"keywords":["nocrits","nodmgspread","payload","uncletopia"],"game_id":440,"stv_port":27066,"stv_name":"Uncletopia | Frankfurt | 6 | All Maps | STV","players":null},{"server_id":23,"name":"Uncletopia | Frankfurt | 7 | Stopwatch Beta","name_short":"frk-7","host":"frk-1.de.uncletopia.com","port":27075,"enabled":true,"region":"eu","cc":"de","latitude":50.110924,"longitude":8.682127,"reserved":0,"last_update":"0001-01-01T00:00:00Z","name_a2s":"Uncletopia | Frankfurt | 7 | Stopwatch Beta","protocol":17,"map":"cp_dustbowl","folder":"tf","game":"Team Fortress","app_id":440,"player_count":0,"max_players":24,"Bots":0,"server_type":"Dedicated","server_os":"Linux","password":true,"vac":true,"version":"7882260","steam_id":85568392924742827,"keywords":["cp","nocrits","nodmgspread","uncletopia"],"game_id":440,"stv_port":27076,"stv_name":"Uncletopia | Frankfurt | 7 | Stopwatch Beta | STV","players":null},{"server_id":24,"name":"Uncletopia | Frankfurt | 8 | Community","name_short":"frk-8","host":"frk-1.de.uncletopia.com","port":27085,"enabled":true,"region":"eu","cc":"de","latitude":50.110924,"longitude":8.682127,"reserved":0,"last_update":"0001-01-01T00:00:00Z","name_a2s":"Uncletopia | Frankfurt | 8 | Community","protocol":17,"map":"koth_cascade","folder":"tf","game":"Team Fortress","app_id":440,"player_count":0,"max_players":24,"Bots":0,"server_type":"Dedicated","server_os":"Linux","password":true,"vac":true,"version":"7882260","steam_id":85568392924742828,"keywords":["cp","nocrits","nodmgspread","uncletopia"],"game_id":440,"stv_port":27086,"stv_name":"Uncletopia | Frankfurt | 8 | Community | STV","players":null},{"server_id":202,"name":"Uncletopia | Hong Kong | 1 | All Maps","name_short":"hgk-1","host":"hgk-1.hk.uncletopia.com","port":27015,"enabled":true,"region":"asia","cc":"hk","latitude":22.302711,"longitude":114.177216,"reserved":0,"last_update":"0001-01-01T00:00:00Z","name_a2s":"Uncletopia | Hong Kong | 1 | All Maps","protocol":17,"map":"pl_frontier_final","folder":"tf","game":"Team Fortress","app_id":440,"player_count":22,"max_players":24,"Bots":0,"server_type":"Dedicated","server_os":"Linux","password":true,"vac":true,"version":"7882260","steam_id":85568392924494504,"keywords":["nocrits","nodmgspread","payload","uncletopia"],"game_id":440,"stv_port":27016,"stv_name":"Uncletopia | Hong Kong | 1 | All Maps | STV","players":[{"user_id":11,"name":"RP birdzz","steam_id":76561198318077734,"connected_time":7414000000000,"state":"active","ping":61},{"user_id":64,"name":"Bossrabeet (à¶¬ arc)","steam_id":76561199203075792,"connected_time":324000000000,"state":"active","ping":50},{"user_id":65,"name":"Missile","steam_id":76561198375891540,"connected_time":132000000000,"state":"active","ping":83},{"user_id":60,"name":"à¶ž Basil ;) à¶ž","steam_id":76561199262353252,"connected_time":1233000000000,"state":"active","ping":69},{"user_id":66,"name":"OrajÃ©ed","steam_id":76561199389156980,"connected_time":99000000000,"state":"active","ping":108},{"user_id":51,"name":"Typewriter","steam_id":76561199055466497,"connected_time":1738000000000,"state":"spawning","ping":304},{"user_id":63,"name":"soy main","steam_id":76561199009556495,"connected_time":356000000000,"state":"active","ping":102},{"user_id":46,"name":"Shotty 2 Hotty","steam_id":76561199174449723,"connected_time":1988000000000,"state":"active","ping":111},{"user_id":67,"name":"Momoxhien","steam_id":76561198414997429,"connected_time":52000000000,"state":"active","ping":61},{"user_id":69,"name":"Divorce Agreement","steam_id":76561198999493859,"connected_time":39000000000,"state":"active","ping":298},{"user_id":33,"name":"brizzard","steam_id":76561198048438653,"connected_time":2987000000000,"state":"active","ping":56},{"user_id":34,"name":"Lelouch","steam_id":76561198828840546,"connected_time":2894000000000,"state":"active","ping":71},{"user_id":70,"name":"tiden2000","steam_id":76561198092969425,"connected_time":13000000000,"state":"spawning","ping":105},{"user_id":59,"name":"TheChainsaw","steam_id":76561198312001455,"connected_time":1300000000000,"state":"active","ping":122},{"user_id":38,"name":"Andrew Tate","steam_id":76561199198221353,"connected_time":2659000000000,"state":"active","ping":58},{"user_id":53,"name":"PanDorA | trade.tf","steam_id":76561198864942478,"connected_time":1552000000000,"state":"active","ping":104},{"user_id":43,"name":"Drutzhfer","steam_id":76561198299948446,"connected_time":2152000000000,"state":"active","ping":102},{"user_id":45,"name":"WaifuThatGiveMeBloodPressure","steam_id":76561199090343752,"connected_time":2144000000000,"state":"active","ping":115},{"user_id":56,"name":"blobeye","steam_id":76561198420018387,"connected_time":1425000000000,"state":"active","ping":39},{"user_id":50,"name":"j_rex","steam_id":76561198132473926,"connected_time":1926000000000,"state":"active","ping":54},{"user_id":54,"name":"Compressed","steam_id":76561199230196794,"connected_time":1508000000000,"state":"active","ping":128},{"user_id":55,"name":"hotgamerth","steam_id":76561199026418153,"connected_time":1432000000000,"state":"active","ping":94}]},{"server_id":1,"name":"Uncletopia | Los Angeles | 1 | All Maps","name_short":"lax-1","host":"lax-1.us.uncletopia.com","port":27015,"enabled":true,"region":"us-west","cc":"us","latitude":33.94279,"longitude":-118.41004,"reserved":0,"last_update":"0001-01-01T00:00:00Z","name_a2s":"Uncletopia | Los Angeles | 1 | All Maps","protocol":17,"map":"pl_snowycoast","folder":"tf","game":"Team Fortress","app_id":440,"player_count":23,"max_players":24,"Bots":0,"server_type":"Dedicated","server_os":"Linux","password":true,"vac":true,"version":"7882260","steam_id":85568392924469991,"keywords":["nocrits","nodmgspread","payload","uncletopia"],"game_id":440,"stv_port":27016,"stv_name":"Uncletopia | Los Angeles | 1 | All Maps | STV","players":[{"user_id":386,"name":"nothing personal","steam_id":76561199163838005,"connected_time":2270000000000,"state":"active","ping":97},{"user_id":397,"name":"Literally Printer Jesus","steam_id":76561198093687962,"connected_time":1046000000000,"state":"active","ping":58},{"user_id":296,"name":"usedhalfcart","steam_id":76561198072621852,"connected_time":10904000000000,"state":"active","ping":72},{"user_id":394,"name":"vioxynteris","steam_id":76561198161428666,"connected_time":1144000000000,"state":"active","ping":32},{"user_id":317,"name":"Lonlily","steam_id":76561198130418647,"connected_time":9232000000000,"state":"active","ping":65},{"user_id":403,"name":"Magnetic","steam_id":76561198312113698,"connected_time":801000000000,"state":"active","ping":68},{"user_id":398,"name":"â™¥Yesterdayâ™¥","steam_id":76561198348199088,"connected_time":1040000000000,"state":"active","ping":68},{"user_id":380,"name":"THC Freebaser","steam_id":76561198075779863,"connected_time":2891000000000,"state":"active","ping":101},{"user_id":361,"name":"June","steam_id":76561198141803658,"connected_time":5639000000000,"state":"active","ping":46},{"user_id":385,"name":"Shochu Fiend","steam_id":76561198055193376,"connected_time":2318000000000,"state":"active","ping":110},{"user_id":399,"name":"StatingKnot","steam_id":76561199190634968,"connected_time":998000000000,"state":"active","ping":98},{"user_id":393,"name":"Knuckles","steam_id":76561198000704259,"connected_time":1725000000000,"state":"active","ping":104},{"user_id":356,"name":"2 for $3.50 McChickens","steam_id":76561198089908660,"connected_time":6728000000000,"state":"active","ping":54},{"user_id":405,"name":"Rah","steam_id":76561198059906615,"connected_time":161000000000,"state":"active","ping":46},{"user_id":270,"name":"fire","steam_id":76561198044354279,"connected_time":12604000000000,"state":"active","ping":50},{"user_id":400,"name":"Logan likes to pee himself","steam_id":76561198029612812,"connected_time":911000000000,"state":"active","ping":54},{"user_id":401,"name":"Pizza Fucker","steam_id":76561198334059206,"connected_time":884000000000,"state":"active","ping":56},{"user_id":368,"name":"Archie","steam_id":76561198137112917,"connected_time":5072000000000,"state":"active","ping":57},{"user_id":402,"name":"st4rb0y^*","steam_id":76561198337487263,"connected_time":837000000000,"state":"active","ping":54},{"user_id":404,"name":"Surprise Garlic Bread Party","steam_id":76561197995246546,"connected_time":671000000000,"state":"active","ping":55},{"user_id":293,"name":"Taco+Taco=Burrito","steam_id":76561198063128663,"connected_time":10986000000000,"state":"active","ping":44},{"user_id":395,"name":"Bambeau","steam_id":76561198047904568,"connected_time":1068000000000,"state":"active","ping":102},{"user_id":328,"name":"Mythical Lag","steam_id":76561198347031281,"connected_time":8760000000000,"state":"active","ping":79}]},{"server_id":112,"name":"Uncletopia | Los Angeles | 2 | All Maps","name_short":"lax-2","host":"lax-1.us.uncletopia.com","port":27025,"enabled":true,"region":"us-west","cc":"us","latitude":33.94279,"longitude":-118.41004,"reserved":0,"last_update":"0001-01-01T00:00:00Z","name_a2s":"Uncletopia | Los Angeles | 2 | All Maps","protocol":17,"map":"pl_barnblitz","folder":"tf","game":"Team Fortress","app_id":440,"player_count":0,"max_players":24,"Bots":0,"server_type":"Dedicated","server_os":"Linux","password":true,"vac":true,"version":"7882260","steam_id":85568392924469992,"keywords":["nocrits","nodmgspread","payload","uncletopia"],"game_id":440,"stv_port":27026,"stv_name":"Uncletopia | Los Angeles | 2 | All Maps | STV","players":null},{"server_id":324,"name":"Uncletopia | Los Angeles | 3 | All Maps","name_short":"lax-3","host":"lax-1.us.uncletopia.com","port":27035,"enabled":true,"region":"us-west","cc":"us","latitude":33.94279,"longitude":-118.41004,"reserved":0,"last_update":"0001-01-01T00:00:00Z","name_a2s":"Uncletopia | Los Angeles | 3 | All Maps","protocol":17,"map":"pl_snowycoast","folder":"tf","game":"Team Fortress","app_id":440,"player_count":24,"max_players":24,"Bots":0,"server_type":"Dedicated","server_os":"Linux","password":true,"vac":true,"version":"7882260","steam_id":85568392924510198,"keywords":["nocrits","nodmgspread","payload","uncletopia"],"game_id":440,"stv_port":27036,"stv_name":"Uncletopia | Los Angeles | 3 | All Maps | STV","players":[{"user_id":399,"name":"1738 gecs","steam_id":76561198058617608,"connected_time":626000000000,"state":"active","ping":51},{"user_id":401,"name":"The Assistant Regional Manager","steam_id":76561199221484936,"connected_time":521000000000,"state":"active","ping":66},{"user_id":360,"name":"Rollo","steam_id":76561198064812108,"connected_time":2853000000000,"state":"active","ping":90},{"user_id":394,"name":"Bolbi","steam_id":76561198051811597,"connected_time":875000000000,"state":"active","ping":54},{"user_id":356,"name":"Ryshy02","steam_id":76561198055425447,"connected_time":3005000000000,"state":"active","ping":85},{"user_id":362,"name":"Seanvich","steam_id":76561198065805500,"connected_time":2832000000000,"state":"active","ping":100},{"user_id":410,"name":"I throw a lot","steam_id":76561198209650964,"connected_time":103000000000,"state":"active","ping":57},{"user_id":363,"name":"im bad at game","steam_id":76561199391930993,"connected_time":2823000000000,"state":"active","ping":48},{"user_id":403,"name":"Leaderofthe00fkins","steam_id":76561198281999872,"connected_time":422000000000,"state":"active","ping":55},{"user_id":400,"name":"nom","steam_id":76561198105374054,"connected_time":538000000000,"state":"active","ping":61},{"user_id":386,"name":"Tanuki in your attic.","steam_id":76561198027487285,"connected_time":1914000000000,"state":"active","ping":154},{"user_id":409,"name":"SpeakerD","steam_id":76561198032618618,"connected_time":229000000000,"state":"active","ping":89},{"user_id":320,"name":"Racist Pyro","steam_id":76561198016168993,"connected_time":6488000000000,"state":"active","ping":79},{"user_id":329,"name":"SleeplessCollin","steam_id":76561198968140914,"connected_time":6100000000000,"state":"active","ping":50},{"user_id":384,"name":"riSygneD","steam_id":76561198331618687,"connected_time":2025000000000,"state":"active","ping":36},{"user_id":404,"name":"JohnnyGitGud","steam_id":76561198401455467,"connected_time":417000000000,"state":"active","ping":63},{"user_id":405,"name":"HeroOfTime","steam_id":76561199096218001,"connected_time":415000000000,"state":"active","ping":56},{"user_id":397,"name":"Peter, what are you doing?","steam_id":76561198066452726,"connected_time":654000000000,"state":"active","ping":46},{"user_id":378,"name":"punch you i'll punch you","steam_id":76561198035698704,"connected_time":2386000000000,"state":"active","ping":58},{"user_id":374,"name":"cringy","steam_id":76561198323000455,"connected_time":2465000000000,"state":"active","ping":66},{"user_id":406,"name":"estruli","steam_id":76561198295690725,"connected_time":408000000000,"state":"active","ping":99},{"user_id":407,"name":"Pho","steam_id":76561198306515742,"connected_time":365000000000,"state":"active","ping":63},{"user_id":411,"name":"Rustyorion","steam_id":76561198439186347,"connected_time":45000000000,"state":"active","ping":100},{"user_id":380,"name":"Whyamidoingthisaaaa","steam_id":76561199168837342,"connected_time":2257000000000,"state":"active","ping":116}]},{"server_id":25,"name":"Uncletopia | Los Angeles | 4 | Stopwatch Beta","name_short":"lax-4","host":"lax-1.us.uncletopia.com","port":27045,"enabled":true,"region":"us-west","cc":"us","latitude":33.94279,"longitude":-118.41004,"reserved":0,"last_update":"0001-01-01T00:00:00Z","name_a2s":"Uncletopia | Los Angeles | 4 | Stopwatch Beta","protocol":17,"map":"workshop/koth_ramjam_rc1.ugc459778887","folder":"tf","game":"Team Fortress","app_id":440,"player_count":0,"max_players":24,"Bots":0,"server_type":"Dedicated","server_os":"Linux","password":true,"vac":true,"version":"7882260","steam_id":85568392924510199,"keywords":["cp","nocrits","nodmgspread","uncletopia"],"game_id":440,"stv_port":27046,"stv_name":"Uncletopia | Los Angeles | 4 | Stopwatch Beta | STV","players":null},{"server_id":11,"name":"Uncletopia | London | 1 | All Maps","name_short":"lon-1","host":"lon-1.uk.uncletopia.com","port":27015,"enabled":true,"region":"eu","cc":"gb","latitude":51.509865,"longitude":-0.118092,"reserved":0,"last_update":"0001-01-01T00:00:00Z","name_a2s":"Uncletopia | London | 1 | All Maps","protocol":17,"map":"cp_process_final","folder":"tf","game":"Team Fortress","app_id":440,"player_count":0,"max_players":24,"Bots":0,"server_type":"Dedicated","server_os":"Linux","password":true,"vac":true,"version":"7882260","steam_id":85568392924367362,"keywords":["cp","nocrits","nodmgspread","uncletopia"],"game_id":440,"stv_port":27016,"stv_name":"Uncletopia | London | 1 | All Maps | STV","players":null},{"server_id":114,"name":"Uncletopia | London | 2 | All Maps","name_short":"lon-2","host":"lon-1.uk.uncletopia.com","port":27025,"enabled":true,"region":"eu","cc":"gb","latitude":51.509865,"longitude":-0.118092,"reserved":0,"last_update":"0001-01-01T00:00:00Z","name_a2s":"Uncletopia | London | 2 | All Maps","protocol":17,"map":"pl_swiftwater_final1","folder":"tf","game":"Team Fortress","app_id":440,"player_count":0,"max_players":24,"Bots":0,"server_type":"Dedicated","server_os":"Linux","password":true,"vac":true,"version":"7882260","steam_id":85568392924470941,"keywords":["nocrits","nodmgspread","payload","uncletopia"],"game_id":440,"stv_port":27026,"stv_name":"Uncletopia | London | 2 | All Maps | STV","players":null},{"server_id":320,"name":"Uncletopia | London | 3 | All Maps","name_short":"lon-3","host":"lon-1.uk.uncletopia.com","port":27035,"enabled":true,"region":"eu","cc":"gb","latitude":51.509865,"longitude":-0.118092,"reserved":0,"last_update":"0001-01-01T00:00:00Z","name_a2s":"Uncletopia | London | 3 | All Maps","protocol":17,"map":"koth_highpass","folder":"tf","game":"Team Fortress","app_id":440,"player_count":0,"max_players":24,"Bots":0,"server_type":"Dedicated","server_os":"Linux","password":true,"vac":true,"version":"7882260","steam_id":85568392924510192,"keywords":["cp","nocrits","nodmgspread","uncletopia"],"game_id":440,"stv_port":27036,"stv_name":"Uncletopia | London | 3 | All Maps | STV","players":null},{"server_id":321,"name":"Uncletopia | London | 4 | All Maps","name_short":"lon-4","host":"lon-1.uk.uncletopia.com","port":27045,"enabled":true,"region":"eu","cc":"gb","latitude":51.509865,"longitude":-0.118092,"reserved":0,"last_update":"0001-01-01T00:00:00Z","name_a2s":"Uncletopia | London | 4 | All Maps","protocol":17,"map":"pl_upward","folder":"tf","game":"Team Fortress","app_id":440,"player_count":2,"max_players":24,"Bots":0,"server_type":"Dedicated","server_os":"Linux","password":true,"vac":true,"version":"7882260","steam_id":85568392924510193,"keywords":["nocrits","nodmgspread","payload","uncletopia"],"game_id":440,"stv_port":27046,"stv_name":"Uncletopia | London | 4 | All Maps | STV","players":[{"user_id":3,"name":"Marcus","steam_id":76561198205027963,"connected_time":1807000000000,"state":"active","ping":61},{"user_id":6,"name":"apples","steam_id":76561198032787233,"connected_time":961000000000,"state":"active","ping":69}]},{"server_id":21,"name":"Uncletopia | London | 5 | All Maps","name_short":"lon-5","host":"lon-1.uk.uncletopia.com","port":27055,"enabled":true,"region":"eu","cc":"gb","latitude":51.509865,"longitude":-0.118092,"reserved":0,"last_update":"0001-01-01T00:00:00Z","name_a2s":"Uncletopia | London | 5 | All Maps","protocol":17,"map":"pl_frontier_final","folder":"tf","game":"Team Fortress","app_id":440,"player_count":0,"max_players":24,"Bots":0,"server_type":"Dedicated","server_os":"Linux","password":true,"vac":true,"version":"7882260","steam_id":85568392924742829,"keywords":["nocrits","nodmgspread","payload","uncletopia"],"game_id":440,"stv_port":27056,"stv_name":"Uncletopia | London | 5 | All Maps | STV","players":null},{"server_id":22,"name":"Uncletopia | London | 6 | All Maps","name_short":"lon-6","host":"lon-1.uk.uncletopia.com","port":27065,"enabled":true,"region":"eu","cc":"gb","latitude":51.509865,"longitude":-0.118092,"reserved":0,"last_update":"0001-01-01T00:00:00Z","name_a2s":"Uncletopia | London | 6 | All Maps","protocol":17,"map":"cp_altitude","folder":"tf","game":"Team Fortress","app_id":440,"player_count":0,"max_players":24,"Bots":0,"server_type":"Dedicated","server_os":"Linux","password":true,"vac":true,"version":"7882260","steam_id":85568392924742830,"keywords":["cp","nocrits","nodmgspread","uncletopia"],"game_id":440,"stv_port":27066,"stv_name":"Uncletopia | London | 6 | All Maps | STV","players":null},{"server_id":40,"name":"Uncletopia | London | 7 | No Payload","name_short":"lon-7","host":"lon-1.uk.uncletopia.com","port":27075,"enabled":true,"region":"eu","cc":"gb","latitude":51.509865,"longitude":-0.118092,"reserved":0,"last_update":"0001-01-01T00:00:00Z","name_a2s":"Uncletopia | London | 7 | No Payload","protocol":17,"map":"pl_pier","folder":"tf","game":"Team Fortress","app_id":440,"player_count":0,"max_players":24,"Bots":0,"server_type":"Dedicated","server_os":"Linux","password":true,"vac":true,"version":"7882260","steam_id":85568392924964314,"keywords":["nocrits","nodmgspread","payload","uncletopia"],"game_id":440,"stv_port":27076,"stv_name":"Uncletopia | London | 7 | No Payload | STV","players":null},{"server_id":41,"name":"Uncletopia | London | 8 | Community","name_short":"lon-8","host":"lon-1.uk.uncletopia.com","port":27085,"enabled":true,"region":"eu","cc":"gb","latitude":51.509865,"longitude":-0.118092,"reserved":0,"last_update":"0001-01-01T00:00:00Z","name_a2s":"Uncletopia | London | 8 | Community","protocol":17,"map":"pl_swiftwater_final1","folder":"tf","game":"Team Fortress","app_id":440,"player_count":0,"max_players":24,"Bots":0,"server_type":"Dedicated","server_os":"Linux","password":true,"vac":true,"version":"7882260","steam_id":85568392924964315,"keywords":["nocrits","nodmgspread","payload","uncletopia"],"game_id":440,"stv_port":27086,"stv_name":"Uncletopia | London | 8 | Community | STV","players":null},{"server_id":300,"name":"Uncletopia | MontrÃ©al | 1 | All Maps","name_short":"mtl-1","host":"mtl-1.ca.uncletopia.com","port":27015,"enabled":true,"region":"us-east","cc":"ca","latitude":45.50889,"longitude":-73.56167,"reserved":0,"last_update":"0001-01-01T00:00:00Z","name_a2s":"Uncletopia | MontrÃ©al | 1 | All Maps","protocol":17,"map":"cp_snakewater_final1","folder":"tf","game":"Team Fortress","app_id":440,"player_count":0,"max_players":24,"Bots":0,"server_type":"Dedicated","server_os":"Linux","password":true,"vac":true,"version":"7882260","steam_id":85568392924500087,"keywords":["cp","nocrits","nodmgspread","uncletopia"],"game_id":440,"stv_port":27016,"stv_name":"Uncletopia | MontrÃ©al | 1 | All Maps | STV","players":null},{"server_id":301,"name":"Uncletopia | MontrÃ©al | 2 | All Maps","name_short":"mtl-2","host":"mtl-1.ca.uncletopia.com","port":27025,"enabled":true,"region":"us-east","cc":"ca","latitude":45.50889,"longitude":-73.56167,"reserved":0,"last_update":"0001-01-01T00:00:00Z","name_a2s":"Uncletopia | MontrÃ©al | 2 | All Maps","protocol":17,"map":"koth_highpass","folder":"tf","game":"Team Fortress","app_id":440,"player_count":0,"max_players":24,"Bots":0,"server_type":"Dedicated","server_os":"Linux","password":true,"vac":true,"version":"7882260","steam_id":85568392924500088,"keywords":["cp","nocrits","nodmgspread","uncletopia"],"game_id":440,"stv_port":27026,"stv_name":"Uncletopia | MontrÃ©al | 2 | All Maps | STV","players":null},{"server_id":302,"name":"Uncletopia | MontrÃ©al | 3 | All Maps","name_short":"mtl-3","host":"mtl-1.ca.uncletopia.com","port":27035,"enabled":true,"region":"us-east","cc":"ca","latitude":45.50889,"longitude":-73.56167,"reserved":0,"last_update":"0001-01-01T00:00:00Z","name_a2s":"Uncletopia | MontrÃ©al | 3 | All Maps","protocol":17,"map":"cp_snakewater_final1","folder":"tf","game":"Team Fortress","app_id":440,"player_count":0,"max_players":24,"Bots":0,"server_type":"Dedicated","server_os":"Linux","password":true,"vac":true,"version":"7882260","steam_id":85568392924500089,"keywords":["cp","nocrits","nodmgspread","uncletopia"],"game_id":440,"stv_port":27036,"stv_name":"Uncletopia | MontrÃ©al | 3 | All Maps | STV","players":null},{"server_id":303,"name":"Uncletopia | MontrÃ©al | 4 | No Payload","name_short":"mtl-4","host":"mtl-1.ca.uncletopia.com","port":27045,"enabled":true,"region":"us-east","cc":"ca","latitude":45.50889,"longitude":-73.56167,"reserved":0,"last_update":"0001-01-01T00:00:00Z","name_a2s":"Uncletopia | MontrÃ©al | 4 | No Payload","protocol":17,"map":"plr_pipeline","folder":"tf","game":"Team Fortress","app_id":440,"player_count":0,"max_players":24,"Bots":0,"server_type":"Dedicated","server_os":"Linux","password":true,"vac":true,"version":"7882260","steam_id":85568392924500090,"keywords":["nocrits","nodmgspread","payload","uncletopia"],"game_id":440,"stv_port":27046,"stv_name":"Uncletopia | MontrÃ©al | 4 | No Payload | STV","players":null},{"server_id":13,"name":"Uncletopia | New York City | 1 | All Maps","name_short":"nyc-1","host":"nyc-1.us.uncletopia.com","port":27015,"enabled":true,"region":"us-east","cc":"us","latitude":40.73061,"longitude":-73.93524,"reserved":0,"last_update":"0001-01-01T00:00:00Z","name_a2s":"Uncletopia | New York City | 1 | All Maps","protocol":17,"map":"pl_borneo","folder":"tf","game":"Team Fortress","app_id":440,"player_count":20,"max_players":24,"Bots":0,"server_type":"Dedicated","server_os":"Linux","password":true,"vac":true,"version":"7882260","steam_id":85568392924469993,"keywords":["nocrits","nodmgspread","payload","uncletopia"],"game_id":440,"stv_port":27016,"stv_name":"Uncletopia | New York City | 1 | All Maps | STV","players":[{"user_id":683,"name":"Blobbyfish","steam_id":76561198822962650,"connected_time":357000000000,"state":"active","ping":48},{"user_id":652,"name":"kbsfnk","steam_id":76561198036884600,"connected_time":3468000000000,"state":"active","ping":52},{"user_id":632,"name":"TJGSASQUATCH","steam_id":76561198077806921,"connected_time":5573000000000,"state":"active","ping":68},{"user_id":663,"name":"Wang of Wall St","steam_id":76561198047460598,"connected_time":2953000000000,"state":"active","ping":58},{"user_id":655,"name":"Firecrotch Fredo","steam_id":76561198099658220,"connected_time":3444000000000,"state":"active","ping":66},{"user_id":687,"name":"Husk","steam_id":76561198271808519,"connected_time":87000000000,"state":"active","ping":133},{"user_id":657,"name":"JoJoJo","steam_id":76561198067153390,"connected_time":3421000000000,"state":"active","ping":71},{"user_id":684,"name":"Apple Crisp","steam_id":76561198129518886,"connected_time":349000000000,"state":"active","ping":84},{"user_id":685,"name":"Ox-cart","steam_id":76561198059960625,"connected_time":190000000000,"state":"active","ping":93},{"user_id":673,"name":"Pixel","steam_id":76561198129243055,"connected_time":2510000000000,"state":"active","ping":60},{"user_id":688,"name":"Ayylmao","steam_id":76561198104780147,"connected_time":37000000000,"state":"active","ping":61},{"user_id":679,"name":"Raikujo","steam_id":76561197972778707,"connected_time":1734000000000,"state":"active","ping":52},{"user_id":610,"name":"Ludcmorais","steam_id":76561198359217809,"connected_time":7191000000000,"state":"active","ping":177},{"user_id":682,"name":"Rudy","steam_id":76561198013456828,"connected_time":1034000000000,"state":"active","ping":59},{"user_id":670,"name":"Artic_Ryuu","steam_id":76561198182194918,"connected_time":2750000000000,"state":"active","ping":105},{"user_id":681,"name":"scarecrow (evil)","steam_id":76561198082979347,"connected_time":1099000000000,"state":"active","ping":54},{"user_id":659,"name":"Juno","steam_id":76561198042417277,"connected_time":3349000000000,"state":"active","ping":74},{"user_id":672,"name":"Grease Monkey","steam_id":76561199073112578,"connected_time":2616000000000,"state":"active","ping":67},{"user_id":631,"name":"big kahuna dynamite splash","steam_id":76561198094486651,"connected_time":5650000000000,"state":"active","ping":74},{"user_id":676,"name":"Dezorbo","steam_id":76561197971883897,"connected_time":1806000000000,"state":"active","ping":60}]},{"server_id":14,"name":"Uncletopia | New York City | 2 | All Maps","name_short":"nyc-2","host":"nyc-1.us.uncletopia.com","port":27025,"enabled":true,"region":"us-east","cc":"us","latitude":40.73061,"longitude":-73.93524,"reserved":0,"last_update":"0001-01-01T00:00:00Z","name_a2s":"Uncletopia | New York City | 2 | All Maps","protocol":17,"map":"pl_swiftwater_final1","folder":"tf","game":"Team Fortress","app_id":440,"player_count":0,"max_players":24,"Bots":0,"server_type":"Dedicated","server_os":"Linux","password":true,"vac":true,"version":"7882260","steam_id":85568392924469994,"keywords":["nocrits","nodmgspread","payload","uncletopia"],"game_id":440,"stv_port":27026,"stv_name":"Uncletopia | New York City | 2 | All Maps | STV","players":null},{"server_id":15,"name":"Uncletopia | New York City | 3 | Stopwatch Beta","name_short":"nyc-3","host":"nyc-1.us.uncletopia.com","port":27035,"enabled":true,"region":"us-east","cc":"us","latitude":40.73061,"longitude":-73.93524,"reserved":0,"last_update":"0001-01-01T00:00:00Z","name_a2s":"Uncletopia | New York City | 3 | Stopwatch Beta","protocol":17,"map":"workshop/koth_product_final.ugc454272353","folder":"tf","game":"Team Fortress","app_id":440,"player_count":0,"max_players":24,"Bots":0,"server_type":"Dedicated","server_os":"Linux","password":true,"vac":true,"version":"7882260","steam_id":85568392924742820,"keywords":["cp","nocrits","nodmgspread","uncletopia"],"game_id":440,"stv_port":27036,"stv_name":"Uncletopia | New York City | 3 | Stopwatch Beta | STV","players":null},{"server_id":16,"name":"Uncletopia | New York City | 4 | Community","name_short":"nyc-4","host":"nyc-1.us.uncletopia.com","port":27045,"enabled":true,"region":"us-east","cc":"us","latitude":40.73061,"longitude":-73.93524,"reserved":0,"last_update":"0001-01-01T00:00:00Z","name_a2s":"Uncletopia | New York City | 4 | Community","protocol":17,"map":"workshop/cp_snowbase_b18.ugc2081770490","folder":"tf","game":"Team Fortress","app_id":440,"player_count":0,"max_players":24,"Bots":0,"server_type":"Dedicated","server_os":"Linux","password":true,"vac":true,"version":"7882260","steam_id":85568392924742821,"keywords":["cp","nocrits","nodmgspread","uncletopia"],"game_id":440,"stv_port":27046,"stv_name":"Uncletopia | New York City | 4 | Community | STV","players":null},{"server_id":142,"name":"Uncletopia | SÃ£o Paulo | 1 | All Maps","name_short":"sao-1","host":"sao-1.br.uncletopia.com","port":27015,"enabled":true,"region":"sa","cc":"br","latitude":-23.533773,"longitude":-46.62529,"reserved":0,"last_update":"0001-01-01T00:00:00Z","name_a2s":"Uncletopia | SÃ£o Paulo | 1 | All Maps","protocol":17,"map":"koth_highpass","folder":"tf","game":"Team Fortress","app_id":440,"player_count":0,"max_players":24,"Bots":0,"server_type":"Dedicated","server_os":"Linux","password":true,"vac":true,"version":"7882260","steam_id":85568392924469996,"keywords":["cp","nocrits","nodmgspread","uncletopia"],"game_id":440,"stv_port":27016,"stv_name":"Uncletopia | SÃ£o Paulo | 1 | All Maps | STV","players":null},{"server_id":143,"name":"Uncletopia | SÃ£o Paulo | 2 | All Maps","name_short":"sao-2","host":"sao-2.br.uncletopia.com","port":27015,"enabled":true,"region":"sa","cc":"br","latitude":-23.533773,"longitude":-46.62529,"reserved":0,"last_update":"0001-01-01T00:00:00Z","name_a2s":"Uncletopia | SÃ£o Paulo | 2 | All Maps","protocol":17,"map":"koth_cascade","folder":"tf","game":"Team Fortress","app_id":440,"player_count":0,"max_players":24,"Bots":0,"server_type":"Dedicated","server_os":"Linux","password":true,"vac":true,"version":"7882260","steam_id":85568392924485349,"keywords":["cp","nocrits","nodmgspread","uncletopia"],"game_id":440,"stv_port":27016,"stv_name":"Uncletopia | SÃ£o Paulo | 2 | All Maps | STV","players":null},{"server_id":7,"name":"Uncletopia | Seattle | 1 | All Maps","name_short":"sea-1","host":"sea-1.us.uncletopia.com","port":27015,"enabled":true,"region":"us-west","cc":"us","latitude":47.608013,"longitude":-122.33517,"reserved":0,"last_update":"0001-01-01T00:00:00Z","name_a2s":"Uncletopia | Seattle | 1 | All Maps","protocol":17,"map":"pl_swiftwater_final1","folder":"tf","game":"Team Fortress","app_id":440,"player_count":24,"max_players":24,"Bots":0,"server_type":"Dedicated","server_os":"Linux","password":true,"vac":true,"version":"7882260","steam_id":85568392924469997,"keywords":["nocrits","nodmgspread","payload","uncletopia"],"game_id":440,"stv_port":27016,"stv_name":"Uncletopia | Seattle | 1 | All Maps | STV","players":[{"user_id":646,"name":"PachucoWaffle","steam_id":76561198051491032,"connected_time":12277000000000,"state":"active","ping":57},{"user_id":765,"name":"w1ppy","steam_id":76561198324695896,"connected_time":659000000000,"state":"active","ping":45},{"user_id":773,"name":"Ephemeral-chan","steam_id":76561197996001672,"connected_time":221000000000,"state":"active","ping":71},{"user_id":742,"name":"gwy","steam_id":76561198277458653,"connected_time":2702000000000,"state":"active","ping":42},{"user_id":753,"name":"WaffleWithNoToppings","steam_id":76561199088280111,"connected_time":1448000000000,"state":"active","ping":46},{"user_id":763,"name":"Dealer","steam_id":76561198801450794,"connected_time":1087000000000,"state":"active","ping":96},{"user_id":722,"name":"Mr. Ravioli","steam_id":76561197996625649,"connected_time":4499000000000,"state":"active","ping":53},{"user_id":762,"name":"Shortbane","steam_id":76561198247166584,"connected_time":1177000000000,"state":"active","ping":112},{"user_id":761,"name":"lyraaaaaaaaaaa","steam_id":76561198259331758,"connected_time":1192000000000,"state":"active","ping":72},{"user_id":748,"name":"exephur","steam_id":76561198135763234,"connected_time":2069000000000,"state":"active","ping":68},{"user_id":756,"name":"Zeodexic","steam_id":76561198055636655,"connected_time":1434000000000,"state":"active","ping":130},{"user_id":749,"name":"||BassMan||","steam_id":76561198279865229,"connected_time":1851000000000,"state":"active","ping":103},{"user_id":767,"name":"Miniclone #SaveTF2","steam_id":76561198435829882,"connected_time":446000000000,"state":"active","ping":63},{"user_id":760,"name":"doozy","steam_id":76561198033106776,"connected_time":1371000000000,"state":"active","ping":82},{"user_id":768,"name":"Mikey Decoy","steam_id":76561198070496601,"connected_time":415000000000,"state":"active","ping":53},{"user_id":750,"name":"strbry","steam_id":76561198155133601,"connected_time":1675000000000,"state":"active","ping":54},{"user_id":729,"name":"rat gets the cheese","steam_id":76561198031234032,"connected_time":3733000000000,"state":"active","ping":126},{"user_id":770,"name":"Chmiken","steam_id":76561199041966499,"connected_time":359000000000,"state":"active","ping":57},{"user_id":739,"name":"An Old Lady","steam_id":76561198047480318,"connected_time":2729000000000,"state":"active","ping":82},{"user_id":771,"name":"[K.Y.L.L.]Feathercake","steam_id":76561198027321950,"connected_time":308000000000,"state":"active","ping":40},{"user_id":751,"name":"catgirl giantess in heat","steam_id":76561198439042583,"connected_time":1485000000000,"state":"active","ping":103},{"user_id":731,"name":"Ayayayayayahuasca","steam_id":76561199002906056,"connected_time":3664000000000,"state":"active","ping":49},{"user_id":758,"name":"Lesbillionaire","steam_id":76561198060118132,"connected_time":1398000000000,"state":"active","ping":90},{"user_id":764,"name":"Bald Rice","steam_id":76561199019142767,"connected_time":707000000000,"state":"active","ping":58}]},{"server_id":119,"name":"Uncletopia | Seattle | 2 | All Maps","name_short":"sea-2","host":"sea-1.us.uncletopia.com","port":27025,"enabled":true,"region":"us-west","cc":"us","latitude":47.608013,"longitude":-122.33517,"reserved":0,"last_update":"0001-01-01T00:00:00Z","name_a2s":"Uncletopia | Seattle | 2 | All Maps","protocol":17,"map":"pl_swiftwater_final1","folder":"tf","game":"Team Fortress","app_id":440,"player_count":24,"max_players":24,"Bots":0,"server_type":"Dedicated","server_os":"Linux","password":true,"vac":true,"version":"7882260","steam_id":85568392924469998,"keywords":["nocrits","nodmgspread","payload","uncletopia"],"game_id":440,"stv_port":27026,"stv_name":"Uncletopia | Seattle | 2 | All Maps | STV","players":[{"user_id":699,"name":"Rat (real)","steam_id":76561198302366619,"connected_time":1030000000000,"state":"active","ping":70},{"user_id":637,"name":"Ping","steam_id":76561198072947773,"connected_time":6230000000000,"state":"active","ping":110},{"user_id":675,"name":"rorywashere /á  - Ë• -ãƒž â³Š","steam_id":76561198065825165,"connected_time":3072000000000,"state":"active","ping":101},{"user_id":683,"name":"mega","steam_id":76561198089520959,"connected_time":2431000000000,"state":"active","ping":93},{"user_id":687,"name":"Chocc","steam_id":76561198068070211,"connected_time":2319000000000,"state":"active","ping":93},{"user_id":590,"name":"Battery Acid Slurper","steam_id":76561198439793697,"connected_time":8537000000000,"state":"active","ping":101},{"user_id":696,"name":"NEBULA","steam_id":76561198086878595,"connected_time":1234000000000,"state":"active","ping":66},{"user_id":705,"name":"Skabbety","steam_id":76561198168044257,"connected_time":363000000000,"state":"active","ping":38},{"user_id":709,"name":"Local","steam_id":76561198069537437,"connected_time":174000000000,"state":"active","ping":79},{"user_id":680,"name":"benji","steam_id":76561198084417967,"connected_time":2520000000000,"state":"active","ping":72},{"user_id":710,"name":"Mateo The Social Engineer","steam_id":76561199199772083,"connected_time":172000000000,"state":"active","ping":89},{"user_id":701,"name":"Keamy","steam_id":76561199471434875,"connected_time":938000000000,"state":"active","ping":40},{"user_id":711,"name":"wolfspy22","steam_id":76561198340501863,"connected_time":149000000000,"state":"active","ping":61},{"user_id":695,"name":"CranAppleGaming","steam_id":76561198398206209,"connected_time":1397000000000,"state":"active","ping":93},{"user_id":706,"name":"steelmonkey","steam_id":76561198144924704,"connected_time":251000000000,"state":"active","ping":53},{"user_id":682,"name":"Cr0w!","steam_id":76561198178437265,"connected_time":2514000000000,"state":"active","ping":54},{"user_id":672,"name":"SvicidalBug","steam_id":76561198221390504,"connected_time":3335000000000,"state":"active","ping":69},{"user_id":702,"name":"Velocircopter","steam_id":76561198847582048,"connected_time":911000000000,"state":"active","ping":86},{"user_id":658,"name":"General Fisticuffs","steam_id":76561198255721392,"connected_time":4862000000000,"state":"active","ping":114},{"user_id":712,"name":"cowgirl_up rodney bling","steam_id":76561198136535844,"connected_time":128000000000,"state":"active","ping":46},{"user_id":713,"name":"lker","steam_id":76561197976975075,"connected_time":125000000000,"state":"active","ping":113},{"user_id":704,"name":"diymo . watashi wa heavy weapon","steam_id":76561198017600790,"connected_time":711000000000,"state":"active","ping":40},{"user_id":707,"name":"cheeto dorito","steam_id":76561198107941274,"connected_time":245000000000,"state":"active","ping":78},{"user_id":677,"name":"jorts","steam_id":76561199041179985,"connected_time":3021000000000,"state":"active","ping":67}]},{"server_id":406,"name":"Uncletopia | Seattle | 3 | Stopwatch Beta","name_short":"sea-3","host":"sea-1.us.uncletopia.com","port":27035,"enabled":true,"region":"us-west","cc":"us","latitude":47.608013,"longitude":-122.33517,"reserved":0,"last_update":"0001-01-01T00:00:00Z","name_a2s":"Uncletopia | Seattle | 3 | Stopwatch Beta","protocol":17,"map":"workshop/koth_ashville_final.ugc2130459942","folder":"tf","game":"Team Fortress","app_id":440,"player_count":24,"max_players":24,"Bots":0,"server_type":"Dedicated","server_os":"Linux","password":true,"vac":true,"version":"7882260","steam_id":85568392924515217,"keywords":["cp","nocrits","nodmgspread","uncletopia"],"game_id":440,"stv_port":27036,"stv_name":"Uncletopia | Seattle | 3 | Stopwatch Beta | STV","players":[{"user_id":184,"name":"Hatfam","steam_id":76561199192629036,"connected_time":323000000000,"state":"active","ping":74},{"user_id":152,"name":"Crustacean Daddy","steam_id":76561198993807061,"connected_time":1991000000000,"state":"active","ping":71},{"user_id":167,"name":"Claaws","steam_id":76561198159589471,"connected_time":933000000000,"state":"active","ping":55},{"user_id":32,"name":"Sleempreem","steam_id":76561198131987251,"connected_time":10635000000000,"state":"active","ping":73},{"user_id":158,"name":"big fish","steam_id":76561198186479818,"connected_time":1664000000000,"state":"active","ping":82},{"user_id":175,"name":"D0c Hammer","steam_id":76561198002007932,"connected_time":621000000000,"state":"active","ping":46},{"user_id":170,"name":"SleezeBaggerMcSwagger","steam_id":76561198397836238,"connected_time":767000000000,"state":"active","ping":67},{"user_id":138,"name":"mike, freshly circed","steam_id":76561198225411004,"connected_time":2860000000000,"state":"active","ping":68},{"user_id":144,"name":"ð•®ð–†ð–’ð–Šð–—ð–”ð–“ \ufffd\ufffd","steam_id":76561198045826628,"connected_time":2445000000000,"state":"active","ping":79},{"user_id":176,"name":"CozzyEh","steam_id":76561199137063042,"connected_time":569000000000,"state":"active","ping":46},{"user_id":165,"name":"catrinaisahuman","steam_id":76561198281355729,"connected_time":1254000000000,"state":"active","ping":74},{"user_id":147,"name":"Cypress [ +/- ] âœ”","steam_id":76561198067164431,"connected_time":2244000000000,"state":"active","ping":70},{"user_id":177,"name":"orio","steam_id":76561198116550170,"connected_time":550000000000,"state":"active","ping":62},{"user_id":185,"name":"louie, engineer main","steam_id":76561198168084763,"connected_time":138000000000,"state":"active","ping":45},{"user_id":178,"name":"Da Bird","steam_id":76561198215677985,"connected_time":530000000000,"state":"active","ping":97},{"user_id":179,"name":"Wavelengths (they/it)","steam_id":76561197997621320,"connected_time":509000000000,"state":"spawning","ping":203},{"user_id":183,"name":"chimpman","steam_id":76561198295713840,"connected_time":414000000000,"state":"active","ping":76},{"user_id":181,"name":"Leidon","steam_id":76561198078386945,"connected_time":432000000000,"state":"active","ping":83},{"user_id":162,"name":"Pootis Le Doge","steam_id":76561198111509474,"connected_time":1531000000000,"state":"active","ping":57},{"user_id":56,"name":"Fluffy","steam_id":76561198213561811,"connected_time":8774000000000,"state":"active","ping":69},{"user_id":171,"name":"Tomatm0_","steam_id":76561198369658842,"connected_time":765000000000,"state":"active","ping":92},{"user_id":163,"name":"ã‚´?!Jon Chainsaw!?ã‚´","steam_id":76561198400240040,"connected_time":1488000000000,"state":"active","ping":108},{"user_id":172,"name":"FD0XY","steam_id":76561198862653083,"connected_time":742000000000,"state":"active","ping":40},{"user_id":182,"name":"gung6n","steam_id":76561198099843841,"connected_time":427000000000,"state":"active","ping":97}]},{"server_id":17,"name":"Uncletopia | San Francisco | 1 | All Maps","name_short":"sfo-1","host":"sfo-1.us.uncletopia.com","port":27015,"enabled":true,"region":"us-west","cc":"us","latitude":37.77397,"longitude":-122.4313,"reserved":0,"last_update":"0001-01-01T00:00:00Z","name_a2s":"Uncletopia | San Francisco | 1 | All Maps","protocol":17,"map":"cp_process_final","folder":"tf","game":"Team Fortress","app_id":440,"player_count":0,"max_players":24,"Bots":0,"server_type":"Dedicated","server_os":"Linux","password":true,"vac":true,"version":"7757534","steam_id":85568392924469999,"keywords":["cp","nocrits","nodmgspread","uncletopia"],"game_id":440,"stv_port":27016,"stv_name":"Uncletopia | San Francisco | 1 | All Maps | STV","players":null},{"server_id":18,"name":"Uncletopia | San Francisco | 2 | All Maps","name_short":"sfo-2","host":"sfo-1.us.uncletopia.com","port":27025,"enabled":true,"region":"us-west","cc":"us","latitude":37.77397,"longitude":-122.4313,"reserved":0,"last_update":"0001-01-01T00:00:00Z","name_a2s":"Uncletopia | San Francisco | 2 | All Maps","protocol":17,"map":"koth_highpass","folder":"tf","game":"Team Fortress","app_id":440,"player_count":0,"max_players":24,"Bots":0,"server_type":"Dedicated","server_os":"Linux","password":true,"vac":true,"version":"7757534","steam_id":85568392924470000,"keywords":["cp","nocrits","nodmgspread","uncletopia"],"game_id":440,"stv_port":27026,"stv_name":"Uncletopia | San Francisco | 2 | All Maps | STV","players":null},{"server_id":19,"name":"Uncletopia | San Francisco | 3 | Stopwatch Beta","name_short":"sfo-3","host":"sfo-1.us.uncletopia.com","port":27035,"enabled":true,"region":"us-west","cc":"us","latitude":37.77397,"longitude":-122.4313,"reserved":0,"last_update":"0001-01-01T00:00:00Z","name_a2s":"Uncletopia | San Francisco | 3 | Stopwatch Beta","protocol":17,"map":"koth_lakeside_final","folder":"tf","game":"Team Fortress","app_id":440,"player_count":0,"max_players":24,"Bots":0,"server_type":"Dedicated","server_os":"Linux","password":true,"vac":true,"version":"7757534","steam_id":85568392924742824,"keywords":["cp","nocrits","nodmgspread","uncletopia"],"game_id":440,"stv_port":27036,"stv_name":"Uncletopia | San Francisco | 3 | Stopwatch Beta | STV","players":null},{"server_id":20,"name":"Uncletopia | San Francisco | 4 | Community","name_short":"sfo-4","host":"sfo-1.us.uncletopia.com","port":27045,"enabled":true,"region":"us-west","cc":"us","latitude":37.77397,"longitude":-122.4313,"reserved":0,"last_update":"0001-01-01T00:00:00Z","name_a2s":"Uncletopia | San Francisco | 4 | Community","protocol":17,"map":"cp_altitude","folder":"tf","game":"Team Fortress","app_id":440,"player_count":0,"max_players":24,"Bots":0,"server_type":"Dedicated","server_os":"Linux","password":true,"vac":true,"version":"7757534","steam_id":85568392924742826,"keywords":["cp","nocrits","nodmgspread","uncletopia"],"game_id":440,"stv_port":27046,"stv_name":"Uncletopia | San Francisco | 4 | Community | STV","players":null},{"server_id":141,"name":"Uncletopia | Sydney | 1 | All Maps","name_short":"syd-1","host":"syd-1.au.uncletopia.com","port":27015,"enabled":true,"region":"au","cc":"au","latitude":-33.865143,"longitude":151.2099,"reserved":0,"last_update":"0001-01-01T00:00:00Z","name_a2s":"Uncletopia | Sydney | 1 | All Maps","protocol":17,"map":"koth_viaduct","folder":"tf","game":"Team Fortress","app_id":440,"player_count":20,"max_players":24,"Bots":0,"server_type":"Dedicated","server_os":"Linux","password":true,"vac":true,"version":"7882260","steam_id":85568392924470001,"keywords":["cp","nocrits","nodmgspread","uncletopia"],"game_id":440,"stv_port":27016,"stv_name":"Uncletopia | Sydney | 1 | All Maps | STV","players":[{"user_id":77,"name":"Fyre Rose","steam_id":76561198000527551,"connected_time":1002000000000,"state":"active","ping":71},{"user_id":78,"name":"LaFleur","steam_id":76561198869499113,"connected_time":881000000000,"state":"active","ping":55},{"user_id":79,"name":"sweet","steam_id":76561198075311236,"connected_time":874000000000,"state":"active","ping":42},{"user_id":86,"name":"Lord Oink","steam_id":76561198125237921,"connected_time":540000000000,"state":"active","ping":39},{"user_id":82,"name":"Rodan","steam_id":76561198038401873,"connected_time":814000000000,"state":"active","ping":89},{"user_id":83,"name":"YourLocalPyroshark","steam_id":76561199099769110,"connected_time":675000000000,"state":"active","ping":59},{"user_id":84,"name":"Scout was Here?","steam_id":76561199233995507,"connected_time":598000000000,"state":"active","ping":65},{"user_id":87,"name":"Pizza","steam_id":76561199154318083,"connected_time":516000000000,"state":"active","ping":63},{"user_id":88,"name":"ibus","steam_id":76561199026701614,"connected_time":439000000000,"state":"active","ping":52},{"user_id":89,"name":"jone","steam_id":76561198285234796,"connected_time":439000000000,"state":"active","ping":79},{"user_id":101,"name":"Islandofawesome","steam_id":76561198047527920,"connected_time":83000000000,"state":"active","ping":52},{"user_id":91,"name":"Denszeal","steam_id":76561198313718095,"connected_time":348000000000,"state":"active","ping":76},{"user_id":92,"name":"Juice","steam_id":76561198345462790,"connected_time":298000000000,"state":"active","ping":57},{"user_id":93,"name":"WogBat","steam_id":76561198151221055,"connected_time":291000000000,"state":"active","ping":57},{"user_id":102,"name":"smite","steam_id":76561198845304189,"connected_time":44000000000,"state":"active","ping":86},{"user_id":95,"name":"no teles 4 u","steam_id":76561198018478297,"connected_time":260000000000,"state":"active","ping":74},{"user_id":96,"name":"LeDentalFloose","steam_id":76561198004537575,"connected_time":219000000000,"state":"active","ping":95},{"user_id":100,"name":"I AM ON MY WAY TO LITHGOW","steam_id":76561198061201028,"connected_time":129000000000,"state":"active","ping":41},{"user_id":98,"name":"xiuh","steam_id":76561198117053421,"connected_time":173000000000,"state":"active","ping":40},{"user_id":103,"name":"[MAGIC] Ms. Wizard","steam_id":76561198110462830,"connected_time":28000000000,"state":"active","ping":61}]},{"server_id":123,"name":"Uncletopia | Sydney | 2 | All Maps","name_short":"syd-2","host":"syd-1.au.uncletopia.com","port":27025,"enabled":true,"region":"au","cc":"au","latitude":-33.865143,"longitude":151.2099,"reserved":0,"last_update":"0001-01-01T00:00:00Z","name_a2s":"Uncletopia | Sydney | 2 | All Maps","protocol":17,"map":"cp_snakewater_final1","folder":"tf","game":"Team Fortress","app_id":440,"player_count":0,"max_players":24,"Bots":0,"server_type":"Dedicated","server_os":"Linux","password":true,"vac":true,"version":"7882260","steam_id":85568392924470002,"keywords":["cp","nocrits","nodmgspread","uncletopia"],"game_id":440,"stv_port":27026,"stv_name":"Uncletopia | Sydney | 2 | All Maps | STV","players":null},{"server_id":395,"name":"Uncletopia | Sydney | 3 | All Maps","name_short":"syd-3","host":"syd-1.au.uncletopia.com","port":27035,"enabled":true,"region":"au","cc":"au","latitude":-33.865143,"longitude":151.2099,"reserved":0,"last_update":"0001-01-01T00:00:00Z","name_a2s":"Uncletopia | Sydney | 3 | All Maps","protocol":17,"map":"koth_cascade","folder":"tf","game":"Team Fortress","app_id":440,"player_count":0,"max_players":24,"Bots":0,"server_type":"Dedicated","server_os":"Linux","password":true,"vac":true,"version":"7882260","steam_id":85568392925194467,"keywords":["cp","nocrits","nodmgspread","uncletopia"],"game_id":440,"stv_port":27036,"stv_name":"Uncletopia | Sydney | 3 | All Maps | STV","players":null},{"server_id":396,"name":"Uncletopia | Sydney | 4 | All Maps","name_short":"syd-4","host":"syd-1.au.uncletopia.com","port":27045,"enabled":true,"region":"au","cc":"au","latitude":-33.865143,"longitude":151.2099,"reserved":0,"last_update":"0001-01-01T00:00:00Z","name_a2s":"Uncletopia | Sydney | 4 | All Maps","protocol":17,"map":"koth_cascade","folder":"tf","game":"Team Fortress","app_id":440,"player_count":0,"max_players":24,"Bots":0,"server_type":"Dedicated","server_os":"Linux","password":true,"vac":true,"version":"7882260","steam_id":85568392925397958,"keywords":["cp","nocrits","nodmgspread","uncletopia"],"game_id":440,"stv_port":27046,"stv_name":"Uncletopia | Sydney | 4 | All Maps | STV","players":null},{"server_id":58,"name":"Uncletopia | Sydney | 5 | Stopwatch Beta","name_short":"syd-5","host":"syd-1.au.uncletopia.com","port":27055,"enabled":true,"region":"au","cc":"au","latitude":-33.865143,"longitude":151.2099,"reserved":0,"last_update":"0001-01-01T00:00:00Z","name_a2s":"Uncletopia | Sydney | 5 | Stopwatch Beta","protocol":17,"map":"pl_swiftwater_final1","folder":"tf","game":"Team Fortress","app_id":440,"player_count":0,"max_players":24,"Bots":0,"server_type":"Dedicated","server_os":"Linux","password":true,"vac":true,"version":"7882260","steam_id":85568392925397959,"keywords":["nocrits","nodmgspread","payload","uncletopia"],"game_id":440,"stv_port":27056,"stv_name":"Uncletopia | Sydney | 5 | Stopwatch Beta | STV","players":null},{"server_id":59,"name":"Uncletopia | Sydney | 6 | Community","name_short":"syd-6","host":"syd-1.au.uncletopia.com","port":27065,"enabled":true,"region":"au","cc":"au","latitude":-33.865143,"longitude":151.2099,"reserved":0,"last_update":"0001-01-01T00:00:00Z","name_a2s":"Uncletopia | Sydney | 6 | Community","protocol":17,"map":"pl_snowycoast","folder":"tf","game":"Team Fortress","app_id":440,"player_count":0,"max_players":24,"Bots":0,"server_type":"Dedicated","server_os":"Linux","password":true,"vac":true,"version":"7882260","steam_id":85568392925397960,"keywords":["nocrits","nodmgspread","payload","uncletopia"],"game_id":440,"stv_port":27066,"stv_name":"Uncletopia | Sydney | 6 | Community | STV","players":null},{"server_id":49,"name":"Uncletopia | Warsaw | 1 | All Maps","name_short":"waw-1","host":"waw-1.pl.uncletopia.com","port":27015,"enabled":true,"region":"eu","cc":"pl","latitude":52.2297,"longitude":21.017532,"reserved":0,"last_update":"0001-01-01T00:00:00Z","name_a2s":"","protocol":0,"map":"","folder":"","game":"","app_id":0,"player_count":0,"max_players":0,"Bots":0,"server_type":"","server_os":"","password":false,"vac":false,"version":"","steam_id":0,"keywords":null,"game_id":0,"stv_port":0,"stv_name":"","players":null},{"server_id":50,"name":"Uncletopia | Warsaw | 2 | All Maps","name_short":"waw-2","host":"waw-1.pl.uncletopia.com","port":27025,"enabled":true,"region":"eu","cc":"pl","latitude":52.2297,"longitude":21.017532,"reserved":0,"last_update":"0001-01-01T00:00:00Z","name_a2s":"Uncletopia | Warsaw | 2 | All Maps","protocol":17,"map":"pl_swiftwater_final1","folder":"tf","game":"Team Fortress","app_id":440,"player_count":0,"max_players":24,"Bots":0,"server_type":"Dedicated","server_os":"Linux","password":true,"vac":true,"version":"7882260","steam_id":85568392925397851,"keywords":["nocrits","nodmgspread","payload","uncletopia"],"game_id":440,"stv_port":27026,"stv_name":"Uncletopia | Warsaw | 2 | All Maps | STV","players":null},{"server_id":51,"name":"Uncletopia | Warsaw | 3 | All Maps","name_short":"waw-3","host":"waw-1.pl.uncletopia.com","port":27035,"enabled":true,"region":"eu","cc":"pl","latitude":52.2297,"longitude":21.017532,"reserved":0,"last_update":"0001-01-01T00:00:00Z","name_a2s":"Uncletopia | Warsaw | 3 | All Maps","protocol":17,"map":"koth_viaduct","folder":"tf","game":"Team Fortress","app_id":440,"player_count":0,"max_players":24,"Bots":0,"server_type":"Dedicated","server_os":"Linux","password":true,"vac":true,"version":"7882260","steam_id":85568392925397852,"keywords":["cp","nocrits","nodmgspread","uncletopia"],"game_id":440,"stv_port":27036,"stv_name":"Uncletopia | Warsaw | 3 | All Maps | STV","players":null},{"server_id":52,"name":"Uncletopia | Warsaw | 4 | All Maps","name_short":"waw-4","host":"waw-1.pl.uncletopia.com","port":27045,"enabled":true,"region":"eu","cc":"pl","latitude":52.2297,"longitude":21.017532,"reserved":0,"last_update":"0001-01-01T00:00:00Z","name_a2s":"Uncletopia | Warsaw | 4 | All Maps","protocol":17,"map":"koth_highpass","folder":"tf","game":"Team Fortress","app_id":440,"player_count":0,"max_players":24,"Bots":0,"server_type":"Dedicated","server_os":"Linux","password":true,"vac":true,"version":"7882260","steam_id":85568392925397853,"keywords":["cp","nocrits","nodmgspread","uncletopia"],"game_id":440,"stv_port":27046,"stv_name":"Uncletopia | Warsaw | 4 | All Maps | STV","players":null},{"server_id":53,"name":"Uncletopia | Warsaw | 5 | Stopwatch Beta","name_short":"waw-5","host":"waw-1.pl.uncletopia.com","port":27055,"enabled":true,"region":"eu","cc":"pl","latitude":52.2297,"longitude":21.017532,"reserved":0,"last_update":"0001-01-01T00:00:00Z","name_a2s":"Uncletopia | Warsaw | 5 | Stopwatch Beta","protocol":17,"map":"cp_mountainlab","folder":"tf","game":"Team Fortress","app_id":440,"player_count":0,"max_players":24,"Bots":0,"server_type":"Dedicated","server_os":"Linux","password":true,"vac":true,"version":"7882260","steam_id":85568392925397854,"keywords":["cp","nocrits","nodmgspread","uncletopia"],"game_id":440,"stv_port":27056,"stv_name":"Uncletopia | Warsaw | 5 | Stopwatch Beta | STV","players":null},{"server_id":54,"name":"Uncletopia | Warsaw | 6 | Community","name_short":"waw-6","host":"waw-1.pl.uncletopia.com","port":27065,"enabled":true,"region":"eu","cc":"pl","latitude":52.2297,"longitude":21.017532,"reserved":0,"last_update":"0001-01-01T00:00:00Z","name_a2s":"Uncletopia | Warsaw | 6 | Community","protocol":17,"map":"koth_viaduct","folder":"tf","game":"Team Fortress","app_id":440,"player_count":0,"max_players":24,"Bots":0,"server_type":"Dedicated","server_os":"Linux","password":true,"vac":true,"version":"7882260","steam_id":85568392925397856,"keywords":["cp","nocrits","nodmgspread","uncletopia"],"game_id":440,"stv_port":27066,"stv_name":"Uncletopia | Warsaw | 6 | Community | STV","players":null}]}