{"status":true,"message":"","result":[{"server_id":9,"name":"Uncletopia | Atlanta | 1 | All Maps","name_short":"atl-1","host":"atl-1.us.uncletopia.com","port":27015,"enabled":true,"region":"us-east","cc":"us","latitude":33.753746,"longitude":-84.38633,"reserved":0,"last_update":"0001-01-01T00:00:00Z","name_a2s":"Uncletopia | Atlanta | 1 | All Maps","protocol":17,"map":"pl_upward","folder":"tf","game":"Team Fortress","app_id":440,"player_count":0,"max_players":24,"Bots":0,"server_type":"Dedicated","server_os":"Linux","password":true,"vac":true,"version":"7708610","steam_id":85568392924469982,"keywords":["nocrits","nodmgspread","payload","uncletopia"],"game_id":440,"stv_port":27016,"stv_name":"Uncletopia | Atlanta | 1 | All Maps | STV","players":null},{"server_id":400,"name":"Uncletopia | Atlanta | 3 | All Maps","name_short":"atl-3","host":"atl-1.us.uncletopia.com","port":27035,"enabled":true,"region":"us-east","cc":"us","latitude":33.753746,"longitude":-84.38633,"reserved":0,"last_update":"0001-01-01T00:00:00Z","name_a2s":"Uncletopia | Atlanta | 3 | All Maps","protocol":17,"map":"cp_snakewater_final1","folder":"tf","game":"Team Fortress","app_id":440,"player_count":0,"max_players":24,"Bots":0,"server_type":"Dedicated","server_os":"Linux","password":true,"vac":true,"version":"7708610","steam_id":85568392924515187,"keywords":["cp","nocrits","nodmgspread","uncletopia"],"game_id":440,"stv_port":27036,"stv_name":"Uncletopia | Atlanta | 3 | All Maps | STV","players":null},{"server_id":401,"name":"Uncletopia | Atlanta | 4 | No Payload","name_short":"atl-4","host":"atl-1.us.uncletopia.com","port":27045,"enabled":true,"region":"us-east","cc":"us","latitude":33.753746,"longitude":-84.38633,"reserved":0,"last_update":"0001-01-01T00:00:00Z","name_a2s":"Uncletopia | Atlanta | 4 | No Payload","protocol":17,"map":"pl_snowycoast","folder":"tf","game":"Team Fortress","app_id":440,"player_count":0,"max_players":24,"Bots":0,"server_type":"Dedicated","server_os":"Linux","password":true,"vac":true,"version":"7708610","steam_id":85568392924515188,"keywords":["nocrits","nodmgspread","payload","uncletopia"],"game_id":440,"stv_port":27046,"stv_name":"Uncletopia | Atlanta | 4 | No Payload | STV","players":null},{"server_id":2,"name":"Uncletopia | Chicago | 1 | All Maps","name_short":"chi-1","host":"chi-1.us.uncletopia.com","port":27015,"enabled":true,"region":"us-central","cc":"us","latitude":41.881832,"longitude":-87.62318,"reserved":0,"last_update":"0001-01-01T00:00:00Z","name_a2s":"Uncletopia | Chicago | 1 | All Maps","protocol":17,"map":"cp_dustbowl","folder":"tf","game":"Team Fortress","app_id":440,"player_count":0,"max_players":24,"Bots":0,"server_type":"Dedicated","server_os":"Linux","password":true,"vac":true,"version":"7708610","steam_id":85568392924469984,"keywords":["cp","nocrits","nodmgspread","uncletopia"],"game_id":440,"stv_port":27016,"stv_name":"Uncletopia | Chicago | 1 | All Maps | STV","players":null},{"server_id":106,"name":"Uncletopia | Chicago | 2 | All Maps","name_short":"chi-2","host":"chi-1.us.uncletopia.com","port":27025,"enabled":true,"region":"us-central","cc":"us","latitude":41.881832,"longitude":-87.62318,"reserved":0,"last_update":"0001-01-01T00:00:00Z","name_a2s":"Uncletopia | Chicago | 2 | All Maps","protocol":17,"map":"pl_frontier_final","folder":"tf","game":"Team Fortress","app_id":440,"player_count":0,"max_players":24,"Bots":0,"server_type":"Dedicated","server_os":"Linux","password":true,"vac":true,"version":"7708610","steam_id":85568392924469985,"keywords":["nocrits","nodmgspread","payload","uncletopia"],"game_id":440,"stv_port":27026,"stv_name":"Uncletopia | Chicago | 2 | All Maps | STV","players":null},{"server_id":402,"name":"Uncletopia | Chicago | 3 | All Maps","name_short":"chi-3","host":"chi-1.us.uncletopia.com","port":27035,"enabled":true,"region":"us-central","cc":"us","latitude":41.881832,"longitude":-87.62318,"reserved":0,"last_update":"0001-01-01T00:00:00Z","name_a2s":"Uncletopia | Chicago | 3 | All Maps","protocol":17,"map":"pl_barnblitz","folder":"tf","game":"Team Fortress","app_id":440,"player_count":0,"max_players":24,"Bots":0,"server_type":"Dedicated","server_os":"Linux","password":true,"vac":true,"version":"7708610","steam_id":85568392924515191,"keywords":["nocrits","nodmgspread","payload","uncletopia"],"game_id":440,"stv_port":27036,"stv_name":"Uncletopia | Chicago | 3 | All Maps | STV","players":null},{"server_id":403,"name":"Uncletopia | Chicago | 4 | All Maps","name_short":"chi-4","host":"chi-1.us.uncletopia.com","port":27045,"enabled":true,"region":"us-central","cc":"us","latitude":41.881832,"longitude":-87.62318,"reserved":0,"last_update":"0001-01-01T00:00:00Z","name_a2s":"Uncletopia | Chicago | 4 | All Maps","protocol":17,"map":"pl_frontier_final","folder":"tf","game":"Team Fortress","app_id":440,"player_count":0,"max_players":24,"Bots":0,"server_type":"Dedicated","server_os":"Linux","password":true,"vac":true,"version":"7708610","steam_id":85568392924515193,"keywords":["nocrits","nodmgspread","payload","uncletopia"],"game_id":440,"stv_port":27046,"stv_name":"Uncletopia | Chicago | 4 | All Maps | STV","players":null},{"server_id":36,"name":"Uncletopia | Chicago | 5 | All Maps","name_short":"chi-5","host":"chi-2.us.uncletopia.com","port":27015,"enabled":true,"region":"us-central","cc":"us","latitude":41.881832,"longitude":-87.62318,"reserved":0,"last_update":"0001-01-01T00:00:00Z","name_a2s":"Uncletopia | Chicago | 5 | All Maps","protocol":17,"map":"koth_lakeside_final","folder":"tf","game":"Team Fortress","app_id":440,"player_count":0,"max_players":24,"Bots":0,"server_type":"Dedicated","server_os":"Linux","password":true,"vac":true,"version":"7708610","steam_id":85568392924866362,"keywords":["cp","nocrits","nodmgspread","uncletopia"],"game_id":440,"stv_port":27016,"stv_name":"Uncletopia | Chicago | 5 | All Maps | STV","players":null},{"server_id":37,"name":"Uncletopia | Chicago | 6 | All Maps","name_short":"chi-6","host":"chi-2.us.uncletopia.com","port":27025,"enabled":true,"region":"us-central","cc":"us","latitude":41.881832,"longitude":-87.62318,"reserved":0,"last_update":"0001-01-01T00:00:00Z","name_a2s":"Uncletopia | Chicago | 6 | All Maps","protocol":17,"map":"pl_barnblitz","folder":"tf","game":"Team Fortress","app_id":440,"player_count":0,"max_players":24,"Bots":0,"server_type":"Dedicated","server_os":"Linux","password":true,"vac":true,"version":"7708610","steam_id":85568392924866363,"keywords":["nocrits","nodmgspread","payload","uncletopia"],"game_id":440,"stv_port":27026,"stv_name":"Uncletopia | Chicago | 6 | All Maps | STV","players":null},{"server_id":38,"name":"Uncletopia | Chicago | 7 | No Payload","name_short":"chi-7","host":"chi-2.us.uncletopia.com","port":27035,"enabled":true,"region":"us-central","cc":"us","latitude":41.881832,"longitude":-87.62318,"reserved":0,"last_update":"0001-01-01T00:00:00Z","name_a2s":"Uncletopia | Chicago | 7 | No Payload","protocol":17,"map":"cp_dustbowl","folder":"tf","game":"Team Fortress","app_id":440,"player_count":0,"max_players":24,"Bots":0,"server_type":"Dedicated","server_os":"Linux","password":true,"vac":true,"version":"7708610","steam_id":85568392924866364,"keywords":["cp","nocrits","nodmgspread","uncletopia"],"game_id":440,"stv_port":27036,"stv_name":"Uncletopia | Chicago | 7 | No Payload | STV","players":null},{"server_id":39,"name":"Uncletopia | Chicago | 8 | Community","name_short":"chi-8","host":"chi-2.us.uncletopia.com","port":27045,"enabled":true,"region":"us-central","cc":"us","latitude":41.881832,"longitude":-87.62318,"reserved":0,"last_update":"0001-01-01T00:00:00Z","name_a2s":"Uncletopia | Chicago | 8 | Community","protocol":17,"map":"cp_dustbowl","folder":"tf","game":"Team Fortress","app_id":440,"player_count":0,"max_players":24,"Bots":0,"server_type":"Dedicated","server_os":"Linux","password":true,"vac":true,"version":"7708610","steam_id":85568392924866365,"keywords":["cp","nocrits","nodmgspread","uncletopia"],"game_id":440,"stv_port":27046,"stv_name":"Uncletopia | Chicago | 8 | Community | STV","players":null},{"server_id":8,"name":"Uncletopia | Dallas | 1 | All Maps","name_short":"dal-1","host":"dal-1.us.uncletopia.com","port":27015,"enabled":true,"region":"us-central","cc":"us","latitude":32.779167,"longitude":-96.80889,"reserved":0,"last_update":"0001-01-01T00:00:00Z","name_a2s":"Uncletopia | Dallas | 1 | All Maps","protocol":17,"map":"cp_mountainlab","folder":"tf","game":"Team Fortress","app_id":440,"player_count":0,"max_players":24,"Bots":0,"server_type":"Dedicated","server_os":"Linux","password":true,"vac":true,"version":"7708610","steam_id":85568392924469986,"keywords":["cp","nocrits","nodmgspread","uncletopia"],"game_id":440,"stv_port":27016,"stv_name":"Uncletopia | Dallas | 1 | All Maps | STV","players":null},{"server_id":108,"name":"Uncletopia | Dallas | 2 | All Maps","name_short":"dal-2","host":"dal-1.us.uncletopia.com","port":27025,"enabled":true,"region":"us-central","cc":"us","latitude":32.779167,"longitude":-96.80889,"reserved":0,"last_update":"0001-01-01T00:00:00Z","name_a2s":"Uncletopia | Dallas | 2 | All Maps","protocol":17,"map":"koth_highpass","folder":"tf","game":"Team Fortress","app_id":440,"player_count":0,"max_players":24,"Bots":0,"server_type":"Dedicated","server_os":"Linux","password":true,"vac":true,"version":"7708610","steam_id":85568392924469988,"keywords":["cp","nocrits","nodmgspread","uncletopia"],"game_id":440,"stv_port":27026,"stv_name":"Uncletopia | Dallas | 2 | All Maps | STV","players":null},{"server_id":5,"name":"Uncletopia | Frankfurt | 1 | All Maps","name_short":"frk-1","host":"frk-1.de.uncletopia.com","port":27015,"enabled":true,"region":"eu","cc":"de","latitude":50.110924,"longitude":8.682127,"reserved":0,"last_update":"0001-01-01T00:00:00Z","name_a2s":"Uncletopia | Frankfurt | 1 | All Maps","protocol":17,"map":"cp_steel","folder":"tf","game":"Team Fortress","app_id":440,"player_count":24,"max_players":24,"Bots":0,"server_type":"Dedicated","server_os":"Linux","password":true,"vac":true,"version":"7708610","steam_id":85568392924469989,"keywords":["cp","nocrits","nodmgspread","uncletopia"],"game_id":440,"stv_port":27016,"stv_name":"Uncletopia | Frankfurt | 1 | All Maps | STV","players":[{"user_id":229,"name":"Mr.Kevin120","steam_id":76561199186919096,"connected_time":904000000000,"state":"active","ping":159},{"user_id":242,"name":"BEAST MODE 24/7","steam_id":76561198089227864,"connected_time":608000000000,"state":"active","ping":55},{"user_id":230,"name":"Kindrick","steam_id":76561199014184981,"connected_time":816000000000,"state":"active","ping":167},{"user_id":231,"name":"HYA HYA FOOWAAH!","steam_id":76561198193357946,"connected_time":816000000000,"state":"active","ping":117},{"user_id":186,"name":"Yui","steam_id":76561198137106459,"connected_time":4824000000000,"state":"active","ping":62},{"user_id":193,"name":"dongus","steam_id":76561198042774930,"connected_time":4424000000000,"state":"active","ping":77},{"user_id":199,"name":"walluu","steam_id":76561198121830870,"connected_time":3924000000000,"state":"active","ping":71},{"user_id":232,"name":"Yona_Man_Jones","steam_id":76561198986032201,"connected_time":811000000000,"state":"active","ping":99},{"user_id":233,"name":"Hedj","steam_id":76561198108369687,"connected_time":786000000000,"state":"active","ping":47},{"user_id":234,"name":"maxim_tricebs","steam_id":76561198408438222,"connected_time":761000000000,"state":"active","ping":75},{"user_id":245,"name":"tarzan","steam_id":76561198050715408,"connected_time":188000000000,"state":"active","ping":82},{"user_id":198,"name":"fаt cսոt","steam_id":76561198845550388,"connected_time":3927000000000,"state":"active","ping":143},{"user_id":246,"name":"MrMedic","steam_id":76561199239610052,"connected_time":87000000000,"state":"active","ping":80},{"user_id":236,"name":"FackaYou","steam_id":76561198193036090,"connected_time":732000000000,"state":"active","ping":77},{"user_id":241,"name":"Rambi","steam_id":76561199058078505,"connected_time":642000000000,"state":"active","ping":161},{"user_id":202,"name":"ramedlaV^^","steam_id":76561198074352339,"connected_time":3620000000000,"state":"active","ping":61},{"user_id":238,"name":"Jag är ett anka","steam_id":76561198059978438,"connected_time":724000000000,"state":"active","ping":49},{"user_id":214,"name":"40svartapungar","steam_id":76561199264277168,"connected_time":3104000000000,"state":"active","ping":66},{"user_id":216,"name":"Chris \"banana\" Redfield","steam_id":76561198429658370,"connected_time":3095000000000,"state":"active","ping":115},{"user_id":223,"name":"Stop The Violence","steam_id":76561198044876779,"connected_time":2007000000000,"state":"active","ping":72},{"user_id":226,"name":"Cippo95","steam_id":76561198255311582,"connected_time":1926000000000,"state":"active","ping":85},{"user_id":239,"name":"Edgy Name","steam_id":76561198378270820,"connected_time":690000000000,"state":"active","ping":62},{"user_id":196,"name":"NostalgiaGuy","steam_id":76561199006557984,"connected_time":4370000000000,"state":"active","ping":113},{"user_id":240,"name":"pizza pasta (the boxer)","steam_id":76561198106455841,"connected_time":684000000000,"state":"active","ping":78}]},{"server_id":110,"name":"Uncletopia | Frankfurt | 2 | All Maps","name_short":"frk-2","host":"frk-1.de.uncletopia.com","port":27025,"enabled":true,"region":"eu","cc":"de","latitude":50.110924,"longitude":8.682127,"reserved":0,"last_update":"0001-01-01T00:00:00Z","name_a2s":"Uncletopia | Frankfurt | 2 | All Maps","protocol":17,"map":"pl_upward","folder":"tf","game":"Team Fortress","app_id":440,"player_count":24,"max_players":24,"Bots":0,"server_type":"Dedicated","server_os":"Linux","password":true,"vac":true,"version":"7708610","steam_id":85568392924469990,"keywords":["nocrits","nodmgspread","payload","uncletopia"],"game_id":440,"stv_port":27026,"stv_name":"Uncletopia | Frankfurt | 2 | All Maps | STV","players":[{"user_id":132,"name":"Him","steam_id":76561198086400484,"connected_time":4970000000000,"state":"active","ping":67},{"user_id":169,"name":"axl","steam_id":76561198991661832,"connected_time":2842000000000,"state":"active","ping":65},{"user_id":134,"name":"Rockwell Retro Encabulator","steam_id":76561198420349969,"connected_time":4941000000000,"state":"active","ping":86},{"user_id":197,"name":"kipod616 | trade.tf","steam_id":76561198431183777,"connected_time":1052000000000,"state":"active","ping":105},{"user_id":128,"name":"Bounter","steam_id":76561198072614188,"connected_time":5325000000000,"state":"active","ping":68},{"user_id":189,"name":"Nugeet","steam_id":76561198350037064,"connected_time":1307000000000,"state":"active","ping":62},{"user_id":125,"name":"ciliorkun18","steam_id":76561198228942500,"connected_time":5417000000000,"state":"active","ping":178},{"user_id":184,"name":"Poor Fucking Infantry","steam_id":76561198055978522,"connected_time":1919000000000,"state":"active","ping":68},{"user_id":144,"name":"Dominus.","steam_id":76561199065917088,"connected_time":4328000000000,"state":"active","ping":64},{"user_id":198,"name":"++","steam_id":76561198851072185,"connected_time":1036000000000,"state":"active","ping":67},{"user_id":187,"name":"MagicTITIKAKA","steam_id":76561198129509548,"connected_time":1466000000000,"state":"active","ping":105},{"user_id":202,"name":"Sorky","steam_id":76561198007502339,"connected_time":217000000000,"state":"active","ping":64},{"user_id":180,"name":"Deacon Dracul","steam_id":76561198046880663,"connected_time":2279000000000,"state":"active","ping":115},{"user_id":201,"name":"Titar Industries","steam_id":76561198143078476,"connected_time":571000000000,"state":"active","ping":138},{"user_id":145,"name":"Mor'du","steam_id":76561198274105878,"connected_time":4241000000000,"state":"active","ping":72},{"user_id":188,"name":"linkinparkfan123","steam_id":76561199033782005,"connected_time":1318000000000,"state":"active","ping":89},{"user_id":175,"name":"ɘƚɒ⅃ɘƚɒ⅃ /./ =)(= \\.\\","steam_id":76561198053339372,"connected_time":2610000000000,"state":"active","ping":56},{"user_id":203,"name":"Beb","steam_id":76561198106119248,"connected_time":192000000000,"state":"active","ping":67},{"user_id":122,"name":"Chris","steam_id":76561199443600515,"connected_time":5555000000000,"state":"active","ping":69},{"user_id":164,"name":"Sophie","steam_id":76561198267463398,"connected_time":2981000000000,"state":"active","ping":57},{"user_id":193,"name":"Scotty","steam_id":76561197991276547,"connected_time":1202000000000,"state":"active","ping":55},{"user_id":96,"name":"Monet","steam_id":76561198087656854,"connected_time":7001000000000,"state":"active","ping":76},{"user_id":204,"name":"giclure :;","steam_id":76561197986362828,"connected_time":91000000000,"state":"active","ping":44},{"user_id":200,"name":"Ziltoid","steam_id":76561198020753675,"connected_time":608000000000,"state":"active","ping":72}]},{"server_id":308,"name":"Uncletopia | Frankfurt | 3 | All Maps","name_short":"frk-3","host":"frk-1.de.uncletopia.com","port":27035,"enabled":true,"region":"eu","cc":"de","latitude":50.110924,"longitude":8.682127,"reserved":0,"last_update":"0001-01-01T00:00:00Z","name_a2s":"Uncletopia | Frankfurt | 3 | All Maps","protocol":17,"map":"pl_upward","folder":"tf","game":"Team Fortress","app_id":440,"player_count":24,"max_players":24,"Bots":0,"server_type":"Dedicated","server_os":"Linux","password":true,"vac":true,"version":"7708610","steam_id":85568392924504274,"keywords":["nocrits","nodmgspread","payload","uncletopia"],"game_id":440,"stv_port":27036,"stv_name":"Uncletopia | Frankfurt | 3 | All Maps | STV","players":[{"user_id":5,"name":"Refined Pyro","steam_id":76561198998785919,"connected_time":7615000000000,"state":"active","ping":56},{"user_id":112,"name":"durin","steam_id":76561199024778160,"connected_time":568000000000,"state":"active","ping":97},{"user_id":100,"name":".::[SerafeTTiN]::.","steam_id":76561198009471724,"connected_time":1981000000000,"state":"active","ping":89},{"user_id":78,"name":"Perci","steam_id":76561198097789669,"connected_time":3068000000000,"state":"active","ping":58},{"user_id":120,"name":"ECCO2K","steam_id":76561198214848887,"connected_time":258000000000,"state":"active","ping":60},{"user_id":31,"name":"Olaznot","steam_id":76561199111472610,"connected_time":5568000000000,"state":"active","ping":79},{"user_id":111,"name":"Lukero","steam_id":76561198301594341,"connected_time":578000000000,"state":"active","ping":59},{"user_id":101,"name":"Hydro","steam_id":76561199081791855,"connected_time":1907000000000,"state":"active","ping":66},{"user_id":104,"name":"neal","steam_id":76561198400511652,"connected_time":1685000000000,"state":"active","ping":89},{"user_id":113,"name":"JIJI","steam_id":76561198137597283,"connected_time":545000000000,"state":"active","ping":99},{"user_id":99,"name":"Dolcelatte","steam_id":76561198038501770,"connected_time":2001000000000,"state":"active","ping":49},{"user_id":114,"name":"JohkupohkuXD","steam_id":76561198391108762,"connected_time":504000000000,"state":"active","ping":77},{"user_id":122,"name":"Leibeigener","steam_id":76561199275478305,"connected_time":121000000000,"state":"active","ping":44},{"user_id":77,"name":"bigwish | bmod.tf","steam_id":76561197997859723,"connected_time":3162000000000,"state":"active","ping":70},{"user_id":121,"name":"jan-anne-wiebe","steam_id":76561199077022985,"connected_time":160000000000,"state":"active","ping":57},{"user_id":116,"name":"Zodiac","steam_id":76561198800899943,"connected_time":451000000000,"state":"active","ping":102},{"user_id":46,"name":"shinji","steam_id":76561198099696876,"connected_time":4806000000000,"state":"active","ping":60},{"user_id":102,"name":"drew","steam_id":76561198012304706,"connected_time":1735000000000,"state":"active","ping":89},{"user_id":117,"name":"jhwqb","steam_id":76561199397906541,"connected_time":445000000000,"state":"active","ping":48},{"user_id":69,"name":"Windows Vista Cruiser","steam_id":76561198064102233,"connected_time":3687000000000,"state":"active","ping":81},{"user_id":118,"name":"Reform","steam_id":76561198410662428,"connected_time":421000000000,"state":"active","ping":66},{"user_id":119,"name":"ApplePieAlive","steam_id":76561198396695859,"connected_time":411000000000,"state":"active","ping":63},{"user_id":123,"name":"Sgt. Kirk Lazarus","steam_id":76561198148723315,"connected_time":0,"state":"spawning","ping":26},{"user_id":107,"name":"Crome_BOX","steam_id":76561198189948415,"connected_time":1355000000000,"state":"active","ping":71}]},{"server_id":309,"name":"Uncletopia | Frankfurt | 4 | All Maps","name_short":"frk-4","host":"frk-1.de.uncletopia.com","port":27045,"enabled":true,"region":"eu","cc":"de","latitude":50.110924,"longitude":8.682127,"reserved":0,"last_update":"0001-01-01T00:00:00Z","name_a2s":"Uncletopia | Frankfurt | 4 | All Maps","protocol":17,"map":"koth_cascade","folder":"tf","game":"Team Fortress","app_id":440,"player_count":8,"max_players":24,"Bots":0,"server_type":"Dedicated","server_os":"Linux","password":true,"vac":true,"version":"7708610","steam_id":85568392924504275,"keywords":["cp","nocrits","nodmgspread","uncletopia"],"game_id":440,"stv_port":27046,"stv_name":"Uncletopia | Frankfurt | 4 | All Maps | STV","players":[{"user_id":6,"name":"hulluheppu1","steam_id":76561198093458326,"connected_time":1568000000000,"state":"active","ping":58},{"user_id":7,"name":"heavy sings (real)","steam_id":76561199023804405,"connected_time":1515000000000,"state":"active","ping":71},{"user_id":8,"name":"Laax","steam_id":76561198938409558,"connected_time":1432000000000,"state":"active","ping":59},{"user_id":9,"name":"✦ Thegada ✦","steam_id":76561199070450306,"connected_time":1073000000000,"state":"active","ping":45},{"user_id":13,"name":"Ankle pain","steam_id":76561199105755048,"connected_time":631000000000,"state":"active","ping":52},{"user_id":16,"name":"Markein","steam_id":76561198360754280,"connected_time":33000000000,"state":"spawning","ping":57},{"user_id":12,"name":"AforeKingDwarf","steam_id":76561198043562926,"connected_time":968000000000,"state":"active","ping":55},{"user_id":15,"name":"player","steam_id":76561198054474684,"connected_time":207000000000,"state":"active","ping":75}]},{"server_id":310,"name":"Uncletopia | Frankfurt | 5 | All Maps","name_short":"frk-5","host":"frk-1.de.uncletopia.com","port":27055,"enabled":true,"region":"eu","cc":"de","latitude":50.110924,"longitude":8.682127,"reserved":0,"last_update":"0001-01-01T00:00:00Z","name_a2s":"Uncletopia | Frankfurt | 5 | All Maps","protocol":17,"map":"koth_viaduct","folder":"tf","game":"Team Fortress","app_id":440,"player_count":0,"max_players":24,"Bots":0,"server_type":"Dedicated","server_os":"Linux","password":true,"vac":true,"version":"7708610","steam_id":85568392924504277,"keywords":["cp","nocrits","nodmgspread","uncletopia"],"game_id":440,"stv_port":27056,"stv_name":"Uncletopia | Frankfurt | 5 | All Maps | STV","players":null},{"server_id":311,"name":"Uncletopia | Frankfurt | 6 | All Maps","name_short":"frk-6","host":"frk-1.de.uncletopia.com","port":27065,"enabled":true,"region":"eu","cc":"de","latitude":50.110924,"longitude":8.682127,"reserved":0,"last_update":"0001-01-01T00:00:00Z","name_a2s":"Uncletopia | Frankfurt | 6 | All Maps","protocol":17,"map":"pl_barnblitz","folder":"tf","game":"Team Fortress","app_id":440,"player_count":1,"max_players":24,"Bots":0,"server_type":"Dedicated","server_os":"Linux","password":true,"vac":true,"version":"7708610","steam_id":85568392924504278,"keywords":["nocrits","nodmgspread","payload","uncletopia"],"game_id":440,"stv_port":27066,"stv_name":"Uncletopia | Frankfurt | 6 | All Maps | STV","players":[{"user_id":4,"name":"Asme","steam_id":76561198118933426,"connected_time":16000000000,"state":"spawning","ping":120}]},{"server_id":23,"name":"Uncletopia | Frankfurt | 7 | No Payload","name_short":"frk-7","host":"frk-1.de.uncletopia.com","port":27075,"enabled":true,"region":"eu","cc":"de","latitude":50.110924,"longitude":8.682127,"reserved":0,"last_update":"0001-01-01T00:00:00Z","name_a2s":"Uncletopia | Frankfurt | 7 | No Payload","protocol":17,"map":"koth_viaduct","folder":"tf","game":"Team Fortress","app_id":440,"player_count":0,"max_players":24,"Bots":0,"server_type":"Dedicated","server_os":"Linux","password":true,"vac":true,"version":"7708610","steam_id":85568392924742827,"keywords":["cp","nocrits","nodmgspread","uncletopia"],"game_id":440,"stv_port":27076,"stv_name":"Uncletopia | Frankfurt | 7 | No Payload | STV","players":null},{"server_id":24,"name":"Uncletopia | Frankfurt | 8 | Community","name_short":"frk-8","host":"frk-1.de.uncletopia.com","port":27085,"enabled":true,"region":"eu","cc":"de","latitude":50.110924,"longitude":8.682127,"reserved":0,"last_update":"0001-01-01T00:00:00Z","name_a2s":"Uncletopia | Frankfurt | 8 | Community","protocol":17,"map":"pl_borneo","folder":"tf","game":"Team Fortress","app_id":440,"player_count":0,"max_players":24,"Bots":0,"server_type":"Dedicated","server_os":"Linux","password":true,"vac":true,"version":"7708610","steam_id":85568392924742828,"keywords":["nocrits","nodmgspread","payload","uncletopia"],"game_id":440,"stv_port":27086,"stv_name":"Uncletopia | Frankfurt | 8 | Community | STV","players":null},{"server_id":202,"name":"Uncletopia | Hong Kong | 1 | All Maps","name_short":"hgk-1","host":"hgk-1.hk.uncletopia.com","port":27015,"enabled":true,"region":"asia","cc":"hk","latitude":22.302711,"longitude":114.177216,"reserved":0,"last_update":"0001-01-01T00:00:00Z","name_a2s":"Uncletopia | Hong Kong | 1 | All Maps","protocol":17,"map":"pl_thundermountain","folder":"tf","game":"Team Fortress","app_id":440,"player_count":24,"max_players":24,"Bots":0,"server_type":"Dedicated","server_os":"Linux","password":true,"vac":true,"version":"7708610","steam_id":85568392924494504,"keywords":["nocrits","nodmgspread","payload","uncletopia"],"game_id":440,"stv_port":27016,"stv_name":"Uncletopia | Hong Kong | 1 | All Maps | STV","players":[{"user_id":415,"name":"雪ノ下雪乃のoppai","steam_id":76561198008307645,"connected_time":3364000000000,"state":"active","ping":65},{"user_id":435,"name":"cellum95","steam_id":76561198172146871,"connected_time":2137000000000,"state":"active","ping":66},{"user_id":446,"name":"Progressorbread24","steam_id":76561199070629046,"connected_time":1548000000000,"state":"active","ping":171},{"user_id":403,"name":"user140701237","steam_id":76561198412329672,"connected_time":4525000000000,"state":"active","ping":95},{"user_id":447,"name":"rpe","steam_id":76561198415334492,"connected_time":1479000000000,"state":"active","ping":100},{"user_id":432,"name":"Bake Potato Cat","steam_id":76561198220460804,"connected_time":2682000000000,"state":"active","ping":127},{"user_id":407,"name":"Milk❤","steam_id":76561198163911560,"connected_time":4296000000000,"state":"active","ping":123},{"user_id":441,"name":"it chrmis time","steam_id":76561198055553140,"connected_time":1937000000000,"state":"active","ping":98},{"user_id":430,"name":"GOD","steam_id":76561198846610729,"connected_time":2759000000000,"state":"active","ping":103},{"user_id":436,"name":"JayJ","steam_id":76561198324008555,"connected_time":2004000000000,"state":"active","ping":74},{"user_id":423,"name":"yhn","steam_id":76561198413116920,"connected_time":3157000000000,"state":"active","ping":85},{"user_id":412,"name":"P","steam_id":76561198304514505,"connected_time":3403000000000,"state":"active","ping":76},{"user_id":420,"name":"Noyour","steam_id":76561198323259830,"connected_time":3259000000000,"state":"active","ping":119},{"user_id":390,"name":"JohnnySimps12","steam_id":76561199244754236,"connected_time":5812000000000,"state":"active","ping":103},{"user_id":288,"name":"tiden2000","steam_id":76561198092969425,"connected_time":13754000000000,"state":"active","ping":71},{"user_id":408,"name":"nick","steam_id":76561198400698408,"connected_time":4182000000000,"state":"active","ping":94},{"user_id":452,"name":"Hallucates","steam_id":76561198872636453,"connected_time":616000000000,"state":"active","ping":101},{"user_id":448,"name":"master xmas eater","steam_id":76561198069402937,"connected_time":1305000000000,"state":"active","ping":94},{"user_id":439,"name":"LordStagg91","steam_id":76561198088581565,"connected_time":1955000000000,"state":"active","ping":146},{"user_id":377,"name":"Pillboi","steam_id":76561198011172886,"connected_time":7156000000000,"state":"active","ping":46},{"user_id":273,"name":"ogey","steam_id":76561198074339034,"connected_time":14847000000000,"state":"active","ping":86},{"user_id":449,"name":"Momoxhien","steam_id":76561198414997429,"connected_time":956000000000,"state":"active","ping":68},{"user_id":444,"name":"Buttman","steam_id":76561198044693388,"connected_time":1718000000000,"state":"active","ping":47}]},{"server_id":1,"name":"Uncletopia | Los Angeles | 1 | All Maps","name_short":"lax-1","host":"lax-1.us.uncletopia.com","port":27015,"enabled":true,"region":"us-west","cc":"us","latitude":33.94279,"longitude":-118.41004,"reserved":0,"last_update":"0001-01-01T00:00:00Z","name_a2s":"Uncletopia | Los Angeles | 1 | All Maps","protocol":17,"map":"pl_borneo","folder":"tf","game":"Team Fortress","app_id":440,"player_count":0,"max_players":24,"Bots":0,"server_type":"Dedicated","server_os":"Linux","password":true,"vac":true,"version":"7708610","steam_id":85568392924469991,"keywords":["nocrits","nodmgspread","payload","uncletopia"],"game_id":440,"stv_port":27016,"stv_name":"Uncletopia | Los Angeles | 1 | All Maps | STV","players":null},{"server_id":112,"name":"Uncletopia | Los Angeles | 2 | All Maps","name_short":"lax-2","host":"lax-1.us.uncletopia.com","port":27025,"enabled":true,"region":"us-west","cc":"us","latitude":33.94279,"longitude":-118.41004,"reserved":0,"last_update":"0001-01-01T00:00:00Z","name_a2s":"Uncletopia | Los Angeles | 2 | All Maps","protocol":17,"map":"koth_viaduct","folder":"tf","game":"Team Fortress","app_id":440,"player_count":0,"max_players":24,"Bots":0,"server_type":"Dedicated","server_os":"Linux","password":true,"vac":true,"version":"7708610","steam_id":85568392924469992,"keywords":["cp","nocrits","nodmgspread","uncletopia"],"game_id":440,"stv_port":27026,"stv_name":"Uncletopia | Los Angeles | 2 | All Maps | STV","players":null},{"server_id":324,"name":"Uncletopia | Los Angeles | 3 | All Maps","name_short":"lax-3","host":"lax-1.us.uncletopia.com","port":27035,"enabled":true,"region":"us-west","cc":"us","latitude":33.94279,"longitude":-118.41004,"reserved":0,"last_update":"0001-01-01T00:00:00Z","name_a2s":"Uncletopia | Los Angeles | 3 | All Maps","protocol":17,"map":"pl_swiftwater_final1","folder":"tf","game":"Team Fortress","app_id":440,"player_count":24,"max_players":24,"Bots":0,"server_type":"Dedicated","server_os":"Linux","password":true,"vac":true,"version":"7708610","steam_id":85568392924510198,"keywords":["nocrits","nodmgspread","payload","uncletopia"],"game_id":440,"stv_port":27036,"stv_name":"Uncletopia | Los Angeles | 3 | All Maps | STV","players":[{"user_id":615,"name":"Kaui","steam_id":76561198052249003,"connected_time":3838000000000,"state":"active","ping":58},{"user_id":640,"name":"Vanilla","steam_id":76561198242358820,"connected_time":1555000000000,"state":"active","ping":45},{"user_id":589,"name":"HUGE HOG","steam_id":76561198079923652,"connected_time":5787000000000,"state":"active","ping":87},{"user_id":555,"name":"catgirl giantess in heat","steam_id":76561198439042583,"connected_time":9433000000000,"state":"active","ping":92},{"user_id":556,"name":"super autism girl","steam_id":76561198008908085,"connected_time":9215000000000,"state":"active","ping":43},{"user_id":641,"name":"Xylemon","steam_id":76561197965297420,"connected_time":1441000000000,"state":"active","ping":73},{"user_id":578,"name":"Yoshi","steam_id":76561198073343437,"connected_time":7134000000000,"state":"active","ping":45},{"user_id":586,"name":"mommy HOG","steam_id":76561199230929836,"connected_time":6037000000000,"state":"active","ping":97},{"user_id":653,"name":"Spike Berd","steam_id":76561198004199556,"connected_time":769000000000,"state":"active","ping":122},{"user_id":659,"name":"Flores","steam_id":76561198106938500,"connected_time":35000000000,"state":"active","ping":47},{"user_id":656,"name":"wool ♠","steam_id":76561198332704108,"connected_time":300000000000,"state":"active","ping":105},{"user_id":649,"name":"Ian","steam_id":76561198159334435,"connected_time":1050000000000,"state":"active","ping":179},{"user_id":650,"name":"owlbortch","steam_id":76561198042849350,"connected_time":1030000000000,"state":"active","ping":108},{"user_id":564,"name":"chicken grease","steam_id":76561198075758026,"connected_time":8473000000000,"state":"active","ping":121},{"user_id":652,"name":"Sully","steam_id":76561198310784589,"connected_time":952000000000,"state":"active","ping":113},{"user_id":646,"name":"Jauri","steam_id":76561197994448995,"connected_time":1100000000000,"state":"active","ping":94},{"user_id":657,"name":"breathing meat donut","steam_id":76561198123566649,"connected_time":233000000000,"state":"active","ping":87},{"user_id":612,"name":"Puny Punny","steam_id":76561198060143203,"connected_time":4029000000000,"state":"active","ping":58},{"user_id":626,"name":"ansoonii","steam_id":76561198092494136,"connected_time":3071000000000,"state":"active","ping":89},{"user_id":647,"name":"wizorb","steam_id":76561198002172674,"connected_time":1097000000000,"state":"active","ping":83},{"user_id":637,"name":"Deanthelis","steam_id":76561198036282242,"connected_time":2161000000000,"state":"active","ping":82},{"user_id":629,"name":"fredpimpstone","steam_id":76561198201872929,"connected_time":3043000000000,"state":"active","ping":99},{"user_id":658,"name":"♠ღ「Loafy」ღ♠","steam_id":76561198294770715,"connected_time":216000000000,"state":"active","ping":116},{"user_id":655,"name":"Tyler\u0026Fingers","steam_id":76561198085154485,"connected_time":672000000000,"state":"active","ping":106}]},{"server_id":25,"name":"Uncletopia | Los Angeles | 4 | No Payload","name_short":"lax-4","host":"lax-1.us.uncletopia.com","port":27045,"enabled":true,"region":"us-west","cc":"us","latitude":33.94279,"longitude":-118.41004,"reserved":0,"last_update":"0001-01-01T00:00:00Z","name_a2s":"Uncletopia | Los Angeles | 4 | No Payload","protocol":17,"map":"plr_bananabay","folder":"tf","game":"Team Fortress","app_id":440,"player_count":0,"max_players":24,"Bots":0,"server_type":"Dedicated","server_os":"Linux","password":true,"vac":true,"version":"7708610","steam_id":85568392924510199,"keywords":["nocrits","nodmgspread","payload","uncletopia"],"game_id":440,"stv_port":27046,"stv_name":"Uncletopia | Los Angeles | 4 | No Payload | STV","players":null},{"server_id":11,"name":"Uncletopia | London | 1 | All Maps","name_short":"lon-1","host":"lon-1.uk.uncletopia.com","port":27015,"enabled":true,"region":"eu","cc":"gb","latitude":51.509865,"longitude":-0.118092,"reserved":0,"last_update":"0001-01-01T00:00:00Z","name_a2s":"Uncletopia | London | 1 | All Maps","protocol":17,"map":"pl_snowycoast","folder":"tf","game":"Team Fortress","app_id":440,"player_count":24,"max_players":24,"Bots":0,"server_type":"Dedicated","server_os":"Linux","password":true,"vac":true,"version":"7708610","steam_id":85568392924367362,"keywords":["nocrits","nodmgspread","payload","uncletopia"],"game_id":440,"stv_port":27016,"stv_name":"Uncletopia | London | 1 | All Maps | STV","players":[{"user_id":75,"name":"Rasmusson [29th ID]","steam_id":76561198191451713,"connected_time":48000000000,"state":"active","ping":83},{"user_id":29,"name":"Venus⚢","steam_id":76561198018602969,"connected_time":2444000000000,"state":"active","ping":53},{"user_id":40,"name":"Piteras","steam_id":76561198858532207,"connected_time":1815000000000,"state":"active","ping":81},{"user_id":55,"name":"eidis","steam_id":76561198314954479,"connected_time":1534000000000,"state":"active","ping":107},{"user_id":28,"name":"TK","steam_id":76561199384193338,"connected_time":2744000000000,"state":"active","ping":60},{"user_id":30,"name":"Quaker Yotes","steam_id":76561198083068263,"connected_time":2440000000000,"state":"active","ping":66},{"user_id":31,"name":"Millero15","steam_id":76561198143105719,"connected_time":2338000000000,"state":"active","ping":81},{"user_id":32,"name":"RetKiKimppa","steam_id":76561198109865665,"connected_time":2285000000000,"state":"active","ping":75},{"user_id":62,"name":"Sir William Gaming","steam_id":76561198037676472,"connected_time":1112000000000,"state":"active","ping":66},{"user_id":60,"name":"Kahvi","steam_id":76561198723244199,"connected_time":1205000000000,"state":"active","ping":75},{"user_id":37,"name":"Rare Demoman Plant ✪","steam_id":76561198157824042,"connected_time":1961000000000,"state":"active","ping":40},{"user_id":69,"name":"Fred","steam_id":76561198107137362,"connected_time":278000000000,"state":"active","ping":47},{"user_id":38,"name":"JGV","steam_id":76561198094654971,"connected_time":1957000000000,"state":"active","ping":70},{"user_id":49,"name":"true blue","steam_id":76561198216200092,"connected_time":1701000000000,"state":"active","ping":50},{"user_id":70,"name":"Pardalokatsikon","steam_id":76561198218697887,"connected_time":230000000000,"state":"active","ping":100},{"user_id":73,"name":"Tywhip","steam_id":76561199207545191,"connected_time":54000000000,"state":"active","ping":54},{"user_id":43,"name":"breakfast :) brexit :(","steam_id":76561198846784757,"connected_time":1784000000000,"state":"active","ping":49},{"user_id":65,"name":"icecxld","steam_id":76561198079018805,"connected_time":916000000000,"state":"active","ping":148},{"user_id":67,"name":"Zetself","steam_id":76561198085251568,"connected_time":671000000000,"state":"active","ping":49},{"user_id":71,"name":"Kralian","steam_id":76561198826960955,"connected_time":89000000000,"state":"active","ping":74},{"user_id":64,"name":"most sane Midnight barber","steam_id":76561198310095220,"connected_time":996000000000,"state":"active","ping":30},{"user_id":51,"name":"Deranged Rat","steam_id":76561198028759242,"connected_time":1668000000000,"state":"active","ping":44},{"user_id":52,"name":"tf2 enjoyer","steam_id":76561199043416615,"connected_time":1634000000000,"state":"active","ping":72},{"user_id":74,"name":"Bread 0f Box","steam_id":76561198165594721,"connected_time":52000000000,"state":"active","ping":53}]},{"server_id":114,"name":"Uncletopia | London | 2 | All Maps","name_short":"lon-2","host":"lon-1.uk.uncletopia.com","port":27025,"enabled":true,"region":"eu","cc":"gb","latitude":51.509865,"longitude":-0.118092,"reserved":0,"last_update":"0001-01-01T00:00:00Z","name_a2s":"Uncletopia | London | 2 | All Maps","protocol":17,"map":"koth_cascade","folder":"tf","game":"Team Fortress","app_id":440,"player_count":0,"max_players":24,"Bots":0,"server_type":"Dedicated","server_os":"Linux","password":true,"vac":true,"version":"7708610","steam_id":85568392924470941,"keywords":["cp","nocrits","nodmgspread","uncletopia"],"game_id":440,"stv_port":27026,"stv_name":"Uncletopia | London | 2 | All Maps | STV","players":null},{"server_id":320,"name":"Uncletopia | London | 3 | All Maps","name_short":"lon-3","host":"lon-1.uk.uncletopia.com","port":27035,"enabled":true,"region":"eu","cc":"gb","latitude":51.509865,"longitude":-0.118092,"reserved":0,"last_update":"0001-01-01T00:00:00Z","name_a2s":"Uncletopia | London | 3 | All Maps","protocol":17,"map":"koth_cascade","folder":"tf","game":"Team Fortress","app_id":440,"player_count":0,"max_players":24,"Bots":0,"server_type":"Dedicated","server_os":"Linux","password":true,"vac":true,"version":"7708610","steam_id":85568392924510192,"keywords":["cp","nocrits","nodmgspread","uncletopia"],"game_id":440,"stv_port":27036,"stv_name":"Uncletopia | London | 3 | All Maps | STV","players":null},{"server_id":321,"name":"Uncletopia | London | 4 | All Maps","name_short":"lon-4","host":"lon-1.uk.uncletopia.com","port":27045,"enabled":true,"region":"eu","cc":"gb","latitude":51.509865,"longitude":-0.118092,"reserved":0,"last_update":"0001-01-01T00:00:00Z","name_a2s":"Uncletopia | London | 4 | All Maps","protocol":17,"map":"koth_cascade","folder":"tf","game":"Team Fortress","app_id":440,"player_count":0,"max_players":24,"Bots":0,"server_type":"Dedicated","server_os":"Linux","password":true,"vac":true,"version":"7708610","steam_id":85568392924510193,"keywords":["cp","nocrits","nodmgspread","uncletopia"],"game_id":440,"stv_port":27046,"stv_name":"Uncletopia | London | 4 | All Maps | STV","players":null},{"server_id":21,"name":"Uncletopia | London | 5 | All Maps","name_short":"lon-5","host":"lon-1.uk.uncletopia.com","port":27055,"enabled":true,"region":"eu","cc":"gb","latitude":51.509865,"longitude":-0.118092,"reserved":0,"last_update":"0001-01-01T00:00:00Z","name_a2s":"Uncletopia | London | 5 | All Maps","protocol":17,"map":"pl_badwater","folder":"tf","game":"Team Fortress","app_id":440,"player_count":0,"max_players":24,"Bots":0,"server_type":"Dedicated","server_os":"Linux","password":true,"vac":true,"version":"7708610","steam_id":85568392924742829,"keywords":["nocrits","nodmgspread","payload","uncletopia"],"game_id":440,"stv_port":27056,"stv_name":"Uncletopia | London | 5 | All Maps | STV","players":null},{"server_id":22,"name":"Uncletopia | London | 6 | All Maps","name_short":"lon-6","host":"lon-1.uk.uncletopia.com","port":27065,"enabled":true,"region":"eu","cc":"gb","latitude":51.509865,"longitude":-0.118092,"reserved":0,"last_update":"0001-01-01T00:00:00Z","name_a2s":"Uncletopia | London | 6 | All Maps","protocol":17,"map":"cp_mountainlab","folder":"tf","game":"Team Fortress","app_id":440,"player_count":0,"max_players":24,"Bots":0,"server_type":"Dedicated","server_os":"Linux","password":true,"vac":true,"version":"7708610","steam_id":85568392924742830,"keywords":["cp","nocrits","nodmgspread","uncletopia"],"game_id":440,"stv_port":27066,"stv_name":"Uncletopia | London | 6 | All Maps | STV","players":null},{"server_id":40,"name":"Uncletopia | London | 7 | No Payload","name_short":"lon-7","host":"lon-1.uk.uncletopia.com","port":27075,"enabled":true,"region":"eu","cc":"gb","latitude":51.509865,"longitude":-0.118092,"reserved":0,"last_update":"0001-01-01T00:00:00Z","name_a2s":"Uncletopia | London | 7 | No Payload","protocol":17,"map":"pl_barnblitz","folder":"tf","game":"Team Fortress","app_id":440,"player_count":0,"max_players":24,"Bots":0,"server_type":"Dedicated","server_os":"Linux","password":true,"vac":true,"version":"7708610","steam_id":85568392924964314,"keywords":["nocrits","nodmgspread","payload","uncletopia"],"game_id":440,"stv_port":27076,"stv_name":"Uncletopia | London | 7 | No Payload | STV","players":null},{"server_id":41,"name":"Uncletopia | London | 8 | Community","name_short":"lon-8","host":"lon-1.uk.uncletopia.com","port":27085,"enabled":true,"region":"eu","cc":"gb","latitude":51.509865,"longitude":-0.118092,"reserved":0,"last_update":"0001-01-01T00:00:00Z","name_a2s":"Uncletopia | London | 8 | Community","protocol":17,"map":"pl_pier","folder":"tf","game":"Team Fortress","app_id":440,"player_count":0,"max_players":24,"Bots":0,"server_type":"Dedicated","server_os":"Linux","password":true,"vac":true,"version":"7708610","steam_id":85568392924964315,"keywords":["nocrits","nodmgspread","payload","uncletopia"],"game_id":440,"stv_port":27086,"stv_name":"Uncletopia | London | 8 | Community | STV","players":null},{"server_id":300,"name":"Uncletopia | Montréal | 1 | All Maps","name_short":"mtl-1","host":"mtl-1.ca.uncletopia.com","port":27015,"enabled":true,"region":"us-east","cc":"ca","latitude":45.50889,"longitude":-73.56167,"reserved":0,"last_update":"0001-01-01T00:00:00Z","name_a2s":"Uncletopia | Montréal | 1 | All Maps","protocol":17,"map":"pl_borneo","folder":"tf","game":"Team Fortress","app_id":440,"player_count":0,"max_players":24,"Bots":0,"server_type":"Dedicated","server_os":"Linux","password":true,"vac":true,"version":"7708610","steam_id":85568392924500087,"keywords":["nocrits","nodmgspread","payload","uncletopia"],"game_id":440,"stv_port":27016,"stv_name":"Uncletopia | Montréal | 1 | All Maps | STV","players":null},{"server_id":301,"name":"Uncletopia | Montréal | 2 | All Maps","name_short":"mtl-2","host":"mtl-1.ca.uncletopia.com","port":27025,"enabled":true,"region":"us-east","cc":"ca","latitude":45.50889,"longitude":-73.56167,"reserved":0,"last_update":"0001-01-01T00:00:00Z","name_a2s":"Uncletopia | Montréal | 2 | All Maps","protocol":17,"map":"pl_borneo","folder":"tf","game":"Team Fortress","app_id":440,"player_count":0,"max_players":24,"Bots":0,"server_type":"Dedicated","server_os":"Linux","password":true,"vac":true,"version":"7708610","steam_id":85568392924500088,"keywords":["nocrits","nodmgspread","payload","uncletopia"],"game_id":440,"stv_port":27026,"stv_name":"Uncletopia | Montréal | 2 | All Maps | STV","players":null},{"server_id":302,"name":"Uncletopia | Montréal | 3 | All Maps","name_short":"mtl-3","host":"mtl-1.ca.uncletopia.com","port":27035,"enabled":true,"region":"us-east","cc":"ca","latitude":45.50889,"longitude":-73.56167,"reserved":0,"last_update":"0001-01-01T00:00:00Z","name_a2s":"Uncletopia | Montréal | 3 | All Maps","protocol":17,"map":"cp_snakewater_final1","folder":"tf","game":"Team Fortress","app_id":440,"player_count":0,"max_players":24,"Bots":0,"server_type":"Dedicated","server_os":"Linux","password":true,"vac":true,"version":"7708610","steam_id":85568392924500089,"keywords":["cp","nocrits","nodmgspread","uncletopia"],"game_id":440,"stv_port":27036,"stv_name":"Uncletopia | Montréal | 3 | All Maps | STV","players":null},{"server_id":303,"name":"Uncletopia | Montréal | 4 | No Payload","name_short":"mtl-4","host":"mtl-1.ca.uncletopia.com","port":27045,"enabled":true,"region":"us-east","cc":"ca","latitude":45.50889,"longitude":-73.56167,"reserved":0,"last_update":"0001-01-01T00:00:00Z","name_a2s":"Uncletopia | Montréal | 4 | No Payload","protocol":17,"map":"cp_snakewater_final1","folder":"tf","game":"Team Fortress","app_id":440,"player_count":0,"max_players":24,"Bots":0,"server_type":"Dedicated","server_os":"Linux","password":true,"vac":true,"version":"7708610","steam_id":85568392924500090,"keywords":["cp","nocrits","nodmgspread","uncletopia"],"game_id":440,"stv_port":27046,"stv_name":"Uncletopia | Montréal | 4 | No Payload | STV","players":null},{"server_id":13,"name":"Uncletopia | New York City | 1 | All Maps","name_short":"nyc-1","host":"nyc-1.us.uncletopia.com","port":27015,"enabled":true,"region":"us-east","cc":"us","latitude":40.73061,"longitude":-73.93524,"reserved":0,"last_update":"0001-01-01T00:00:00Z","name_a2s":"Uncletopia | New York City | 1 | All Maps","protocol":17,"map":"pl_barnblitz","folder":"tf","game":"Team Fortress","app_id":440,"player_count":0,"max_players":24,"Bots":0,"server_type":"Dedicated","server_os":"Linux","password":true,"vac":true,"version":"7708610","steam_id":85568392924469993,"keywords":["nocrits","nodmgspread","payload","uncletopia"],"game_id":440,"stv_port":27016,"stv_name":"Uncletopia | New York City | 1 | All Maps | STV","players":null},{"server_id":14,"name":"Uncletopia | New York City | 2 | All Maps","name_short":"nyc-2","host":"nyc-1.us.uncletopia.com","port":27025,"enabled":true,"region":"us-east","cc":"us","latitude":40.73061,"longitude":-73.93524,"reserved":0,"last_update":"0001-01-01T00:00:00Z","name_a2s":"Uncletopia | New York City | 2 | All Maps","protocol":17,"map":"cp_altitude","folder":"tf","game":"Team Fortress","app_id":440,"player_count":0,"max_players":24,"Bots":0,"server_type":"Dedicated","server_os":"Linux","password":true,"vac":true,"version":"7708610","steam_id":85568392924469994,"keywords":["cp","nocrits","nodmgspread","uncletopia"],"game_id":440,"stv_port":27026,"stv_name":"Uncletopia | New York City | 2 | All Maps | STV","players":null},{"server_id":15,"name":"Uncletopia | New York City | 3 | All Maps","name_short":"nyc-3","host":"nyc-1.us.uncletopia.com","port":27035,"enabled":true,"region":"us-east","cc":"us","latitude":40.73061,"longitude":-73.93524,"reserved":0,"last_update":"0001-01-01T00:00:00Z","name_a2s":"Uncletopia | New York City | 3 | All Maps","protocol":17,"map":"cp_mountainlab","folder":"tf","game":"Team Fortress","app_id":440,"player_count":0,"max_players":24,"Bots":0,"server_type":"Dedicated","server_os":"Linux","password":true,"vac":true,"version":"7708610","steam_id":85568392924742820,"keywords":["cp","nocrits","nodmgspread","uncletopia"],"game_id":440,"stv_port":27036,"stv_name":"Uncletopia | New York City | 3 | All Maps | STV","players":null},{"server_id":16,"name":"Uncletopia | New York City | 4 | Community","name_short":"nyc-4","host":"nyc-1.us.uncletopia.com","port":27045,"enabled":true,"region":"us-east","cc":"us","latitude":40.73061,"longitude":-73.93524,"reserved":0,"last_update":"0001-01-01T00:00:00Z","name_a2s":"Uncletopia | New York City | 4 | Community","protocol":17,"map":"pl_barnblitz","folder":"tf","game":"Team Fortress","app_id":440,"player_count":0,"max_players":24,"Bots":0,"server_type":"Dedicated","server_os":"Linux","password":true,"vac":true,"version":"7708610","steam_id":85568392924742821,"keywords":["nocrits","nodmgspread","payload","uncletopia"],"game_id":440,"stv_port":27046,"stv_name":"Uncletopia | New York City | 4 | Community | STV","players":null},{"server_id":142,"name":"Uncletopia | São Paulo | 1 | All Maps","name_short":"sao-1","host":"sao-1.br.uncletopia.com","port":27015,"enabled":true,"region":"sa","cc":"br","latitude":-23.533773,"longitude":-46.62529,"reserved":0,"last_update":"0001-01-01T00:00:00Z","name_a2s":"Uncletopia | São Paulo | 1 | All Maps","protocol":17,"map":"pl_pier","folder":"tf","game":"Team Fortress","app_id":440,"player_count":0,"max_players":24,"Bots":0,"server_type":"Dedicated","server_os":"Linux","password":true,"vac":true,"version":"7708610","steam_id":85568392924469996,"keywords":["nocrits","nodmgspread","payload","uncletopia"],"game_id":440,"stv_port":27016,"stv_name":"Uncletopia | São Paulo | 1 | All Maps | STV","players":null},{"server_id":143,"name":"Uncletopia | São Paulo | 2 | All Maps","name_short":"sao-2","host":"sao-2.br.uncletopia.com","port":27015,"enabled":true,"region":"sa","cc":"br","latitude":-23.533773,"longitude":-46.62529,"reserved":0,"last_update":"0001-01-01T00:00:00Z","name_a2s":"Uncletopia | São Paulo | 2 | All Maps","protocol":17,"map":"koth_viaduct","folder":"tf","game":"Team Fortress","app_id":440,"player_count":0,"max_players":24,"Bots":0,"server_type":"Dedicated","server_os":"Linux","password":true,"vac":true,"version":"7708610","steam_id":85568392924485349,"keywords":["cp","nocrits","nodmgspread","uncletopia"],"game_id":440,"stv_port":27016,"stv_name":"Uncletopia | São Paulo | 2 | All Maps | STV","players":null},{"server_id":7,"name":"Uncletopia | Seattle | 1 | All Maps","name_short":"sea-1","host":"sea-1.us.uncletopia.com","port":27015,"enabled":true,"region":"us-west","cc":"us","latitude":47.608013,"longitude":-122.33517,"reserved":0,"last_update":"0001-01-01T00:00:00Z","name_a2s":"Uncletopia | Seattle | 1 | All Maps","protocol":17,"map":"pl_snowycoast","folder":"tf","game":"Team Fortress","app_id":440,"player_count":13,"max_players":24,"Bots":0,"server_type":"Dedicated","server_os":"Linux","password":true,"vac":true,"version":"7708610","steam_id":85568392924469997,"keywords":["nocrits","nodmgspread","payload","uncletopia"],"game_id":440,"stv_port":27016,"stv_name":"Uncletopia | Seattle | 1 | All Maps | STV","players":[{"user_id":493,"name":"Sir Galahad","steam_id":76561198195999859,"connected_time":7349000000000,"state":"active","ping":43},{"user_id":565,"name":"Tuffy","steam_id":76561198083778611,"connected_time":580000000000,"state":"active","ping":66},{"user_id":567,"name":"Ejej","steam_id":76561198986313007,"connected_time":182000000000,"state":"active","ping":134},{"user_id":570,"name":"WHA DA HELLLL NO WAAaaAYYY","steam_id":76561198232500756,"connected_time":140000000000,"state":"active","ping":108},{"user_id":547,"name":"Dura","steam_id":76561198334676366,"connected_time":2508000000000,"state":"active","ping":118},{"user_id":554,"name":"A Rhino with Coronavirus","steam_id":76561197999451366,"connected_time":1830000000000,"state":"active","ping":112},{"user_id":568,"name":"sisto majesto","steam_id":76561198073532776,"connected_time":178000000000,"state":"active","ping":266},{"user_id":557,"name":"HK | KitKat |","steam_id":76561198196793415,"connected_time":1593000000000,"state":"active","ping":75},{"user_id":532,"name":"{907}DarkestFury","steam_id":76561198103662458,"connected_time":3715000000000,"state":"active","ping":60},{"user_id":552,"name":"Safi","steam_id":76561198203272679,"connected_time":2096000000000,"state":"active","ping":78},{"user_id":543,"name":"mumbles","steam_id":76561197994528974,"connected_time":3128000000000,"state":"active","ping":78},{"user_id":540,"name":"Evil","steam_id":76561198070894577,"connected_time":3463000000000,"state":"active","ping":72},{"user_id":562,"name":"voot","steam_id":76561198041936377,"connected_time":1045000000000,"state":"active","ping":164}]},{"server_id":119,"name":"Uncletopia | Seattle | 2 | All Maps","name_short":"sea-2","host":"sea-1.us.uncletopia.com","port":27025,"enabled":true,"region":"us-west","cc":"us","latitude":47.608013,"longitude":-122.33517,"reserved":0,"last_update":"0001-01-01T00:00:00Z","name_a2s":"Uncletopia | Seattle | 2 | All Maps","protocol":17,"map":"koth_highpass","folder":"tf","game":"Team Fortress","app_id":440,"player_count":0,"max_players":24,"Bots":0,"server_type":"Dedicated","server_os":"Linux","password":true,"vac":true,"version":"7708610","steam_id":85568392924469998,"keywords":["cp","nocrits","nodmgspread","uncletopia"],"game_id":440,"stv_port":27026,"stv_name":"Uncletopia | Seattle | 2 | All Maps | STV","players":null},{"server_id":17,"name":"Uncletopia | San Francisco | 1 | All Maps","name_short":"sfo-1","host":"sfo-1.us.uncletopia.com","port":27015,"enabled":true,"region":"us-west","cc":"us","latitude":37.77397,"longitude":-122.4313,"reserved":0,"last_update":"0001-01-01T00:00:00Z","name_a2s":"Uncletopia | San Francisco | 1 | All Maps","protocol":17,"map":"koth_viaduct","folder":"tf","game":"Team Fortress","app_id":440,"player_count":0,"max_players":24,"Bots":0,"server_type":"Dedicated","server_os":"Linux","password":true,"vac":true,"version":"7708610","steam_id":85568392924469999,"keywords":["cp","nocrits","nodmgspread","uncletopia"],"game_id":440,"stv_port":27016,"stv_name":"Uncletopia | San Francisco | 1 | All Maps | STV","players":null},{"server_id":18,"name":"Uncletopia | San Francisco | 2 | All Maps","name_short":"sfo-2","host":"sfo-1.us.uncletopia.com","port":27025,"enabled":true,"region":"us-west","cc":"us","latitude":37.77397,"longitude":-122.4313,"reserved":0,"last_update":"0001-01-01T00:00:00Z","name_a2s":"Uncletopia | San Francisco | 2 | All Maps","protocol":17,"map":"koth_harvest_final","folder":"tf","game":"Team Fortress","app_id":440,"player_count":0,"max_players":24,"Bots":0,"server_type":"Dedicated","server_os":"Linux","password":true,"vac":true,"version":"7708610","steam_id":85568392924470000,"keywords":["cp","nocrits","nodmgspread","uncletopia"],"game_id":440,"stv_port":27026,"stv_name":"Uncletopia | San Francisco | 2 | All Maps | STV","players":null},{"server_id":19,"name":"Uncletopia | San Francisco | 3 | No Payload","name_short":"sfo-3","host":"sfo-1.us.uncletopia.com","port":27035,"enabled":true,"region":"us-west","cc":"us","latitude":37.77397,"longitude":-122.4313,"reserved":0,"last_update":"0001-01-01T00:00:00Z","name_a2s":"Uncletopia | San Francisco | 3 | No Payload","protocol":17,"map":"ctf_sawmill","folder":"tf","game":"Team Fortress","app_id":440,"player_count":0,"max_players":24,"Bots":0,"server_type":"Dedicated","server_os":"Linux","password":true,"vac":true,"version":"7708610","steam_id":85568392924742824,"keywords":["ctf","nocrits","nodmgspread","uncletopia"],"game_id":440,"stv_port":27036,"stv_name":"Uncletopia | San Francisco | 3 | No Payload | STV","players":null},{"server_id":20,"name":"Uncletopia | San Francisco | 4 | Community","name_short":"sfo-4","host":"sfo-1.us.uncletopia.com","port":27045,"enabled":true,"region":"us-west","cc":"us","latitude":37.77397,"longitude":-122.4313,"reserved":0,"last_update":"0001-01-01T00:00:00Z","name_a2s":"Uncletopia | San Francisco | 4 | Community","protocol":17,"map":"workshop/rd_asteroid_redux_rc9.ugc2154902912","folder":"tf","game":"Team Fortress","app_id":440,"player_count":0,"max_players":24,"Bots":0,"server_type":"Dedicated","server_os":"Linux","password":true,"vac":true,"version":"7708610","steam_id":85568392924742826,"keywords":["beta","nocrits","nodmgspread","rd","uncletopia"],"game_id":440,"stv_port":27046,"stv_name":"Uncletopia | San Francisco | 4 | Community | STV","players":null},{"server_id":141,"name":"Uncletopia | Sydney | 1 | All Maps","name_short":"syd-1","host":"syd-1.au.uncletopia.com","port":27015,"enabled":true,"region":"au","cc":"au","latitude":-33.865143,"longitude":151.2099,"reserved":0,"last_update":"0001-01-01T00:00:00Z","name_a2s":"Uncletopia | Sydney | 1 | All Maps","protocol":17,"map":"pl_barnblitz","folder":"tf","game":"Team Fortress","app_id":440,"player_count":24,"max_players":24,"Bots":0,"server_type":"Dedicated","server_os":"Linux","password":true,"vac":true,"version":"7708610","steam_id":85568392924470001,"keywords":["nocrits","nodmgspread","payload","uncletopia"],"game_id":440,"stv_port":27016,"stv_name":"Uncletopia | Sydney | 1 | All Maps | STV","players":[{"user_id":568,"name":"Edward100","steam_id":76561199016725284,"connected_time":1981000000000,"state":"active","ping":65},{"user_id":591,"name":"gerald","steam_id":76561198274740718,"connected_time":554000000000,"state":"active","ping":64},{"user_id":582,"name":"SWAG DRAGON","steam_id":76561197960279341,"connected_time":922000000000,"state":"active","ping":57},{"user_id":594,"name":"Zexhyz","steam_id":76561198308652621,"connected_time":65000000000,"state":"active","ping":90},{"user_id":586,"name":"Zacy","steam_id":76561198114841670,"connected_time":870000000000,"state":"active","ping":115},{"user_id":570,"name":"uncle david","steam_id":76561198282686781,"connected_time":1958000000000,"state":"active","ping":63},{"user_id":549,"name":"Kouroboros","steam_id":76561198141283669,"connected_time":2881000000000,"state":"active","ping":69},{"user_id":571,"name":"nightmare2503","steam_id":76561199100642588,"connected_time":1907000000000,"state":"active","ping":56},{"user_id":592,"name":"ToadFungus","steam_id":76561199219667039,"connected_time":325000000000,"state":"active","ping":101},{"user_id":573,"name":"Yung Smo","steam_id":76561198009672704,"connected_time":1717000000000,"state":"active","ping":59},{"user_id":574,"name":"Tiger_Tan","steam_id":76561198221733844,"connected_time":1666000000000,"state":"active","ping":61},{"user_id":575,"name":"Pizzaray","steam_id":76561198005075102,"connected_time":1614000000000,"state":"active","ping":41},{"user_id":580,"name":"FlancrestEnterprises","steam_id":76561197960496839,"connected_time":1018000000000,"state":"active","ping":53},{"user_id":554,"name":"Yes'Tir'Day","steam_id":76561198091798037,"connected_time":2718000000000,"state":"active","ping":150},{"user_id":563,"name":"Charm","steam_id":76561198028891054,"connected_time":2561000000000,"state":"active","ping":62},{"user_id":590,"name":"RoverTw0","steam_id":76561198025416071,"connected_time":753000000000,"state":"active","ping":38},{"user_id":553,"name":"Brett","steam_id":76561199061514656,"connected_time":2834000000000,"state":"active","ping":62},{"user_id":584,"name":"Kinotechnick","steam_id":76561198079346779,"connected_time":888000000000,"state":"active","ping":52},{"user_id":556,"name":"blicky","steam_id":76561198029829077,"connected_time":2652000000000,"state":"active","ping":93},{"user_id":587,"name":"Mail Bomb Victim","steam_id":76561198284533039,"connected_time":863000000000,"state":"active","ping":45},{"user_id":558,"name":"Bloxors","steam_id":76561198040639258,"connected_time":2629000000000,"state":"active","ping":101},{"user_id":588,"name":"GoodoDarco","steam_id":76561198322623838,"connected_time":862000000000,"state":"active","ping":125},{"user_id":562,"name":"penis muncher","steam_id":76561198288259746,"connected_time":2604000000000,"state":"active","ping":53},{"user_id":593,"name":"Lateralus","steam_id":76561198007865860,"connected_time":325000000000,"state":"active","ping":112}]},{"server_id":123,"name":"Uncletopia | Sydney | 2 | All Maps","name_short":"syd-2","host":"syd-1.au.uncletopia.com","port":27025,"enabled":true,"region":"au","cc":"au","latitude":-33.865143,"longitude":151.2099,"reserved":0,"last_update":"0001-01-01T00:00:00Z","name_a2s":"Uncletopia | Sydney | 2 | All Maps","protocol":17,"map":"cp_sunshine","folder":"tf","game":"Team Fortress","app_id":440,"player_count":0,"max_players":24,"Bots":0,"server_type":"Dedicated","server_os":"Linux","password":true,"vac":true,"version":"7708610","steam_id":85568392924470002,"keywords":["cp","nocrits","nodmgspread","uncletopia"],"game_id":440,"stv_port":27026,"stv_name":"Uncletopia | Sydney | 2 | All Maps | STV","players":null},{"server_id":395,"name":"Uncletopia | Sydney | 3 | All Maps","name_short":"syd-3","host":"syd-1.au.uncletopia.com","port":27035,"enabled":true,"region":"au","cc":"au","latitude":-33.865143,"longitude":151.2099,"reserved":0,"last_update":"0001-01-01T00:00:00Z","name_a2s":"Uncletopia | Sydney | 3 | All Maps","protocol":17,"map":"pl_swiftwater_final1","folder":"tf","game":"Team Fortress","app_id":440,"player_count":0,"max_players":24,"Bots":0,"server_type":"Dedicated","server_os":"Linux","password":true,"vac":true,"version":"7708610","steam_id":85568392925194467,"keywords":["nocrits","nodmgspread","payload","uncletopia"],"game_id":440,"stv_port":27036,"stv_name":"Uncletopia | Sydney | 3 | All Maps | STV","players":null},{"server_id":396,"name":"Uncletopia | Sydney | 4 | All Maps","name_short":"syd-4","host":"syd-1.au.uncletopia.com","port":27045,"enabled":true,"region":"au","cc":"au","latitude":-33.865143,"longitude":151.2099,"reserved":0,"last_update":"0001-01-01T00:00:00Z","name_a2s":"Uncletopia | Sydney | 4 | All Maps","protocol":17,"map":"pl_barnblitz","folder":"tf","game":"Team Fortress","app_id":440,"player_count":0,"max_players":24,"Bots":0,"server_type":"Dedicated","server_os":"Linux","password":true,"vac":true,"version":"7708610","steam_id":85568392925397958,"keywords":["nocrits","nodmgspread","payload","uncletopia"],"game_id":440,"stv_port":27046,"stv_name":"Uncletopia | Sydney | 4 | All Maps | STV","players":null},{"server_id":58,"name":"Uncletopia | Sydney | 5 | No Payload","name_short":"syd-5","host":"syd-1.au.uncletopia.com","port":27055,"enabled":true,"region":"au","cc":"au","latitude":-33.865143,"longitude":151.2099,"reserved":0,"last_update":"0001-01-01T00:00:00Z","name_a2s":"Uncletopia | Sydney | 5 | No Payload","protocol":17,"map":"koth_suijin","folder":"tf","game":"Team Fortress","app_id":440,"player_count":6,"max_players":24,"Bots":0,"server_type":"Dedicated","server_os":"Linux","password":true,"vac":true,"version":"7708610","steam_id":85568392925397959,"keywords":["cp","nocrits","nodmgspread","uncletopia"],"game_id":440,"stv_port":27056,"stv_name":"Uncletopia | Sydney | 5 | No Payload | STV","players":[{"user_id":17,"name":"Rajab","steam_id":76561198236077918,"connected_time":3239000000000,"state":"active","ping":49},{"user_id":18,"name":"Stinke","steam_id":76561198973797001,"connected_time":3201000000000,"state":"active","ping":46},{"user_id":19,"name":"dudepooter","steam_id":76561198256765153,"connected_time":3177000000000,"state":"active","ping":70},{"user_id":20,"name":"floop flub","steam_id":76561198418968979,"connected_time":2437000000000,"state":"active","ping":106},{"user_id":21,"name":"qeuvl","steam_id":76561198170727659,"connected_time":2378000000000,"state":"active","ping":64},{"user_id":24,"name":"ADUCK","steam_id":76561198249887912,"connected_time":697000000000,"state":"active","ping":56}]},{"server_id":59,"name":"Uncletopia | Sydney | 6 | Community","name_short":"syd-6","host":"syd-1.au.uncletopia.com","port":27065,"enabled":true,"region":"au","cc":"au","latitude":-33.865143,"longitude":151.2099,"reserved":0,"last_update":"0001-01-01T00:00:00Z","name_a2s":"Uncletopia | Sydney | 6 | Community","protocol":17,"map":"workshop/koth_ashville_final.ugc2130459942","folder":"tf","game":"Team Fortress","app_id":440,"player_count":0,"max_players":24,"Bots":0,"server_type":"Dedicated","server_os":"Linux","password":true,"vac":true,"version":"7708610","steam_id":85568392925397960,"keywords":["cp","nocrits","nodmgspread","uncletopia"],"game_id":440,"stv_port":27066,"stv_name":"Uncletopia | Sydney | 6 | Community | STV","players":null},{"server_id":49,"name":"Uncletopia | Warsaw | 1 | All Maps","name_short":"waw-1","host":"waw-1.pl.uncletopia.com","port":27015,"enabled":true,"region":"eu","cc":"pl","latitude":52.2297,"longitude":21.017532,"reserved":0,"last_update":"0001-01-01T00:00:00Z","name_a2s":"Uncletopia | Warsaw | 1 | All Maps","protocol":17,"map":"pl_barnblitz","folder":"tf","game":"Team Fortress","app_id":440,"player_count":0,"max_players":24,"Bots":0,"server_type":"Dedicated","server_os":"Linux","password":true,"vac":true,"version":"7708610","steam_id":85568392925397850,"keywords":["nocrits","nodmgspread","payload","uncletopia"],"game_id":440,"stv_port":27016,"stv_name":"Uncletopia | Warsaw | 1 | All Maps | STV","players":null},{"server_id":50,"name":"Uncletopia | Warsaw | 2 | All Maps","name_short":"waw-2","host":"waw-1.pl.uncletopia.com","port":27025,"enabled":true,"region":"eu","cc":"pl","latitude":52.2297,"longitude":21.017532,"reserved":0,"last_update":"0001-01-01T00:00:00Z","name_a2s":"Uncletopia | Warsaw | 2 | All Maps","protocol":17,"map":"pl_barnblitz","folder":"tf","game":"Team Fortress","app_id":440,"player_count":0,"max_players":24,"Bots":0,"server_type":"Dedicated","server_os":"Linux","password":true,"vac":true,"version":"7708610","steam_id":85568392925397851,"keywords":["nocrits","nodmgspread","payload","uncletopia"],"game_id":440,"stv_port":27026,"stv_name":"Uncletopia | Warsaw | 2 | All Maps | STV","players":null},{"server_id":51,"name":"Uncletopia | Warsaw | 3 | All Maps","name_short":"waw-3","host":"waw-1.pl.uncletopia.com","port":27035,"enabled":true,"region":"eu","cc":"pl","latitude":52.2297,"longitude":21.017532,"reserved":0,"last_update":"0001-01-01T00:00:00Z","name_a2s":"Uncletopia | Warsaw | 3 | All Maps","protocol":17,"map":"pl_badwater","folder":"tf","game":"Team Fortress","app_id":440,"player_count":0,"max_players":24,"Bots":0,"server_type":"Dedicated","server_os":"Linux","password":true,"vac":true,"version":"7708610","steam_id":85568392925397852,"keywords":["nocrits","nodmgspread","payload","uncletopia"],"game_id":440,"stv_port":27036,"stv_name":"Uncletopia | Warsaw | 3 | All Maps | STV","players":null},{"server_id":52,"name":"Uncletopia | Warsaw | 4 | All Maps","name_short":"waw-4","host":"waw-1.pl.uncletopia.com","port":27045,"enabled":true,"region":"eu","cc":"pl","latitude":52.2297,"longitude":21.017532,"reserved":0,"last_update":"0001-01-01T00:00:00Z","name_a2s":"Uncletopia | Warsaw | 4 | All Maps","protocol":17,"map":"pl_pier","folder":"tf","game":"Team Fortress","app_id":440,"player_count":0,"max_players":24,"Bots":0,"server_type":"Dedicated","server_os":"Linux","password":true,"vac":true,"version":"7708610","steam_id":85568392925397853,"keywords":["nocrits","nodmgspread","payload","uncletopia"],"game_id":440,"stv_port":27046,"stv_name":"Uncletopia | Warsaw | 4 | All Maps | STV","players":null},{"server_id":53,"name":"Uncletopia | Warsaw | 5 | No Payload","name_short":"waw-5","host":"waw-1.pl.uncletopia.com","port":27055,"enabled":true,"region":"eu","cc":"pl","latitude":52.2297,"longitude":21.017532,"reserved":0,"last_update":"0001-01-01T00:00:00Z","name_a2s":"Uncletopia | Warsaw | 5 | No Payload","protocol":17,"map":"pl_borneo","folder":"tf","game":"Team Fortress","app_id":440,"player_count":0,"max_players":24,"Bots":0,"server_type":"Dedicated","server_os":"Linux","password":true,"vac":true,"version":"7708610","steam_id":85568392925397854,"keywords":["nocrits","nodmgspread","payload","uncletopia"],"game_id":440,"stv_port":27056,"stv_name":"Uncletopia | Warsaw | 5 | No Payload | STV","players":null},{"server_id":54,"name":"Uncletopia | Warsaw | 6 | Community","name_short":"waw-6","host":"waw-1.pl.uncletopia.com","port":27065,"enabled":true,"region":"eu","cc":"pl","latitude":52.2297,"longitude":21.017532,"reserved":0,"last_update":"0001-01-01T00:00:00Z","name_a2s":"Uncletopia | Warsaw | 6 | Community","protocol":17,"map":"pl_swiftwater_final1","folder":"tf","game":"Team Fortress","app_id":440,"player_count":0,"max_players":24,"Bots":0,"server_type":"Dedicated","server_os":"Linux","password":true,"vac":true,"version":"7708610","steam_id":85568392925397856,"keywords":["nocrits","nodmgspread","payload","uncletopia"],"game_id":440,"stv_port":27066,"stv_name":"Uncletopia | Warsaw | 6 | Community | STV","players":null}]}