{"status":true,"message":"","result":[{"server_id":9,"name":"Uncletopia | Atlanta | 1 | All Maps","name_short":"atl-1","host":"atl-1.us.uncletopia.com","port":27015,"enabled":true,"region":"us-east","cc":"us","latitude":33.753746,"longitude":-84.38633,"reserved":0,"last_update":"0001-01-01T00:00:00Z","name_a2s":"Uncletopia | Atlanta | 1 | All Maps","protocol":17,"map":"pl_snowycoast","folder":"tf","game":"Team Fortress","app_id":440,"player_count":24,"max_players":24,"Bots":0,"server_type":"Dedicated","server_os":"Linux","password":true,"vac":true,"version":"7757534","steam_id":85568392924469982,"keywords":["nocrits","nodmgspread","payload","uncletopia"],"game_id":440,"stv_port":27016,"stv_name":"Uncletopia | Atlanta | 1 | All Maps | STV","players":[{"user_id":563,"name":"Toonice","steam_id":76561198402994885,"connected_time":1943000000000,"state":"active","ping":82},{"user_id":482,"name":"chubbbo","steam_id":76561198943598378,"connected_time":11776000000000,"state":"active","ping":39},{"user_id":540,"name":"stink","steam_id":76561198099318923,"connected_time":5615000000000,"state":"active","ping":75},{"user_id":554,"name":"snoops","steam_id":76561197986760351,"connected_time":3567000000000,"state":"active","ping":75},{"user_id":571,"name":"Mufalito","steam_id":76561198951889482,"connected_time":409000000000,"state":"active","ping":130},{"user_id":529,"name":"shaderoses","steam_id":76561198070800500,"connected_time":6548000000000,"state":"active","ping":68},{"user_id":530,"name":"Mage","steam_id":76561198285026879,"connected_time":6540000000000,"state":"active","ping":81},{"user_id":556,"name":"ATL1 | Lylith!!!","steam_id":76561198386687546,"connected_time":2958000000000,"state":"active","ping":51},{"user_id":537,"name":"indi","steam_id":76561198045917538,"connected_time":5903000000000,"state":"active","ping":64},{"user_id":555,"name":"noah","steam_id":76561198173310157,"connected_time":3092000000000,"state":"active","ping":65},{"user_id":564,"name":"\u003c3lil hog\u003c3","steam_id":76561199230929836,"connected_time":1941000000000,"state":"active","ping":73},{"user_id":551,"name":"BigDeac","steam_id":76561198091237274,"connected_time":3619000000000,"state":"active","ping":83},{"user_id":569,"name":"zpalmtree","steam_id":76561198134307620,"connected_time":494000000000,"state":"active","ping":75},{"user_id":560,"name":"BIG HOG","steam_id":76561198079923652,"connected_time":1954000000000,"state":"active","ping":72},{"user_id":528,"name":"Albino Jellyfish","steam_id":76561198208561097,"connected_time":6904000000000,"state":"active","ping":71},{"user_id":565,"name":"stockhack","steam_id":76561198050220225,"connected_time":1937000000000,"state":"active","ping":61},{"user_id":522,"name":"Nox(She/They)","steam_id":76561198141950842,"connected_time":7807000000000,"state":"active","ping":50},{"user_id":558,"name":"Intestinal Straw","steam_id":76561198082095303,"connected_time":2873000000000,"state":"active","ping":71},{"user_id":568,"name":"ash","steam_id":76561198127890645,"connected_time":1032000000000,"state":"active","ping":72},{"user_id":526,"name":"xX_HimboSwallower_Xx","steam_id":76561198016029965,"connected_time":7254000000000,"state":"active","ping":71},{"user_id":570,"name":"town.midi","steam_id":76561198059041027,"connected_time":461000000000,"state":"active","ping":125},{"user_id":552,"name":"DFR Le4n!!!","steam_id":76561198045522596,"connected_time":3619000000000,"state":"active","ping":72},{"user_id":567,"name":"ATL1 | Psionic Box","steam_id":76561198151019322,"connected_time":1157000000000,"state":"active","ping":68},{"user_id":553,"name":"sand","steam_id":76561198086193212,"connected_time":3618000000000,"state":"active","ping":60}]},{"server_id":104,"name":"Uncletopia | Atlanta | 2 | All Maps","name_short":"atl-2","host":"atl-1.us.uncletopia.com","port":27025,"enabled":true,"region":"us-east","cc":"us","latitude":33.753746,"longitude":-84.38633,"reserved":0,"last_update":"0001-01-01T00:00:00Z","name_a2s":"Uncletopia | Atlanta | 2 | All Maps","protocol":17,"map":"pl_upward","folder":"tf","game":"Team Fortress","app_id":440,"player_count":24,"max_players":24,"Bots":0,"server_type":"Dedicated","server_os":"Linux","password":true,"vac":true,"version":"7757534","steam_id":85568392924469983,"keywords":["nocrits","nodmgspread","payload","uncletopia"],"game_id":440,"stv_port":27026,"stv_name":"Uncletopia | Atlanta | 2 | All Maps | STV","players":[{"user_id":771,"name":"Oopsie Daisy ❋","steam_id":76561198042144492,"connected_time":4137000000000,"state":"active","ping":54},{"user_id":848,"name":"Dr.Nooo!!!!!!!!","steam_id":76561198064738479,"connected_time":320000000000,"state":"active","ping":81},{"user_id":849,"name":"The Pencil Cunts","steam_id":76561198272606252,"connected_time":314000000000,"state":"active","ping":59},{"user_id":851,"name":"soupy","steam_id":76561197974283797,"connected_time":270000000000,"state":"active","ping":61},{"user_id":833,"name":"BootyOcho1","steam_id":76561199035019199,"connected_time":1514000000000,"state":"active","ping":122},{"user_id":852,"name":"Spoingle","steam_id":76561198080556773,"connected_time":244000000000,"state":"active","ping":73},{"user_id":744,"name":"Notsocreative","steam_id":76561198236372202,"connected_time":5787000000000,"state":"active","ping":71},{"user_id":829,"name":"troll","steam_id":76561198040890252,"connected_time":1546000000000,"state":"active","ping":54},{"user_id":840,"name":"jumbert","steam_id":76561198355231658,"connected_time":918000000000,"state":"active","ping":81},{"user_id":847,"name":"aspiceeone","steam_id":76561198335426817,"connected_time":443000000000,"state":"active","ping":63},{"user_id":853,"name":"grate_fiter-232","steam_id":76561198073424589,"connected_time":230000000000,"state":"active","ping":75},{"user_id":809,"name":"SDL","steam_id":76561198859719985,"connected_time":2837000000000,"state":"active","ping":93},{"user_id":856,"name":"\u003e:3","steam_id":76561198083607304,"connected_time":154000000000,"state":"active","ping":74},{"user_id":844,"name":"jon pickle water","steam_id":76561199036212135,"connected_time":642000000000,"state":"active","ping":118},{"user_id":816,"name":"Gruff Donaar","steam_id":76561198053054898,"connected_time":2624000000000,"state":"active","ping":94},{"user_id":815,"name":"TexanSoda","steam_id":76561198046283299,"connected_time":2708000000000,"state":"active","ping":76},{"user_id":780,"name":"Peter McKay","steam_id":76561198842221188,"connected_time":3822000000000,"state":"active","ping":76},{"user_id":820,"name":"ineedmedicine","steam_id":76561199097601654,"connected_time":2149000000000,"state":"active","ping":94},{"user_id":784,"name":"Gravy","steam_id":76561198087726095,"connected_time":3667000000000,"state":"active","ping":65},{"user_id":834,"name":"monsterkill4567","steam_id":76561198272986367,"connected_time":1502000000000,"state":"active","ping":119},{"user_id":835,"name":"Jamie Hyneman","steam_id":76561199196036481,"connected_time":1494000000000,"state":"active","ping":93},{"user_id":845,"name":"Nash","steam_id":76561198044192734,"connected_time":617000000000,"state":"active","ping":44},{"user_id":857,"name":"Fred","steam_id":76561198042274397,"connected_time":144000000000,"state":"active","ping":98},{"user_id":846,"name":"HOT SOUP","steam_id":76561199077389918,"connected_time":591000000000,"state":"active","ping":80}]},{"server_id":400,"name":"Uncletopia | Atlanta | 3 | Community","name_short":"atl-3","host":"atl-1.us.uncletopia.com","port":27035,"enabled":true,"region":"us-east","cc":"us","latitude":33.753746,"longitude":-84.38633,"reserved":0,"last_update":"0001-01-01T00:00:00Z","name_a2s":"Uncletopia | Atlanta | 3 | Community","protocol":17,"map":"workshop/cp_glassworks_rc6a.ugc454118349","folder":"tf","game":"Team Fortress","app_id":440,"player_count":0,"max_players":24,"Bots":0,"server_type":"Dedicated","server_os":"Linux","password":true,"vac":true,"version":"7757534","steam_id":85568392924515187,"keywords":["cp","nocrits","nodmgspread","uncletopia"],"game_id":440,"stv_port":27036,"stv_name":"Uncletopia | Atlanta | 3 | Community | STV","players":null},{"server_id":401,"name":"Uncletopia | Atlanta | 4 | No Payload","name_short":"atl-4","host":"atl-1.us.uncletopia.com","port":27045,"enabled":true,"region":"us-east","cc":"us","latitude":33.753746,"longitude":-84.38633,"reserved":0,"last_update":"0001-01-01T00:00:00Z","name_a2s":"","protocol":0,"map":"","folder":"","game":"","app_id":0,"player_count":0,"max_players":0,"Bots":0,"server_type":"","server_os":"","password":false,"vac":false,"version":"","steam_id":0,"keywords":null,"game_id":0,"stv_port":0,"stv_name":"","players":null},{"server_id":2,"name":"Uncletopia | Chicago | 1 | All Maps","name_short":"chi-1","host":"chi-1.us.uncletopia.com","port":27015,"enabled":true,"region":"us-central","cc":"us","latitude":41.881832,"longitude":-87.62318,"reserved":0,"last_update":"0001-01-01T00:00:00Z","name_a2s":"Uncletopia | Chicago | 1 | All Maps","protocol":17,"map":"pl_badwater","folder":"tf","game":"Team Fortress","app_id":440,"player_count":23,"max_players":24,"Bots":0,"server_type":"Dedicated","server_os":"Linux","password":true,"vac":true,"version":"7757534","steam_id":85568392924469984,"keywords":["nocrits","nodmgspread","payload","uncletopia"],"game_id":440,"stv_port":27016,"stv_name":"Uncletopia | Chicago | 1 | All Maps | STV","players":[{"user_id":724,"name":"briggs","steam_id":76561198045655893,"connected_time":1298000000000,"state":"active","ping":55},{"user_id":715,"name":"Chimpanzee","steam_id":76561198850387282,"connected_time":1593000000000,"state":"active","ping":75},{"user_id":729,"name":"Ace Chromatica","steam_id":76561198042211131,"connected_time":999000000000,"state":"active","ping":55},{"user_id":743,"name":"Trash","steam_id":76561198358471281,"connected_time":109000000000,"state":"active","ping":59},{"user_id":642,"name":"⚡VoltonBolton⚡","steam_id":76561198189176634,"connected_time":7616000000000,"state":"active","ping":75},{"user_id":705,"name":"i eat pallet","steam_id":76561198101378377,"connected_time":2778000000000,"state":"active","ping":77},{"user_id":746,"name":"erp","steam_id":76561197994492154,"connected_time":55000000000,"state":"active","ping":165},{"user_id":730,"name":"Weebmcgee","steam_id":76561198081231557,"connected_time":948000000000,"state":"active","ping":61},{"user_id":742,"name":"Spiderfight1","steam_id":76561199189991528,"connected_time":110000000000,"state":"active","ping":89},{"user_id":736,"name":"Gachalover","steam_id":76561199231552074,"connected_time":566000000000,"state":"active","ping":70},{"user_id":698,"name":"I Came","steam_id":76561198082938358,"connected_time":3159000000000,"state":"active","ping":61},{"user_id":745,"name":"st3shk4a","steam_id":76561198025322638,"connected_time":75000000000,"state":"active","ping":91},{"user_id":711,"name":"SMHTMFTTF","steam_id":76561199079614516,"connected_time":1639000000000,"state":"active","ping":45},{"user_id":747,"name":"Samplee","steam_id":76561198063406140,"connected_time":45000000000,"state":"active","ping":146},{"user_id":734,"name":"pingus","steam_id":76561198268995867,"connected_time":808000000000,"state":"active","ping":108},{"user_id":733,"name":"DonoC","steam_id":76561198274473338,"connected_time":839000000000,"state":"active","ping":85},{"user_id":748,"name":"Anita Hanjaab","steam_id":76561199307270490,"connected_time":45000000000,"state":"active","ping":75},{"user_id":739,"name":"not jeff bezos","steam_id":76561198018177887,"connected_time":414000000000,"state":"active","ping":90},{"user_id":749,"name":"fake gamer","steam_id":76561198049784197,"connected_time":43000000000,"state":"spawning","ping":89},{"user_id":740,"name":"dicksnip","steam_id":76561198356515396,"connected_time":384000000000,"state":"active","ping":69},{"user_id":741,"name":"fallacy","steam_id":76561198057374871,"connected_time":203000000000,"state":"active","ping":46},{"user_id":751,"name":"Bearegard","steam_id":76561198061926542,"connected_time":28000000000,"state":"spawning","ping":60},{"user_id":634,"name":"BongBong","steam_id":76561198190288063,"connected_time":7734000000000,"state":"active","ping":76}]},{"server_id":106,"name":"Uncletopia | Chicago | 2 | All Maps","name_short":"chi-2","host":"chi-1.us.uncletopia.com","port":27025,"enabled":true,"region":"us-central","cc":"us","latitude":41.881832,"longitude":-87.62318,"reserved":0,"last_update":"0001-01-01T00:00:00Z","name_a2s":"Uncletopia | Chicago | 2 | All Maps","protocol":17,"map":"pl_borneo","folder":"tf","game":"Team Fortress","app_id":440,"player_count":24,"max_players":24,"Bots":0,"server_type":"Dedicated","server_os":"Linux","password":true,"vac":true,"version":"7757534","steam_id":85568392924469985,"keywords":["nocrits","nodmgspread","payload","uncletopia"],"game_id":440,"stv_port":27026,"stv_name":"Uncletopia | Chicago | 2 | All Maps | STV","players":[{"user_id":882,"name":"Dreamzapp","steam_id":76561199084936632,"connected_time":793000000000,"state":"active","ping":120},{"user_id":880,"name":"The Duggler","steam_id":76561199005778478,"connected_time":833000000000,"state":"active","ping":61},{"user_id":863,"name":"Biskit","steam_id":76561198103168540,"connected_time":2202000000000,"state":"active","ping":58},{"user_id":881,"name":"TF2C | fac","steam_id":76561198009818412,"connected_time":833000000000,"state":"active","ping":75},{"user_id":763,"name":"Sposeidon","steam_id":76561199044781490,"connected_time":9342000000000,"state":"active","ping":61},{"user_id":888,"name":"Bionicle Potato","steam_id":76561198141356544,"connected_time":506000000000,"state":"active","ping":63},{"user_id":846,"name":"MantisToboggan","steam_id":76561197969447887,"connected_time":3582000000000,"state":"active","ping":131},{"user_id":879,"name":"Wizard Raccoon","steam_id":76561198072562591,"connected_time":960000000000,"state":"active","ping":80},{"user_id":829,"name":"G4Vi","steam_id":76561197998117895,"connected_time":4473000000000,"state":"active","ping":62},{"user_id":884,"name":"freegibz","steam_id":76561198132192461,"connected_time":754000000000,"state":"active","ping":77},{"user_id":886,"name":"ProbiusSC","steam_id":76561198379167322,"connected_time":680000000000,"state":"active","ping":82},{"user_id":869,"name":"Mr. May","steam_id":76561198132112804,"connected_time":2018000000000,"state":"active","ping":100},{"user_id":873,"name":"nongs","steam_id":76561198182994463,"connected_time":1335000000000,"state":"active","ping":55},{"user_id":889,"name":"st","steam_id":76561198173047169,"connected_time":373000000000,"state":"active","ping":59},{"user_id":844,"name":"The strongest ⑨ ball","steam_id":76561198126760743,"connected_time":3628000000000,"state":"active","ping":76},{"user_id":891,"name":"NovaSc6ut","steam_id":76561198277163301,"connected_time":26000000000,"state":"active","ping":67},{"user_id":890,"name":"TacticalFluke","steam_id":76561198403291862,"connected_time":44000000000,"state":"active","ping":78},{"user_id":810,"name":"Xii","steam_id":76561198860209947,"connected_time":6115000000000,"state":"active","ping":54},{"user_id":875,"name":"OSHA","steam_id":76561199127536360,"connected_time":1245000000000,"state":"active","ping":112},{"user_id":833,"name":"bojack from the show bojack hor","steam_id":76561198053006712,"connected_time":4306000000000,"state":"active","ping":61},{"user_id":871,"name":"Zoot","steam_id":76561198121944243,"connected_time":1866000000000,"state":"active","ping":75},{"user_id":826,"name":"triangleman","steam_id":76561198972733542,"connected_time":4580000000000,"state":"active","ping":60},{"user_id":795,"name":"Uwu Micster","steam_id":76561198843890616,"connected_time":6818000000000,"state":"active","ping":76},{"user_id":878,"name":"Fatty Badgy","steam_id":76561199224243549,"connected_time":999000000000,"state":"active","ping":62}]},{"server_id":402,"name":"Uncletopia | Chicago | 3 | All Maps","name_short":"chi-3","host":"chi-1.us.uncletopia.com","port":27035,"enabled":true,"region":"us-central","cc":"us","latitude":41.881832,"longitude":-87.62318,"reserved":0,"last_update":"0001-01-01T00:00:00Z","name_a2s":"Uncletopia | Chicago | 3 | All Maps","protocol":17,"map":"plr_hightower","folder":"tf","game":"Team Fortress","app_id":440,"player_count":24,"max_players":24,"Bots":0,"server_type":"Dedicated","server_os":"Linux","password":true,"vac":true,"version":"7757534","steam_id":85568392924515191,"keywords":["nocrits","nodmgspread","payload","uncletopia"],"game_id":440,"stv_port":27036,"stv_name":"Uncletopia | Chicago | 3 | All Maps | STV","players":[{"user_id":709,"name":"Non","steam_id":76561198196524528,"connected_time":249000000000,"state":"active","ping":45},{"user_id":665,"name":"Duckywinner","steam_id":76561198254828139,"connected_time":4503000000000,"state":"active","ping":90},{"user_id":578,"name":"Hindmost","steam_id":76561199081837220,"connected_time":11277000000000,"state":"active","ping":77},{"user_id":681,"name":"itsmajestic","steam_id":76561198304790008,"connected_time":2794000000000,"state":"active","ping":64},{"user_id":702,"name":"sootyquill","steam_id":76561198186883927,"connected_time":853000000000,"state":"active","ping":91},{"user_id":683,"name":"Anthoneeee","steam_id":76561199209220671,"connected_time":2704000000000,"state":"active","ping":120},{"user_id":674,"name":"The Overmind","steam_id":76561199170229428,"connected_time":2951000000000,"state":"active","ping":73},{"user_id":701,"name":"[PINGU™] Tiny Tuna","steam_id":76561198193611579,"connected_time":995000000000,"state":"active","ping":75},{"user_id":698,"name":"feliser","steam_id":76561198084336096,"connected_time":1522000000000,"state":"active","ping":52},{"user_id":705,"name":"Walmart Employee","steam_id":76561198840373909,"connected_time":544000000000,"state":"active","ping":93},{"user_id":682,"name":"I'mWillow","steam_id":76561198229691912,"connected_time":2777000000000,"state":"active","ping":66},{"user_id":626,"name":"enmgxcltayiqoacx","steam_id":76561197974965536,"connected_time":8162000000000,"state":"active","ping":52},{"user_id":689,"name":"Guns Blazing","steam_id":76561198379461118,"connected_time":2284000000000,"state":"active","ping":68},{"user_id":706,"name":"el muchacho","steam_id":76561198282632562,"connected_time":462000000000,"state":"active","ping":93},{"user_id":707,"name":"twunkers","steam_id":76561198571960290,"connected_time":452000000000,"state":"active","ping":105},{"user_id":553,"name":"igotmail","steam_id":76561198070631899,"connected_time":13906000000000,"state":"active","ping":67},{"user_id":697,"name":"mos","steam_id":76561197995777973,"connected_time":1534000000000,"state":"active","ping":60},{"user_id":704,"name":"Jolly","steam_id":76561198381749192,"connected_time":666000000000,"state":"active","ping":75},{"user_id":558,"name":"Mildstrife","steam_id":76561198000080715,"connected_time":13747000000000,"state":"active","ping":65},{"user_id":680,"name":"SubZeroDestruction","steam_id":76561198145082209,"connected_time":2870000000000,"state":"active","ping":79},{"user_id":699,"name":"5unny PHD IN HATEOLOGY","steam_id":76561198133111058,"connected_time":1519000000000,"state":"active","ping":66},{"user_id":710,"name":"Resident Thrussy Lender","steam_id":76561198071790583,"connected_time":226000000000,"state":"active","ping":59},{"user_id":700,"name":"I’m Sleepy","steam_id":76561198879929343,"connected_time":1283000000000,"state":"active","ping":60},{"user_id":687,"name":"HAT-WEARING™ Maggot Gamer Cat","steam_id":76561197973992705,"connected_time":2446000000000,"state":"active","ping":110}]},{"server_id":403,"name":"Uncletopia | Chicago | 4 | All Maps","name_short":"chi-4","host":"chi-1.us.uncletopia.com","port":27045,"enabled":true,"region":"us-central","cc":"us","latitude":41.881832,"longitude":-87.62318,"reserved":0,"last_update":"0001-01-01T00:00:00Z","name_a2s":"Uncletopia | Chicago | 4 | All Maps","protocol":17,"map":"pl_swiftwater_final1","folder":"tf","game":"Team Fortress","app_id":440,"player_count":24,"max_players":24,"Bots":0,"server_type":"Dedicated","server_os":"Linux","password":true,"vac":true,"version":"7757534","steam_id":85568392924515193,"keywords":["nocrits","nodmgspread","payload","uncletopia"],"game_id":440,"stv_port":27046,"stv_name":"Uncletopia | Chicago | 4 | All Maps | STV","players":[{"user_id":526,"name":"dieck","steam_id":76561198061434469,"connected_time":2172000000000,"state":"active","ping":74},{"user_id":550,"name":"Tevo","steam_id":76561198375502931,"connected_time":230000000000,"state":"active","ping":72},{"user_id":475,"name":"Horrizan","steam_id":76561197965028480,"connected_time":6073000000000,"state":"active","ping":83},{"user_id":351,"name":"Skullypoo","steam_id":76561198067912022,"connected_time":14639000000000,"state":"active","ping":62},{"user_id":492,"name":"Bee","steam_id":76561198074681324,"connected_time":5218000000000,"state":"active","ping":77},{"user_id":522,"name":"0","steam_id":76561198046065237,"connected_time":2379000000000,"state":"active","ping":74},{"user_id":547,"name":"Fantastic","steam_id":76561198079088978,"connected_time":464000000000,"state":"active","ping":45},{"user_id":546,"name":"Belloq","steam_id":76561198060279052,"connected_time":638000000000,"state":"active","ping":46},{"user_id":543,"name":"`o2","steam_id":76561197992030936,"connected_time":858000000000,"state":"active","ping":64},{"user_id":548,"name":"scarecrow (evil)","steam_id":76561198082979347,"connected_time":452000000000,"state":"active","ping":59},{"user_id":521,"name":"Reno Gato","steam_id":76561198048417246,"connected_time":2411000000000,"state":"active","ping":95},{"user_id":524,"name":"Enchanter110","steam_id":76561199017490425,"connected_time":2355000000000,"state":"active","ping":91},{"user_id":529,"name":"Quack Kills","steam_id":76561197999237890,"connected_time":2098000000000,"state":"active","ping":142},{"user_id":539,"name":"Sir Galahad","steam_id":76561198195999859,"connected_time":1285000000000,"state":"active","ping":98},{"user_id":533,"name":"Rex","steam_id":76561198138365053,"connected_time":1458000000000,"state":"active","ping":127},{"user_id":551,"name":"Odd Life","steam_id":76561198244979998,"connected_time":181000000000,"state":"active","ping":106},{"user_id":534,"name":"uufyfuu","steam_id":76561198142787212,"connected_time":1456000000000,"state":"active","ping":76},{"user_id":494,"name":"pr1me","steam_id":76561197998103691,"connected_time":5186000000000,"state":"active","ping":94},{"user_id":542,"name":"Ghost","steam_id":76561198110914180,"connected_time":884000000000,"state":"active","ping":180},{"user_id":530,"name":"Runner175","steam_id":76561198307230510,"connected_time":2088000000000,"state":"active","ping":75},{"user_id":553,"name":"Catgirl, First Elden Lord","steam_id":76561198400058665,"connected_time":56000000000,"state":"active","ping":72},{"user_id":552,"name":"6kre_1t","steam_id":76561198106157810,"connected_time":163000000000,"state":"active","ping":60},{"user_id":497,"name":"verygreenthingy","steam_id":76561199220025355,"connected_time":4757000000000,"state":"active","ping":72},{"user_id":537,"name":"The Great Karizma!","steam_id":76561198346191193,"connected_time":1422000000000,"state":"active","ping":101}]},{"server_id":36,"name":"Uncletopia | Chicago | 5 | All Maps","name_short":"chi-5","host":"chi-2.us.uncletopia.com","port":27015,"enabled":true,"region":"us-central","cc":"us","latitude":41.881832,"longitude":-87.62318,"reserved":0,"last_update":"0001-01-01T00:00:00Z","name_a2s":"Uncletopia | Chicago | 5 | All Maps","protocol":17,"map":"pl_borneo","folder":"tf","game":"Team Fortress","app_id":440,"player_count":24,"max_players":24,"Bots":0,"server_type":"Dedicated","server_os":"Linux","password":true,"vac":true,"version":"7757534","steam_id":85568392924866362,"keywords":["nocrits","nodmgspread","payload","uncletopia"],"game_id":440,"stv_port":27016,"stv_name":"Uncletopia | Chicago | 5 | All Maps | STV","players":[{"user_id":528,"name":"M4_Patriot","steam_id":76561198380134648,"connected_time":2157000000000,"state":"active","ping":104},{"user_id":561,"name":"9Bendy9","steam_id":76561198164023601,"connected_time":350000000000,"state":"active","ping":110},{"user_id":545,"name":"Galaxy","steam_id":76561198158149348,"connected_time":1266000000000,"state":"active","ping":86},{"user_id":568,"name":"PJL725","steam_id":76561198241220274,"connected_time":12000000000,"state":"active","ping":85},{"user_id":536,"name":"Panda","steam_id":76561199064165517,"connected_time":2085000000000,"state":"active","ping":73},{"user_id":469,"name":"Poe","steam_id":76561198145039862,"connected_time":6734000000000,"state":"active","ping":80},{"user_id":556,"name":"Marketable Rebecca Plushie","steam_id":76561198035475444,"connected_time":575000000000,"state":"active","ping":60},{"user_id":531,"name":"F3✡","steam_id":76561198880945923,"connected_time":2138000000000,"state":"active","ping":114},{"user_id":532,"name":"moocifer45","steam_id":76561198274748359,"connected_time":2137000000000,"state":"active","ping":90},{"user_id":563,"name":"Eden Hazard","steam_id":76561198089241053,"connected_time":196000000000,"state":"active","ping":57},{"user_id":565,"name":"Goku","steam_id":76561198064143198,"connected_time":145000000000,"state":"active","ping":47},{"user_id":502,"name":"Otis","steam_id":76561198170925422,"connected_time":5235000000000,"state":"active","ping":89},{"user_id":566,"name":"Shystie","steam_id":76561198025371440,"connected_time":143000000000,"state":"active","ping":93},{"user_id":482,"name":"ultralisk52","steam_id":76561198051666604,"connected_time":6000000000000,"state":"active","ping":63},{"user_id":511,"name":"Iron","steam_id":76561198135637882,"connected_time":4328000000000,"state":"active","ping":67},{"user_id":478,"name":"Pindog","steam_id":76561197961597161,"connected_time":6102000000000,"state":"active","ping":99},{"user_id":546,"name":"Ace Attorney","steam_id":76561198133011705,"connected_time":1227000000000,"state":"active","ping":62},{"user_id":567,"name":"Bludgeon","steam_id":76561198272009412,"connected_time":132000000000,"state":"active","ping":108},{"user_id":535,"name":"pravus367","steam_id":76561198130024571,"connected_time":2131000000000,"state":"active","ping":101},{"user_id":492,"name":"SchmitySchmit","steam_id":76561198127024448,"connected_time":5615000000000,"state":"active","ping":56},{"user_id":559,"name":"Monkey","steam_id":76561198031015186,"connected_time":535000000000,"state":"active","ping":81},{"user_id":560,"name":"Mickmissión","steam_id":76561199133527421,"connected_time":407000000000,"state":"active","ping":120},{"user_id":542,"name":"Shadowsona","steam_id":76561199224873444,"connected_time":1778000000000,"state":"active","ping":114},{"user_id":498,"name":"Horizon","steam_id":76561198088957930,"connected_time":5530000000000,"state":"active","ping":62}]},{"server_id":37,"name":"Uncletopia | Chicago | 6 | All Maps","name_short":"chi-6","host":"chi-2.us.uncletopia.com","port":27025,"enabled":true,"region":"us-central","cc":"us","latitude":41.881832,"longitude":-87.62318,"reserved":0,"last_update":"0001-01-01T00:00:00Z","name_a2s":"Uncletopia | Chicago | 6 | All Maps","protocol":17,"map":"pl_barnblitz","folder":"tf","game":"Team Fortress","app_id":440,"player_count":24,"max_players":24,"Bots":0,"server_type":"Dedicated","server_os":"Linux","password":true,"vac":true,"version":"7757534","steam_id":85568392924866363,"keywords":["nocrits","nodmgspread","payload","uncletopia"],"game_id":440,"stv_port":27026,"stv_name":"Uncletopia | Chicago | 6 | All Maps | STV","players":[{"user_id":680,"name":"Whoops!","steam_id":76561198151315898,"connected_time":1356000000000,"state":"active","ping":67},{"user_id":708,"name":"highmechs","steam_id":76561198013650292,"connected_time":475000000000,"state":"active","ping":117},{"user_id":669,"name":"Rusted Cake","steam_id":76561198209755931,"connected_time":4275000000000,"state":"active","ping":113},{"user_id":679,"name":"TheConchinator","steam_id":76561199388149092,"connected_time":1426000000000,"state":"active","ping":62},{"user_id":698,"name":"Piyono","steam_id":76561197962188504,"connected_time":860000000000,"state":"active","ping":78},{"user_id":695,"name":"kite man","steam_id":76561198156336213,"connected_time":964000000000,"state":"active","ping":82},{"user_id":672,"name":"Suited","steam_id":76561198068797313,"connected_time":3819000000000,"state":"active","ping":72},{"user_id":686,"name":"honk","steam_id":76561198050398028,"connected_time":1286000000000,"state":"active","ping":50},{"user_id":712,"name":"Bzamo","steam_id":76561198039883392,"connected_time":250000000000,"state":"active","ping":59},{"user_id":707,"name":"The local hobo","steam_id":76561198289650060,"connected_time":500000000000,"state":"active","ping":82},{"user_id":706,"name":"scrotal recall","steam_id":76561198135945598,"connected_time":515000000000,"state":"active","ping":72},{"user_id":709,"name":"Ron Johnson","steam_id":76561198970084519,"connected_time":466000000000,"state":"active","ping":103},{"user_id":697,"name":"PINGAS DISPENSER™","steam_id":76561198014868070,"connected_time":876000000000,"state":"active","ping":97},{"user_id":713,"name":"An Unusual Eg","steam_id":76561198951441622,"connected_time":114000000000,"state":"active","ping":94},{"user_id":678,"name":"flamingcookies","steam_id":76561198280864779,"connected_time":1696000000000,"state":"active","ping":79},{"user_id":704,"name":"stinker","steam_id":76561198295640486,"connected_time":664000000000,"state":"active","ping":104},{"user_id":652,"name":"QueenPinharam","steam_id":76561199015626409,"connected_time":5207000000000,"state":"active","ping":81},{"user_id":705,"name":"SpaceLeezerd","steam_id":76561198171026678,"connected_time":644000000000,"state":"active","ping":51},{"user_id":676,"name":"Manic","steam_id":76561198128149670,"connected_time":2472000000000,"state":"active","ping":65},{"user_id":668,"name":"Kohaku","steam_id":76561198358814557,"connected_time":4378000000000,"state":"active","ping":49},{"user_id":701,"name":"ntjohn","steam_id":76561198043367011,"connected_time":765000000000,"state":"active","ping":61},{"user_id":690,"name":"Bored Barred Owl","steam_id":76561198263895597,"connected_time":1249000000000,"state":"active","ping":75},{"user_id":702,"name":"mountain*✩‧₊˚","steam_id":76561198078395002,"connected_time":764000000000,"state":"active","ping":66},{"user_id":711,"name":"YsL 4PF Dannnk","steam_id":76561198300094445,"connected_time":317000000000,"state":"active","ping":77}]},{"server_id":38,"name":"Uncletopia | Chicago | 7 | Stopwatch Beta","name_short":"chi-7","host":"chi-2.us.uncletopia.com","port":27035,"enabled":true,"region":"us-central","cc":"us","latitude":41.881832,"longitude":-87.62318,"reserved":0,"last_update":"0001-01-01T00:00:00Z","name_a2s":"Uncletopia | Chicago | 7 | Stopwatch Beta","protocol":17,"map":"workshop/pl_badwater_pro_v12.ugc2142942074","folder":"tf","game":"Team Fortress","app_id":440,"player_count":0,"max_players":24,"Bots":0,"server_type":"Dedicated","server_os":"Linux","password":true,"vac":true,"version":"7757534","steam_id":85568392924866364,"keywords":["nocrits","nodmgspread","payload","uncletopia"],"game_id":440,"stv_port":27036,"stv_name":"Uncletopia | Chicago | 7 | Stopwatch Beta | STV","players":null},{"server_id":39,"name":"Uncletopia | Chicago | 8 | Community","name_short":"chi-8","host":"chi-2.us.uncletopia.com","port":27045,"enabled":true,"region":"us-central","cc":"us","latitude":41.881832,"longitude":-87.62318,"reserved":0,"last_update":"0001-01-01T00:00:00Z","name_a2s":"Uncletopia | Chicago | 8 | Community","protocol":17,"map":"workshop/cp_hazyfort_rc6.ugc1365963729","folder":"tf","game":"Team Fortress","app_id":440,"player_count":20,"max_players":24,"Bots":0,"server_type":"Dedicated","server_os":"Linux","password":true,"vac":true,"version":"7757534","steam_id":85568392924866365,"keywords":["cp","nocrits","nodmgspread","uncletopia"],"game_id":440,"stv_port":27046,"stv_name":"Uncletopia | Chicago | 8 | Community | STV","players":[{"user_id":274,"name":"Dr Lazer","steam_id":76561199086408216,"connected_time":1052000000000,"state":"active","ping":83},{"user_id":284,"name":"Cheetose Intolerant","steam_id":76561198013399809,"connected_time":674000000000,"state":"active","ping":76},{"user_id":251,"name":"LONG WAY DOWN","steam_id":76561198138221795,"connected_time":2749000000000,"state":"active","ping":74},{"user_id":259,"name":"Mr. Sex","steam_id":76561198073501680,"connected_time":1855000000000,"state":"active","ping":71},{"user_id":273,"name":"GuyGoom","steam_id":76561198254522178,"connected_time":1186000000000,"state":"active","ping":56},{"user_id":271,"name":"Glazed","steam_id":76561198043020404,"connected_time":1271000000000,"state":"active","ping":86},{"user_id":285,"name":"Kit kyat","steam_id":76561198235786296,"connected_time":612000000000,"state":"active","ping":61},{"user_id":286,"name":"Goat","steam_id":76561198068447650,"connected_time":604000000000,"state":"active","ping":75},{"user_id":262,"name":"Gammaplex","steam_id":76561198981228176,"connected_time":1769000000000,"state":"active","ping":54},{"user_id":291,"name":"Joel Engiie","steam_id":76561198089691679,"connected_time":129000000000,"state":"active","ping":228},{"user_id":292,"name":"Belvidere","steam_id":76561198121336953,"connected_time":90000000000,"state":"active","ping":71},{"user_id":275,"name":"Adum","steam_id":76561198181162382,"connected_time":1033000000000,"state":"active","ping":67},{"user_id":290,"name":"Meta Binding","steam_id":76561198326821553,"connected_time":584000000000,"state":"active","ping":108},{"user_id":288,"name":"RandomBrute","steam_id":76561198383618776,"connected_time":596000000000,"state":"active","ping":70},{"user_id":280,"name":"UNIT 220","steam_id":76561198042243497,"connected_time":754000000000,"state":"active","ping":74},{"user_id":282,"name":"finman","steam_id":76561198127639913,"connected_time":743000000000,"state":"active","ping":104},{"user_id":283,"name":"bing chilling","steam_id":76561199416256786,"connected_time":734000000000,"state":"active","ping":109},{"user_id":249,"name":"ihave80hp","steam_id":76561199251621911,"connected_time":3119000000000,"state":"active","ping":88},{"user_id":289,"name":"Steven Legstrong","steam_id":76561198825817509,"connected_time":595000000000,"state":"active","ping":207},{"user_id":258,"name":"Allah","steam_id":76561198117264071,"connected_time":1940000000000,"state":"active","ping":72}]},{"server_id":8,"name":"Uncletopia | Dallas | 1 | All Maps","name_short":"dal-1","host":"dal-1.us.uncletopia.com","port":27015,"enabled":true,"region":"us-central","cc":"us","latitude":32.779167,"longitude":-96.80889,"reserved":0,"last_update":"0001-01-01T00:00:00Z","name_a2s":"Uncletopia | Dallas | 1 | All Maps","protocol":17,"map":"pl_upward","folder":"tf","game":"Team Fortress","app_id":440,"player_count":24,"max_players":24,"Bots":0,"server_type":"Dedicated","server_os":"Linux","password":true,"vac":true,"version":"7757534","steam_id":85568392924469986,"keywords":["nocrits","nodmgspread","payload","uncletopia"],"game_id":440,"stv_port":27016,"stv_name":"Uncletopia | Dallas | 1 | All Maps | STV","players":[{"user_id":657,"name":"Bogey","steam_id":76561198096227944,"connected_time":864000000000,"state":"active","ping":44},{"user_id":653,"name":"\"racecar\" rufus palindrome","steam_id":76561198063153699,"connected_time":1178000000000,"state":"active","ping":49},{"user_id":662,"name":"uwuziel","steam_id":76561198143355561,"connected_time":401000000000,"state":"active","ping":77},{"user_id":648,"name":"bash","steam_id":76561199161649534,"connected_time":2344000000000,"state":"active","ping":63},{"user_id":571,"name":"picnic blanket","steam_id":76561198308186037,"connected_time":9995000000000,"state":"active","ping":62},{"user_id":617,"name":"obamascout","steam_id":76561199073972797,"connected_time":5920000000000,"state":"active","ping":83},{"user_id":634,"name":"roleycoley","steam_id":76561198069574107,"connected_time":3677000000000,"state":"active","ping":51},{"user_id":659,"name":"like","steam_id":76561199103766971,"connected_time":664000000000,"state":"active","ping":123},{"user_id":595,"name":"ChottoAMinute","steam_id":76561198873157775,"connected_time":7813000000000,"state":"active","ping":41},{"user_id":647,"name":"KewlKris","steam_id":76561198260738308,"connected_time":2466000000000,"state":"active","ping":43},{"user_id":605,"name":"Hedsik","steam_id":76561198045797773,"connected_time":6952000000000,"state":"active","ping":54},{"user_id":565,"name":"aidan long","steam_id":76561198073022833,"connected_time":10284000000000,"state":"active","ping":41},{"user_id":660,"name":"plsplsplslol","steam_id":76561198868084626,"connected_time":565000000000,"state":"active","ping":85},{"user_id":640,"name":"Mr. Mime","steam_id":76561199197676776,"connected_time":3161000000000,"state":"active","ping":52},{"user_id":641,"name":"Can You Feel It Mr.Krabs","steam_id":76561198128302414,"connected_time":2893000000000,"state":"active","ping":66},{"user_id":614,"name":"Loki!","steam_id":76561198089201861,"connected_time":6149000000000,"state":"active","ping":61},{"user_id":650,"name":"0x01FE","steam_id":76561198838881917,"connected_time":1673000000000,"state":"active","ping":65},{"user_id":658,"name":"ryghehn","steam_id":76561198195359229,"connected_time":846000000000,"state":"active","ping":104},{"user_id":652,"name":"barker bill","steam_id":76561198018451994,"connected_time":1486000000000,"state":"active","ping":64},{"user_id":645,"name":"Dylan","steam_id":76561198265522923,"connected_time":2525000000000,"state":"active","ping":47},{"user_id":585,"name":"Talented","steam_id":76561198800259660,"connected_time":8480000000000,"state":"active","ping":75},{"user_id":633,"name":"*_*","steam_id":76561198937717599,"connected_time":3797000000000,"state":"active","ping":46},{"user_id":656,"name":"ゴ?!Jon Chainsaw!?ゴ","steam_id":76561198400240040,"connected_time":1026000000000,"state":"active","ping":49},{"user_id":625,"name":"owen","steam_id":76561198121517871,"connected_time":5017000000000,"state":"active","ping":59}]},{"server_id":108,"name":"Uncletopia | Dallas | 2 | All Maps","name_short":"dal-2","host":"dal-1.us.uncletopia.com","port":27025,"enabled":true,"region":"us-central","cc":"us","latitude":32.779167,"longitude":-96.80889,"reserved":0,"last_update":"0001-01-01T00:00:00Z","name_a2s":"Uncletopia | Dallas | 2 | All Maps","protocol":17,"map":"cp_sunshine","folder":"tf","game":"Team Fortress","app_id":440,"player_count":24,"max_players":24,"Bots":0,"server_type":"Dedicated","server_os":"Linux","password":true,"vac":true,"version":"7757534","steam_id":85568392924469988,"keywords":["cp","nocrits","nodmgspread","uncletopia"],"game_id":440,"stv_port":27026,"stv_name":"Uncletopia | Dallas | 2 | All Maps | STV","players":[{"user_id":571,"name":"BaRs","steam_id":76561198981717009,"connected_time":931000000000,"state":"active","ping":59},{"user_id":564,"name":"skegeton","steam_id":76561198095581099,"connected_time":1812000000000,"state":"active","ping":57},{"user_id":561,"name":"sora","steam_id":76561198094256973,"connected_time":2374000000000,"state":"active","ping":93},{"user_id":537,"name":"Gelliterate","steam_id":76561198107233070,"connected_time":4487000000000,"state":"active","ping":54},{"user_id":576,"name":"British Zoner","steam_id":76561198977330214,"connected_time":710000000000,"state":"active","ping":259},{"user_id":577,"name":"Jaded","steam_id":76561198272575611,"connected_time":690000000000,"state":"active","ping":54},{"user_id":578,"name":"Pestilence","steam_id":76561198272327629,"connected_time":686000000000,"state":"active","ping":94},{"user_id":566,"name":"Misfit","steam_id":76561198044561021,"connected_time":1408000000000,"state":"active","ping":96},{"user_id":579,"name":"GloryToFlygod","steam_id":76561198963236216,"connected_time":674000000000,"state":"active","ping":81},{"user_id":580,"name":"bo scrungulus","steam_id":76561198038036122,"connected_time":673000000000,"state":"active","ping":61},{"user_id":570,"name":"Rallen","steam_id":76561198088024663,"connected_time":944000000000,"state":"active","ping":67},{"user_id":567,"name":"xZackAttack27x","steam_id":76561198035446639,"connected_time":1351000000000,"state":"active","ping":37},{"user_id":555,"name":"motherfucker 2.0","steam_id":76561198141189209,"connected_time":2599000000000,"state":"active","ping":44},{"user_id":536,"name":"Craven_Canary","steam_id":76561198088191503,"connected_time":4530000000000,"state":"active","ping":72},{"user_id":554,"name":"themadlad67","steam_id":76561199309554436,"connected_time":2601000000000,"state":"active","ping":105},{"user_id":569,"name":"Romo","steam_id":76561198243101572,"connected_time":958000000000,"state":"active","ping":72},{"user_id":585,"name":"pete_the_cat_2014","steam_id":76561198199266047,"connected_time":524000000000,"state":"active","ping":73},{"user_id":565,"name":"fire","steam_id":76561198044354279,"connected_time":1575000000000,"state":"active","ping":75},{"user_id":581,"name":"Brock Obama","steam_id":76561198094643755,"connected_time":672000000000,"state":"active","ping":60},{"user_id":538,"name":"ハグ","steam_id":76561198015072472,"connected_time":4354000000000,"state":"active","ping":69},{"user_id":586,"name":"RedFlare","steam_id":76561199254669036,"connected_time":238000000000,"state":"active","ping":84},{"user_id":583,"name":"Lebon Jame","steam_id":76561199102385595,"connected_time":651000000000,"state":"active","ping":94},{"user_id":557,"name":"Post nut clarity","steam_id":76561198060246831,"connected_time":2585000000000,"state":"active","ping":110},{"user_id":584,"name":"Flashtasm","steam_id":76561198026635660,"connected_time":543000000000,"state":"active","ping":86}]},{"server_id":5,"name":"Uncletopia | Frankfurt | 1 | All Maps","name_short":"frk-1","host":"frk-1.de.uncletopia.com","port":27015,"enabled":true,"region":"eu","cc":"de","latitude":50.110924,"longitude":8.682127,"reserved":0,"last_update":"0001-01-01T00:00:00Z","name_a2s":"Uncletopia | Frankfurt | 1 | All Maps","protocol":17,"map":"pl_snowycoast","folder":"tf","game":"Team Fortress","app_id":440,"player_count":0,"max_players":24,"Bots":0,"server_type":"Dedicated","server_os":"Linux","password":true,"vac":true,"version":"7757534","steam_id":85568392924469989,"keywords":["nocrits","nodmgspread","payload","uncletopia"],"game_id":440,"stv_port":27016,"stv_name":"Uncletopia | Frankfurt | 1 | All Maps | STV","players":null},{"server_id":110,"name":"Uncletopia | Frankfurt | 2 | All Maps","name_short":"frk-2","host":"frk-1.de.uncletopia.com","port":27025,"enabled":true,"region":"eu","cc":"de","latitude":50.110924,"longitude":8.682127,"reserved":0,"last_update":"0001-01-01T00:00:00Z","name_a2s":"Uncletopia | Frankfurt | 2 | All Maps","protocol":17,"map":"cp_snakewater_final1","folder":"tf","game":"Team Fortress","app_id":440,"player_count":0,"max_players":24,"Bots":0,"server_type":"Dedicated","server_os":"Linux","password":true,"vac":true,"version":"7757534","steam_id":85568392924469990,"keywords":["cp","nocrits","nodmgspread","uncletopia"],"game_id":440,"stv_port":27026,"stv_name":"Uncletopia | Frankfurt | 2 | All Maps | STV","players":null},{"server_id":308,"name":"Uncletopia | Frankfurt | 3 | All Maps","name_short":"frk-3","host":"frk-1.de.uncletopia.com","port":27035,"enabled":true,"region":"eu","cc":"de","latitude":50.110924,"longitude":8.682127,"reserved":0,"last_update":"0001-01-01T00:00:00Z","name_a2s":"Uncletopia | Frankfurt | 3 | All Maps","protocol":17,"map":"pl_swiftwater_final1","folder":"tf","game":"Team Fortress","app_id":440,"player_count":0,"max_players":24,"Bots":0,"server_type":"Dedicated","server_os":"Linux","password":true,"vac":true,"version":"7757534","steam_id":85568392924504274,"keywords":["nocrits","nodmgspread","payload","uncletopia"],"game_id":440,"stv_port":27036,"stv_name":"Uncletopia | Frankfurt | 3 | All Maps | STV","players":null},{"server_id":309,"name":"Uncletopia | Frankfurt | 4 | All Maps","name_short":"frk-4","host":"frk-1.de.uncletopia.com","port":27045,"enabled":true,"region":"eu","cc":"de","latitude":50.110924,"longitude":8.682127,"reserved":0,"last_update":"0001-01-01T00:00:00Z","name_a2s":"Uncletopia | Frankfurt | 4 | All Maps","protocol":17,"map":"koth_viaduct","folder":"tf","game":"Team Fortress","app_id":440,"player_count":0,"max_players":24,"Bots":0,"server_type":"Dedicated","server_os":"Linux","password":true,"vac":true,"version":"7757534","steam_id":85568392924504275,"keywords":["cp","nocrits","nodmgspread","uncletopia"],"game_id":440,"stv_port":27046,"stv_name":"Uncletopia | Frankfurt | 4 | All Maps | STV","players":null},{"server_id":310,"name":"Uncletopia | Frankfurt | 5 | All Maps","name_short":"frk-5","host":"frk-1.de.uncletopia.com","port":27055,"enabled":true,"region":"eu","cc":"de","latitude":50.110924,"longitude":8.682127,"reserved":0,"last_update":"0001-01-01T00:00:00Z","name_a2s":"Uncletopia | Frankfurt | 5 | All Maps","protocol":17,"map":"koth_lakeside_final","folder":"tf","game":"Team Fortress","app_id":440,"player_count":0,"max_players":24,"Bots":0,"server_type":"Dedicated","server_os":"Linux","password":true,"vac":true,"version":"7757534","steam_id":85568392924504277,"keywords":["cp","nocrits","nodmgspread","uncletopia"],"game_id":440,"stv_port":27056,"stv_name":"Uncletopia | Frankfurt | 5 | All Maps | STV","players":null},{"server_id":311,"name":"Uncletopia | Frankfurt | 6 | All Maps","name_short":"frk-6","host":"frk-1.de.uncletopia.com","port":27065,"enabled":true,"region":"eu","cc":"de","latitude":50.110924,"longitude":8.682127,"reserved":0,"last_update":"0001-01-01T00:00:00Z","name_a2s":"Uncletopia | Frankfurt | 6 | All Maps","protocol":17,"map":"pl_frontier_final","folder":"tf","game":"Team Fortress","app_id":440,"player_count":0,"max_players":24,"Bots":0,"server_type":"Dedicated","server_os":"Linux","password":true,"vac":true,"version":"7757534","steam_id":85568392924504278,"keywords":["nocrits","nodmgspread","payload","uncletopia"],"game_id":440,"stv_port":27066,"stv_name":"Uncletopia | Frankfurt | 6 | All Maps | STV","players":null},{"server_id":23,"name":"Uncletopia | Frankfurt | 7 | Stopwatch Beta","name_short":"frk-7","host":"frk-1.de.uncletopia.com","port":27075,"enabled":true,"region":"eu","cc":"de","latitude":50.110924,"longitude":8.682127,"reserved":0,"last_update":"0001-01-01T00:00:00Z","name_a2s":"Uncletopia | Frankfurt | 7 | Stopwatch Beta","protocol":17,"map":"cp_sunshine","folder":"tf","game":"Team Fortress","app_id":440,"player_count":0,"max_players":24,"Bots":0,"server_type":"Dedicated","server_os":"Linux","password":true,"vac":true,"version":"7757534","steam_id":85568392924742827,"keywords":["cp","nocrits","nodmgspread","uncletopia"],"game_id":440,"stv_port":27076,"stv_name":"Uncletopia | Frankfurt | 7 | Stopwatch Beta | STV","players":null},{"server_id":24,"name":"Uncletopia | Frankfurt | 8 | Community","name_short":"frk-8","host":"frk-1.de.uncletopia.com","port":27085,"enabled":true,"region":"eu","cc":"de","latitude":50.110924,"longitude":8.682127,"reserved":0,"last_update":"0001-01-01T00:00:00Z","name_a2s":"Uncletopia | Frankfurt | 8 | Community","protocol":17,"map":"koth_lakeside_final","folder":"tf","game":"Team Fortress","app_id":440,"player_count":0,"max_players":24,"Bots":0,"server_type":"Dedicated","server_os":"Linux","password":true,"vac":true,"version":"7757534","steam_id":85568392924742828,"keywords":["cp","nocrits","nodmgspread","uncletopia"],"game_id":440,"stv_port":27086,"stv_name":"Uncletopia | Frankfurt | 8 | Community | STV","players":null},{"server_id":202,"name":"Uncletopia | Hong Kong | 1 | All Maps","name_short":"hgk-1","host":"hgk-1.hk.uncletopia.com","port":27015,"enabled":true,"region":"asia","cc":"hk","latitude":22.302711,"longitude":114.177216,"reserved":0,"last_update":"0001-01-01T00:00:00Z","name_a2s":"Uncletopia | Hong Kong | 1 | All Maps","protocol":17,"map":"cp_sunshine","folder":"tf","game":"Team Fortress","app_id":440,"player_count":0,"max_players":24,"Bots":0,"server_type":"Dedicated","server_os":"Linux","password":true,"vac":true,"version":"7757534","steam_id":85568392924494504,"keywords":["cp","nocrits","nodmgspread","uncletopia"],"game_id":440,"stv_port":27016,"stv_name":"Uncletopia | Hong Kong | 1 | All Maps | STV","players":null},{"server_id":1,"name":"Uncletopia | Los Angeles | 1 | All Maps","name_short":"lax-1","host":"lax-1.us.uncletopia.com","port":27015,"enabled":true,"region":"us-west","cc":"us","latitude":33.94279,"longitude":-118.41004,"reserved":0,"last_update":"0001-01-01T00:00:00Z","name_a2s":"Uncletopia | Los Angeles | 1 | All Maps","protocol":17,"map":"plr_hightower","folder":"tf","game":"Team Fortress","app_id":440,"player_count":20,"max_players":24,"Bots":0,"server_type":"Dedicated","server_os":"Linux","password":true,"vac":true,"version":"7757534","steam_id":85568392924469991,"keywords":["nocrits","nodmgspread","payload","uncletopia"],"game_id":440,"stv_port":27016,"stv_name":"Uncletopia | Los Angeles | 1 | All Maps | STV","players":[{"user_id":373,"name":"heimdall","steam_id":76561198069380992,"connected_time":3263000000000,"state":"spawning","ping":100},{"user_id":332,"name":"PEPSI POWERED MAN","steam_id":76561198362668431,"connected_time":5798000000000,"state":"spawning","ping":148},{"user_id":392,"name":"HanakoToast","steam_id":76561198045233131,"connected_time":1436000000000,"state":"spawning","ping":54},{"user_id":405,"name":"vioxynteris","steam_id":76561198161428666,"connected_time":87000000000,"state":"spawning","ping":48},{"user_id":399,"name":"Meth Goblin","steam_id":76561198086355221,"connected_time":968000000000,"state":"spawning","ping":90},{"user_id":343,"name":"Son_ofSpartacus","steam_id":76561198051791310,"connected_time":4946000000000,"state":"spawning","ping":116},{"user_id":381,"name":"An00bis","steam_id":76561198044084508,"connected_time":1884000000000,"state":"connecting","ping":165},{"user_id":382,"name":"Thequirka","steam_id":76561198968058652,"connected_time":1872000000000,"state":"spawning","ping":105},{"user_id":400,"name":"xbox record that","steam_id":76561198150117455,"connected_time":444000000000,"state":"spawning","ping":71},{"user_id":344,"name":"Level","steam_id":76561198824856288,"connected_time":4944000000000,"state":"spawning","ping":82},{"user_id":401,"name":"Nightlygalad","steam_id":76561198170693990,"connected_time":332000000000,"state":"spawning","ping":79},{"user_id":404,"name":"Nemesis_421.EXE","steam_id":76561198311948563,"connected_time":189000000000,"state":"spawning","ping":61},{"user_id":339,"name":"Nugakku","steam_id":76561198082346219,"connected_time":5290000000000,"state":"spawning","ping":81},{"user_id":378,"name":"Captain Crunch_","steam_id":76561198117487062,"connected_time":2311000000000,"state":"spawning","ping":67},{"user_id":384,"name":"Shook","steam_id":76561198054064995,"connected_time":1828000000000,"state":"spawning","ping":94},{"user_id":359,"name":"023e20902o0239ee02390o239e","steam_id":76561198175741741,"connected_time":4404000000000,"state":"spawning","ping":117},{"user_id":376,"name":"selvhat","steam_id":76561198114225509,"connected_time":2793000000000,"state":"spawning","ping":70},{"user_id":379,"name":"vanillain","steam_id":76561198058617608,"connected_time":1922000000000,"state":"spawning","ping":96},{"user_id":398,"name":"checkswing","steam_id":76561198999816132,"connected_time":1005000000000,"state":"spawning","ping":137},{"user_id":337,"name":"Celia [ +/- ] ✔","steam_id":76561198067164431,"connected_time":5419000000000,"state":"spawning","ping":51}]},{"server_id":112,"name":"Uncletopia | Los Angeles | 2 | All Maps","name_short":"lax-2","host":"lax-1.us.uncletopia.com","port":27025,"enabled":true,"region":"us-west","cc":"us","latitude":33.94279,"longitude":-118.41004,"reserved":0,"last_update":"0001-01-01T00:00:00Z","name_a2s":"Uncletopia | Los Angeles | 2 | All Maps","protocol":17,"map":"cp_mountainlab","folder":"tf","game":"Team Fortress","app_id":440,"player_count":24,"max_players":24,"Bots":0,"server_type":"Dedicated","server_os":"Linux","password":true,"vac":true,"version":"7757534","steam_id":85568392924469992,"keywords":["cp","nocrits","nodmgspread","uncletopia"],"game_id":440,"stv_port":27026,"stv_name":"Uncletopia | Los Angeles | 2 | All Maps | STV","players":[{"user_id":274,"name":"Mini","steam_id":76561198119708149,"connected_time":1684000000000,"state":"active","ping":61},{"user_id":247,"name":"Tetra","steam_id":76561198012329955,"connected_time":3805000000000,"state":"active","ping":83},{"user_id":211,"name":"❤ Ashley ❤","steam_id":76561198056428303,"connected_time":6389000000000,"state":"active","ping":52},{"user_id":287,"name":"Altruisticailuridae","steam_id":76561198335295596,"connected_time":813000000000,"state":"active","ping":56},{"user_id":295,"name":"TYJOR1","steam_id":76561198290269128,"connected_time":540000000000,"state":"active","ping":48},{"user_id":294,"name":"Dr. drippenstein","steam_id":76561198209380493,"connected_time":607000000000,"state":"active","ping":105},{"user_id":252,"name":"A pack of feral hogs","steam_id":76561198374279594,"connected_time":3357000000000,"state":"active","ping":59},{"user_id":215,"name":"weedmaster","steam_id":76561199012869095,"connected_time":6244000000000,"state":"active","ping":108},{"user_id":289,"name":"Mustachacre","steam_id":76561198056309992,"connected_time":676000000000,"state":"active","ping":75},{"user_id":297,"name":"Saucy Santum","steam_id":76561199245789973,"connected_time":473000000000,"state":"active","ping":57},{"user_id":266,"name":"SuperViolence","steam_id":76561198973670368,"connected_time":2828000000000,"state":"active","ping":70},{"user_id":270,"name":"rmbl","steam_id":76561198150137369,"connected_time":2499000000000,"state":"active","ping":48},{"user_id":300,"name":"rat","steam_id":76561198069648768,"connected_time":195000000000,"state":"active","ping":48},{"user_id":284,"name":"Yosh","steam_id":76561198027078899,"connected_time":907000000000,"state":"active","ping":90},{"user_id":299,"name":"Blind","steam_id":76561198986055111,"connected_time":245000000000,"state":"active","ping":75},{"user_id":296,"name":"XxChocola20xX","steam_id":76561199108579557,"connected_time":505000000000,"state":"active","ping":69},{"user_id":271,"name":"basil","steam_id":76561198075758026,"connected_time":2427000000000,"state":"active","ping":113},{"user_id":239,"name":"fruty nudie noodle","steam_id":76561198894676484,"connected_time":4437000000000,"state":"active","ping":42},{"user_id":286,"name":"SanitysEdge","steam_id":76561198130732813,"connected_time":868000000000,"state":"active","ping":49},{"user_id":298,"name":"HeroOfTime","steam_id":76561199096218001,"connected_time":437000000000,"state":"active","ping":54},{"user_id":288,"name":"post traumatic swag disorder","steam_id":76561198093105234,"connected_time":695000000000,"state":"active","ping":105},{"user_id":235,"name":"wizard","steam_id":76561197974871380,"connected_time":4712000000000,"state":"active","ping":75},{"user_id":293,"name":"People's Champ","steam_id":76561198040781615,"connected_time":636000000000,"state":"active","ping":60},{"user_id":276,"name":"big car","steam_id":76561198067082350,"connected_time":1444000000000,"state":"active","ping":59}]},{"server_id":324,"name":"Uncletopia | Los Angeles | 3 | All Maps","name_short":"lax-3","host":"lax-1.us.uncletopia.com","port":27035,"enabled":true,"region":"us-west","cc":"us","latitude":33.94279,"longitude":-118.41004,"reserved":0,"last_update":"0001-01-01T00:00:00Z","name_a2s":"Uncletopia | Los Angeles | 3 | All Maps","protocol":17,"map":"cp_dustbowl","folder":"tf","game":"Team Fortress","app_id":440,"player_count":24,"max_players":24,"Bots":0,"server_type":"Dedicated","server_os":"Linux","password":true,"vac":true,"version":"7757534","steam_id":85568392924510198,"keywords":["cp","nocrits","nodmgspread","uncletopia"],"game_id":440,"stv_port":27036,"stv_name":"Uncletopia | Los Angeles | 3 | All Maps | STV","players":[{"user_id":280,"name":"BBL Sponsor","steam_id":76561199093733603,"connected_time":2746000000000,"state":"active","ping":52},{"user_id":298,"name":"Living Is Pain","steam_id":76561198451994026,"connected_time":1278000000000,"state":"active","ping":40},{"user_id":258,"name":"General Salmon","steam_id":76561198268279919,"connected_time":3920000000000,"state":"active","ping":75},{"user_id":279,"name":"Death Bird","steam_id":76561198041329791,"connected_time":2759000000000,"state":"active","ping":45},{"user_id":239,"name":"Frodo T Baggins","steam_id":76561198048090297,"connected_time":4805000000000,"state":"active","ping":111},{"user_id":301,"name":"Menacing Pile of Frogs","steam_id":76561198360134800,"connected_time":1018000000000,"state":"active","ping":104},{"user_id":285,"name":"Twombly","steam_id":76561198056532348,"connected_time":2547000000000,"state":"active","ping":60},{"user_id":292,"name":"HOG RIDER","steam_id":76561198298589502,"connected_time":1776000000000,"state":"active","ping":46},{"user_id":294,"name":"John Coltrane","steam_id":76561198037789297,"connected_time":1335000000000,"state":"active","ping":107},{"user_id":295,"name":"DeathSushi","steam_id":76561199156131540,"connected_time":1324000000000,"state":"active","ping":119},{"user_id":296,"name":"BreadQuest","steam_id":76561198082425960,"connected_time":1302000000000,"state":"active","ping":74},{"user_id":289,"name":"Waterhorse928","steam_id":76561198268204050,"connected_time":2138000000000,"state":"active","ping":66},{"user_id":255,"name":"nescoceo","steam_id":76561198040801160,"connected_time":4061000000000,"state":"active","ping":49},{"user_id":299,"name":"Valentín Elizalde Gaming","steam_id":76561198199051589,"connected_time":1256000000000,"state":"active","ping":102},{"user_id":229,"name":"everyrockstar!","steam_id":76561198272094975,"connected_time":5055000000000,"state":"active","ping":88},{"user_id":259,"name":"Breacher99","steam_id":76561198153423544,"connected_time":3919000000000,"state":"active","ping":67},{"user_id":284,"name":"The Professor","steam_id":76561198046165617,"connected_time":2553000000000,"state":"active","ping":73},{"user_id":281,"name":"El Gato Paranoico","steam_id":76561198116567116,"connected_time":2711000000000,"state":"active","ping":91},{"user_id":291,"name":"Zoro01","steam_id":76561198407989540,"connected_time":1943000000000,"state":"active","ping":130},{"user_id":260,"name":"babywizard","steam_id":76561198097757862,"connected_time":3905000000000,"state":"active","ping":67},{"user_id":300,"name":"ShadowZiki","steam_id":76561198145930013,"connected_time":1235000000000,"state":"active","ping":46},{"user_id":287,"name":"Nova Academy of Salmon Action","steam_id":76561198021842526,"connected_time":2443000000000,"state":"active","ping":71},{"user_id":282,"name":"Whoplops","steam_id":76561197977188933,"connected_time":2711000000000,"state":"active","ping":122},{"user_id":278,"name":"Tmiracle","steam_id":76561198052375275,"connected_time":2820000000000,"state":"active","ping":46}]},{"server_id":25,"name":"Uncletopia | Los Angeles | 4 | Stopwatch Beta","name_short":"lax-4","host":"lax-1.us.uncletopia.com","port":27045,"enabled":true,"region":"us-west","cc":"us","latitude":33.94279,"longitude":-118.41004,"reserved":0,"last_update":"0001-01-01T00:00:00Z","name_a2s":"Uncletopia | Los Angeles | 4 | Stopwatch Beta","protocol":17,"map":"pl_swiftwater_final1","folder":"tf","game":"Team Fortress","app_id":440,"player_count":0,"max_players":24,"Bots":0,"server_type":"Dedicated","server_os":"Linux","password":true,"vac":true,"version":"7757534","steam_id":85568392924510199,"keywords":["nocrits","nodmgspread","payload","uncletopia"],"game_id":440,"stv_port":27046,"stv_name":"Uncletopia | Los Angeles | 4 | Stopwatch Beta | STV","players":null},{"server_id":11,"name":"Uncletopia | London | 1 | All Maps","name_short":"lon-1","host":"lon-1.uk.uncletopia.com","port":27015,"enabled":true,"region":"eu","cc":"gb","latitude":51.509865,"longitude":-0.118092,"reserved":0,"last_update":"0001-01-01T00:00:00Z","name_a2s":"Uncletopia | London | 1 | All Maps","protocol":17,"map":"cp_dustbowl","folder":"tf","game":"Team Fortress","app_id":440,"player_count":24,"max_players":24,"Bots":0,"server_type":"Dedicated","server_os":"Linux","password":true,"vac":true,"version":"7757534","steam_id":85568392924367362,"keywords":["cp","nocrits","nodmgspread","uncletopia"],"game_id":440,"stv_port":27016,"stv_name":"Uncletopia | London | 1 | All Maps | STV","players":[{"user_id":925,"name":"tïger","steam_id":76561198260483157,"connected_time":11974000000000,"state":"active","ping":77},{"user_id":1053,"name":"Billi would be proud of me","steam_id":76561198080150544,"connected_time":133000000000,"state":"active","ping":109},{"user_id":1024,"name":"Dim","steam_id":76561198141549249,"connected_time":1970000000000,"state":"active","ping":136},{"user_id":1036,"name":"63756d","steam_id":76561198808699024,"connected_time":1477000000000,"state":"active","ping":73},{"user_id":999,"name":"jones","steam_id":76561198044434971,"connected_time":3226000000000,"state":"active","ping":65},{"user_id":1018,"name":")","steam_id":76561198331329777,"connected_time":2284000000000,"state":"active","ping":65},{"user_id":1051,"name":"weed fairy","steam_id":76561197998843096,"connected_time":235000000000,"state":"active","ping":84},{"user_id":1049,"name":"hug giver","steam_id":76561198412702855,"connected_time":338000000000,"state":"active","ping":30},{"user_id":1052,"name":"Greg","steam_id":76561198014131702,"connected_time":157000000000,"state":"active","ping":120},{"user_id":1054,"name":"B.batt","steam_id":76561198998684199,"connected_time":25000000000,"state":"active","ping":131},{"user_id":1003,"name":"Lyncurion","steam_id":76561199260022725,"connected_time":2998000000000,"state":"active","ping":83},{"user_id":997,"name":"Shynii","steam_id":76561198194682105,"connected_time":3512000000000,"state":"active","ping":58},{"user_id":989,"name":"øpossum","steam_id":76561198056152479,"connected_time":4500000000000,"state":"active","ping":39},{"user_id":1030,"name":"🃔 Nugg1t(she/they)","steam_id":76561198065652251,"connected_time":1688000000000,"state":"active","ping":53},{"user_id":1008,"name":"Speeder Mingus","steam_id":76561198106841910,"connected_time":2606000000000,"state":"active","ping":161},{"user_id":992,"name":"Bada Bing!","steam_id":76561198073332036,"connected_time":4155000000000,"state":"active","ping":111},{"user_id":1032,"name":"aight","steam_id":76561198174474613,"connected_time":1586000000000,"state":"active","ping":40},{"user_id":1038,"name":"76561198178227903","steam_id":76561198178227903,"connected_time":1388000000000,"state":"active","ping":89},{"user_id":1017,"name":"ja","steam_id":76561199228540618,"connected_time":2293000000000,"state":"active","ping":89},{"user_id":1039,"name":"челкарь против ш\ufffd","steam_id":76561199149307190,"connected_time":1370000000000,"state":"active","ping":90},{"user_id":1033,"name":"Robi","steam_id":76561198155130815,"connected_time":1582000000000,"state":"active","ping":69},{"user_id":1035,"name":"Lenny","steam_id":76561198183943137,"connected_time":1529000000000,"state":"active","ping":134},{"user_id":1041,"name":"jonbob","steam_id":76561197963506620,"connected_time":1272000000000,"state":"active","ping":47},{"user_id":1044,"name":"grif","steam_id":76561198272333800,"connected_time":1101000000000,"state":"active","ping":142}]},{"server_id":114,"name":"Uncletopia | London | 2 | All Maps","name_short":"lon-2","host":"lon-1.uk.uncletopia.com","port":27025,"enabled":true,"region":"eu","cc":"gb","latitude":51.509865,"longitude":-0.118092,"reserved":0,"last_update":"0001-01-01T00:00:00Z","name_a2s":"Uncletopia | London | 2 | All Maps","protocol":17,"map":"cp_process_final","folder":"tf","game":"Team Fortress","app_id":440,"player_count":1,"max_players":24,"Bots":0,"server_type":"Dedicated","server_os":"Linux","password":true,"vac":true,"version":"7757534","steam_id":85568392924470941,"keywords":["cp","nocrits","nodmgspread","uncletopia"],"game_id":440,"stv_port":27026,"stv_name":"Uncletopia | London | 2 | All Maps | STV","players":[{"user_id":604,"name":"golem","steam_id":76561198355040593,"connected_time":1000000000,"state":"spawning","ping":74}]},{"server_id":320,"name":"Uncletopia | London | 3 | All Maps","name_short":"lon-3","host":"lon-1.uk.uncletopia.com","port":27035,"enabled":true,"region":"eu","cc":"gb","latitude":51.509865,"longitude":-0.118092,"reserved":0,"last_update":"0001-01-01T00:00:00Z","name_a2s":"Uncletopia | London | 3 | All Maps","protocol":17,"map":"koth_viaduct","folder":"tf","game":"Team Fortress","app_id":440,"player_count":0,"max_players":24,"Bots":0,"server_type":"Dedicated","server_os":"Linux","password":true,"vac":true,"version":"7757534","steam_id":85568392924510192,"keywords":["cp","nocrits","nodmgspread","uncletopia"],"game_id":440,"stv_port":27036,"stv_name":"Uncletopia | London | 3 | All Maps | STV","players":null},{"server_id":321,"name":"Uncletopia | London | 4 | All Maps","name_short":"lon-4","host":"lon-1.uk.uncletopia.com","port":27045,"enabled":true,"region":"eu","cc":"gb","latitude":51.509865,"longitude":-0.118092,"reserved":0,"last_update":"0001-01-01T00:00:00Z","name_a2s":"Uncletopia | London | 4 | All Maps","protocol":17,"map":"koth_highpass","folder":"tf","game":"Team Fortress","app_id":440,"player_count":0,"max_players":24,"Bots":0,"server_type":"Dedicated","server_os":"Linux","password":true,"vac":true,"version":"7757534","steam_id":85568392924510193,"keywords":["cp","nocrits","nodmgspread","uncletopia"],"game_id":440,"stv_port":27046,"stv_name":"Uncletopia | London | 4 | All Maps | STV","players":null},{"server_id":21,"name":"Uncletopia | London | 5 | All Maps","name_short":"lon-5","host":"lon-1.uk.uncletopia.com","port":27055,"enabled":true,"region":"eu","cc":"gb","latitude":51.509865,"longitude":-0.118092,"reserved":0,"last_update":"0001-01-01T00:00:00Z","name_a2s":"Uncletopia | London | 5 | All Maps","protocol":17,"map":"koth_viaduct","folder":"tf","game":"Team Fortress","app_id":440,"player_count":0,"max_players":24,"Bots":0,"server_type":"Dedicated","server_os":"Linux","password":true,"vac":true,"version":"7757534","steam_id":85568392924742829,"keywords":["cp","nocrits","nodmgspread","uncletopia"],"game_id":440,"stv_port":27056,"stv_name":"Uncletopia | London | 5 | All Maps | STV","players":null},{"server_id":22,"name":"Uncletopia | London | 6 | All Maps","name_short":"lon-6","host":"lon-1.uk.uncletopia.com","port":27065,"enabled":true,"region":"eu","cc":"gb","latitude":51.509865,"longitude":-0.118092,"reserved":0,"last_update":"0001-01-01T00:00:00Z","name_a2s":"Uncletopia | London | 6 | All Maps","protocol":17,"map":"koth_lakeside_final","folder":"tf","game":"Team Fortress","app_id":440,"player_count":0,"max_players":24,"Bots":0,"server_type":"Dedicated","server_os":"Linux","password":true,"vac":true,"version":"7757534","steam_id":85568392924742830,"keywords":["cp","nocrits","nodmgspread","uncletopia"],"game_id":440,"stv_port":27066,"stv_name":"Uncletopia | London | 6 | All Maps | STV","players":null},{"server_id":40,"name":"Uncletopia | London | 7 | No Payload","name_short":"lon-7","host":"lon-1.uk.uncletopia.com","port":27075,"enabled":true,"region":"eu","cc":"gb","latitude":51.509865,"longitude":-0.118092,"reserved":0,"last_update":"0001-01-01T00:00:00Z","name_a2s":"Uncletopia | London | 7 | No Payload","protocol":17,"map":"cp_gravelpit","folder":"tf","game":"Team Fortress","app_id":440,"player_count":0,"max_players":24,"Bots":0,"server_type":"Dedicated","server_os":"Linux","password":true,"vac":true,"version":"7757534","steam_id":85568392924964314,"keywords":["cp","nocrits","nodmgspread","uncletopia"],"game_id":440,"stv_port":27076,"stv_name":"Uncletopia | London | 7 | No Payload | STV","players":null},{"server_id":41,"name":"Uncletopia | London | 8 | Community","name_short":"lon-8","host":"lon-1.uk.uncletopia.com","port":27085,"enabled":true,"region":"eu","cc":"gb","latitude":51.509865,"longitude":-0.118092,"reserved":0,"last_update":"0001-01-01T00:00:00Z","name_a2s":"Uncletopia | London | 8 | Community","protocol":17,"map":"workshop/koth_bagel_rc6.ugc2514036946","folder":"tf","game":"Team Fortress","app_id":440,"player_count":0,"max_players":24,"Bots":0,"server_type":"Dedicated","server_os":"Linux","password":true,"vac":true,"version":"7757534","steam_id":85568392924964315,"keywords":["cp","nocrits","nodmgspread","uncletopia"],"game_id":440,"stv_port":27086,"stv_name":"Uncletopia | London | 8 | Community | STV","players":null},{"server_id":300,"name":"Uncletopia | Montréal | 1 | All Maps","name_short":"mtl-1","host":"mtl-1.ca.uncletopia.com","port":27015,"enabled":true,"region":"us-east","cc":"ca","latitude":45.50889,"longitude":-73.56167,"reserved":0,"last_update":"0001-01-01T00:00:00Z","name_a2s":"Uncletopia | Montréal | 1 | All Maps","protocol":17,"map":"pl_borneo","folder":"tf","game":"Team Fortress","app_id":440,"player_count":19,"max_players":24,"Bots":0,"server_type":"Dedicated","server_os":"Linux","password":true,"vac":true,"version":"7757534","steam_id":85568392924500087,"keywords":["nocrits","nodmgspread","payload","uncletopia"],"game_id":440,"stv_port":27016,"stv_name":"Uncletopia | Montréal | 1 | All Maps | STV","players":[{"user_id":406,"name":"java","steam_id":76561198030276792,"connected_time":497000000000,"state":"active","ping":63},{"user_id":407,"name":"XBOX 360","steam_id":76561198066590783,"connected_time":402000000000,"state":"active","ping":63},{"user_id":402,"name":"AlecTheNefarious","steam_id":76561198035291230,"connected_time":1134000000000,"state":"active","ping":83},{"user_id":386,"name":"Ghost","steam_id":76561198426370628,"connected_time":2381000000000,"state":"active","ping":71},{"user_id":408,"name":"Nyko","steam_id":76561198143197549,"connected_time":360000000000,"state":"active","ping":66},{"user_id":410,"name":"DJ Sheeve","steam_id":76561198095910139,"connected_time":208000000000,"state":"active","ping":79},{"user_id":409,"name":"pastas","steam_id":76561198154774351,"connected_time":327000000000,"state":"active","ping":75},{"user_id":411,"name":"Fiendish Frog","steam_id":76561198029478821,"connected_time":174000000000,"state":"active","ping":60},{"user_id":397,"name":"SolidBoi","steam_id":76561198434263901,"connected_time":1416000000000,"state":"active","ping":60},{"user_id":393,"name":"Aristotle Voulton","steam_id":76561198100174923,"connected_time":1708000000000,"state":"active","ping":88},{"user_id":374,"name":"Buck","steam_id":76561198064244796,"connected_time":3347000000000,"state":"active","ping":60},{"user_id":398,"name":"steggy","steam_id":76561198000564263,"connected_time":1250000000000,"state":"active","ping":79},{"user_id":394,"name":"ChefBev","steam_id":76561198189448113,"connected_time":1623000000000,"state":"active","ping":45},{"user_id":399,"name":"spaghetti","steam_id":76561198010019214,"connected_time":1246000000000,"state":"active","ping":38},{"user_id":382,"name":"thybored","steam_id":76561199216775300,"connected_time":3133000000000,"state":"active","ping":89},{"user_id":400,"name":"lanoc","steam_id":76561198055415367,"connected_time":1245000000000,"state":"active","ping":75},{"user_id":366,"name":"Glass Joe","steam_id":76561198317365741,"connected_time":3850000000000,"state":"active","ping":56},{"user_id":403,"name":"Dastardly","steam_id":76561198028351509,"connected_time":841000000000,"state":"active","ping":145},{"user_id":368,"name":"Sprucelass","steam_id":76561197998391724,"connected_time":3732000000000,"state":"active","ping":53}]},{"server_id":301,"name":"Uncletopia | Montréal | 2 | All Maps","name_short":"mtl-2","host":"mtl-1.ca.uncletopia.com","port":27025,"enabled":true,"region":"us-east","cc":"ca","latitude":45.50889,"longitude":-73.56167,"reserved":0,"last_update":"0001-01-01T00:00:00Z","name_a2s":"Uncletopia | Montréal | 2 | All Maps","protocol":17,"map":"koth_lakeside_final","folder":"tf","game":"Team Fortress","app_id":440,"player_count":0,"max_players":24,"Bots":0,"server_type":"Dedicated","server_os":"Linux","password":true,"vac":true,"version":"7757534","steam_id":85568392924500088,"keywords":["cp","nocrits","nodmgspread","uncletopia"],"game_id":440,"stv_port":27026,"stv_name":"Uncletopia | Montréal | 2 | All Maps | STV","players":null},{"server_id":302,"name":"Uncletopia | Montréal | 3 | All Maps","name_short":"mtl-3","host":"mtl-1.ca.uncletopia.com","port":27035,"enabled":true,"region":"us-east","cc":"ca","latitude":45.50889,"longitude":-73.56167,"reserved":0,"last_update":"0001-01-01T00:00:00Z","name_a2s":"Uncletopia | Montréal | 3 | All Maps","protocol":17,"map":"pl_frontier_final","folder":"tf","game":"Team Fortress","app_id":440,"player_count":0,"max_players":24,"Bots":0,"server_type":"Dedicated","server_os":"Linux","password":true,"vac":true,"version":"7757534","steam_id":85568392924500089,"keywords":["nocrits","nodmgspread","payload","uncletopia"],"game_id":440,"stv_port":27036,"stv_name":"Uncletopia | Montréal | 3 | All Maps | STV","players":null},{"server_id":303,"name":"Uncletopia | Montréal | 4 | No Payload","name_short":"mtl-4","host":"mtl-1.ca.uncletopia.com","port":27045,"enabled":true,"region":"us-east","cc":"ca","latitude":45.50889,"longitude":-73.56167,"reserved":0,"last_update":"0001-01-01T00:00:00Z","name_a2s":"Uncletopia | Montréal | 4 | No Payload","protocol":17,"map":"ctf_doublecross","folder":"tf","game":"Team Fortress","app_id":440,"player_count":7,"max_players":24,"Bots":0,"server_type":"Dedicated","server_os":"Linux","password":true,"vac":true,"version":"7757534","steam_id":85568392924500090,"keywords":["ctf","nocrits","nodmgspread","uncletopia"],"game_id":440,"stv_port":27046,"stv_name":"Uncletopia | Montréal | 4 | No Payload | STV","players":[{"user_id":9,"name":"The MilkMann","steam_id":76561199006503777,"connected_time":5258000000000,"state":"active","ping":65},{"user_id":21,"name":"spectator","steam_id":76561199161905355,"connected_time":1974000000000,"state":"active","ping":84},{"user_id":25,"name":"Sono","steam_id":76561199077527007,"connected_time":1059000000000,"state":"active","ping":75},{"user_id":26,"name":"Lemmers235","steam_id":76561199192668922,"connected_time":832000000000,"state":"active","ping":115},{"user_id":19,"name":"oakback","steam_id":76561199184834762,"connected_time":2601000000000,"state":"active","ping":73},{"user_id":22,"name":"Fuse","steam_id":76561198047018079,"connected_time":1955000000000,"state":"active","ping":81},{"user_id":23,"name":"doge","steam_id":76561198100340558,"connected_time":1953000000000,"state":"active","ping":84}]},{"server_id":13,"name":"Uncletopia | New York City | 1 | All Maps","name_short":"nyc-1","host":"nyc-1.us.uncletopia.com","port":27015,"enabled":true,"region":"us-east","cc":"us","latitude":40.73061,"longitude":-73.93524,"reserved":0,"last_update":"0001-01-01T00:00:00Z","name_a2s":"Uncletopia | New York City | 1 | All Maps","protocol":17,"map":"cp_mountainlab","folder":"tf","game":"Team Fortress","app_id":440,"player_count":16,"max_players":24,"Bots":0,"server_type":"Dedicated","server_os":"Linux","password":true,"vac":true,"version":"7757534","steam_id":85568392924469993,"keywords":["cp","nocrits","nodmgspread","uncletopia"],"game_id":440,"stv_port":27016,"stv_name":"Uncletopia | New York City | 1 | All Maps | STV","players":[{"user_id":656,"name":"Yoshimelon","steam_id":76561198253054325,"connected_time":148000000000,"state":"active","ping":72},{"user_id":652,"name":"t.tv/FamilyGuyFunnyMoments277","steam_id":76561198416047580,"connected_time":513000000000,"state":"active","ping":67},{"user_id":654,"name":"TriggerHappyPacifist","steam_id":76561197963455267,"connected_time":500000000000,"state":"active","ping":113},{"user_id":657,"name":"Samu","steam_id":76561198842935153,"connected_time":138000000000,"state":"active","ping":99},{"user_id":655,"name":"sonic1394","steam_id":76561198054636788,"connected_time":435000000000,"state":"active","ping":69},{"user_id":642,"name":"Minion Bob","steam_id":76561198023938170,"connected_time":1087000000000,"state":"active","ping":66},{"user_id":453,"name":"Femboy Pyro Boot Sweat","steam_id":76561198124311404,"connected_time":15603000000000,"state":"active","ping":71},{"user_id":658,"name":"Bumblebutt","steam_id":76561198057457396,"connected_time":42000000000,"state":"spawning","ping":75},{"user_id":659,"name":"Scoober","steam_id":76561198079736959,"connected_time":0,"state":"spawning","ping":45},{"user_id":650,"name":"reanimator","steam_id":76561198085830470,"connected_time":657000000000,"state":"active","ping":45},{"user_id":645,"name":"Sammich","steam_id":76561198010543087,"connected_time":962000000000,"state":"active","ping":60},{"user_id":630,"name":"CupcakeWarlock","steam_id":76561198179963697,"connected_time":1855000000000,"state":"active","ping":60},{"user_id":646,"name":"RokkitFrog","steam_id":76561198046465850,"connected_time":928000000000,"state":"active","ping":90},{"user_id":647,"name":"ShaiKai","steam_id":76561198333319986,"connected_time":867000000000,"state":"active","ping":70},{"user_id":648,"name":"Raisin","steam_id":76561198116295334,"connected_time":865000000000,"state":"active","ping":52},{"user_id":621,"name":"Idiot Prince (They/Them)","steam_id":76561198048205270,"connected_time":2643000000000,"state":"active","ping":61}]},{"server_id":14,"name":"Uncletopia | New York City | 2 | All Maps","name_short":"nyc-2","host":"nyc-1.us.uncletopia.com","port":27025,"enabled":true,"region":"us-east","cc":"us","latitude":40.73061,"longitude":-73.93524,"reserved":0,"last_update":"0001-01-01T00:00:00Z","name_a2s":"Uncletopia | New York City | 2 | All Maps","protocol":17,"map":"cp_dustbowl","folder":"tf","game":"Team Fortress","app_id":440,"player_count":11,"max_players":24,"Bots":0,"server_type":"Dedicated","server_os":"Linux","password":true,"vac":true,"version":"7757534","steam_id":85568392924469994,"keywords":["cp","nocrits","nodmgspread","uncletopia"],"game_id":440,"stv_port":27026,"stv_name":"Uncletopia | New York City | 2 | All Maps | STV","players":[{"user_id":982,"name":"CatLike Pigeon","steam_id":76561198171716030,"connected_time":36000000000,"state":"active","ping":131},{"user_id":937,"name":"Thunderous","steam_id":76561198192752793,"connected_time":5443000000000,"state":"active","ping":45},{"user_id":936,"name":"ndvr","steam_id":76561199379200102,"connected_time":5467000000000,"state":"active","ping":41},{"user_id":980,"name":"evdoke","steam_id":76561198044555219,"connected_time":284000000000,"state":"active","ping":43},{"user_id":974,"name":"Gloopy","steam_id":76561198066986074,"connected_time":1736000000000,"state":"active","ping":87},{"user_id":960,"name":"Joe Biden","steam_id":76561198238699798,"connected_time":3556000000000,"state":"active","ping":100},{"user_id":956,"name":"Wique","steam_id":76561198071217597,"connected_time":3665000000000,"state":"active","ping":71},{"user_id":951,"name":"Revolver Ocelot from MGS3","steam_id":76561198120079504,"connected_time":4590000000000,"state":"active","ping":79},{"user_id":981,"name":"Nightingale von Carstein","steam_id":76561198382793308,"connected_time":282000000000,"state":"active","ping":85},{"user_id":952,"name":"C Papi","steam_id":76561198027779564,"connected_time":4446000000000,"state":"active","ping":60},{"user_id":973,"name":"BuschyBuschwackah","steam_id":76561198075468799,"connected_time":1757000000000,"state":"active","ping":72}]},{"server_id":15,"name":"Uncletopia | New York City | 3 | Stopwatch Beta","name_short":"nyc-3","host":"nyc-1.us.uncletopia.com","port":27035,"enabled":true,"region":"us-east","cc":"us","latitude":40.73061,"longitude":-73.93524,"reserved":0,"last_update":"0001-01-01T00:00:00Z","name_a2s":"Uncletopia | New York City | 3 | Stopwatch Beta","protocol":17,"map":"pl_upward","folder":"tf","game":"Team Fortress","app_id":440,"player_count":0,"max_players":24,"Bots":0,"server_type":"Dedicated","server_os":"Linux","password":true,"vac":true,"version":"7757534","steam_id":85568392924742820,"keywords":["nocrits","nodmgspread","payload","uncletopia"],"game_id":440,"stv_port":27036,"stv_name":"Uncletopia | New York City | 3 | Stopwatch Beta | STV","players":null},{"server_id":16,"name":"Uncletopia | New York City | 4 | Community","name_short":"nyc-4","host":"nyc-1.us.uncletopia.com","port":27045,"enabled":true,"region":"us-east","cc":"us","latitude":40.73061,"longitude":-73.93524,"reserved":0,"last_update":"0001-01-01T00:00:00Z","name_a2s":"Uncletopia | New York City | 4 | Community","protocol":17,"map":"workshop/cp_fulgur_rc2a.ugc2068252300","folder":"tf","game":"Team Fortress","app_id":440,"player_count":0,"max_players":24,"Bots":0,"server_type":"Dedicated","server_os":"Linux","password":true,"vac":true,"version":"7757534","steam_id":85568392924742821,"keywords":["cp","nocrits","nodmgspread","uncletopia"],"game_id":440,"stv_port":27046,"stv_name":"Uncletopia | New York City | 4 | Community | STV","players":null},{"server_id":142,"name":"Uncletopia | São Paulo | 1 | All Maps","name_short":"sao-1","host":"sao-1.br.uncletopia.com","port":27015,"enabled":true,"region":"sa","cc":"br","latitude":-23.533773,"longitude":-46.62529,"reserved":0,"last_update":"0001-01-01T00:00:00Z","name_a2s":"Uncletopia | São Paulo | 1 | All Maps","protocol":17,"map":"pl_borneo","folder":"tf","game":"Team Fortress","app_id":440,"player_count":0,"max_players":24,"Bots":0,"server_type":"Dedicated","server_os":"Linux","password":true,"vac":true,"version":"7757534","steam_id":85568392924469996,"keywords":["nocrits","nodmgspread","payload","uncletopia"],"game_id":440,"stv_port":27016,"stv_name":"Uncletopia | São Paulo | 1 | All Maps | STV","players":null},{"server_id":143,"name":"Uncletopia | São Paulo | 2 | All Maps","name_short":"sao-2","host":"sao-2.br.uncletopia.com","port":27015,"enabled":true,"region":"sa","cc":"br","latitude":-23.533773,"longitude":-46.62529,"reserved":0,"last_update":"0001-01-01T00:00:00Z","name_a2s":"Uncletopia | São Paulo | 2 | All Maps","protocol":17,"map":"koth_viaduct","folder":"tf","game":"Team Fortress","app_id":440,"player_count":0,"max_players":24,"Bots":0,"server_type":"Dedicated","server_os":"Linux","password":true,"vac":true,"version":"7757534","steam_id":85568392924485349,"keywords":["cp","nocrits","nodmgspread","uncletopia"],"game_id":440,"stv_port":27016,"stv_name":"Uncletopia | São Paulo | 2 | All Maps | STV","players":null},{"server_id":7,"name":"Uncletopia | Seattle | 1 | All Maps","name_short":"sea-1","host":"sea-1.us.uncletopia.com","port":27015,"enabled":true,"region":"us-west","cc":"us","latitude":47.608013,"longitude":-122.33517,"reserved":0,"last_update":"0001-01-01T00:00:00Z","name_a2s":"Uncletopia | Seattle | 1 | All Maps","protocol":17,"map":"cp_mountainlab","folder":"tf","game":"Team Fortress","app_id":440,"player_count":24,"max_players":24,"Bots":0,"server_type":"Dedicated","server_os":"Linux","password":true,"vac":true,"version":"7757534","steam_id":85568392924469997,"keywords":["cp","nocrits","nodmgspread","uncletopia"],"game_id":440,"stv_port":27016,"stv_name":"Uncletopia | Seattle | 1 | All Maps | STV","players":[{"user_id":521,"name":"Wormhole","steam_id":76561199008302939,"connected_time":618000000000,"state":"active","ping":45},{"user_id":519,"name":"Vile","steam_id":76561198085615710,"connected_time":625000000000,"state":"active","ping":91},{"user_id":484,"name":"Khaast","steam_id":76561198170253694,"connected_time":5798000000000,"state":"active","ping":61},{"user_id":522,"name":"bbbbb","steam_id":76561198095480838,"connected_time":604000000000,"state":"active","ping":46},{"user_id":515,"name":"lili ezili","steam_id":76561199391478575,"connected_time":2445000000000,"state":"active","ping":72},{"user_id":518,"name":"♥haunti","steam_id":76561199235580556,"connected_time":1252000000000,"state":"active","ping":38},{"user_id":504,"name":"Alset","steam_id":76561197993820174,"connected_time":2829000000000,"state":"active","ping":114},{"user_id":508,"name":"glue eater","steam_id":76561198210322871,"connected_time":2812000000000,"state":"active","ping":79},{"user_id":531,"name":"Lazy-assed Prophet","steam_id":76561198214400452,"connected_time":373000000000,"state":"active","ping":71},{"user_id":512,"name":"blinkerton city","steam_id":76561198054270410,"connected_time":2706000000000,"state":"active","ping":55},{"user_id":530,"name":"BLU3","steam_id":76561198059652670,"connected_time":379000000000,"state":"active","ping":47},{"user_id":534,"name":"gamer 2 electric boogaloo","steam_id":76561198053279911,"connected_time":285000000000,"state":"active","ping":55},{"user_id":536,"name":"imtoofadedicantevendapuup","steam_id":76561198180372310,"connected_time":186000000000,"state":"active","ping":62},{"user_id":533,"name":"Skoad","steam_id":76561198104650528,"connected_time":308000000000,"state":"active","ping":68},{"user_id":537,"name":"da bong lord","steam_id":76561198301019618,"connected_time":35000000000,"state":"active","ping":69},{"user_id":487,"name":"Peppy","steam_id":76561198866629645,"connected_time":4902000000000,"state":"active","ping":109},{"user_id":490,"name":"Professor Cuthbert Calculus","steam_id":76561198003257461,"connected_time":4790000000000,"state":"active","ping":61},{"user_id":524,"name":"resting neutral face","steam_id":76561197999259502,"connected_time":600000000000,"state":"active","ping":61},{"user_id":440,"name":"Reb","steam_id":76561198144756713,"connected_time":9103000000000,"state":"active","ping":77},{"user_id":526,"name":"Klone","steam_id":76561198854485605,"connected_time":499000000000,"state":"active","ping":115},{"user_id":500,"name":"https://en.wikipedia.org/","steam_id":76561198261326806,"connected_time":3590000000000,"state":"active","ping":72},{"user_id":483,"name":"ORANGE","steam_id":76561198000401769,"connected_time":6111000000000,"state":"active","ping":52},{"user_id":520,"name":"Anderswo","steam_id":76561198253224241,"connected_time":625000000000,"state":"active","ping":50},{"user_id":514,"name":"Bendidy","steam_id":76561198041964300,"connected_time":2678000000000,"state":"active","ping":78}]},{"server_id":119,"name":"Uncletopia | Seattle | 2 | All Maps","name_short":"sea-2","host":"sea-1.us.uncletopia.com","port":27025,"enabled":true,"region":"us-west","cc":"us","latitude":47.608013,"longitude":-122.33517,"reserved":0,"last_update":"0001-01-01T00:00:00Z","name_a2s":"Uncletopia | Seattle | 2 | All Maps","protocol":17,"map":"pl_upward","folder":"tf","game":"Team Fortress","app_id":440,"player_count":24,"max_players":24,"Bots":0,"server_type":"Dedicated","server_os":"Linux","password":true,"vac":true,"version":"7757534","steam_id":85568392924469998,"keywords":["nocrits","nodmgspread","payload","uncletopia"],"game_id":440,"stv_port":27026,"stv_name":"Uncletopia | Seattle | 2 | All Maps | STV","players":[{"user_id":741,"name":"AER0.exe","steam_id":76561198062940197,"connected_time":1035000000000,"state":"active","ping":44},{"user_id":751,"name":"volta","steam_id":76561199214283884,"connected_time":438000000000,"state":"active","ping":141},{"user_id":742,"name":"MegaBron James","steam_id":76561198066091050,"connected_time":1013000000000,"state":"active","ping":51},{"user_id":755,"name":"eees123","steam_id":76561198838130681,"connected_time":42000000000,"state":"active","ping":81},{"user_id":746,"name":"my stomach hurts....","steam_id":76561198233978116,"connected_time":535000000000,"state":"active","ping":48},{"user_id":675,"name":"Tanner The Fish Man","steam_id":76561198372696640,"connected_time":5756000000000,"state":"active","ping":71},{"user_id":754,"name":"MisterManne","steam_id":76561198106598600,"connected_time":182000000000,"state":"active","ping":55},{"user_id":699,"name":"Thanks Ants","steam_id":76561197966221018,"connected_time":3845000000000,"state":"active","ping":55},{"user_id":673,"name":"Johnathan J. Harris","steam_id":76561198078594280,"connected_time":5997000000000,"state":"active","ping":99},{"user_id":753,"name":"Keamy","steam_id":76561199471434875,"connected_time":283000000000,"state":"active","ping":44},{"user_id":749,"name":"SvicidalBug","steam_id":76561198221390504,"connected_time":490000000000,"state":"active","ping":64},{"user_id":700,"name":"Big Ridley","steam_id":76561198129963910,"connected_time":3734000000000,"state":"active","ping":114},{"user_id":732,"name":"Strength!!","steam_id":76561198001241984,"connected_time":1765000000000,"state":"active","ping":56},{"user_id":725,"name":"TOKENLIZARD","steam_id":76561198218765205,"connected_time":2237000000000,"state":"active","ping":118},{"user_id":733,"name":"ʀ.ʚɞ.","steam_id":76561198029580420,"connected_time":1746000000000,"state":"active","ping":167},{"user_id":747,"name":"mub","steam_id":76561197961943948,"connected_time":499000000000,"state":"active","ping":47},{"user_id":728,"name":"M4 Sherman","steam_id":76561198011096132,"connected_time":2043000000000,"state":"active","ping":62},{"user_id":727,"name":"General Fisticuffs","steam_id":76561198255721392,"connected_time":2183000000000,"state":"active","ping":113},{"user_id":734,"name":"i drew this for you","steam_id":76561198035698704,"connected_time":1738000000000,"state":"active","ping":73},{"user_id":739,"name":"Gaming","steam_id":76561198327632113,"connected_time":1135000000000,"state":"active","ping":47},{"user_id":748,"name":"exephur","steam_id":76561198135763234,"connected_time":495000000000,"state":"active","ping":62},{"user_id":731,"name":"lol","steam_id":76561198026491738,"connected_time":1775000000000,"state":"active","ping":84},{"user_id":750,"name":"jello","steam_id":76561198149683030,"connected_time":488000000000,"state":"active","ping":66},{"user_id":674,"name":"Swampdonkey","steam_id":76561197998832682,"connected_time":5997000000000,"state":"active","ping":55}]},{"server_id":406,"name":"Uncletopia | Seattle | 3 | Stopwatch Beta","name_short":"sea-3","host":"sea-1.us.uncletopia.com","port":27035,"enabled":true,"region":"us-west","cc":"us","latitude":47.608013,"longitude":-122.33517,"reserved":0,"last_update":"0001-01-01T00:00:00Z","name_a2s":"Uncletopia | Seattle | 3 | Stopwatch Beta","protocol":17,"map":"workshop/pl_summercoast_rc8e.ugc1761528829","folder":"tf","game":"Team Fortress","app_id":440,"player_count":0,"max_players":24,"Bots":0,"server_type":"Dedicated","server_os":"Linux","password":true,"vac":true,"version":"7757534","steam_id":85568392924515217,"keywords":["nocrits","nodmgspread","payload","uncletopia"],"game_id":440,"stv_port":27036,"stv_name":"Uncletopia | Seattle | 3 | Stopwatch Beta | STV","players":null},{"server_id":17,"name":"Uncletopia | San Francisco | 1 | All Maps","name_short":"sfo-1","host":"sfo-1.us.uncletopia.com","port":27015,"enabled":true,"region":"us-west","cc":"us","latitude":37.77397,"longitude":-122.4313,"reserved":0,"last_update":"0001-01-01T00:00:00Z","name_a2s":"Uncletopia | San Francisco | 1 | All Maps","protocol":17,"map":"pl_badwater","folder":"tf","game":"Team Fortress","app_id":440,"player_count":24,"max_players":24,"Bots":0,"server_type":"Dedicated","server_os":"Linux","password":true,"vac":true,"version":"7757534","steam_id":85568392924469999,"keywords":["nocrits","nodmgspread","payload","uncletopia"],"game_id":440,"stv_port":27016,"stv_name":"Uncletopia | San Francisco | 1 | All Maps | STV","players":[{"user_id":525,"name":"PainInTheRuss","steam_id":76561197977960543,"connected_time":614000000000,"state":"active","ping":45},{"user_id":500,"name":"The Moon","steam_id":76561198082926682,"connected_time":2664000000000,"state":"active","ping":45},{"user_id":518,"name":"stinkmaster666demon","steam_id":76561198073914311,"connected_time":1062000000000,"state":"active","ping":45},{"user_id":466,"name":"Kurttheking","steam_id":76561198241449562,"connected_time":4692000000000,"state":"active","ping":65},{"user_id":468,"name":"quiteabizarreone","steam_id":76561198407122862,"connected_time":4684000000000,"state":"active","ping":126},{"user_id":519,"name":"dudescore","steam_id":76561199091453555,"connected_time":1052000000000,"state":"active","ping":47},{"user_id":526,"name":"kym","steam_id":76561198340743816,"connected_time":602000000000,"state":"active","ping":55},{"user_id":524,"name":"Flaming Water","steam_id":76561198147210534,"connected_time":931000000000,"state":"active","ping":94},{"user_id":447,"name":"Chad the Sex Haver","steam_id":76561198058236528,"connected_time":6013000000000,"state":"active","ping":67},{"user_id":502,"name":"Sudo","steam_id":76561198123714026,"connected_time":2613000000000,"state":"active","ping":52},{"user_id":534,"name":"squash","steam_id":76561198150281353,"connected_time":477000000000,"state":"active","ping":74},{"user_id":539,"name":"RoseHeart","steam_id":76561198041024002,"connected_time":2000000000,"state":"spawning","ping":44},{"user_id":464,"name":"Nuggies","steam_id":76561198272432592,"connected_time":4982000000000,"state":"active","ping":58},{"user_id":491,"name":"Livin' Like Larry","steam_id":76561198313360974,"connected_time":3443000000000,"state":"active","ping":44},{"user_id":528,"name":"mechanicvirus","steam_id":76561198038161480,"connected_time":595000000000,"state":"active","ping":65},{"user_id":538,"name":"Carte","steam_id":76561198077424488,"connected_time":21000000000,"state":"active","ping":51},{"user_id":537,"name":"I eat a lot of Mac \u0026 Cheese","steam_id":76561197993151595,"connected_time":83000000000,"state":"active","ping":58},{"user_id":510,"name":"kaede :3","steam_id":76561198345528370,"connected_time":1497000000000,"state":"active","ping":39},{"user_id":530,"name":"nake","steam_id":76561198004619118,"connected_time":586000000000,"state":"active","ping":52},{"user_id":511,"name":"Mr.Oof","steam_id":76561198870737383,"connected_time":1254000000000,"state":"active","ping":89},{"user_id":505,"name":"Project_Counter","steam_id":76561198152786076,"connected_time":2098000000000,"state":"active","ping":95},{"user_id":515,"name":"Kiaku","steam_id":76561198077115454,"connected_time":1115000000000,"state":"active","ping":124},{"user_id":536,"name":"stupid","steam_id":76561198353762582,"connected_time":142000000000,"state":"active","ping":78},{"user_id":533,"name":"murder is OK","steam_id":76561199041466962,"connected_time":513000000000,"state":"active","ping":54}]},{"server_id":18,"name":"Uncletopia | San Francisco | 2 | All Maps","name_short":"sfo-2","host":"sfo-1.us.uncletopia.com","port":27025,"enabled":true,"region":"us-west","cc":"us","latitude":37.77397,"longitude":-122.4313,"reserved":0,"last_update":"0001-01-01T00:00:00Z","name_a2s":"Uncletopia | San Francisco | 2 | All Maps","protocol":17,"map":"pl_frontier_final","folder":"tf","game":"Team Fortress","app_id":440,"player_count":24,"max_players":24,"Bots":0,"server_type":"Dedicated","server_os":"Linux","password":true,"vac":true,"version":"7757534","steam_id":85568392924470000,"keywords":["nocrits","nodmgspread","payload","uncletopia"],"game_id":440,"stv_port":27026,"stv_name":"Uncletopia | San Francisco | 2 | All Maps | STV","players":[{"user_id":541,"name":"1 Great Wooden Dad","steam_id":76561198377126974,"connected_time":408000000000,"state":"active","ping":124},{"user_id":546,"name":"☸","steam_id":76561199092000534,"connected_time":322000000000,"state":"active","ping":61},{"user_id":542,"name":"squats!","steam_id":76561198314221897,"connected_time":389000000000,"state":"active","ping":166},{"user_id":510,"name":"Cheesus","steam_id":76561198072134514,"connected_time":2999000000000,"state":"active","ping":65},{"user_id":518,"name":"mrnotsogudguy","steam_id":76561199289893241,"connected_time":2501000000000,"state":"active","ping":100},{"user_id":530,"name":"dlatgirp","steam_id":76561198417137724,"connected_time":1696000000000,"state":"active","ping":43},{"user_id":511,"name":"TacoCat","steam_id":76561198124700504,"connected_time":2998000000000,"state":"active","ping":81},{"user_id":526,"name":"dispenser","steam_id":76561198202554372,"connected_time":1840000000000,"state":"active","ping":49},{"user_id":514,"name":"Cinna Mon","steam_id":76561198005840633,"connected_time":2646000000000,"state":"active","ping":73},{"user_id":520,"name":"muffinman12126","steam_id":76561199471924109,"connected_time":2232000000000,"state":"active","ping":43},{"user_id":543,"name":"StrangeMachine","steam_id":76561198046628064,"connected_time":388000000000,"state":"active","ping":68},{"user_id":532,"name":"Bury the Light - Vergil's battl","steam_id":76561198396414319,"connected_time":1683000000000,"state":"active","ping":64},{"user_id":551,"name":"kazoo2","steam_id":76561198260473504,"connected_time":80000000000,"state":"active","ping":127},{"user_id":544,"name":"John Wick's puppy","steam_id":76561198064662875,"connected_time":381000000000,"state":"active","ping":49},{"user_id":491,"name":"Major_Pippy","steam_id":76561198004482878,"connected_time":4353000000000,"state":"active","ping":68},{"user_id":545,"name":"loyaldandan0764","steam_id":76561199231020424,"connected_time":381000000000,"state":"active","ping":102},{"user_id":499,"name":"Sadodere Grimace","steam_id":76561198008332028,"connected_time":3975000000000,"state":"active","ping":68},{"user_id":539,"name":"aden","steam_id":76561199083568754,"connected_time":982000000000,"state":"active","ping":70},{"user_id":498,"name":"Cardboardcoin","steam_id":76561199421284163,"connected_time":4020000000000,"state":"active","ping":99},{"user_id":550,"name":"Solifuga","steam_id":76561198119569902,"connected_time":211000000000,"state":"active","ping":60},{"user_id":540,"name":"Soothsayer","steam_id":76561198051750641,"connected_time":864000000000,"state":"active","ping":67},{"user_id":452,"name":"Frontier Psychiatrist","steam_id":76561198378587138,"connected_time":7727000000000,"state":"active","ping":55},{"user_id":547,"name":"me shoot floor","steam_id":76561198046526036,"connected_time":293000000000,"state":"active","ping":60},{"user_id":549,"name":"Wingman","steam_id":76561198066270405,"connected_time":284000000000,"state":"active","ping":47}]},{"server_id":19,"name":"Uncletopia | San Francisco | 3 | Stopwatch Beta","name_short":"sfo-3","host":"sfo-1.us.uncletopia.com","port":27035,"enabled":true,"region":"us-west","cc":"us","latitude":37.77397,"longitude":-122.4313,"reserved":0,"last_update":"0001-01-01T00:00:00Z","name_a2s":"Uncletopia | San Francisco | 3 | Stopwatch Beta","protocol":17,"map":"koth_highpass","folder":"tf","game":"Team Fortress","app_id":440,"player_count":0,"max_players":24,"Bots":0,"server_type":"Dedicated","server_os":"Linux","password":true,"vac":true,"version":"7757534","steam_id":85568392924742824,"keywords":["cp","nocrits","nodmgspread","uncletopia"],"game_id":440,"stv_port":27036,"stv_name":"Uncletopia | San Francisco | 3 | Stopwatch Beta | STV","players":null},{"server_id":20,"name":"Uncletopia | San Francisco | 4 | Community","name_short":"sfo-4","host":"sfo-1.us.uncletopia.com","port":27045,"enabled":true,"region":"us-west","cc":"us","latitude":37.77397,"longitude":-122.4313,"reserved":0,"last_update":"0001-01-01T00:00:00Z","name_a2s":"Uncletopia | San Francisco | 4 | Community","protocol":17,"map":"workshop/cp_propaganda_b18.ugc1603743849","folder":"tf","game":"Team Fortress","app_id":440,"player_count":23,"max_players":24,"Bots":0,"server_type":"Dedicated","server_os":"Linux","password":true,"vac":true,"version":"7757534","steam_id":85568392924742826,"keywords":["cp","nocrits","nodmgspread","uncletopia"],"game_id":440,"stv_port":27046,"stv_name":"Uncletopia | San Francisco | 4 | Community | STV","players":[{"user_id":293,"name":"Purple","steam_id":76561198142848257,"connected_time":1595000000000,"state":"active","ping":87},{"user_id":280,"name":"The Arizona Ranger","steam_id":76561198055366106,"connected_time":2646000000000,"state":"active","ping":128},{"user_id":301,"name":"1984 bizarre summer","steam_id":76561198068980107,"connected_time":1324000000000,"state":"active","ping":45},{"user_id":291,"name":"RapidXenophage","steam_id":76561198175149973,"connected_time":2238000000000,"state":"active","ping":73},{"user_id":294,"name":"ExoticWolfOwO54","steam_id":76561198100045077,"connected_time":1572000000000,"state":"active","ping":124},{"user_id":247,"name":"Fluff Gaming","steam_id":76561198135969443,"connected_time":5246000000000,"state":"active","ping":81},{"user_id":292,"name":"BlitzB@t","steam_id":76561198299318000,"connected_time":2166000000000,"state":"active","ping":72},{"user_id":295,"name":"Syco","steam_id":76561198119077138,"connected_time":1567000000000,"state":"active","ping":84},{"user_id":314,"name":"Nuggets","steam_id":76561198267826226,"connected_time":144000000000,"state":"active","ping":72},{"user_id":296,"name":"Demonica","steam_id":76561198841858340,"connected_time":1507000000000,"state":"active","ping":95},{"user_id":311,"name":"Supawaffle","steam_id":76561198090922807,"connected_time":308000000000,"state":"active","ping":61},{"user_id":257,"name":"kittenkitchen24","steam_id":76561199171056489,"connected_time":4636000000000,"state":"active","ping":65},{"user_id":310,"name":"Puskinti","steam_id":76561198032120688,"connected_time":339000000000,"state":"active","ping":81},{"user_id":282,"name":"Onett_Boys","steam_id":76561198054735682,"connected_time":2598000000000,"state":"active","ping":60},{"user_id":283,"name":"Rickysuper_52","steam_id":76561198067865179,"connected_time":2597000000000,"state":"active","ping":79},{"user_id":312,"name":"Wicki","steam_id":76561198122590990,"connected_time":298000000000,"state":"active","ping":85},{"user_id":313,"name":"HerbyHerb","steam_id":76561198049678503,"connected_time":246000000000,"state":"active","ping":112},{"user_id":272,"name":"[ttv]{BakedFox88}","steam_id":76561198030338421,"connected_time":3763000000000,"state":"active","ping":66},{"user_id":305,"name":"Riven","steam_id":76561198091701349,"connected_time":482000000000,"state":"active","ping":105},{"user_id":254,"name":"Funkmaster Yee","steam_id":76561198037738918,"connected_time":5052000000000,"state":"active","ping":66},{"user_id":315,"name":"i hate monkeys","steam_id":76561198397708640,"connected_time":96000000000,"state":"active","ping":33},{"user_id":307,"name":"Crazy Hungarian","steam_id":76561198025498172,"connected_time":420000000000,"state":"active","ping":61},{"user_id":299,"name":"fritzthecat","steam_id":76561199180497813,"connected_time":1466000000000,"state":"active","ping":105}]},{"server_id":141,"name":"Uncletopia | Sydney | 1 | All Maps","name_short":"syd-1","host":"syd-1.au.uncletopia.com","port":27015,"enabled":true,"region":"au","cc":"au","latitude":-33.865143,"longitude":151.2099,"reserved":0,"last_update":"0001-01-01T00:00:00Z","name_a2s":"Uncletopia | Sydney | 1 | All Maps","protocol":17,"map":"cp_altitude","folder":"tf","game":"Team Fortress","app_id":440,"player_count":0,"max_players":24,"Bots":0,"server_type":"Dedicated","server_os":"Linux","password":true,"vac":true,"version":"7757534","steam_id":85568392924470001,"keywords":["cp","nocrits","nodmgspread","uncletopia"],"game_id":440,"stv_port":27016,"stv_name":"Uncletopia | Sydney | 1 | All Maps | STV","players":null},{"server_id":123,"name":"Uncletopia | Sydney | 2 | All Maps","name_short":"syd-2","host":"syd-1.au.uncletopia.com","port":27025,"enabled":true,"region":"au","cc":"au","latitude":-33.865143,"longitude":151.2099,"reserved":0,"last_update":"0001-01-01T00:00:00Z","name_a2s":"Uncletopia | Sydney | 2 | All Maps","protocol":17,"map":"cp_process_final","folder":"tf","game":"Team Fortress","app_id":440,"player_count":0,"max_players":24,"Bots":0,"server_type":"Dedicated","server_os":"Linux","password":true,"vac":true,"version":"7757534","steam_id":85568392924470002,"keywords":["cp","nocrits","nodmgspread","uncletopia"],"game_id":440,"stv_port":27026,"stv_name":"Uncletopia | Sydney | 2 | All Maps | STV","players":null},{"server_id":395,"name":"Uncletopia | Sydney | 3 | All Maps","name_short":"syd-3","host":"syd-1.au.uncletopia.com","port":27035,"enabled":true,"region":"au","cc":"au","latitude":-33.865143,"longitude":151.2099,"reserved":0,"last_update":"0001-01-01T00:00:00Z","name_a2s":"Uncletopia | Sydney | 3 | All Maps","protocol":17,"map":"pl_badwater","folder":"tf","game":"Team Fortress","app_id":440,"player_count":23,"max_players":24,"Bots":0,"server_type":"Dedicated","server_os":"Linux","password":true,"vac":true,"version":"7757534","steam_id":85568392925194467,"keywords":["nocrits","nodmgspread","payload","uncletopia"],"game_id":440,"stv_port":27036,"stv_name":"Uncletopia | Sydney | 3 | All Maps | STV","players":[{"user_id":69,"name":"LET THE INTRUSIVE THOUGHTS WIN","steam_id":76561199174449723,"connected_time":1125000000000,"state":"active","ping":170},{"user_id":80,"name":"ToadFungus","steam_id":76561199219667039,"connected_time":202000000000,"state":"active","ping":102},{"user_id":35,"name":"jone","steam_id":76561198285234796,"connected_time":2397000000000,"state":"active","ping":68},{"user_id":81,"name":"whiteshaq","steam_id":76561198131988811,"connected_time":173000000000,"state":"active","ping":49},{"user_id":26,"name":"Jellyfish_kurage","steam_id":76561198425670698,"connected_time":3067000000000,"state":"active","ping":53},{"user_id":50,"name":"TSTM","steam_id":76561198031870836,"connected_time":1777000000000,"state":"active","ping":65},{"user_id":34,"name":"Fresh Produce Gaming","steam_id":76561198358483352,"connected_time":2443000000000,"state":"active","ping":70},{"user_id":14,"name":"itsjustmarvin77","steam_id":76561199375656301,"connected_time":3510000000000,"state":"active","ping":74},{"user_id":61,"name":"Dorbzii","steam_id":76561198333914210,"connected_time":1427000000000,"state":"active","ping":80},{"user_id":75,"name":"Jodelkönig Franzl Lang","steam_id":76561198007667830,"connected_time":669000000000,"state":"active","ping":52},{"user_id":66,"name":"SaltierThanYou","steam_id":76561198444395188,"connected_time":1195000000000,"state":"active","ping":154},{"user_id":62,"name":"Tsolis","steam_id":76561198013950614,"connected_time":1381000000000,"state":"active","ping":62},{"user_id":74,"name":"Agent 13","steam_id":76561198334134955,"connected_time":763000000000,"state":"active","ping":81},{"user_id":58,"name":"EpicGuy4227","steam_id":76561198094132328,"connected_time":1582000000000,"state":"active","ping":54},{"user_id":63,"name":"eekynetwo(F2P Piss Sniper)","steam_id":76561198990017441,"connected_time":1299000000000,"state":"active","ping":144},{"user_id":46,"name":"Warmwalker","steam_id":76561198025089589,"connected_time":1848000000000,"state":"active","ping":143},{"user_id":77,"name":"krandlez` (Any/All)","steam_id":76561198044839726,"connected_time":534000000000,"state":"active","ping":41},{"user_id":67,"name":"Cicerofrypan","steam_id":76561198317860338,"connected_time":1149000000000,"state":"active","ping":53},{"user_id":68,"name":"Bykeshgoly","steam_id":76561198075046784,"connected_time":1139000000000,"state":"active","ping":46},{"user_id":70,"name":"Mr Doctor","steam_id":76561198081415999,"connected_time":1085000000000,"state":"active","ping":70},{"user_id":71,"name":"Zieria","steam_id":76561199261811388,"connected_time":1077000000000,"state":"active","ping":38},{"user_id":78,"name":"Chappers","steam_id":76561199036739798,"connected_time":489000000000,"state":"active","ping":80},{"user_id":73,"name":"FrOStY","steam_id":76561198088155805,"connected_time":1012000000000,"state":"active","ping":77}]},{"server_id":396,"name":"Uncletopia | Sydney | 4 | All Maps","name_short":"syd-4","host":"syd-1.au.uncletopia.com","port":27045,"enabled":true,"region":"au","cc":"au","latitude":-33.865143,"longitude":151.2099,"reserved":0,"last_update":"0001-01-01T00:00:00Z","name_a2s":"Uncletopia | Sydney | 4 | All Maps","protocol":17,"map":"koth_highpass","folder":"tf","game":"Team Fortress","app_id":440,"player_count":0,"max_players":24,"Bots":0,"server_type":"Dedicated","server_os":"Linux","password":true,"vac":true,"version":"7757534","steam_id":85568392925397958,"keywords":["cp","nocrits","nodmgspread","uncletopia"],"game_id":440,"stv_port":27046,"stv_name":"Uncletopia | Sydney | 4 | All Maps | STV","players":null},{"server_id":58,"name":"Uncletopia | Sydney | 5 | Stopwatch Beta","name_short":"syd-5","host":"syd-1.au.uncletopia.com","port":27055,"enabled":true,"region":"au","cc":"au","latitude":-33.865143,"longitude":151.2099,"reserved":0,"last_update":"0001-01-01T00:00:00Z","name_a2s":"Uncletopia | Sydney | 5 | Stopwatch Beta","protocol":17,"map":"pl_upward","folder":"tf","game":"Team Fortress","app_id":440,"player_count":0,"max_players":24,"Bots":0,"server_type":"Dedicated","server_os":"Linux","password":true,"vac":true,"version":"7757534","steam_id":85568392925397959,"keywords":["nocrits","nodmgspread","payload","uncletopia"],"game_id":440,"stv_port":27056,"stv_name":"Uncletopia | Sydney | 5 | Stopwatch Beta | STV","players":null},{"server_id":59,"name":"Uncletopia | Sydney | 6 | Community","name_short":"syd-6","host":"syd-1.au.uncletopia.com","port":27065,"enabled":true,"region":"au","cc":"au","latitude":-33.865143,"longitude":151.2099,"reserved":0,"last_update":"0001-01-01T00:00:00Z","name_a2s":"Uncletopia | Sydney | 6 | Community","protocol":17,"map":"workshop/koth_ashville_final.ugc2130459942","folder":"tf","game":"Team Fortress","app_id":440,"player_count":0,"max_players":24,"Bots":0,"server_type":"Dedicated","server_os":"Linux","password":true,"vac":true,"version":"7757534","steam_id":85568392925397960,"keywords":["cp","nocrits","nodmgspread","uncletopia"],"game_id":440,"stv_port":27066,"stv_name":"Uncletopia | Sydney | 6 | Community | STV","players":null},{"server_id":49,"name":"Uncletopia | Warsaw | 1 | All Maps","name_short":"waw-1","host":"waw-1.pl.uncletopia.com","port":27015,"enabled":true,"region":"eu","cc":"pl","latitude":52.2297,"longitude":21.017532,"reserved":0,"last_update":"0001-01-01T00:00:00Z","name_a2s":"","protocol":0,"map":"","folder":"","game":"","app_id":0,"player_count":0,"max_players":0,"Bots":0,"server_type":"","server_os":"","password":false,"vac":false,"version":"","steam_id":0,"keywords":null,"game_id":0,"stv_port":0,"stv_name":"","players":null},{"server_id":50,"name":"Uncletopia | Warsaw | 2 | All Maps","name_short":"waw-2","host":"waw-1.pl.uncletopia.com","port":27025,"enabled":true,"region":"eu","cc":"pl","latitude":52.2297,"longitude":21.017532,"reserved":0,"last_update":"0001-01-01T00:00:00Z","name_a2s":"Uncletopia | Warsaw | 2 | All Maps","protocol":17,"map":"koth_viaduct","folder":"tf","game":"Team Fortress","app_id":440,"player_count":0,"max_players":24,"Bots":0,"server_type":"Dedicated","server_os":"Linux","password":true,"vac":true,"version":"7757534","steam_id":85568392925397851,"keywords":["cp","nocrits","nodmgspread","uncletopia"],"game_id":440,"stv_port":27026,"stv_name":"Uncletopia | Warsaw | 2 | All Maps | STV","players":null},{"server_id":51,"name":"Uncletopia | Warsaw | 3 | All Maps","name_short":"waw-3","host":"waw-1.pl.uncletopia.com","port":27035,"enabled":true,"region":"eu","cc":"pl","latitude":52.2297,"longitude":21.017532,"reserved":0,"last_update":"0001-01-01T00:00:00Z","name_a2s":"Uncletopia | Warsaw | 3 | All Maps","protocol":17,"map":"pl_badwater","folder":"tf","game":"Team Fortress","app_id":440,"player_count":0,"max_players":24,"Bots":0,"server_type":"Dedicated","server_os":"Linux","password":true,"vac":true,"version":"7757534","steam_id":85568392925397852,"keywords":["nocrits","nodmgspread","payload","uncletopia"],"game_id":440,"stv_port":27036,"stv_name":"Uncletopia | Warsaw | 3 | All Maps | STV","players":null},{"server_id":52,"name":"Uncletopia | Warsaw | 4 | All Maps","name_short":"waw-4","host":"waw-1.pl.uncletopia.com","port":27045,"enabled":true,"region":"eu","cc":"pl","latitude":52.2297,"longitude":21.017532,"reserved":0,"last_update":"0001-01-01T00:00:00Z","name_a2s":"Uncletopia | Warsaw | 4 | All Maps","protocol":17,"map":"koth_lakeside_final","folder":"tf","game":"Team Fortress","app_id":440,"player_count":0,"max_players":24,"Bots":0,"server_type":"Dedicated","server_os":"Linux","password":true,"vac":true,"version":"7757534","steam_id":85568392925397853,"keywords":["cp","nocrits","nodmgspread","uncletopia"],"game_id":440,"stv_port":27046,"stv_name":"Uncletopia | Warsaw | 4 | All Maps | STV","players":null},{"server_id":53,"name":"Uncletopia | Warsaw | 5 | Stopwatch Beta","name_short":"waw-5","host":"waw-1.pl.uncletopia.com","port":27055,"enabled":true,"region":"eu","cc":"pl","latitude":52.2297,"longitude":21.017532,"reserved":0,"last_update":"0001-01-01T00:00:00Z","name_a2s":"Uncletopia | Warsaw | 5 | Stopwatch Beta","protocol":17,"map":"pl_borneo","folder":"tf","game":"Team Fortress","app_id":440,"player_count":0,"max_players":24,"Bots":0,"server_type":"Dedicated","server_os":"Linux","password":true,"vac":true,"version":"7757534","steam_id":85568392925397854,"keywords":["nocrits","nodmgspread","payload","uncletopia"],"game_id":440,"stv_port":27056,"stv_name":"Uncletopia | Warsaw | 5 | Stopwatch Beta | STV","players":null},{"server_id":54,"name":"Uncletopia | Warsaw | 6 | Community","name_short":"waw-6","host":"waw-1.pl.uncletopia.com","port":27065,"enabled":true,"region":"eu","cc":"pl","latitude":52.2297,"longitude":21.017532,"reserved":0,"last_update":"0001-01-01T00:00:00Z","name_a2s":"Uncletopia | Warsaw | 6 | Community","protocol":17,"map":"koth_lakeside_final","folder":"tf","game":"Team Fortress","app_id":440,"player_count":0,"max_players":24,"Bots":0,"server_type":"Dedicated","server_os":"Linux","password":true,"vac":true,"version":"7757534","steam_id":85568392925397856,"keywords":["cp","nocrits","nodmgspread","uncletopia"],"game_id":440,"stv_port":27066,"stv_name":"Uncletopia | Warsaw | 6 | Community | STV","players":null}]}