{"status":true,"message":"","result":[{"server_id":9,"name":"Uncletopia | Atlanta | 1 | All Maps","name_short":"atl-1","host":"atl-1.us.uncletopia.com","port":27015,"enabled":true,"region":"us-east","cc":"us","latitude":33.753746,"longitude":-84.38633,"reserved":0,"last_update":"0001-01-01T00:00:00Z","name_a2s":"Uncletopia | Atlanta | 1 | All Maps","protocol":17,"map":"koth_cascade","folder":"tf","game":"Team Fortress","app_id":440,"player_count":0,"max_players":24,"Bots":0,"server_type":"Dedicated","server_os":"Linux","password":true,"vac":true,"version":"7757534","steam_id":85568392924469982,"keywords":["cp","nocrits","nodmgspread","uncletopia"],"game_id":440,"stv_port":27016,"stv_name":"Uncletopia | Atlanta | 1 | All Maps | STV","players":null},{"server_id":104,"name":"Uncletopia | Atlanta | 2 | All Maps","name_short":"atl-2","host":"atl-1.us.uncletopia.com","port":27025,"enabled":true,"region":"us-east","cc":"us","latitude":33.753746,"longitude":-84.38633,"reserved":0,"last_update":"0001-01-01T00:00:00Z","name_a2s":"Uncletopia | Atlanta | 2 | All Maps","protocol":17,"map":"cp_dustbowl","folder":"tf","game":"Team Fortress","app_id":440,"player_count":0,"max_players":24,"Bots":0,"server_type":"Dedicated","server_os":"Linux","password":true,"vac":true,"version":"7757534","steam_id":85568392924469983,"keywords":["cp","nocrits","nodmgspread","uncletopia"],"game_id":440,"stv_port":27026,"stv_name":"Uncletopia | Atlanta | 2 | All Maps | STV","players":null},{"server_id":400,"name":"Uncletopia | Atlanta | 3 | Community","name_short":"atl-3","host":"atl-1.us.uncletopia.com","port":27035,"enabled":true,"region":"us-east","cc":"us","latitude":33.753746,"longitude":-84.38633,"reserved":0,"last_update":"0001-01-01T00:00:00Z","name_a2s":"Uncletopia | Atlanta | 3 | Community","protocol":17,"map":"cp_snakewater_final1","folder":"tf","game":"Team Fortress","app_id":440,"player_count":0,"max_players":24,"Bots":0,"server_type":"Dedicated","server_os":"Linux","password":true,"vac":true,"version":"7757534","steam_id":85568392924515187,"keywords":["cp","nocrits","nodmgspread","uncletopia"],"game_id":440,"stv_port":27036,"stv_name":"Uncletopia | Atlanta | 3 | Community | STV","players":null},{"server_id":401,"name":"Uncletopia | Atlanta | 4 | No Payload","name_short":"atl-4","host":"atl-1.us.uncletopia.com","port":27045,"enabled":true,"region":"us-east","cc":"us","latitude":33.753746,"longitude":-84.38633,"reserved":0,"last_update":"0001-01-01T00:00:00Z","name_a2s":"","protocol":0,"map":"","folder":"","game":"","app_id":0,"player_count":0,"max_players":0,"Bots":0,"server_type":"","server_os":"","password":false,"vac":false,"version":"","steam_id":0,"keywords":null,"game_id":0,"stv_port":0,"stv_name":"","players":null},{"server_id":2,"name":"Uncletopia | Chicago | 1 | All Maps","name_short":"chi-1","host":"chi-1.us.uncletopia.com","port":27015,"enabled":true,"region":"us-central","cc":"us","latitude":41.881832,"longitude":-87.62318,"reserved":0,"last_update":"0001-01-01T00:00:00Z","name_a2s":"Uncletopia | Chicago | 1 | All Maps","protocol":17,"map":"koth_nucleus","folder":"tf","game":"Team Fortress","app_id":440,"player_count":0,"max_players":24,"Bots":0,"server_type":"Dedicated","server_os":"Linux","password":true,"vac":true,"version":"7757534","steam_id":85568392924469984,"keywords":["cp","nocrits","nodmgspread","uncletopia"],"game_id":440,"stv_port":27016,"stv_name":"Uncletopia | Chicago | 1 | All Maps | STV","players":null},{"server_id":106,"name":"Uncletopia | Chicago | 2 | All Maps","name_short":"chi-2","host":"chi-1.us.uncletopia.com","port":27025,"enabled":true,"region":"us-central","cc":"us","latitude":41.881832,"longitude":-87.62318,"reserved":0,"last_update":"0001-01-01T00:00:00Z","name_a2s":"Uncletopia | Chicago | 2 | All Maps","protocol":17,"map":"koth_nucleus","folder":"tf","game":"Team Fortress","app_id":440,"player_count":0,"max_players":24,"Bots":0,"server_type":"Dedicated","server_os":"Linux","password":true,"vac":true,"version":"7757534","steam_id":85568392924469985,"keywords":["cp","nocrits","nodmgspread","uncletopia"],"game_id":440,"stv_port":27026,"stv_name":"Uncletopia | Chicago | 2 | All Maps | STV","players":null},{"server_id":402,"name":"Uncletopia | Chicago | 3 | All Maps","name_short":"chi-3","host":"chi-1.us.uncletopia.com","port":27035,"enabled":true,"region":"us-central","cc":"us","latitude":41.881832,"longitude":-87.62318,"reserved":0,"last_update":"0001-01-01T00:00:00Z","name_a2s":"Uncletopia | Chicago | 3 | All Maps","protocol":17,"map":"koth_nucleus","folder":"tf","game":"Team Fortress","app_id":440,"player_count":0,"max_players":24,"Bots":0,"server_type":"Dedicated","server_os":"Linux","password":true,"vac":true,"version":"7757534","steam_id":85568392924515191,"keywords":["cp","nocrits","nodmgspread","uncletopia"],"game_id":440,"stv_port":27036,"stv_name":"Uncletopia | Chicago | 3 | All Maps | STV","players":null},{"server_id":403,"name":"Uncletopia | Chicago | 4 | All Maps","name_short":"chi-4","host":"chi-1.us.uncletopia.com","port":27045,"enabled":true,"region":"us-central","cc":"us","latitude":41.881832,"longitude":-87.62318,"reserved":0,"last_update":"0001-01-01T00:00:00Z","name_a2s":"Uncletopia | Chicago | 4 | All Maps","protocol":17,"map":"pl_badwater","folder":"tf","game":"Team Fortress","app_id":440,"player_count":24,"max_players":24,"Bots":0,"server_type":"Dedicated","server_os":"Linux","password":true,"vac":true,"version":"7757534","steam_id":85568392924515193,"keywords":["nocrits","nodmgspread","payload","uncletopia"],"game_id":440,"stv_port":27046,"stv_name":"Uncletopia | Chicago | 4 | All Maps | STV","players":[{"user_id":63,"name":"Kurt Biscuitmaker","steam_id":76561198331701823,"connected_time":2158000000000,"state":"active","ping":73},{"user_id":73,"name":"PadrePockets","steam_id":76561197993251606,"connected_time":1512000000000,"state":"active","ping":62},{"user_id":36,"name":"roxases","steam_id":76561198119759490,"connected_time":4273000000000,"state":"active","ping":84},{"user_id":81,"name":"Sputnuts","steam_id":76561198236857310,"connected_time":724000000000,"state":"active","ping":51},{"user_id":71,"name":"Lusty.","steam_id":76561198446378419,"connected_time":1531000000000,"state":"active","ping":83},{"user_id":38,"name":"Dauntless Duelist","steam_id":76561198025056018,"connected_time":4032000000000,"state":"active","ping":97},{"user_id":9,"name":"LeZagna","steam_id":76561198258060097,"connected_time":5842000000000,"state":"active","ping":59},{"user_id":83,"name":"Red","steam_id":76561198082958231,"connected_time":415000000000,"state":"active","ping":65},{"user_id":40,"name":"HeisenBurger","steam_id":76561198040632080,"connected_time":3892000000000,"state":"active","ping":55},{"user_id":42,"name":"Jamie(^_^)","steam_id":76561198835286379,"connected_time":3848000000000,"state":"active","ping":70},{"user_id":77,"name":"QwQ","steam_id":76561198432226673,"connected_time":1328000000000,"state":"active","ping":100},{"user_id":84,"name":"IPlayGamez","steam_id":76561198041387508,"connected_time":310000000000,"state":"active","ping":60},{"user_id":17,"name":"Bryguy","steam_id":76561198092096120,"connected_time":5758000000000,"state":"active","ping":41},{"user_id":28,"name":"xd Clover","steam_id":76561198038905361,"connected_time":4581000000000,"state":"active","ping":58},{"user_id":65,"name":"Dr.BendyBones","steam_id":76561198048846641,"connected_time":2144000000000,"state":"active","ping":67},{"user_id":82,"name":"deVychu","steam_id":76561198078032019,"connected_time":465000000000,"state":"active","ping":173},{"user_id":67,"name":"i love tf2!","steam_id":76561198050220225,"connected_time":2024000000000,"state":"active","ping":65},{"user_id":68,"name":"Bobato Chaps","steam_id":76561198065103552,"connected_time":1698000000000,"state":"active","ping":46},{"user_id":78,"name":"Nephew Of Dorn","steam_id":76561197991210329,"connected_time":1268000000000,"state":"active","ping":84},{"user_id":58,"name":"whimsical little creature","steam_id":76561198271710504,"connected_time":3020000000000,"state":"active","ping":56},{"user_id":69,"name":"Andrew","steam_id":76561198070615190,"connected_time":1546000000000,"state":"active","ping":59},{"user_id":76,"name":"Quillz","steam_id":76561197996567754,"connected_time":1478000000000,"state":"active","ping":60},{"user_id":79,"name":"Romo","steam_id":76561198243101572,"connected_time":1200000000000,"state":"active","ping":86},{"user_id":86,"name":"Divine Light","steam_id":76561198369477018,"connected_time":276000000000,"state":"active","ping":75}]},{"server_id":36,"name":"Uncletopia | Chicago | 5 | All Maps","name_short":"chi-5","host":"chi-2.us.uncletopia.com","port":27015,"enabled":true,"region":"us-central","cc":"us","latitude":41.881832,"longitude":-87.62318,"reserved":0,"last_update":"0001-01-01T00:00:00Z","name_a2s":"Uncletopia | Chicago | 5 | All Maps","protocol":17,"map":"koth_cascade","folder":"tf","game":"Team Fortress","app_id":440,"player_count":0,"max_players":24,"Bots":0,"server_type":"Dedicated","server_os":"Linux","password":true,"vac":true,"version":"7757534","steam_id":85568392924866362,"keywords":["cp","nocrits","nodmgspread","uncletopia"],"game_id":440,"stv_port":27016,"stv_name":"Uncletopia | Chicago | 5 | All Maps | STV","players":null},{"server_id":37,"name":"Uncletopia | Chicago | 6 | All Maps","name_short":"chi-6","host":"chi-2.us.uncletopia.com","port":27025,"enabled":true,"region":"us-central","cc":"us","latitude":41.881832,"longitude":-87.62318,"reserved":0,"last_update":"0001-01-01T00:00:00Z","name_a2s":"Uncletopia | Chicago | 6 | All Maps","protocol":17,"map":"pl_borneo","folder":"tf","game":"Team Fortress","app_id":440,"player_count":0,"max_players":24,"Bots":0,"server_type":"Dedicated","server_os":"Linux","password":true,"vac":true,"version":"7757534","steam_id":85568392924866363,"keywords":["nocrits","nodmgspread","payload","uncletopia"],"game_id":440,"stv_port":27026,"stv_name":"Uncletopia | Chicago | 6 | All Maps | STV","players":null},{"server_id":38,"name":"Uncletopia | Chicago | 7 | Stopwatch Beta","name_short":"chi-7","host":"chi-2.us.uncletopia.com","port":27035,"enabled":true,"region":"us-central","cc":"us","latitude":41.881832,"longitude":-87.62318,"reserved":0,"last_update":"0001-01-01T00:00:00Z","name_a2s":"Uncletopia | Chicago | 7 | Stopwatch Beta","protocol":17,"map":"pl_barnblitz","folder":"tf","game":"Team Fortress","app_id":440,"player_count":0,"max_players":24,"Bots":0,"server_type":"Dedicated","server_os":"Linux","password":true,"vac":true,"version":"7757534","steam_id":85568392924866364,"keywords":["nocrits","nodmgspread","payload","uncletopia"],"game_id":440,"stv_port":27036,"stv_name":"Uncletopia | Chicago | 7 | Stopwatch Beta | STV","players":null},{"server_id":39,"name":"Uncletopia | Chicago | 8 | Community","name_short":"chi-8","host":"chi-2.us.uncletopia.com","port":27045,"enabled":true,"region":"us-central","cc":"us","latitude":41.881832,"longitude":-87.62318,"reserved":0,"last_update":"0001-01-01T00:00:00Z","name_a2s":"Uncletopia | Chicago | 8 | Community","protocol":17,"map":"koth_cascade","folder":"tf","game":"Team Fortress","app_id":440,"player_count":0,"max_players":24,"Bots":0,"server_type":"Dedicated","server_os":"Linux","password":true,"vac":true,"version":"7757534","steam_id":85568392924866365,"keywords":["cp","nocrits","nodmgspread","uncletopia"],"game_id":440,"stv_port":27046,"stv_name":"Uncletopia | Chicago | 8 | Community | STV","players":null},{"server_id":8,"name":"Uncletopia | Dallas | 1 | All Maps","name_short":"dal-1","host":"dal-1.us.uncletopia.com","port":27015,"enabled":true,"region":"us-central","cc":"us","latitude":32.779167,"longitude":-96.80889,"reserved":0,"last_update":"0001-01-01T00:00:00Z","name_a2s":"Uncletopia | Dallas | 1 | All Maps","protocol":17,"map":"koth_cascade","folder":"tf","game":"Team Fortress","app_id":440,"player_count":0,"max_players":24,"Bots":0,"server_type":"Dedicated","server_os":"Linux","password":true,"vac":true,"version":"7757534","steam_id":85568392924469986,"keywords":["cp","nocrits","nodmgspread","uncletopia"],"game_id":440,"stv_port":27016,"stv_name":"Uncletopia | Dallas | 1 | All Maps | STV","players":null},{"server_id":108,"name":"Uncletopia | Dallas | 2 | All Maps","name_short":"dal-2","host":"dal-1.us.uncletopia.com","port":27025,"enabled":true,"region":"us-central","cc":"us","latitude":32.779167,"longitude":-96.80889,"reserved":0,"last_update":"0001-01-01T00:00:00Z","name_a2s":"Uncletopia | Dallas | 2 | All Maps","protocol":17,"map":"pl_upward","folder":"tf","game":"Team Fortress","app_id":440,"player_count":0,"max_players":24,"Bots":0,"server_type":"Dedicated","server_os":"Linux","password":true,"vac":true,"version":"7757534","steam_id":85568392924469988,"keywords":["nocrits","nodmgspread","payload","uncletopia"],"game_id":440,"stv_port":27026,"stv_name":"Uncletopia | Dallas | 2 | All Maps | STV","players":null},{"server_id":5,"name":"Uncletopia | Frankfurt | 1 | All Maps","name_short":"frk-1","host":"frk-1.de.uncletopia.com","port":27015,"enabled":true,"region":"eu","cc":"de","latitude":50.110924,"longitude":8.682127,"reserved":0,"last_update":"0001-01-01T00:00:00Z","name_a2s":"Uncletopia | Frankfurt | 1 | All Maps","protocol":17,"map":"pl_swiftwater_final1","folder":"tf","game":"Team Fortress","app_id":440,"player_count":24,"max_players":24,"Bots":0,"server_type":"Dedicated","server_os":"Linux","password":true,"vac":true,"version":"7757534","steam_id":85568392924469989,"keywords":["nocrits","nodmgspread","payload","uncletopia"],"game_id":440,"stv_port":27016,"stv_name":"Uncletopia | Frankfurt | 1 | All Maps | STV","players":[{"user_id":354,"name":"blazeeight","steam_id":76561198159456502,"connected_time":1035000000000,"state":"active","ping":60},{"user_id":372,"name":"filip pilic","steam_id":76561199147666336,"connected_time":591000000000,"state":"active","ping":75},{"user_id":268,"name":"gagalak","steam_id":76561198089979108,"connected_time":8387000000000,"state":"active","ping":89},{"user_id":335,"name":"Lazy Bane","steam_id":76561198032359132,"connected_time":2129000000000,"state":"active","ping":55},{"user_id":270,"name":"✪ qua ✪","steam_id":76561198066408333,"connected_time":7951000000000,"state":"active","ping":68},{"user_id":353,"name":"BOB","steam_id":76561198797287684,"connected_time":1085000000000,"state":"active","ping":63},{"user_id":337,"name":"Why?","steam_id":76561198970833545,"connected_time":2053000000000,"state":"active","ping":84},{"user_id":355,"name":"TheBiBiMan","steam_id":76561198296729800,"connected_time":1027000000000,"state":"active","ping":74},{"user_id":371,"name":"Hussain_144","steam_id":76561198346029208,"connected_time":606000000000,"state":"active","ping":173},{"user_id":356,"name":"Gravel Mercenary","steam_id":76561199019412162,"connected_time":1019000000000,"state":"active","ping":65},{"user_id":361,"name":"Cuthbert","steam_id":76561198204649481,"connected_time":975000000000,"state":"active","ping":92},{"user_id":357,"name":"ThellanM","steam_id":76561199014222387,"connected_time":1014000000000,"state":"active","ping":80},{"user_id":309,"name":"Piquesque","steam_id":76561198286763046,"connected_time":4362000000000,"state":"active","ping":115},{"user_id":352,"name":"Proto-arc","steam_id":76561198012776747,"connected_time":1092000000000,"state":"active","ping":58},{"user_id":370,"name":"Flarey","steam_id":76561198280552625,"connected_time":718000000000,"state":"active","ping":61},{"user_id":346,"name":"Sinny","steam_id":76561197999598422,"connected_time":1362000000000,"state":"active","ping":70},{"user_id":377,"name":"Dr. Le Quack","steam_id":76561197995711176,"connected_time":210000000000,"state":"active","ping":75},{"user_id":365,"name":"schmick","steam_id":76561198039537958,"connected_time":931000000000,"state":"active","ping":75},{"user_id":378,"name":"Reast","steam_id":76561198022796927,"connected_time":174000000000,"state":"active","ping":74},{"user_id":375,"name":"modavak","steam_id":76561198946290908,"connected_time":325000000000,"state":"active","ping":90},{"user_id":319,"name":"Noob_with_source","steam_id":76561198870362103,"connected_time":3960000000000,"state":"active","ping":60},{"user_id":364,"name":"Piellino","steam_id":76561198156873276,"connected_time":956000000000,"state":"active","ping":95},{"user_id":366,"name":"jovi_","steam_id":76561198449280552,"connected_time":889000000000,"state":"active","ping":65},{"user_id":368,"name":"kamekame","steam_id":76561198047108054,"connected_time":880000000000,"state":"active","ping":113}]},{"server_id":110,"name":"Uncletopia | Frankfurt | 2 | All Maps","name_short":"frk-2","host":"frk-1.de.uncletopia.com","port":27025,"enabled":true,"region":"eu","cc":"de","latitude":50.110924,"longitude":8.682127,"reserved":0,"last_update":"0001-01-01T00:00:00Z","name_a2s":"Uncletopia | Frankfurt | 2 | All Maps","protocol":17,"map":"ctf_turbine","folder":"tf","game":"Team Fortress","app_id":440,"player_count":23,"max_players":24,"Bots":0,"server_type":"Dedicated","server_os":"Linux","password":true,"vac":true,"version":"7757534","steam_id":85568392924469990,"keywords":["ctf","nocrits","nodmgspread","uncletopia"],"game_id":440,"stv_port":27026,"stv_name":"Uncletopia | Frankfurt | 2 | All Maps | STV","players":[{"user_id":113,"name":"Q4X","steam_id":76561198117215506,"connected_time":1379000000000,"state":"active","ping":55},{"user_id":138,"name":"Kwizine","steam_id":76561198147999400,"connected_time":74000000000,"state":"active","ping":60},{"user_id":48,"name":"Kamanie","steam_id":76561198135448255,"connected_time":4901000000000,"state":"active","ping":47},{"user_id":118,"name":"dusty","steam_id":76561199011977567,"connected_time":1196000000000,"state":"active","ping":55},{"user_id":135,"name":"grandpa's post-mortem photo","steam_id":76561198130116078,"connected_time":170000000000,"state":"active","ping":94},{"user_id":140,"name":"F2","steam_id":76561198203043307,"connected_time":22000000000,"state":"spawning","ping":81},{"user_id":137,"name":"Breadcrab","steam_id":76561198015924039,"connected_time":151000000000,"state":"active","ping":72},{"user_id":108,"name":"howabe","steam_id":76561197996486818,"connected_time":2281000000000,"state":"active","ping":51},{"user_id":50,"name":"lisivi","steam_id":76561198365503306,"connected_time":4864000000000,"state":"active","ping":60},{"user_id":41,"name":"Angelatine","steam_id":76561198101624996,"connected_time":5124000000000,"state":"active","ping":94},{"user_id":94,"name":"Fat Pigeon","steam_id":76561198817940142,"connected_time":3091000000000,"state":"active","ping":46},{"user_id":31,"name":"jonas","steam_id":76561198250132954,"connected_time":5655000000000,"state":"active","ping":53},{"user_id":133,"name":"the youngest trillionaire","steam_id":76561198078780040,"connected_time":413000000000,"state":"active","ping":60},{"user_id":80,"name":"Maru","steam_id":76561198030931030,"connected_time":3712000000000,"state":"active","ping":68},{"user_id":124,"name":"Yelowchy","steam_id":76561198199416121,"connected_time":1115000000000,"state":"active","ping":61},{"user_id":111,"name":"Minimi","steam_id":76561198873850443,"connected_time":1587000000000,"state":"active","ping":59},{"user_id":139,"name":"Mat","steam_id":76561198049245672,"connected_time":37000000000,"state":"active","ping":70},{"user_id":131,"name":"Making Coffee","steam_id":76561198138281039,"connected_time":766000000000,"state":"active","ping":63},{"user_id":130,"name":"Silverstorm","steam_id":76561198118175267,"connected_time":848000000000,"state":"active","ping":79},{"user_id":60,"name":"player","steam_id":76561198054474684,"connected_time":4582000000000,"state":"active","ping":72},{"user_id":102,"name":"sm0ke","steam_id":76561198198977226,"connected_time":2448000000000,"state":"active","ping":73},{"user_id":103,"name":"Eivind","steam_id":76561198159927980,"connected_time":2447000000000,"state":"active","ping":74},{"user_id":129,"name":"row lft","steam_id":76561198053400769,"connected_time":892000000000,"state":"active","ping":61}]},{"server_id":308,"name":"Uncletopia | Frankfurt | 3 | All Maps","name_short":"frk-3","host":"frk-1.de.uncletopia.com","port":27035,"enabled":true,"region":"eu","cc":"de","latitude":50.110924,"longitude":8.682127,"reserved":0,"last_update":"0001-01-01T00:00:00Z","name_a2s":"Uncletopia | Frankfurt | 3 | All Maps","protocol":17,"map":"pl_borneo","folder":"tf","game":"Team Fortress","app_id":440,"player_count":24,"max_players":24,"Bots":0,"server_type":"Dedicated","server_os":"Linux","password":true,"vac":true,"version":"7757534","steam_id":85568392924504274,"keywords":["nocrits","nodmgspread","payload","uncletopia"],"game_id":440,"stv_port":27036,"stv_name":"Uncletopia | Frankfurt | 3 | All Maps | STV","players":[{"user_id":151,"name":"B4R10N","steam_id":76561198047167954,"connected_time":1729000000000,"state":"active","ping":50},{"user_id":142,"name":"Sirzen","steam_id":76561198170155434,"connected_time":2831000000000,"state":"active","ping":52},{"user_id":170,"name":"Rui","steam_id":76561198263735498,"connected_time":343000000000,"state":"active","ping":78},{"user_id":171,"name":"Bean","steam_id":76561199215043894,"connected_time":317000000000,"state":"active","ping":165},{"user_id":172,"name":"Coffee","steam_id":76561199077316448,"connected_time":302000000000,"state":"active","ping":66},{"user_id":168,"name":"Vibes 100","steam_id":76561198146194820,"connected_time":364000000000,"state":"active","ping":48},{"user_id":165,"name":"hud_saytext_time 0","steam_id":76561198010327228,"connected_time":1214000000000,"state":"active","ping":58},{"user_id":173,"name":"kbbq","steam_id":76561198346638308,"connected_time":283000000000,"state":"active","ping":60},{"user_id":153,"name":"sorry","steam_id":76561199081305365,"connected_time":1687000000000,"state":"active","ping":70},{"user_id":178,"name":"Dagda","steam_id":76561198871136698,"connected_time":191000000000,"state":"active","ping":57},{"user_id":174,"name":"dust","steam_id":76561198293557665,"connected_time":270000000000,"state":"active","ping":105},{"user_id":161,"name":"RawGorilla","steam_id":76561198063654194,"connected_time":1321000000000,"state":"active","ping":61},{"user_id":87,"name":"A stripper","steam_id":76561198034865891,"connected_time":6510000000000,"state":"active","ping":63},{"user_id":160,"name":"Hedge Knight","steam_id":76561198989449047,"connected_time":1473000000000,"state":"active","ping":114},{"user_id":156,"name":"cl","steam_id":76561199436640904,"connected_time":1665000000000,"state":"active","ping":66},{"user_id":166,"name":"BSantos57","steam_id":76561198000597094,"connected_time":822000000000,"state":"active","ping":92},{"user_id":162,"name":"multiflex","steam_id":76561198049639319,"connected_time":1300000000000,"state":"active","ping":75},{"user_id":175,"name":"Tekky","steam_id":76561197990987315,"connected_time":243000000000,"state":"active","ping":54},{"user_id":159,"name":"Balls","steam_id":76561198086400484,"connected_time":1614000000000,"state":"active","ping":87},{"user_id":169,"name":"FilipeLuk","steam_id":76561198150675438,"connected_time":363000000000,"state":"active","ping":72},{"user_id":176,"name":"Scooch","steam_id":76561198083869402,"connected_time":235000000000,"state":"active","ping":180},{"user_id":167,"name":"addicted","steam_id":76561199129801006,"connected_time":588000000000,"state":"active","ping":45},{"user_id":177,"name":"KAZAM | Tervez","steam_id":76561198045459068,"connected_time":219000000000,"state":"active","ping":83},{"user_id":180,"name":"123","steam_id":76561198839084456,"connected_time":162000000000,"state":"active","ping":96}]},{"server_id":309,"name":"Uncletopia | Frankfurt | 4 | All Maps","name_short":"frk-4","host":"frk-1.de.uncletopia.com","port":27045,"enabled":true,"region":"eu","cc":"de","latitude":50.110924,"longitude":8.682127,"reserved":0,"last_update":"0001-01-01T00:00:00Z","name_a2s":"Uncletopia | Frankfurt | 4 | All Maps","protocol":17,"map":"koth_viaduct","folder":"tf","game":"Team Fortress","app_id":440,"player_count":0,"max_players":24,"Bots":0,"server_type":"Dedicated","server_os":"Linux","password":true,"vac":true,"version":"7757534","steam_id":85568392924504275,"keywords":["cp","nocrits","nodmgspread","uncletopia"],"game_id":440,"stv_port":27046,"stv_name":"Uncletopia | Frankfurt | 4 | All Maps | STV","players":null},{"server_id":310,"name":"Uncletopia | Frankfurt | 5 | All Maps","name_short":"frk-5","host":"frk-1.de.uncletopia.com","port":27055,"enabled":true,"region":"eu","cc":"de","latitude":50.110924,"longitude":8.682127,"reserved":0,"last_update":"0001-01-01T00:00:00Z","name_a2s":"Uncletopia | Frankfurt | 5 | All Maps","protocol":17,"map":"koth_lakeside_final","folder":"tf","game":"Team Fortress","app_id":440,"player_count":0,"max_players":24,"Bots":0,"server_type":"Dedicated","server_os":"Linux","password":true,"vac":true,"version":"7757534","steam_id":85568392924504277,"keywords":["cp","nocrits","nodmgspread","uncletopia"],"game_id":440,"stv_port":27056,"stv_name":"Uncletopia | Frankfurt | 5 | All Maps | STV","players":null},{"server_id":311,"name":"Uncletopia | Frankfurt | 6 | All Maps","name_short":"frk-6","host":"frk-1.de.uncletopia.com","port":27065,"enabled":true,"region":"eu","cc":"de","latitude":50.110924,"longitude":8.682127,"reserved":0,"last_update":"0001-01-01T00:00:00Z","name_a2s":"Uncletopia | Frankfurt | 6 | All Maps","protocol":17,"map":"pl_frontier_final","folder":"tf","game":"Team Fortress","app_id":440,"player_count":0,"max_players":24,"Bots":0,"server_type":"Dedicated","server_os":"Linux","password":true,"vac":true,"version":"7757534","steam_id":85568392924504278,"keywords":["nocrits","nodmgspread","payload","uncletopia"],"game_id":440,"stv_port":27066,"stv_name":"Uncletopia | Frankfurt | 6 | All Maps | STV","players":null},{"server_id":23,"name":"Uncletopia | Frankfurt | 7 | Stopwatch Beta","name_short":"frk-7","host":"frk-1.de.uncletopia.com","port":27075,"enabled":true,"region":"eu","cc":"de","latitude":50.110924,"longitude":8.682127,"reserved":0,"last_update":"0001-01-01T00:00:00Z","name_a2s":"Uncletopia | Frankfurt | 7 | Stopwatch Beta","protocol":17,"map":"cp_sunshine","folder":"tf","game":"Team Fortress","app_id":440,"player_count":0,"max_players":24,"Bots":0,"server_type":"Dedicated","server_os":"Linux","password":true,"vac":true,"version":"7757534","steam_id":85568392924742827,"keywords":["cp","nocrits","nodmgspread","uncletopia"],"game_id":440,"stv_port":27076,"stv_name":"Uncletopia | Frankfurt | 7 | Stopwatch Beta | STV","players":null},{"server_id":24,"name":"Uncletopia | Frankfurt | 8 | Community","name_short":"frk-8","host":"frk-1.de.uncletopia.com","port":27085,"enabled":true,"region":"eu","cc":"de","latitude":50.110924,"longitude":8.682127,"reserved":0,"last_update":"0001-01-01T00:00:00Z","name_a2s":"Uncletopia | Frankfurt | 8 | Community","protocol":17,"map":"koth_lakeside_final","folder":"tf","game":"Team Fortress","app_id":440,"player_count":0,"max_players":24,"Bots":0,"server_type":"Dedicated","server_os":"Linux","password":true,"vac":true,"version":"7757534","steam_id":85568392924742828,"keywords":["cp","nocrits","nodmgspread","uncletopia"],"game_id":440,"stv_port":27086,"stv_name":"Uncletopia | Frankfurt | 8 | Community | STV","players":null},{"server_id":202,"name":"Uncletopia | Hong Kong | 1 | All Maps","name_short":"hgk-1","host":"hgk-1.hk.uncletopia.com","port":27015,"enabled":true,"region":"asia","cc":"hk","latitude":22.302711,"longitude":114.177216,"reserved":0,"last_update":"0001-01-01T00:00:00Z","name_a2s":"Uncletopia | Hong Kong | 1 | All Maps","protocol":17,"map":"pl_borneo","folder":"tf","game":"Team Fortress","app_id":440,"player_count":23,"max_players":24,"Bots":0,"server_type":"Dedicated","server_os":"Linux","password":true,"vac":true,"version":"7757534","steam_id":85568392924494504,"keywords":["nocrits","nodmgspread","payload","uncletopia"],"game_id":440,"stv_port":27016,"stv_name":"Uncletopia | Hong Kong | 1 | All Maps | STV","players":[{"user_id":216,"name":"ObscuroLucem","steam_id":76561198875037943,"connected_time":1217000000000,"state":"active","ping":86},{"user_id":159,"name":"Slim3rs","steam_id":76561199088010585,"connected_time":5388000000000,"state":"active","ping":178},{"user_id":236,"name":"zsb","steam_id":76561198073857914,"connected_time":479000000000,"state":"active","ping":70},{"user_id":237,"name":"tf2 gaymer","steam_id":76561198080108480,"connected_time":392000000000,"state":"active","ping":59},{"user_id":183,"name":"Xh4dow","steam_id":76561199171823881,"connected_time":2975000000000,"state":"active","ping":144},{"user_id":243,"name":"shenko","steam_id":76561198082921407,"connected_time":186000000000,"state":"active","ping":122},{"user_id":202,"name":"Ivy","steam_id":76561198400698408,"connected_time":2081000000000,"state":"active","ping":91},{"user_id":181,"name":"LEGS","steam_id":76561199111623890,"connected_time":3159000000000,"state":"active","ping":86},{"user_id":177,"name":"ArcticDolphin","steam_id":76561198203626319,"connected_time":3363000000000,"state":"active","ping":154},{"user_id":220,"name":"Puddin","steam_id":76561198140052918,"connected_time":1099000000000,"state":"active","ping":99},{"user_id":232,"name":"Momoxhien","steam_id":76561198414997429,"connected_time":731000000000,"state":"active","ping":87},{"user_id":239,"name":"lcvrn1tadatugu","steam_id":76561199029855506,"connected_time":317000000000,"state":"active","ping":130},{"user_id":207,"name":"Kazeyama Toru","steam_id":76561199222419339,"connected_time":1880000000000,"state":"active","ping":85},{"user_id":241,"name":"쿠키","steam_id":76561197997220367,"connected_time":294000000000,"state":"active","ping":55},{"user_id":235,"name":"Giyu","steam_id":76561198299150410,"connected_time":525000000000,"state":"active","ping":77},{"user_id":209,"name":"Othopeus","steam_id":76561198283534382,"connected_time":1860000000000,"state":"active","ping":65},{"user_id":234,"name":"23rd","steam_id":76561199014675406,"connected_time":568000000000,"state":"active","ping":125},{"user_id":222,"name":"AHHHHHHHHHHHH","steam_id":76561199221091556,"connected_time":987000000000,"state":"active","ping":73},{"user_id":211,"name":"Building pity = Gambo addiction","steam_id":76561199137927625,"connected_time":1760000000000,"state":"active","ping":96},{"user_id":244,"name":"Pierogi","steam_id":76561198867089265,"connected_time":117000000000,"state":"active","ping":104},{"user_id":229,"name":"Beef Wellington","steam_id":76561197995635241,"connected_time":831000000000,"state":"active","ping":154},{"user_id":242,"name":"光头强","steam_id":76561198045255591,"connected_time":249000000000,"state":"active","ping":118},{"user_id":245,"name":"BurningHeart","steam_id":76561199172677991,"connected_time":112000000000,"state":"active","ping":150}]},{"server_id":1,"name":"Uncletopia | Los Angeles | 1 | All Maps","name_short":"lax-1","host":"lax-1.us.uncletopia.com","port":27015,"enabled":true,"region":"us-west","cc":"us","latitude":33.94279,"longitude":-118.41004,"reserved":0,"last_update":"0001-01-01T00:00:00Z","name_a2s":"Uncletopia | Los Angeles | 1 | All Maps","protocol":17,"map":"pl_borneo","folder":"tf","game":"Team Fortress","app_id":440,"player_count":0,"max_players":24,"Bots":0,"server_type":"Dedicated","server_os":"Linux","password":true,"vac":true,"version":"7757534","steam_id":85568392924469991,"keywords":["nocrits","nodmgspread","payload","uncletopia"],"game_id":440,"stv_port":27016,"stv_name":"Uncletopia | Los Angeles | 1 | All Maps | STV","players":null},{"server_id":112,"name":"Uncletopia | Los Angeles | 2 | All Maps","name_short":"lax-2","host":"lax-1.us.uncletopia.com","port":27025,"enabled":true,"region":"us-west","cc":"us","latitude":33.94279,"longitude":-118.41004,"reserved":0,"last_update":"0001-01-01T00:00:00Z","name_a2s":"Uncletopia | Los Angeles | 2 | All Maps","protocol":17,"map":"koth_cascade","folder":"tf","game":"Team Fortress","app_id":440,"player_count":0,"max_players":24,"Bots":0,"server_type":"Dedicated","server_os":"Linux","password":true,"vac":true,"version":"7757534","steam_id":85568392924469992,"keywords":["cp","nocrits","nodmgspread","uncletopia"],"game_id":440,"stv_port":27026,"stv_name":"Uncletopia | Los Angeles | 2 | All Maps | STV","players":null},{"server_id":324,"name":"Uncletopia | Los Angeles | 3 | All Maps","name_short":"lax-3","host":"lax-1.us.uncletopia.com","port":27035,"enabled":true,"region":"us-west","cc":"us","latitude":33.94279,"longitude":-118.41004,"reserved":0,"last_update":"0001-01-01T00:00:00Z","name_a2s":"Uncletopia | Los Angeles | 3 | All Maps","protocol":17,"map":"koth_highpass","folder":"tf","game":"Team Fortress","app_id":440,"player_count":0,"max_players":24,"Bots":0,"server_type":"Dedicated","server_os":"Linux","password":true,"vac":true,"version":"7757534","steam_id":85568392924510198,"keywords":["cp","nocrits","nodmgspread","uncletopia"],"game_id":440,"stv_port":27036,"stv_name":"Uncletopia | Los Angeles | 3 | All Maps | STV","players":null},{"server_id":25,"name":"Uncletopia | Los Angeles | 4 | Stopwatch Beta","name_short":"lax-4","host":"lax-1.us.uncletopia.com","port":27045,"enabled":true,"region":"us-west","cc":"us","latitude":33.94279,"longitude":-118.41004,"reserved":0,"last_update":"0001-01-01T00:00:00Z","name_a2s":"Uncletopia | Los Angeles | 4 | Stopwatch Beta","protocol":17,"map":"pl_borneo","folder":"tf","game":"Team Fortress","app_id":440,"player_count":0,"max_players":24,"Bots":0,"server_type":"Dedicated","server_os":"Linux","password":true,"vac":true,"version":"7757534","steam_id":85568392924510199,"keywords":["nocrits","nodmgspread","payload","uncletopia"],"game_id":440,"stv_port":27046,"stv_name":"Uncletopia | Los Angeles | 4 | Stopwatch Beta | STV","players":null},{"server_id":11,"name":"Uncletopia | London | 1 | All Maps","name_short":"lon-1","host":"lon-1.uk.uncletopia.com","port":27015,"enabled":true,"region":"eu","cc":"gb","latitude":51.509865,"longitude":-0.118092,"reserved":0,"last_update":"0001-01-01T00:00:00Z","name_a2s":"Uncletopia | London | 1 | All Maps","protocol":17,"map":"pl_borneo","folder":"tf","game":"Team Fortress","app_id":440,"player_count":24,"max_players":24,"Bots":0,"server_type":"Dedicated","server_os":"Linux","password":true,"vac":true,"version":"7757534","steam_id":85568392924367362,"keywords":["nocrits","nodmgspread","payload","uncletopia"],"game_id":440,"stv_port":27016,"stv_name":"Uncletopia | London | 1 | All Maps | STV","players":[{"user_id":155,"name":"Myrmodion","steam_id":76561198054746247,"connected_time":4526000000000,"state":"active","ping":72},{"user_id":195,"name":"nao","steam_id":76561199478806124,"connected_time":983000000000,"state":"active","ping":87},{"user_id":144,"name":"jimmy bob","steam_id":76561198319583692,"connected_time":5330000000000,"state":"active","ping":56},{"user_id":193,"name":"MichaelTheSlav","steam_id":76561198151626040,"connected_time":1172000000000,"state":"active","ping":81},{"user_id":202,"name":"Mr Markyz","steam_id":76561199063497223,"connected_time":705000000000,"state":"active","ping":101},{"user_id":116,"name":"bodyshot simulator","steam_id":76561199403420562,"connected_time":7127000000000,"state":"active","ping":87},{"user_id":200,"name":"Jimmy Valmer","steam_id":76561198817352516,"connected_time":808000000000,"state":"active","ping":80},{"user_id":199,"name":"Jimortal","steam_id":76561198342426856,"connected_time":911000000000,"state":"active","ping":83},{"user_id":178,"name":"Oki (Bon)","steam_id":76561199047748534,"connected_time":3441000000000,"state":"active","ping":61},{"user_id":181,"name":"Apolo","steam_id":76561198116159344,"connected_time":3269000000000,"state":"active","ping":40},{"user_id":204,"name":"AdrianM","steam_id":76561198306928693,"connected_time":562000000000,"state":"active","ping":91},{"user_id":183,"name":"Economic crisis","steam_id":76561198063562843,"connected_time":3153000000000,"state":"active","ping":61},{"user_id":185,"name":"Apathy","steam_id":76561199308784371,"connected_time":2339000000000,"state":"active","ping":53},{"user_id":184,"name":"The Chosen One","steam_id":76561199046984627,"connected_time":3152000000000,"state":"active","ping":160},{"user_id":186,"name":"R0mulone","steam_id":76561198352513792,"connected_time":2154000000000,"state":"active","ping":62},{"user_id":175,"name":"dunduu","steam_id":76561198875240717,"connected_time":3679000000000,"state":"active","ping":76},{"user_id":197,"name":"Sandshee","steam_id":76561198088574666,"connected_time":966000000000,"state":"active","ping":44},{"user_id":191,"name":"Hegyi tahó F2P","steam_id":76561199219150356,"connected_time":1888000000000,"state":"active","ping":77},{"user_id":203,"name":"Art","steam_id":76561198823514629,"connected_time":672000000000,"state":"active","ping":128},{"user_id":145,"name":"transgender e-girl","steam_id":76561198168589809,"connected_time":5244000000000,"state":"active","ping":62},{"user_id":187,"name":"Owlet","steam_id":76561198065613974,"connected_time":2099000000000,"state":"active","ping":72},{"user_id":166,"name":"poliakov.noam","steam_id":76561199259322961,"connected_time":4159000000000,"state":"active","ping":103},{"user_id":146,"name":"bum","steam_id":76561198060105180,"connected_time":5211000000000,"state":"active","ping":64},{"user_id":192,"name":"hmmmmm","steam_id":76561198024619679,"connected_time":1184000000000,"state":"active","ping":64}]},{"server_id":114,"name":"Uncletopia | London | 2 | All Maps","name_short":"lon-2","host":"lon-1.uk.uncletopia.com","port":27025,"enabled":true,"region":"eu","cc":"gb","latitude":51.509865,"longitude":-0.118092,"reserved":0,"last_update":"0001-01-01T00:00:00Z","name_a2s":"Uncletopia | London | 2 | All Maps","protocol":17,"map":"koth_viaduct","folder":"tf","game":"Team Fortress","app_id":440,"player_count":2,"max_players":24,"Bots":0,"server_type":"Dedicated","server_os":"Linux","password":true,"vac":true,"version":"7757534","steam_id":85568392924470941,"keywords":["cp","nocrits","nodmgspread","uncletopia"],"game_id":440,"stv_port":27026,"stv_name":"Uncletopia | London | 2 | All Maps | STV","players":[{"user_id":13,"name":"fried","steam_id":76561198307522022,"connected_time":382000000000,"state":"active","ping":58},{"user_id":16,"name":"Insectoid","steam_id":76561199382856956,"connected_time":199000000000,"state":"active","ping":54}]},{"server_id":320,"name":"Uncletopia | London | 3 | All Maps","name_short":"lon-3","host":"lon-1.uk.uncletopia.com","port":27035,"enabled":true,"region":"eu","cc":"gb","latitude":51.509865,"longitude":-0.118092,"reserved":0,"last_update":"0001-01-01T00:00:00Z","name_a2s":"Uncletopia | London | 3 | All Maps","protocol":17,"map":"koth_highpass","folder":"tf","game":"Team Fortress","app_id":440,"player_count":24,"max_players":24,"Bots":0,"server_type":"Dedicated","server_os":"Linux","password":true,"vac":true,"version":"7757534","steam_id":85568392924510192,"keywords":["cp","nocrits","nodmgspread","uncletopia"],"game_id":440,"stv_port":27036,"stv_name":"Uncletopia | London | 3 | All Maps | STV","players":[{"user_id":43,"name":"British Disapproval","steam_id":76561198001375260,"connected_time":1492000000000,"state":"active","ping":51},{"user_id":5,"name":"wide appreciator","steam_id":76561198083286511,"connected_time":3284000000000,"state":"active","ping":41},{"user_id":6,"name":"heavy sings (real)","steam_id":76561199023804405,"connected_time":3277000000000,"state":"active","ping":74},{"user_id":7,"name":"tqla","steam_id":76561198073092585,"connected_time":3080000000000,"state":"active","ping":100},{"user_id":52,"name":"bird","steam_id":76561198393596975,"connected_time":728000000000,"state":"active","ping":47},{"user_id":47,"name":"Meowster Clean","steam_id":76561198294655057,"connected_time":1235000000000,"state":"active","ping":90},{"user_id":49,"name":"Laurie","steam_id":76561198082951750,"connected_time":883000000000,"state":"active","ping":49},{"user_id":58,"name":".::[SerafeTTiN]::.","steam_id":76561198009471724,"connected_time":74000000000,"state":"active","ping":97},{"user_id":13,"name":"Benpl","steam_id":76561198084890757,"connected_time":2824000000000,"state":"active","ping":46},{"user_id":53,"name":"Daoloth, Render of the Veils","steam_id":76561198115106008,"connected_time":649000000000,"state":"active","ping":44},{"user_id":50,"name":"chocolate flavoured femboy","steam_id":76561198819353867,"connected_time":866000000000,"state":"active","ping":34},{"user_id":17,"name":"printer is broken","steam_id":76561198234270592,"connected_time":2674000000000,"state":"active","ping":71},{"user_id":18,"name":"Osmo","steam_id":76561199286764992,"connected_time":2626000000000,"state":"active","ping":86},{"user_id":30,"name":"hedon/","steam_id":76561198249832770,"connected_time":2343000000000,"state":"active","ping":43},{"user_id":20,"name":"SpeddyMeddy","steam_id":76561197999693825,"connected_time":2578000000000,"state":"active","ping":78},{"user_id":46,"name":"lark","steam_id":76561198091724522,"connected_time":1339000000000,"state":"active","ping":56},{"user_id":31,"name":"Envy","steam_id":76561198132723219,"connected_time":2325000000000,"state":"active","ping":106},{"user_id":24,"name":"JeanCorben","steam_id":76561197965133561,"connected_time":2489000000000,"state":"active","ping":44},{"user_id":36,"name":"sp00ky","steam_id":76561198279985917,"connected_time":2024000000000,"state":"active","ping":49},{"user_id":59,"name":"Andrei12264","steam_id":76561199123066659,"connected_time":62000000000,"state":"active","ping":90},{"user_id":60,"name":"Jörmungandr","steam_id":76561199121981748,"connected_time":19000000000,"state":"active","ping":77},{"user_id":45,"name":"I am inside your mother","steam_id":76561198173218318,"connected_time":1427000000000,"state":"active","ping":42},{"user_id":55,"name":"cropping","steam_id":76561198026586456,"connected_time":511000000000,"state":"active","ping":58},{"user_id":38,"name":"Ash","steam_id":76561198148738525,"connected_time":1981000000000,"state":"active","ping":111}]},{"server_id":321,"name":"Uncletopia | London | 4 | All Maps","name_short":"lon-4","host":"lon-1.uk.uncletopia.com","port":27045,"enabled":true,"region":"eu","cc":"gb","latitude":51.509865,"longitude":-0.118092,"reserved":0,"last_update":"0001-01-01T00:00:00Z","name_a2s":"Uncletopia | London | 4 | All Maps","protocol":17,"map":"cp_sunshine","folder":"tf","game":"Team Fortress","app_id":440,"player_count":0,"max_players":24,"Bots":0,"server_type":"Dedicated","server_os":"Linux","password":true,"vac":true,"version":"7757534","steam_id":85568392924510193,"keywords":["cp","nocrits","nodmgspread","uncletopia"],"game_id":440,"stv_port":27046,"stv_name":"Uncletopia | London | 4 | All Maps | STV","players":null},{"server_id":21,"name":"Uncletopia | London | 5 | All Maps","name_short":"lon-5","host":"lon-1.uk.uncletopia.com","port":27055,"enabled":true,"region":"eu","cc":"gb","latitude":51.509865,"longitude":-0.118092,"reserved":0,"last_update":"0001-01-01T00:00:00Z","name_a2s":"Uncletopia | London | 5 | All Maps","protocol":17,"map":"cp_mountainlab","folder":"tf","game":"Team Fortress","app_id":440,"player_count":0,"max_players":24,"Bots":0,"server_type":"Dedicated","server_os":"Linux","password":true,"vac":true,"version":"7757534","steam_id":85568392924742829,"keywords":["cp","nocrits","nodmgspread","uncletopia"],"game_id":440,"stv_port":27056,"stv_name":"Uncletopia | London | 5 | All Maps | STV","players":null},{"server_id":22,"name":"Uncletopia | London | 6 | All Maps","name_short":"lon-6","host":"lon-1.uk.uncletopia.com","port":27065,"enabled":true,"region":"eu","cc":"gb","latitude":51.509865,"longitude":-0.118092,"reserved":0,"last_update":"0001-01-01T00:00:00Z","name_a2s":"Uncletopia | London | 6 | All Maps","protocol":17,"map":"cp_mountainlab","folder":"tf","game":"Team Fortress","app_id":440,"player_count":0,"max_players":24,"Bots":0,"server_type":"Dedicated","server_os":"Linux","password":true,"vac":true,"version":"7757534","steam_id":85568392924742830,"keywords":["cp","nocrits","nodmgspread","uncletopia"],"game_id":440,"stv_port":27066,"stv_name":"Uncletopia | London | 6 | All Maps | STV","players":null},{"server_id":40,"name":"Uncletopia | London | 7 | No Payload","name_short":"lon-7","host":"lon-1.uk.uncletopia.com","port":27075,"enabled":true,"region":"eu","cc":"gb","latitude":51.509865,"longitude":-0.118092,"reserved":0,"last_update":"0001-01-01T00:00:00Z","name_a2s":"Uncletopia | London | 7 | No Payload","protocol":17,"map":"cp_sunshine","folder":"tf","game":"Team Fortress","app_id":440,"player_count":0,"max_players":24,"Bots":0,"server_type":"Dedicated","server_os":"Linux","password":true,"vac":true,"version":"7757534","steam_id":85568392924964314,"keywords":["cp","nocrits","nodmgspread","uncletopia"],"game_id":440,"stv_port":27076,"stv_name":"Uncletopia | London | 7 | No Payload | STV","players":null},{"server_id":41,"name":"Uncletopia | London | 8 | Community","name_short":"lon-8","host":"lon-1.uk.uncletopia.com","port":27085,"enabled":true,"region":"eu","cc":"gb","latitude":51.509865,"longitude":-0.118092,"reserved":0,"last_update":"0001-01-01T00:00:00Z","name_a2s":"Uncletopia | London | 8 | Community","protocol":17,"map":"pl_barnblitz","folder":"tf","game":"Team Fortress","app_id":440,"player_count":0,"max_players":24,"Bots":0,"server_type":"Dedicated","server_os":"Linux","password":true,"vac":true,"version":"7757534","steam_id":85568392924964315,"keywords":["nocrits","nodmgspread","payload","uncletopia"],"game_id":440,"stv_port":27086,"stv_name":"Uncletopia | London | 8 | Community | STV","players":null},{"server_id":300,"name":"Uncletopia | Montréal | 1 | All Maps","name_short":"mtl-1","host":"mtl-1.ca.uncletopia.com","port":27015,"enabled":true,"region":"us-east","cc":"ca","latitude":45.50889,"longitude":-73.56167,"reserved":0,"last_update":"0001-01-01T00:00:00Z","name_a2s":"Uncletopia | Montréal | 1 | All Maps","protocol":17,"map":"pl_upward","folder":"tf","game":"Team Fortress","app_id":440,"player_count":0,"max_players":24,"Bots":0,"server_type":"Dedicated","server_os":"Linux","password":true,"vac":true,"version":"7757534","steam_id":85568392924500087,"keywords":["nocrits","nodmgspread","payload","uncletopia"],"game_id":440,"stv_port":27016,"stv_name":"Uncletopia | Montréal | 1 | All Maps | STV","players":null},{"server_id":301,"name":"Uncletopia | Montréal | 2 | All Maps","name_short":"mtl-2","host":"mtl-1.ca.uncletopia.com","port":27025,"enabled":true,"region":"us-east","cc":"ca","latitude":45.50889,"longitude":-73.56167,"reserved":0,"last_update":"0001-01-01T00:00:00Z","name_a2s":"Uncletopia | Montréal | 2 | All Maps","protocol":17,"map":"pl_snowycoast","folder":"tf","game":"Team Fortress","app_id":440,"player_count":0,"max_players":24,"Bots":0,"server_type":"Dedicated","server_os":"Linux","password":true,"vac":true,"version":"7757534","steam_id":85568392924500088,"keywords":["nocrits","nodmgspread","payload","uncletopia"],"game_id":440,"stv_port":27026,"stv_name":"Uncletopia | Montréal | 2 | All Maps | STV","players":null},{"server_id":302,"name":"Uncletopia | Montréal | 3 | All Maps","name_short":"mtl-3","host":"mtl-1.ca.uncletopia.com","port":27035,"enabled":true,"region":"us-east","cc":"ca","latitude":45.50889,"longitude":-73.56167,"reserved":0,"last_update":"0001-01-01T00:00:00Z","name_a2s":"Uncletopia | Montréal | 3 | All Maps","protocol":17,"map":"pl_swiftwater_final1","folder":"tf","game":"Team Fortress","app_id":440,"player_count":0,"max_players":24,"Bots":0,"server_type":"Dedicated","server_os":"Linux","password":true,"vac":true,"version":"7757534","steam_id":85568392924500089,"keywords":["nocrits","nodmgspread","payload","uncletopia"],"game_id":440,"stv_port":27036,"stv_name":"Uncletopia | Montréal | 3 | All Maps | STV","players":null},{"server_id":303,"name":"Uncletopia | Montréal | 4 | No Payload","name_short":"mtl-4","host":"mtl-1.ca.uncletopia.com","port":27045,"enabled":true,"region":"us-east","cc":"ca","latitude":45.50889,"longitude":-73.56167,"reserved":0,"last_update":"0001-01-01T00:00:00Z","name_a2s":"Uncletopia | Montréal | 4 | No Payload","protocol":17,"map":"pl_pier","folder":"tf","game":"Team Fortress","app_id":440,"player_count":0,"max_players":24,"Bots":0,"server_type":"Dedicated","server_os":"Linux","password":true,"vac":true,"version":"7757534","steam_id":85568392924500090,"keywords":["nocrits","nodmgspread","payload","uncletopia"],"game_id":440,"stv_port":27046,"stv_name":"Uncletopia | Montréal | 4 | No Payload | STV","players":null},{"server_id":13,"name":"Uncletopia | New York City | 1 | All Maps","name_short":"nyc-1","host":"nyc-1.us.uncletopia.com","port":27015,"enabled":true,"region":"us-east","cc":"us","latitude":40.73061,"longitude":-73.93524,"reserved":0,"last_update":"0001-01-01T00:00:00Z","name_a2s":"Uncletopia | New York City | 1 | All Maps","protocol":17,"map":"koth_viaduct","folder":"tf","game":"Team Fortress","app_id":440,"player_count":0,"max_players":24,"Bots":0,"server_type":"Dedicated","server_os":"Linux","password":true,"vac":true,"version":"7757534","steam_id":85568392924469993,"keywords":["cp","nocrits","nodmgspread","uncletopia"],"game_id":440,"stv_port":27016,"stv_name":"Uncletopia | New York City | 1 | All Maps | STV","players":null},{"server_id":14,"name":"Uncletopia | New York City | 2 | All Maps","name_short":"nyc-2","host":"nyc-1.us.uncletopia.com","port":27025,"enabled":true,"region":"us-east","cc":"us","latitude":40.73061,"longitude":-73.93524,"reserved":0,"last_update":"0001-01-01T00:00:00Z","name_a2s":"Uncletopia | New York City | 2 | All Maps","protocol":17,"map":"pl_badwater","folder":"tf","game":"Team Fortress","app_id":440,"player_count":0,"max_players":24,"Bots":0,"server_type":"Dedicated","server_os":"Linux","password":true,"vac":true,"version":"7757534","steam_id":85568392924469994,"keywords":["nocrits","nodmgspread","payload","uncletopia"],"game_id":440,"stv_port":27026,"stv_name":"Uncletopia | New York City | 2 | All Maps | STV","players":null},{"server_id":15,"name":"Uncletopia | New York City | 3 | Stopwatch Beta","name_short":"nyc-3","host":"nyc-1.us.uncletopia.com","port":27035,"enabled":true,"region":"us-east","cc":"us","latitude":40.73061,"longitude":-73.93524,"reserved":0,"last_update":"0001-01-01T00:00:00Z","name_a2s":"Uncletopia | New York City | 3 | Stopwatch Beta","protocol":17,"map":"pl_upward","folder":"tf","game":"Team Fortress","app_id":440,"player_count":0,"max_players":24,"Bots":0,"server_type":"Dedicated","server_os":"Linux","password":true,"vac":true,"version":"7757534","steam_id":85568392924742820,"keywords":["nocrits","nodmgspread","payload","uncletopia"],"game_id":440,"stv_port":27036,"stv_name":"Uncletopia | New York City | 3 | Stopwatch Beta | STV","players":null},{"server_id":16,"name":"Uncletopia | New York City | 4 | Community","name_short":"nyc-4","host":"nyc-1.us.uncletopia.com","port":27045,"enabled":true,"region":"us-east","cc":"us","latitude":40.73061,"longitude":-73.93524,"reserved":0,"last_update":"0001-01-01T00:00:00Z","name_a2s":"Uncletopia | New York City | 4 | Community","protocol":17,"map":"workshop/koth_kemptown_rc1.ugc767410655","folder":"tf","game":"Team Fortress","app_id":440,"player_count":0,"max_players":24,"Bots":0,"server_type":"Dedicated","server_os":"Linux","password":true,"vac":true,"version":"7757534","steam_id":85568392924742821,"keywords":["cp","nocrits","nodmgspread","uncletopia"],"game_id":440,"stv_port":27046,"stv_name":"Uncletopia | New York City | 4 | Community | STV","players":null},{"server_id":142,"name":"Uncletopia | São Paulo | 1 | All Maps","name_short":"sao-1","host":"sao-1.br.uncletopia.com","port":27015,"enabled":true,"region":"sa","cc":"br","latitude":-23.533773,"longitude":-46.62529,"reserved":0,"last_update":"0001-01-01T00:00:00Z","name_a2s":"Uncletopia | São Paulo | 1 | All Maps","protocol":17,"map":"koth_lakeside_final","folder":"tf","game":"Team Fortress","app_id":440,"player_count":0,"max_players":24,"Bots":0,"server_type":"Dedicated","server_os":"Linux","password":true,"vac":true,"version":"7757534","steam_id":85568392924469996,"keywords":["cp","nocrits","nodmgspread","uncletopia"],"game_id":440,"stv_port":27016,"stv_name":"Uncletopia | São Paulo | 1 | All Maps | STV","players":null},{"server_id":143,"name":"Uncletopia | São Paulo | 2 | All Maps","name_short":"sao-2","host":"sao-2.br.uncletopia.com","port":27015,"enabled":true,"region":"sa","cc":"br","latitude":-23.533773,"longitude":-46.62529,"reserved":0,"last_update":"0001-01-01T00:00:00Z","name_a2s":"Uncletopia | São Paulo | 2 | All Maps","protocol":17,"map":"pl_borneo","folder":"tf","game":"Team Fortress","app_id":440,"player_count":0,"max_players":24,"Bots":0,"server_type":"Dedicated","server_os":"Linux","password":true,"vac":true,"version":"7757534","steam_id":85568392924485349,"keywords":["nocrits","nodmgspread","payload","uncletopia"],"game_id":440,"stv_port":27016,"stv_name":"Uncletopia | São Paulo | 2 | All Maps | STV","players":null},{"server_id":7,"name":"Uncletopia | Seattle | 1 | All Maps","name_short":"sea-1","host":"sea-1.us.uncletopia.com","port":27015,"enabled":true,"region":"us-west","cc":"us","latitude":47.608013,"longitude":-122.33517,"reserved":0,"last_update":"0001-01-01T00:00:00Z","name_a2s":"Uncletopia | Seattle | 1 | All Maps","protocol":17,"map":"cp_mountainlab","folder":"tf","game":"Team Fortress","app_id":440,"player_count":22,"max_players":24,"Bots":0,"server_type":"Dedicated","server_os":"Linux","password":true,"vac":true,"version":"7757534","steam_id":85568392924469997,"keywords":["cp","nocrits","nodmgspread","uncletopia"],"game_id":440,"stv_port":27016,"stv_name":"Uncletopia | Seattle | 1 | All Maps | STV","players":[{"user_id":1230,"name":"MoeKitsune","steam_id":76561198170147849,"connected_time":1302000000000,"state":"active","ping":111},{"user_id":1262,"name":"PopePurple","steam_id":76561198080955830,"connected_time":511000000000,"state":"active","ping":55},{"user_id":1235,"name":"Legendstorm09","steam_id":76561199131721629,"connected_time":1088000000000,"state":"active","ping":94},{"user_id":1276,"name":"IHave2000HoursButPlayLikeIHave1","steam_id":76561198295280927,"connected_time":29000000000,"state":"active","ping":80},{"user_id":1111,"name":"Grassman (Cc)","steam_id":76561198026488532,"connected_time":6780000000000,"state":"active","ping":62},{"user_id":1273,"name":"[rat] RaviRavioli","steam_id":76561198968636443,"connected_time":204000000000,"state":"active","ping":77},{"user_id":1274,"name":"forg","steam_id":76561199160422863,"connected_time":152000000000,"state":"active","ping":173},{"user_id":1213,"name":"L'suspector","steam_id":76561199066068833,"connected_time":2001000000000,"state":"active","ping":49},{"user_id":1271,"name":"jole","steam_id":76561198037292232,"connected_time":257000000000,"state":"active","ping":132},{"user_id":1255,"name":"Grandpa-pyro","steam_id":76561198101719848,"connected_time":676000000000,"state":"active","ping":49},{"user_id":1275,"name":"TrustworthyStranger","steam_id":76561198154105678,"connected_time":128000000000,"state":"active","ping":77},{"user_id":1238,"name":"Crotonga","steam_id":76561198077178900,"connected_time":1000000000000,"state":"active","ping":97},{"user_id":1207,"name":"ƐՌѴƳ","steam_id":76561198099470277,"connected_time":2189000000000,"state":"active","ping":130},{"user_id":1256,"name":"Spectre","steam_id":76561198025652246,"connected_time":676000000000,"state":"active","ping":79},{"user_id":1272,"name":"Peppino Spaghetti","steam_id":76561198034122573,"connected_time":257000000000,"state":"active","ping":47},{"user_id":1156,"name":"Hotdog Goblin","steam_id":76561198004133638,"connected_time":3791000000000,"state":"active","ping":78},{"user_id":1221,"name":"TimeCalm","steam_id":76561197991345488,"connected_time":1651000000000,"state":"active","ping":122},{"user_id":1242,"name":"The Notorious RBG","steam_id":76561198014275148,"connected_time":883000000000,"state":"active","ping":126},{"user_id":1245,"name":"Cosmic Torgue","steam_id":76561198828724945,"connected_time":797000000000,"state":"active","ping":128},{"user_id":1173,"name":"amagicowl","steam_id":76561199060487814,"connected_time":3388000000000,"state":"active","ping":60},{"user_id":1174,"name":"lol","steam_id":76561198026491738,"connected_time":3374000000000,"state":"active","ping":76},{"user_id":1270,"name":"°Creamy Gilligan","steam_id":76561198001569384,"connected_time":343000000000,"state":"active","ping":154}]},{"server_id":119,"name":"Uncletopia | Seattle | 2 | All Maps","name_short":"sea-2","host":"sea-1.us.uncletopia.com","port":27025,"enabled":true,"region":"us-west","cc":"us","latitude":47.608013,"longitude":-122.33517,"reserved":0,"last_update":"0001-01-01T00:00:00Z","name_a2s":"Uncletopia | Seattle | 2 | All Maps","protocol":17,"map":"koth_highpass","folder":"tf","game":"Team Fortress","app_id":440,"player_count":0,"max_players":24,"Bots":0,"server_type":"Dedicated","server_os":"Linux","password":true,"vac":true,"version":"7757534","steam_id":85568392924469998,"keywords":["cp","nocrits","nodmgspread","uncletopia"],"game_id":440,"stv_port":27026,"stv_name":"Uncletopia | Seattle | 2 | All Maps | STV","players":null},{"server_id":406,"name":"Uncletopia | Seattle | 3 | Stopwatch Beta","name_short":"sea-3","host":"sea-1.us.uncletopia.com","port":27035,"enabled":true,"region":"us-west","cc":"us","latitude":47.608013,"longitude":-122.33517,"reserved":0,"last_update":"0001-01-01T00:00:00Z","name_a2s":"Uncletopia | Seattle | 3 | Stopwatch Beta","protocol":17,"map":"koth_lakeside_final","folder":"tf","game":"Team Fortress","app_id":440,"player_count":0,"max_players":24,"Bots":0,"server_type":"Dedicated","server_os":"Linux","password":true,"vac":true,"version":"7757534","steam_id":85568392924515217,"keywords":["cp","nocrits","nodmgspread","uncletopia"],"game_id":440,"stv_port":27036,"stv_name":"Uncletopia | Seattle | 3 | Stopwatch Beta | STV","players":null},{"server_id":17,"name":"Uncletopia | San Francisco | 1 | All Maps","name_short":"sfo-1","host":"sfo-1.us.uncletopia.com","port":27015,"enabled":true,"region":"us-west","cc":"us","latitude":37.77397,"longitude":-122.4313,"reserved":0,"last_update":"0001-01-01T00:00:00Z","name_a2s":"Uncletopia | San Francisco | 1 | All Maps","protocol":17,"map":"cp_sunshine","folder":"tf","game":"Team Fortress","app_id":440,"player_count":0,"max_players":24,"Bots":0,"server_type":"Dedicated","server_os":"Linux","password":true,"vac":true,"version":"7757534","steam_id":85568392924469999,"keywords":["cp","nocrits","nodmgspread","uncletopia"],"game_id":440,"stv_port":27016,"stv_name":"Uncletopia | San Francisco | 1 | All Maps | STV","players":null},{"server_id":18,"name":"Uncletopia | San Francisco | 2 | All Maps","name_short":"sfo-2","host":"sfo-1.us.uncletopia.com","port":27025,"enabled":true,"region":"us-west","cc":"us","latitude":37.77397,"longitude":-122.4313,"reserved":0,"last_update":"0001-01-01T00:00:00Z","name_a2s":"Uncletopia | San Francisco | 2 | All Maps","protocol":17,"map":"koth_cascade","folder":"tf","game":"Team Fortress","app_id":440,"player_count":0,"max_players":24,"Bots":0,"server_type":"Dedicated","server_os":"Linux","password":true,"vac":true,"version":"7757534","steam_id":85568392924470000,"keywords":["cp","nocrits","nodmgspread","uncletopia"],"game_id":440,"stv_port":27026,"stv_name":"Uncletopia | San Francisco | 2 | All Maps | STV","players":null},{"server_id":19,"name":"Uncletopia | San Francisco | 3 | Stopwatch Beta","name_short":"sfo-3","host":"sfo-1.us.uncletopia.com","port":27035,"enabled":true,"region":"us-west","cc":"us","latitude":37.77397,"longitude":-122.4313,"reserved":0,"last_update":"0001-01-01T00:00:00Z","name_a2s":"Uncletopia | San Francisco | 3 | Stopwatch Beta","protocol":17,"map":"pl_swiftwater_final1","folder":"tf","game":"Team Fortress","app_id":440,"player_count":0,"max_players":24,"Bots":0,"server_type":"Dedicated","server_os":"Linux","password":true,"vac":true,"version":"7757534","steam_id":85568392924742824,"keywords":["nocrits","nodmgspread","payload","uncletopia"],"game_id":440,"stv_port":27036,"stv_name":"Uncletopia | San Francisco | 3 | Stopwatch Beta | STV","players":null},{"server_id":20,"name":"Uncletopia | San Francisco | 4 | Community","name_short":"sfo-4","host":"sfo-1.us.uncletopia.com","port":27045,"enabled":true,"region":"us-west","cc":"us","latitude":37.77397,"longitude":-122.4313,"reserved":0,"last_update":"0001-01-01T00:00:00Z","name_a2s":"Uncletopia | San Francisco | 4 | Community","protocol":17,"map":"workshop/cp_glassworks_rc6a.ugc454118349","folder":"tf","game":"Team Fortress","app_id":440,"player_count":0,"max_players":24,"Bots":0,"server_type":"Dedicated","server_os":"Linux","password":true,"vac":true,"version":"7757534","steam_id":85568392924742826,"keywords":["cp","nocrits","nodmgspread","uncletopia"],"game_id":440,"stv_port":27046,"stv_name":"Uncletopia | San Francisco | 4 | Community | STV","players":null},{"server_id":141,"name":"Uncletopia | Sydney | 1 | All Maps","name_short":"syd-1","host":"syd-1.au.uncletopia.com","port":27015,"enabled":true,"region":"au","cc":"au","latitude":-33.865143,"longitude":151.2099,"reserved":0,"last_update":"0001-01-01T00:00:00Z","name_a2s":"Uncletopia | Sydney | 1 | All Maps","protocol":17,"map":"koth_viaduct","folder":"tf","game":"Team Fortress","app_id":440,"player_count":0,"max_players":24,"Bots":0,"server_type":"Dedicated","server_os":"Linux","password":true,"vac":true,"version":"7757534","steam_id":85568392924470001,"keywords":["cp","nocrits","nodmgspread","uncletopia"],"game_id":440,"stv_port":27016,"stv_name":"Uncletopia | Sydney | 1 | All Maps | STV","players":null},{"server_id":123,"name":"Uncletopia | Sydney | 2 | All Maps","name_short":"syd-2","host":"syd-1.au.uncletopia.com","port":27025,"enabled":true,"region":"au","cc":"au","latitude":-33.865143,"longitude":151.2099,"reserved":0,"last_update":"0001-01-01T00:00:00Z","name_a2s":"Uncletopia | Sydney | 2 | All Maps","protocol":17,"map":"cp_snakewater_final1","folder":"tf","game":"Team Fortress","app_id":440,"player_count":0,"max_players":24,"Bots":0,"server_type":"Dedicated","server_os":"Linux","password":true,"vac":true,"version":"7757534","steam_id":85568392924470002,"keywords":["cp","nocrits","nodmgspread","uncletopia"],"game_id":440,"stv_port":27026,"stv_name":"Uncletopia | Sydney | 2 | All Maps | STV","players":null},{"server_id":395,"name":"Uncletopia | Sydney | 3 | All Maps","name_short":"syd-3","host":"syd-1.au.uncletopia.com","port":27035,"enabled":true,"region":"au","cc":"au","latitude":-33.865143,"longitude":151.2099,"reserved":0,"last_update":"0001-01-01T00:00:00Z","name_a2s":"Uncletopia | Sydney | 3 | All Maps","protocol":17,"map":"pl_snowycoast","folder":"tf","game":"Team Fortress","app_id":440,"player_count":23,"max_players":24,"Bots":0,"server_type":"Dedicated","server_os":"Linux","password":true,"vac":true,"version":"7757534","steam_id":85568392925194467,"keywords":["nocrits","nodmgspread","payload","uncletopia"],"game_id":440,"stv_port":27036,"stv_name":"Uncletopia | Sydney | 3 | All Maps | STV","players":[{"user_id":157,"name":"Hertog van Damme","steam_id":76561198152470958,"connected_time":7095000000000,"state":"active","ping":60},{"user_id":225,"name":"Gamma","steam_id":76561198281131757,"connected_time":761000000000,"state":"active","ping":64},{"user_id":223,"name":"Zzep_","steam_id":76561198059402662,"connected_time":1051000000000,"state":"active","ping":55},{"user_id":180,"name":"Jdn","steam_id":76561198293079232,"connected_time":5200000000000,"state":"active","ping":60},{"user_id":169,"name":"jrg","steam_id":76561197997362731,"connected_time":6881000000000,"state":"active","ping":46},{"user_id":188,"name":"Samboys Chips","steam_id":76561198059382306,"connected_time":4839000000000,"state":"active","ping":42},{"user_id":212,"name":"Dr Genghis Corn","steam_id":76561198078933176,"connected_time":1364000000000,"state":"active","ping":54},{"user_id":216,"name":"¿eTheRealMe?","steam_id":76561198033297147,"connected_time":1336000000000,"state":"active","ping":99},{"user_id":215,"name":"alex","steam_id":76561198053382248,"connected_time":1340000000000,"state":"active","ping":42},{"user_id":194,"name":"Tantei Rotana","steam_id":76561198041204323,"connected_time":3902000000000,"state":"active","ping":71},{"user_id":181,"name":"NollReed","steam_id":76561198098501571,"connected_time":5193000000000,"state":"active","ping":71},{"user_id":222,"name":"Gnat","steam_id":76561198109747863,"connected_time":1080000000000,"state":"active","ping":89},{"user_id":210,"name":"Marge Simpson","steam_id":76561198066315666,"connected_time":1490000000000,"state":"active","ping":78},{"user_id":227,"name":"wombatrat","steam_id":76561199375834537,"connected_time":495000000000,"state":"active","ping":126},{"user_id":230,"name":"old chunk of coal","steam_id":76561197990537324,"connected_time":436000000000,"state":"active","ping":105},{"user_id":184,"name":"Nyk","steam_id":76561198125000580,"connected_time":4912000000000,"state":"active","ping":43},{"user_id":211,"name":"Snowy","steam_id":76561198255720598,"connected_time":1406000000000,"state":"active","ping":65},{"user_id":203,"name":"Sledgehammer","steam_id":76561198066726621,"connected_time":3569000000000,"state":"active","ping":45},{"user_id":233,"name":"i Ken smell u","steam_id":76561198301282416,"connected_time":160000000000,"state":"active","ping":56},{"user_id":219,"name":"ForUnlimitedඞ","steam_id":76561198025037215,"connected_time":1331000000000,"state":"active","ping":56},{"user_id":187,"name":"AptGetGnome","steam_id":76561198063849132,"connected_time":4888000000000,"state":"active","ping":44},{"user_id":220,"name":"Symphony377","steam_id":76561198051564385,"connected_time":1266000000000,"state":"active","ping":72},{"user_id":206,"name":"soupy","steam_id":76561198073734936,"connected_time":3214000000000,"state":"active","ping":90}]},{"server_id":396,"name":"Uncletopia | Sydney | 4 | All Maps","name_short":"syd-4","host":"syd-1.au.uncletopia.com","port":27045,"enabled":true,"region":"au","cc":"au","latitude":-33.865143,"longitude":151.2099,"reserved":0,"last_update":"0001-01-01T00:00:00Z","name_a2s":"Uncletopia | Sydney | 4 | All Maps","protocol":17,"map":"koth_highpass","folder":"tf","game":"Team Fortress","app_id":440,"player_count":0,"max_players":24,"Bots":0,"server_type":"Dedicated","server_os":"Linux","password":true,"vac":true,"version":"7757534","steam_id":85568392925397958,"keywords":["cp","nocrits","nodmgspread","uncletopia"],"game_id":440,"stv_port":27046,"stv_name":"Uncletopia | Sydney | 4 | All Maps | STV","players":null},{"server_id":58,"name":"Uncletopia | Sydney | 5 | Stopwatch Beta","name_short":"syd-5","host":"syd-1.au.uncletopia.com","port":27055,"enabled":true,"region":"au","cc":"au","latitude":-33.865143,"longitude":151.2099,"reserved":0,"last_update":"0001-01-01T00:00:00Z","name_a2s":"Uncletopia | Sydney | 5 | Stopwatch Beta","protocol":17,"map":"workshop/koth_product_final.ugc454272353","folder":"tf","game":"Team Fortress","app_id":440,"player_count":0,"max_players":24,"Bots":0,"server_type":"Dedicated","server_os":"Linux","password":true,"vac":true,"version":"7757534","steam_id":85568392925397959,"keywords":["cp","nocrits","nodmgspread","uncletopia"],"game_id":440,"stv_port":27056,"stv_name":"Uncletopia | Sydney | 5 | Stopwatch Beta | STV","players":null},{"server_id":59,"name":"Uncletopia | Sydney | 6 | Community","name_short":"syd-6","host":"syd-1.au.uncletopia.com","port":27065,"enabled":true,"region":"au","cc":"au","latitude":-33.865143,"longitude":151.2099,"reserved":0,"last_update":"0001-01-01T00:00:00Z","name_a2s":"Uncletopia | Sydney | 6 | Community","protocol":17,"map":"workshop/pl_corrode_rc2.ugc546577989","folder":"tf","game":"Team Fortress","app_id":440,"player_count":0,"max_players":24,"Bots":0,"server_type":"Dedicated","server_os":"Linux","password":true,"vac":true,"version":"7757534","steam_id":85568392925397960,"keywords":["nocrits","nodmgspread","payload","uncletopia"],"game_id":440,"stv_port":27066,"stv_name":"Uncletopia | Sydney | 6 | Community | STV","players":null},{"server_id":49,"name":"Uncletopia | Warsaw | 1 | All Maps","name_short":"waw-1","host":"waw-1.pl.uncletopia.com","port":27015,"enabled":true,"region":"eu","cc":"pl","latitude":52.2297,"longitude":21.017532,"reserved":0,"last_update":"0001-01-01T00:00:00Z","name_a2s":"","protocol":0,"map":"","folder":"","game":"","app_id":0,"player_count":0,"max_players":0,"Bots":0,"server_type":"","server_os":"","password":false,"vac":false,"version":"","steam_id":0,"keywords":null,"game_id":0,"stv_port":0,"stv_name":"","players":null},{"server_id":50,"name":"Uncletopia | Warsaw | 2 | All Maps","name_short":"waw-2","host":"waw-1.pl.uncletopia.com","port":27025,"enabled":true,"region":"eu","cc":"pl","latitude":52.2297,"longitude":21.017532,"reserved":0,"last_update":"0001-01-01T00:00:00Z","name_a2s":"Uncletopia | Warsaw | 2 | All Maps","protocol":17,"map":"koth_viaduct","folder":"tf","game":"Team Fortress","app_id":440,"player_count":0,"max_players":24,"Bots":0,"server_type":"Dedicated","server_os":"Linux","password":true,"vac":true,"version":"7757534","steam_id":85568392925397851,"keywords":["cp","nocrits","nodmgspread","uncletopia"],"game_id":440,"stv_port":27026,"stv_name":"Uncletopia | Warsaw | 2 | All Maps | STV","players":null},{"server_id":51,"name":"Uncletopia | Warsaw | 3 | All Maps","name_short":"waw-3","host":"waw-1.pl.uncletopia.com","port":27035,"enabled":true,"region":"eu","cc":"pl","latitude":52.2297,"longitude":21.017532,"reserved":0,"last_update":"0001-01-01T00:00:00Z","name_a2s":"Uncletopia | Warsaw | 3 | All Maps","protocol":17,"map":"koth_lakeside_final","folder":"tf","game":"Team Fortress","app_id":440,"player_count":0,"max_players":24,"Bots":0,"server_type":"Dedicated","server_os":"Linux","password":true,"vac":true,"version":"7757534","steam_id":85568392925397852,"keywords":["cp","nocrits","nodmgspread","uncletopia"],"game_id":440,"stv_port":27036,"stv_name":"Uncletopia | Warsaw | 3 | All Maps | STV","players":null},{"server_id":52,"name":"Uncletopia | Warsaw | 4 | All Maps","name_short":"waw-4","host":"waw-1.pl.uncletopia.com","port":27045,"enabled":true,"region":"eu","cc":"pl","latitude":52.2297,"longitude":21.017532,"reserved":0,"last_update":"0001-01-01T00:00:00Z","name_a2s":"Uncletopia | Warsaw | 4 | All Maps","protocol":17,"map":"koth_lakeside_final","folder":"tf","game":"Team Fortress","app_id":440,"player_count":0,"max_players":24,"Bots":0,"server_type":"Dedicated","server_os":"Linux","password":true,"vac":true,"version":"7757534","steam_id":85568392925397853,"keywords":["cp","nocrits","nodmgspread","uncletopia"],"game_id":440,"stv_port":27046,"stv_name":"Uncletopia | Warsaw | 4 | All Maps | STV","players":null},{"server_id":53,"name":"Uncletopia | Warsaw | 5 | Stopwatch Beta","name_short":"waw-5","host":"waw-1.pl.uncletopia.com","port":27055,"enabled":true,"region":"eu","cc":"pl","latitude":52.2297,"longitude":21.017532,"reserved":0,"last_update":"0001-01-01T00:00:00Z","name_a2s":"Uncletopia | Warsaw | 5 | Stopwatch Beta","protocol":17,"map":"pl_borneo","folder":"tf","game":"Team Fortress","app_id":440,"player_count":0,"max_players":24,"Bots":0,"server_type":"Dedicated","server_os":"Linux","password":true,"vac":true,"version":"7757534","steam_id":85568392925397854,"keywords":["nocrits","nodmgspread","payload","uncletopia"],"game_id":440,"stv_port":27056,"stv_name":"Uncletopia | Warsaw | 5 | Stopwatch Beta | STV","players":null},{"server_id":54,"name":"Uncletopia | Warsaw | 6 | Community","name_short":"waw-6","host":"waw-1.pl.uncletopia.com","port":27065,"enabled":true,"region":"eu","cc":"pl","latitude":52.2297,"longitude":21.017532,"reserved":0,"last_update":"0001-01-01T00:00:00Z","name_a2s":"Uncletopia | Warsaw | 6 | Community","protocol":17,"map":"koth_lakeside_final","folder":"tf","game":"Team Fortress","app_id":440,"player_count":0,"max_players":24,"Bots":0,"server_type":"Dedicated","server_os":"Linux","password":true,"vac":true,"version":"7757534","steam_id":85568392925397856,"keywords":["cp","nocrits","nodmgspread","uncletopia"],"game_id":440,"stv_port":27066,"stv_name":"Uncletopia | Warsaw | 6 | Community | STV","players":null}]}