{"status":true,"message":"","result":[{"server_id":9,"name":"Uncletopia | Atlanta | 1 | All Maps","name_short":"atl-1","host":"atl-1.us.uncletopia.com","port":27015,"enabled":true,"region":"us-east","cc":"us","latitude":33.753746,"longitude":-84.38633,"reserved":0,"last_update":"0001-01-01T00:00:00Z","name_a2s":"Uncletopia | Atlanta | 1 | All Maps","protocol":17,"map":"pl_upward","folder":"tf","game":"Team Fortress","app_id":440,"player_count":24,"max_players":24,"Bots":0,"server_type":"Dedicated","server_os":"Linux","password":true,"vac":true,"version":"7961495","steam_id":85568392924469982,"keywords":["nocrits","nodmgspread","payload","uncletopia"],"game_id":440,"stv_port":27016,"stv_name":"Uncletopia | Atlanta | 1 | All Maps | STV","players":null},{"server_id":104,"name":"Uncletopia | Atlanta | 2 | All Maps","name_short":"atl-2","host":"atl-1.us.uncletopia.com","port":27025,"enabled":true,"region":"us-east","cc":"us","latitude":33.753746,"longitude":-84.38633,"reserved":0,"last_update":"0001-01-01T00:00:00Z","name_a2s":"Uncletopia | Atlanta | 2 | All Maps","protocol":17,"map":"koth_cascade","folder":"tf","game":"Team Fortress","app_id":440,"player_count":24,"max_players":24,"Bots":0,"server_type":"Dedicated","server_os":"Linux","password":true,"vac":true,"version":"7961495","steam_id":85568392924469983,"keywords":["cp","nocrits","nodmgspread","uncletopia"],"game_id":440,"stv_port":27026,"stv_name":"Uncletopia | Atlanta | 2 | All Maps | STV","players":null},{"server_id":400,"name":"Uncletopia | Atlanta | 3 | Stopwatch","name_short":"atl-3","host":"atl-1.us.uncletopia.com","port":27035,"enabled":true,"region":"us-east","cc":"us","latitude":33.753746,"longitude":-84.38633,"reserved":0,"last_update":"0001-01-01T00:00:00Z","name_a2s":"Uncletopia | Atlanta | 3 | Stopwatch","protocol":17,"map":"koth_clearcut_b15","folder":"tf","game":"Team Fortress","app_id":440,"player_count":0,"max_players":24,"Bots":0,"server_type":"Dedicated","server_os":"Linux","password":true,"vac":true,"version":"7961495","steam_id":85568392924515187,"keywords":["cp","nocrits","nodmgspread","uncletopia"],"game_id":440,"stv_port":27036,"stv_name":"Uncletopia | Atlanta | 3 | Stopwatch | STV","players":null},{"server_id":401,"name":"Uncletopia | Atlanta | 4 | Community","name_short":"atl-4","host":"atl-1.us.uncletopia.com","port":27045,"enabled":true,"region":"us-east","cc":"us","latitude":33.753746,"longitude":-84.38633,"reserved":0,"last_update":"0001-01-01T00:00:00Z","name_a2s":"Uncletopia | Atlanta | 4 | Community","protocol":17,"map":"koth_trenchfoot_b1a","folder":"tf","game":"Team Fortress","app_id":440,"player_count":0,"max_players":24,"Bots":0,"server_type":"Dedicated","server_os":"Linux","password":true,"vac":true,"version":"7961495","steam_id":85568392924515188,"keywords":["cp","nocrits","nodmgspread","uncletopia"],"game_id":440,"stv_port":27046,"stv_name":"Uncletopia | Atlanta | 4 | Community | STV","players":null},{"server_id":2,"name":"Uncletopia | Chicago | 1 | All Maps","name_short":"chi-1","host":"chi-1.us.uncletopia.com","port":27015,"enabled":true,"region":"us-central","cc":"us","latitude":41.881832,"longitude":-87.62318,"reserved":0,"last_update":"0001-01-01T00:00:00Z","name_a2s":"Uncletopia | Chicago | 1 | All Maps","protocol":17,"map":"pl_upward","folder":"tf","game":"Team Fortress","app_id":440,"player_count":24,"max_players":24,"Bots":0,"server_type":"Dedicated","server_os":"Linux","password":true,"vac":true,"version":"7961495","steam_id":85568392924469984,"keywords":["nocrits","nodmgspread","payload","uncletopia"],"game_id":440,"stv_port":27016,"stv_name":"Uncletopia | Chicago | 1 | All Maps | STV","players":[{"user_id":441,"name":"SoldMyKidneyForCollege","steam_id":76561198096329559,"connected_time":3526000000000,"state":"active","ping":90},{"user_id":445,"name":"Outta Kenya","steam_id":76561198153604875,"connected_time":2964000000000,"state":"active","ping":78},{"user_id":473,"name":"Gecko","steam_id":76561198069607551,"connected_time":644000000000,"state":"active","ping":44},{"user_id":456,"name":"Fucked Up Scout","steam_id":76561199075186597,"connected_time":1674000000000,"state":"active","ping":68},{"user_id":451,"name":"The Washer of Dishes","steam_id":76561198028157625,"connected_time":2559000000000,"state":"active","ping":128},{"user_id":477,"name":"(1)bee","steam_id":76561198025553902,"connected_time":86000000000,"state":"active","ping":43},{"user_id":467,"name":"Bee","steam_id":76561198074681324,"connected_time":891000000000,"state":"active","ping":61},{"user_id":459,"name":"Ganondorf","steam_id":76561198010421059,"connected_time":1466000000000,"state":"active","ping":58},{"user_id":468,"name":"HOMIE","steam_id":76561198057325155,"connected_time":815000000000,"state":"active","ping":68},{"user_id":378,"name":"TallBit","steam_id":76561199059748976,"connected_time":7361000000000,"state":"active","ping":55},{"user_id":462,"name":"Sleepy","steam_id":76561198979389459,"connected_time":1343000000000,"state":"active","ping":59},{"user_id":464,"name":"LemonCitron","steam_id":76561199009438984,"connected_time":1132000000000,"state":"active","ping":99},{"user_id":450,"name":"‚óè","steam_id":76561198999217575,"connected_time":2743000000000,"state":"active","ping":70},{"user_id":455,"name":"Sentry Gun (American)","steam_id":76561198313770809,"connected_time":1900000000000,"state":"active","ping":63},{"user_id":476,"name":"SandHanitizer","steam_id":76561198234676500,"connected_time":169000000000,"state":"active","ping":77},{"user_id":469,"name":"UzedPickle","steam_id":76561198005513760,"connected_time":687000000000,"state":"active","ping":76},{"user_id":453,"name":"JustADuck","steam_id":76561198311260943,"connected_time":2516000000000,"state":"active","ping":72},{"user_id":463,"name":"matthatter98","steam_id":76561198953709416,"connected_time":1301000000000,"state":"active","ping":70},{"user_id":470,"name":"loscemo","steam_id":76561197994884609,"connected_time":678000000000,"state":"active","ping":69},{"user_id":411,"name":"Killerkarate","steam_id":76561198067533929,"connected_time":5426000000000,"state":"active","ping":55},{"user_id":475,"name":"Rowmaster","steam_id":76561198271659574,"connected_time":337000000000,"state":"active","ping":97},{"user_id":472,"name":"violent monkey porn","steam_id":76561199285074344,"connected_time":666000000000,"state":"active","ping":70},{"user_id":438,"name":"Yam Jazzy Jim","steam_id":76561198000788950,"connected_time":3754000000000,"state":"active","ping":68},{"user_id":474,"name":"NerdyEnforcement","steam_id":76561198437710820,"connected_time":620000000000,"state":"active","ping":69}]},{"server_id":106,"name":"Uncletopia | Chicago | 2 | All Maps","name_short":"chi-2","host":"chi-1.us.uncletopia.com","port":27025,"enabled":true,"region":"us-central","cc":"us","latitude":41.881832,"longitude":-87.62318,"reserved":0,"last_update":"0001-01-01T00:00:00Z","name_a2s":"Uncletopia | Chicago | 2 | All Maps","protocol":17,"map":"koth_viaduct","folder":"tf","game":"Team Fortress","app_id":440,"player_count":24,"max_players":24,"Bots":0,"server_type":"Dedicated","server_os":"Linux","password":true,"vac":true,"version":"7961495","steam_id":85568392924469985,"keywords":["cp","nocrits","nodmgspread","uncletopia"],"game_id":440,"stv_port":27026,"stv_name":"Uncletopia | Chicago | 2 | All Maps | STV","players":[{"user_id":433,"name":"WindWaker","steam_id":76561198245941534,"connected_time":336000000000,"state":"active","ping":58},{"user_id":415,"name":"Leonardo DiCaprio","steam_id":76561198121886765,"connected_time":2146000000000,"state":"active","ping":56},{"user_id":434,"name":"Viennetta","steam_id":76561198044088335,"connected_time":309000000000,"state":"active","ping":63},{"user_id":430,"name":"feeple murphy","steam_id":76561199069482101,"connected_time":461000000000,"state":"active","ping":142},{"user_id":424,"name":"AltersFalter","steam_id":76561199095678212,"connected_time":1114000000000,"state":"active","ping":79},{"user_id":440,"name":"ElephantHydrogen4277882","steam_id":76561198175741741,"connected_time":83000000000,"state":"active","ping":75},{"user_id":432,"name":"thai","steam_id":76561198052462287,"connected_time":346000000000,"state":"active","ping":79},{"user_id":441,"name":"creeeeeee","steam_id":76561198392539722,"connected_time":63000000000,"state":"active","ping":79},{"user_id":435,"name":"root beer bong hits","steam_id":76561199159928133,"connected_time":276000000000,"state":"active","ping":64},{"user_id":428,"name":"TechnoBear2099","steam_id":76561198238863596,"connected_time":689000000000,"state":"active","ping":72},{"user_id":427,"name":"Glue Gulper","steam_id":76561198158014525,"connected_time":704000000000,"state":"active","ping":59},{"user_id":419,"name":"Skipz","steam_id":76561198425244550,"connected_time":1701000000000,"state":"active","ping":81},{"user_id":442,"name":"Galaxxy Bun","steam_id":76561198275513037,"connected_time":47000000000,"state":"active","ping":81},{"user_id":375,"name":"Nic0","steam_id":76561198305690218,"connected_time":4110000000000,"state":"active","ping":70},{"user_id":443,"name":"Jerms","steam_id":76561198382814378,"connected_time":44000000000,"state":"active","ping":47},{"user_id":388,"name":"blood-thirsty pitbull","steam_id":76561198106690989,"connected_time":3832000000000,"state":"active","ping":68},{"user_id":426,"name":"Smams","steam_id":76561198262368084,"connected_time":967000000000,"state":"active","ping":145},{"user_id":421,"name":"Good Teammate","steam_id":76561198140604297,"connected_time":1425000000000,"state":"active","ping":69},{"user_id":385,"name":"Mr.HumanSoup","steam_id":76561198799202879,"connected_time":3939000000000,"state":"active","ping":89},{"user_id":437,"name":"Window Licker #pride","steam_id":76561198386717007,"connected_time":233000000000,"state":"active","ping":51},{"user_id":417,"name":"y0","steam_id":76561198143894333,"connected_time":2093000000000,"state":"active","ping":54},{"user_id":418,"name":"Wet","steam_id":76561199474220124,"connected_time":1913000000000,"state":"active","ping":90},{"user_id":422,"name":"chunk","steam_id":76561198134775401,"connected_time":1278000000000,"state":"active","ping":57},{"user_id":438,"name":"Joculatrix","steam_id":76561198012795457,"connected_time":172000000000,"state":"active","ping":73}]},{"server_id":402,"name":"Uncletopia | Chicago | 3 | All Maps","name_short":"chi-3","host":"chi-1.us.uncletopia.com","port":27035,"enabled":true,"region":"us-central","cc":"us","latitude":41.881832,"longitude":-87.62318,"reserved":0,"last_update":"0001-01-01T00:00:00Z","name_a2s":"Uncletopia | Chicago | 3 | All Maps","protocol":17,"map":"pl_snowycoast","folder":"tf","game":"Team Fortress","app_id":440,"player_count":24,"max_players":24,"Bots":0,"server_type":"Dedicated","server_os":"Linux","password":true,"vac":true,"version":"7961495","steam_id":85568392924515191,"keywords":["nocrits","nodmgspread","payload","uncletopia"],"game_id":440,"stv_port":27036,"stv_name":"Uncletopia | Chicago | 3 | All Maps | STV","players":[{"user_id":496,"name":"fiddlesticks","steam_id":76561198174428289,"connected_time":3442000000000,"state":"active","ping":72},{"user_id":538,"name":"Gotta Move That Gear Up","steam_id":76561197993467034,"connected_time":823000000000,"state":"active","ping":46},{"user_id":551,"name":"ChimpChampion","steam_id":76561198046520712,"connected_time":131000000000,"state":"active","ping":62},{"user_id":543,"name":"Jerk Tryhard (roleplay)","steam_id":76561199470538309,"connected_time":435000000000,"state":"active","ping":54},{"user_id":545,"name":"daffodil","steam_id":76561198049480053,"connected_time":352000000000,"state":"active","ping":60},{"user_id":524,"name":"ADRIEN BRODY","steam_id":76561198009299473,"connected_time":1649000000000,"state":"active","ping":73},{"user_id":546,"name":"ball bearing","steam_id":76561198072179483,"connected_time":318000000000,"state":"active","ping":93},{"user_id":500,"name":"Letters","steam_id":76561198035508148,"connected_time":3004000000000,"state":"active","ping":64},{"user_id":526,"name":"elijahlong9841","steam_id":76561198977541452,"connected_time":1564000000000,"state":"active","ping":69},{"user_id":501,"name":"Grilled Jizo","steam_id":76561199250875340,"connected_time":2986000000000,"state":"active","ping":75},{"user_id":552,"name":"Provocator","steam_id":76561197961830410,"connected_time":6000000000,"state":"spawning","ping":60},{"user_id":541,"name":"poopybutt420","steam_id":76561199000805315,"connected_time":531000000000,"state":"active","ping":106},{"user_id":547,"name":"Portal2Player","steam_id":76561198062870114,"connected_time":314000000000,"state":"active","ping":81},{"user_id":498,"name":"Argo","steam_id":76561198353725622,"connected_time":3028000000000,"state":"active","ping":83},{"user_id":544,"name":"·πΩ‚ßâ hank","steam_id":76561197977182378,"connected_time":424000000000,"state":"active","ping":47},{"user_id":548,"name":"oppenheimer style","steam_id":76561198026664629,"connected_time":306000000000,"state":"active","ping":59},{"user_id":534,"name":"jimmz","steam_id":76561199076776118,"connected_time":1194000000000,"state":"active","ping":91},{"user_id":491,"name":"Lia_Rein","steam_id":76561198151569597,"connected_time":3938000000000,"state":"active","ping":149},{"user_id":549,"name":"totoro","steam_id":76561198210420871,"connected_time":276000000000,"state":"active","ping":46},{"user_id":430,"name":"M249 | Spectre","steam_id":76561198118334485,"connected_time":5874000000000,"state":"active","ping":72},{"user_id":532,"name":"In Soviet America","steam_id":76561197998261826,"connected_time":1322000000000,"state":"active","ping":65},{"user_id":439,"name":"diarrhea","steam_id":76561199389283507,"connected_time":5681000000000,"state":"active","ping":70},{"user_id":550,"name":"LFT Roz257","steam_id":76561198842844532,"connected_time":273000000000,"state":"active","ping":72},{"user_id":536,"name":"TheSpy","steam_id":76561198997837361,"connected_time":931000000000,"state":"active","ping":56}]},{"server_id":403,"name":"Uncletopia | Chicago | 4 | All Maps","name_short":"chi-4","host":"chi-1.us.uncletopia.com","port":27045,"enabled":true,"region":"us-central","cc":"us","latitude":41.881832,"longitude":-87.62318,"reserved":0,"last_update":"0001-01-01T00:00:00Z","name_a2s":"Uncletopia | Chicago | 4 | All Maps","protocol":17,"map":"pl_upward","folder":"tf","game":"Team Fortress","app_id":440,"player_count":24,"max_players":24,"Bots":0,"server_type":"Dedicated","server_os":"Linux","password":true,"vac":true,"version":"7961495","steam_id":85568392924515193,"keywords":["nocrits","nodmgspread","payload","uncletopia"],"game_id":440,"stv_port":27046,"stv_name":"Uncletopia | Chicago | 4 | All Maps | STV","players":[{"user_id":112,"name":"shalankawanak","steam_id":76561198987719376,"connected_time":2084000000000,"state":"active","ping":53},{"user_id":123,"name":"Teenage Pubant Ninja Turtles","steam_id":76561198004998877,"connected_time":1271000000000,"state":"active","ping":75},{"user_id":119,"name":"PokoRacc","steam_id":76561198931436503,"connected_time":1985000000000,"state":"active","ping":57},{"user_id":137,"name":"Itsagreyarea","steam_id":76561199496467388,"connected_time":56000000000,"state":"active","ping":100},{"user_id":136,"name":"DistantJragon","steam_id":76561198117563641,"connected_time":77000000000,"state":"active","ping":34},{"user_id":131,"name":"a baby","steam_id":76561198008662184,"connected_time":880000000000,"state":"active","ping":60},{"user_id":116,"name":"Panic Opossum","steam_id":76561198043838227,"connected_time":2035000000000,"state":"active","ping":43},{"user_id":74,"name":"Yorozuya with Odd Jobs","steam_id":76561198219473128,"connected_time":3357000000000,"state":"active","ping":49},{"user_id":138,"name":"The Caretaker","steam_id":76561198125241411,"connected_time":41000000000,"state":"spawning","ping":93},{"user_id":139,"name":"Bearegard","steam_id":76561198061926542,"connected_time":36000000000,"state":"active","ping":68},{"user_id":140,"name":"pipepeepi","steam_id":76561198845905873,"connected_time":28000000000,"state":"active","ping":77},{"user_id":93,"name":"cognitiveAfflatus","steam_id":76561198295181426,"connected_time":2717000000000,"state":"active","ping":63},{"user_id":135,"name":"tender","steam_id":76561197993724724,"connected_time":399000000000,"state":"active","ping":75},{"user_id":141,"name":"Shirm","steam_id":76561198068455981,"connected_time":21000000000,"state":"active","ping":72},{"user_id":126,"name":"Mr. Soupman","steam_id":76561198021649598,"connected_time":1120000000000,"state":"active","ping":60},{"user_id":127,"name":"bird flu? yeah they do that","steam_id":76561198204995668,"connected_time":1095000000000,"state":"active","ping":79},{"user_id":76,"name":"The Fragrance of Dark Coffee","steam_id":76561198013111370,"connected_time":3315000000000,"state":"active","ping":74},{"user_id":128,"name":"the_pugz","steam_id":76561199179432329,"connected_time":1046000000000,"state":"active","ping":87},{"user_id":60,"name":"ol' musty","steam_id":76561198081075865,"connected_time":4091000000000,"state":"active","ping":69},{"user_id":117,"name":"ArmyGuyIan","steam_id":76561198120926552,"connected_time":2031000000000,"state":"active","ping":60},{"user_id":134,"name":"Drapph","steam_id":76561199384213314,"connected_time":725000000000,"state":"active","ping":57},{"user_id":142,"name":"Mister36","steam_id":76561198019132100,"connected_time":18000000000,"state":"spawning","ping":47},{"user_id":143,"name":"msay","steam_id":76561198170888029,"connected_time":13000000000,"state":"active","ping":87},{"user_id":133,"name":"RiflingShotgun","steam_id":76561198288209651,"connected_time":828000000000,"state":"active","ping":45}]},{"server_id":36,"name":"Uncletopia | Chicago | 5 | All Maps","name_short":"chi-5","host":"chi-2.us.uncletopia.com","port":27015,"enabled":true,"region":"us-central","cc":"us","latitude":41.881832,"longitude":-87.62318,"reserved":0,"last_update":"0001-01-01T00:00:00Z","name_a2s":"Uncletopia | Chicago | 5 | All Maps","protocol":17,"map":"pl_upward","folder":"tf","game":"Team Fortress","app_id":440,"player_count":24,"max_players":24,"Bots":0,"server_type":"Dedicated","server_os":"Linux","password":true,"vac":true,"version":"7961495","steam_id":85568392924866362,"keywords":["nocrits","nodmgspread","payload","uncletopia"],"game_id":440,"stv_port":27016,"stv_name":"Uncletopia | Chicago | 5 | All Maps | STV","players":[{"user_id":289,"name":"Medici","steam_id":76561198310130481,"connected_time":569000000000,"state":"active","ping":61},{"user_id":241,"name":"P.U. Poopenhauser","steam_id":76561198012093679,"connected_time":4510000000000,"state":"active","ping":85},{"user_id":267,"name":"Astronomical-Ravs","steam_id":76561197993919776,"connected_time":2368000000000,"state":"active","ping":91},{"user_id":264,"name":"bookreader","steam_id":76561198978568007,"connected_time":2664000000000,"state":"active","ping":54},{"user_id":273,"name":"Toxic Ron","steam_id":76561198089302972,"connected_time":1618000000000,"state":"active","ping":66},{"user_id":282,"name":"Eradicator","steam_id":76561197972314510,"connected_time":893000000000,"state":"active","ping":86},{"user_id":251,"name":"garbuglio","steam_id":76561198012371111,"connected_time":4018000000000,"state":"active","ping":58},{"user_id":270,"name":"Hazeyboi","steam_id":76561198130687838,"connected_time":1999000000000,"state":"active","ping":45},{"user_id":276,"name":"`-üêß‚ú®üü† „ÉÑ","steam_id":76561198125261443,"connected_time":1174000000000,"state":"active","ping":106},{"user_id":286,"name":"its all water under the fridge","steam_id":76561198043873119,"connected_time":736000000000,"state":"active","ping":72},{"user_id":279,"name":"Cleverless Biped","steam_id":76561198045984856,"connected_time":1141000000000,"state":"active","ping":119},{"user_id":284,"name":"Jimmy McGill","steam_id":76561198135137213,"connected_time":858000000000,"state":"active","ping":57},{"user_id":214,"name":"aiden","steam_id":76561198449527009,"connected_time":6264000000000,"state":"active","ping":128},{"user_id":292,"name":"Buttercup","steam_id":76561198827504920,"connected_time":478000000000,"state":"active","ping":83},{"user_id":257,"name":"Freyja","steam_id":76561198207412177,"connected_time":3061000000000,"state":"active","ping":67},{"user_id":269,"name":"Maximum Flame","steam_id":76561198073682529,"connected_time":2120000000000,"state":"active","ping":43},{"user_id":294,"name":"catfish from toontown","steam_id":76561198060070002,"connected_time":26000000000,"state":"spawning","ping":72},{"user_id":258,"name":"Jango","steam_id":76561198084589742,"connected_time":3061000000000,"state":"active","ping":80},{"user_id":259,"name":"BlueRevi","steam_id":76561198009801783,"connected_time":3043000000000,"state":"active","ping":96},{"user_id":293,"name":"Renota","steam_id":76561198058224488,"connected_time":464000000000,"state":"active","ping":86},{"user_id":268,"name":"DerpyNate","steam_id":76561198100249037,"connected_time":2280000000000,"state":"active","ping":45},{"user_id":291,"name":"Zawg","steam_id":76561198346423306,"connected_time":539000000000,"state":"active","ping":72},{"user_id":204,"name":"berserker_tf2","steam_id":76561198303464488,"connected_time":6520000000000,"state":"active","ping":61},{"user_id":271,"name":"consumer of bonk","steam_id":76561199041402389,"connected_time":1974000000000,"state":"active","ping":87}]},{"server_id":37,"name":"Uncletopia | Chicago | 6 | All Maps","name_short":"chi-6","host":"chi-2.us.uncletopia.com","port":27025,"enabled":true,"region":"us-central","cc":"us","latitude":41.881832,"longitude":-87.62318,"reserved":0,"last_update":"0001-01-01T00:00:00Z","name_a2s":"Uncletopia | Chicago | 6 | All Maps","protocol":17,"map":"pl_badwater","folder":"tf","game":"Team Fortress","app_id":440,"player_count":24,"max_players":24,"Bots":0,"server_type":"Dedicated","server_os":"Linux","password":true,"vac":true,"version":"7961495","steam_id":85568392924866363,"keywords":["nocrits","nodmgspread","payload","uncletopia"],"game_id":440,"stv_port":27026,"stv_name":"Uncletopia | Chicago | 6 | All Maps | STV","players":[{"user_id":28,"name":"Alpha04","steam_id":76561198066311671,"connected_time":1776000000000,"state":"active","ping":73},{"user_id":21,"name":"BobRossDaMobBoss","steam_id":76561198799262066,"connected_time":2612000000000,"state":"active","ping":83},{"user_id":22,"name":"Gas Can","steam_id":76561198162853003,"connected_time":2602000000000,"state":"active","ping":75},{"user_id":29,"name":"bandana","steam_id":76561199098102289,"connected_time":1765000000000,"state":"active","ping":83},{"user_id":24,"name":"Themex","steam_id":76561198411848224,"connected_time":2537000000000,"state":"active","ping":75},{"user_id":25,"name":"hubert","steam_id":76561198288604502,"connected_time":2465000000000,"state":"active","ping":82},{"user_id":33,"name":"SC|Formuoli","steam_id":76561198254354595,"connected_time":1250000000000,"state":"active","ping":45},{"user_id":30,"name":"Shady Businessman","steam_id":76561198143855968,"connected_time":1597000000000,"state":"active","ping":95},{"user_id":49,"name":"nicthekick0","steam_id":76561199365408165,"connected_time":339000000000,"state":"active","ping":72},{"user_id":50,"name":"Official Ton a'Pup","steam_id":76561198023110308,"connected_time":259000000000,"state":"active","ping":90},{"user_id":37,"name":"Dandy Man","steam_id":76561198093331476,"connected_time":1127000000000,"state":"active","ping":65},{"user_id":38,"name":"SpessEnjoyer","steam_id":76561199207304747,"connected_time":1016000000000,"state":"active","ping":69},{"user_id":39,"name":".realt1me","steam_id":76561198055449744,"connected_time":950000000000,"state":"active","ping":77},{"user_id":48,"name":"LeefLett","steam_id":76561199166178308,"connected_time":560000000000,"state":"active","ping":110},{"user_id":47,"name":"nhbiker","steam_id":76561198081277675,"connected_time":579000000000,"state":"active","ping":60},{"user_id":43,"name":"Its_Salty[ST]","steam_id":76561198273978887,"connected_time":740000000000,"state":"active","ping":70},{"user_id":46,"name":"TheGuy101","steam_id":76561199201772624,"connected_time":628000000000,"state":"active","ping":100},{"user_id":51,"name":"Loaf","steam_id":76561198446378419,"connected_time":204000000000,"state":"active","ping":85},{"user_id":52,"name":"YoursTruely","steam_id":76561198072129131,"connected_time":193000000000,"state":"active","ping":77},{"user_id":53,"name":"The_Stomach_Stone_Surgeon","steam_id":76561198044643725,"connected_time":154000000000,"state":"active","ping":67},{"user_id":54,"name":"Goober","steam_id":76561199026734167,"connected_time":137000000000,"state":"active","ping":73},{"user_id":55,"name":"bologna forklift 2012","steam_id":76561198199061206,"connected_time":135000000000,"state":"active","ping":43},{"user_id":56,"name":"seemquell","steam_id":76561199003380346,"connected_time":127000000000,"state":"active","ping":61},{"user_id":57,"name":"„ãõ countblanc","steam_id":76561197993171771,"connected_time":115000000000,"state":"active","ping":49}]},{"server_id":38,"name":"Uncletopia | Chicago | 7 | Stopwatch","name_short":"chi-7","host":"chi-2.us.uncletopia.com","port":27035,"enabled":true,"region":"us-central","cc":"us","latitude":41.881832,"longitude":-87.62318,"reserved":0,"last_update":"0001-01-01T00:00:00Z","name_a2s":"Uncletopia | Chicago | 7 | Stopwatch","protocol":17,"map":"workshop/koth_ramjam_rc1.ugc459778887","folder":"tf","game":"Team Fortress","app_id":440,"player_count":0,"max_players":24,"Bots":0,"server_type":"Dedicated","server_os":"Linux","password":true,"vac":true,"version":"7961495","steam_id":85568392924866364,"keywords":["cp","nocrits","nodmgspread","uncletopia"],"game_id":440,"stv_port":27036,"stv_name":"Uncletopia | Chicago | 7 | Stopwatch | STV","players":null},{"server_id":39,"name":"Uncletopia | Chicago | 8 | Community","name_short":"chi-8","host":"chi-2.us.uncletopia.com","port":27045,"enabled":true,"region":"us-central","cc":"us","latitude":41.881832,"longitude":-87.62318,"reserved":0,"last_update":"0001-01-01T00:00:00Z","name_a2s":"Uncletopia | Chicago | 8 | Community","protocol":17,"map":"workshop/koth_trenchfoot_b1a.ugc731436616","folder":"tf","game":"Team Fortress","app_id":440,"player_count":0,"max_players":24,"Bots":0,"server_type":"Dedicated","server_os":"Linux","password":true,"vac":true,"version":"7961495","steam_id":85568392924866365,"keywords":["cp","nocrits","nodmgspread","uncletopia"],"game_id":440,"stv_port":27046,"stv_name":"Uncletopia | Chicago | 8 | Community | STV","players":null},{"server_id":8,"name":"Uncletopia | Dallas | 1 | All Maps","name_short":"dal-1","host":"dal-1.us.uncletopia.com","port":27015,"enabled":true,"region":"us-central","cc":"us","latitude":32.779167,"longitude":-96.80889,"reserved":0,"last_update":"0001-01-01T00:00:00Z","name_a2s":"Uncletopia | Dallas | 1 | All Maps","protocol":17,"map":"pl_pier","folder":"tf","game":"Team Fortress","app_id":440,"player_count":24,"max_players":24,"Bots":0,"server_type":"Dedicated","server_os":"Linux","password":true,"vac":true,"version":"7961495","steam_id":85568392924469986,"keywords":["nocrits","nodmgspread","payload","uncletopia"],"game_id":440,"stv_port":27016,"stv_name":"Uncletopia | Dallas | 1 | All Maps | STV","players":[{"user_id":342,"name":"Oviraptor Supreme","steam_id":76561198044262534,"connected_time":792000000000,"state":"active","ping":74},{"user_id":348,"name":"e doctor","steam_id":76561198081851446,"connected_time":581000000000,"state":"active","ping":70},{"user_id":335,"name":"Beers","steam_id":76561198886650342,"connected_time":2092000000000,"state":"active","ping":88},{"user_id":339,"name":"Descenso","steam_id":76561198059290812,"connected_time":1654000000000,"state":"active","ping":135},{"user_id":337,"name":"Yucky","steam_id":76561198077358516,"connected_time":1925000000000,"state":"active","ping":45},{"user_id":343,"name":"Furrio","steam_id":76561198174104607,"connected_time":758000000000,"state":"active","ping":68},{"user_id":344,"name":"cas.sierrafamilia","steam_id":76561199230945873,"connected_time":713000000000,"state":"active","ping":86},{"user_id":303,"name":"MintHaggis","steam_id":76561198006674825,"connected_time":3786000000000,"state":"active","ping":88},{"user_id":323,"name":"Inflation Jumpscare","steam_id":76561198137862444,"connected_time":2797000000000,"state":"active","ping":45},{"user_id":345,"name":"leesh","steam_id":76561198079603938,"connected_time":703000000000,"state":"active","ping":61},{"user_id":327,"name":"YORCHspartan117","steam_id":76561198272955205,"connected_time":2492000000000,"state":"active","ping":62},{"user_id":319,"name":"Freddy Fazbear","steam_id":76561198272353440,"connected_time":3117000000000,"state":"active","ping":55},{"user_id":341,"name":"Bingus (real)","steam_id":76561198005029680,"connected_time":912000000000,"state":"active","ping":88},{"user_id":350,"name":"f","steam_id":76561198215559840,"connected_time":363000000000,"state":"active","ping":72},{"user_id":332,"name":"ChozoChorizo","steam_id":76561198272609196,"connected_time":2275000000000,"state":"active","ping":69},{"user_id":318,"name":"ChokeMeBoi","steam_id":76561198173432711,"connected_time":3427000000000,"state":"active","ping":63},{"user_id":326,"name":"SmokeyGalaxy","steam_id":76561198118780516,"connected_time":2559000000000,"state":"active","ping":61},{"user_id":321,"name":"BADWOLF42","steam_id":76561198055447523,"connected_time":2908000000000,"state":"active","ping":58},{"user_id":315,"name":"Captain Malarkey","steam_id":76561198869924281,"connected_time":3643000000000,"state":"active","ping":54},{"user_id":313,"name":"GotDip","steam_id":76561198012764949,"connected_time":3692000000000,"state":"active","ping":89},{"user_id":346,"name":"Asanez3","steam_id":76561198037381436,"connected_time":698000000000,"state":"active","ping":104},{"user_id":334,"name":"BlazingWaters","steam_id":76561198136322660,"connected_time":2201000000000,"state":"active","ping":97},{"user_id":349,"name":"a crystal lizard","steam_id":76561197997661928,"connected_time":576000000000,"state":"active","ping":97},{"user_id":336,"name":"get scrongled, idiot","steam_id":76561198115874625,"connected_time":1941000000000,"state":"active","ping":94}]},{"server_id":108,"name":"Uncletopia | Dallas | 2 | All Maps","name_short":"dal-2","host":"dal-1.us.uncletopia.com","port":27025,"enabled":true,"region":"us-central","cc":"us","latitude":32.779167,"longitude":-96.80889,"reserved":0,"last_update":"0001-01-01T00:00:00Z","name_a2s":"Uncletopia | Dallas | 2 | All Maps","protocol":17,"map":"cp_gullywash_final1","folder":"tf","game":"Team Fortress","app_id":440,"player_count":23,"max_players":24,"Bots":0,"server_type":"Dedicated","server_os":"Linux","password":true,"vac":true,"version":"7961495","steam_id":85568392924469988,"keywords":["cp","nocrits","nodmgspread","uncletopia"],"game_id":440,"stv_port":27026,"stv_name":"Uncletopia | Dallas | 2 | All Maps | STV","players":[{"user_id":258,"name":"See? Bass!","steam_id":76561198207220181,"connected_time":456000000000,"state":"active","ping":61},{"user_id":259,"name":"EonN","steam_id":76561198264076220,"connected_time":449000000000,"state":"active","ping":45},{"user_id":243,"name":"siriusrmcclain","steam_id":76561199015668823,"connected_time":1324000000000,"state":"active","ping":78},{"user_id":232,"name":"Randle of John","steam_id":76561198328210524,"connected_time":1512000000000,"state":"active","ping":77},{"user_id":179,"name":"buster brown","steam_id":76561199395721617,"connected_time":5220000000000,"state":"active","ping":57},{"user_id":213,"name":"Sketchdude","steam_id":76561198428554205,"connected_time":3237000000000,"state":"active","ping":84},{"user_id":180,"name":"Mecha_pug","steam_id":76561198856242434,"connected_time":5217000000000,"state":"active","ping":61},{"user_id":233,"name":"majortom1","steam_id":76561199222833081,"connected_time":1509000000000,"state":"active","ping":96},{"user_id":181,"name":"BlueSceptile","steam_id":76561198303151606,"connected_time":5194000000000,"state":"active","ping":58},{"user_id":260,"name":"Lex","steam_id":76561198069948353,"connected_time":444000000000,"state":"active","ping":66},{"user_id":262,"name":"SaxyThePhone","steam_id":76561199439167761,"connected_time":419000000000,"state":"active","ping":74},{"user_id":256,"name":"excellenceinmotion","steam_id":76561199471390378,"connected_time":625000000000,"state":"active","ping":80},{"user_id":266,"name":"Grandpa 1MinecraftEmpire","steam_id":76561198069046338,"connected_time":280000000000,"state":"active","ping":66},{"user_id":261,"name":"TeaMox","steam_id":76561199431651090,"connected_time":436000000000,"state":"active","ping":91},{"user_id":253,"name":"zeb","steam_id":76561198408349402,"connected_time":1126000000000,"state":"active","ping":83},{"user_id":263,"name":"ÿßŸÑÿßÿ´ŸÜŸäŸÜ ŸÅŸä ŸÜŸáÿßŸäÿ™\ufffd","steam_id":76561198836526350,"connected_time":402000000000,"state":"active","ping":58},{"user_id":248,"name":"shnowshner","steam_id":76561198066450438,"connected_time":1239000000000,"state":"active","ping":95},{"user_id":264,"name":"Broadsword #LGM","steam_id":76561198011160411,"connected_time":381000000000,"state":"active","ping":88},{"user_id":265,"name":"Heimler's History","steam_id":76561198401205345,"connected_time":369000000000,"state":"active","ping":60},{"user_id":242,"name":"Get out of here, Stalker.","steam_id":76561198066566813,"connected_time":1384000000000,"state":"active","ping":107},{"user_id":247,"name":"J  Man","steam_id":76561198401224356,"connected_time":1255000000000,"state":"active","ping":52},{"user_id":187,"name":"Derply","steam_id":76561198871211642,"connected_time":5036000000000,"state":"active","ping":77},{"user_id":251,"name":"Big McThankies From McSpankies","steam_id":76561198020516880,"connected_time":1177000000000,"state":"active","ping":57}]},{"server_id":404,"name":"Uncletopia | Dallas | 3 | All Maps","name_short":"dal-3","host":"dal-1.us.uncletopia.com","port":27035,"enabled":true,"region":"us-central","cc":"us","latitude":32.779167,"longitude":-96.80889,"reserved":0,"last_update":"0001-01-01T00:00:00Z","name_a2s":"Uncletopia | Dallas | 3 | All Maps","protocol":17,"map":"cp_steel","folder":"tf","game":"Team Fortress","app_id":440,"player_count":24,"max_players":24,"Bots":0,"server_type":"Dedicated","server_os":"Linux","password":true,"vac":true,"version":"7961495","steam_id":85568392924515219,"keywords":["cp","nocrits","nodmgspread","uncletopia"],"game_id":440,"stv_port":27036,"stv_name":"Uncletopia | Dallas | 3 | All Maps | STV","players":[{"user_id":151,"name":"artemisjackson2","steam_id":76561199094686268,"connected_time":706000000000,"state":"active","ping":94},{"user_id":163,"name":"Op banana","steam_id":76561198303231451,"connected_time":102000000000,"state":"active","ping":45},{"user_id":152,"name":"WhenImMadYOU!","steam_id":76561198072432944,"connected_time":647000000000,"state":"active","ping":91},{"user_id":160,"name":"MrCheezers","steam_id":76561199278028788,"connected_time":186000000000,"state":"active","ping":117},{"user_id":153,"name":"henrat4","steam_id":76561199131516758,"connected_time":644000000000,"state":"active","ping":42},{"user_id":154,"name":"jxh300","steam_id":76561199196579894,"connected_time":608000000000,"state":"active","ping":97},{"user_id":161,"name":"Renegade Radish","steam_id":76561198868344346,"connected_time":182000000000,"state":"active","ping":62},{"user_id":120,"name":"Ginger Jesus","steam_id":76561198052386458,"connected_time":2526000000000,"state":"active","ping":79},{"user_id":144,"name":"hamilton","steam_id":76561198034096096,"connected_time":1156000000000,"state":"active","ping":100},{"user_id":155,"name":"spenceisnotsmart","steam_id":76561197997349754,"connected_time":472000000000,"state":"active","ping":101},{"user_id":112,"name":"framp down","steam_id":76561198006316527,"connected_time":3073000000000,"state":"active","ping":73},{"user_id":148,"name":"DeckofDragons","steam_id":76561198057398213,"connected_time":852000000000,"state":"active","ping":69},{"user_id":129,"name":"chill","steam_id":76561198313364985,"connected_time":1943000000000,"state":"active","ping":90},{"user_id":156,"name":"ElProfessional","steam_id":76561199164985012,"connected_time":468000000000,"state":"active","ping":85},{"user_id":108,"name":"IRUMBLERI","steam_id":76561198285541599,"connected_time":3396000000000,"state":"active","ping":76},{"user_id":157,"name":"skullface","steam_id":76561198353704776,"connected_time":358000000000,"state":"active","ping":44},{"user_id":130,"name":"Voodoo","steam_id":76561199082256740,"connected_time":1927000000000,"state":"active","ping":105},{"user_id":138,"name":"Stryder","steam_id":76561199387418697,"connected_time":1800000000000,"state":"active","ping":78},{"user_id":166,"name":"iamtheSpicer","steam_id":76561198263557044,"connected_time":39000000000,"state":"active","ping":93},{"user_id":136,"name":"Zach_The_Flower","steam_id":76561199151266003,"connected_time":1820000000000,"state":"active","ping":105},{"user_id":57,"name":"MMAD","steam_id":76561198026446420,"connected_time":5748000000000,"state":"active","ping":60},{"user_id":131,"name":"Average Boyliker","steam_id":76561198403299009,"connected_time":1919000000000,"state":"active","ping":87},{"user_id":132,"name":"Salmon","steam_id":76561199019743468,"connected_time":1906000000000,"state":"active","ping":107},{"user_id":165,"name":"Tuvok Shakur","steam_id":76561198018875334,"connected_time":93000000000,"state":"active","ping":64}]},{"server_id":405,"name":"Uncletopia | Dallas | 4 | Community","name_short":"dal-4","host":"dal-1.us.uncletopia.com","port":27045,"enabled":true,"region":"us-central","cc":"us","latitude":32.779167,"longitude":-96.80889,"reserved":0,"last_update":"0001-01-01T00:00:00Z","name_a2s":"Uncletopia | Dallas | 4 | Community","protocol":17,"map":"workshop/cp_sulfur_rc2.ugc619869471","folder":"tf","game":"Team Fortress","app_id":440,"player_count":0,"max_players":24,"Bots":0,"server_type":"Dedicated","server_os":"Linux","password":true,"vac":true,"version":"7961495","steam_id":85568392924515220,"keywords":["cp","nocrits","nodmgspread","uncletopia"],"game_id":440,"stv_port":27046,"stv_name":"Uncletopia | Dallas | 4 | Community | STV","players":null},{"server_id":5,"name":"Uncletopia | Frankfurt | 1 | All Maps","name_short":"frk-1","host":"frk-1.de.uncletopia.com","port":27015,"enabled":true,"region":"eu","cc":"de","latitude":50.110924,"longitude":8.682127,"reserved":0,"last_update":"0001-01-01T00:00:00Z","name_a2s":"Uncletopia | Frankfurt | 1 | All Maps","protocol":17,"map":"pl_snowycoast","folder":"tf","game":"Team Fortress","app_id":440,"player_count":2,"max_players":24,"Bots":0,"server_type":"Dedicated","server_os":"Linux","password":true,"vac":true,"version":"7961495","steam_id":85568392924469989,"keywords":["nocrits","nodmgspread","payload","uncletopia"],"game_id":440,"stv_port":27016,"stv_name":"Uncletopia | Frankfurt | 1 | All Maps | STV","players":[{"user_id":610,"name":"laskobr","steam_id":76561198858912567,"connected_time":819000000000,"state":"active","ping":174},{"user_id":609,"name":"SeaKane","steam_id":76561198165453318,"connected_time":924000000000,"state":"active","ping":46}]},{"server_id":110,"name":"Uncletopia | Frankfurt | 2 | All Maps","name_short":"frk-2","host":"frk-1.de.uncletopia.com","port":27025,"enabled":true,"region":"eu","cc":"de","latitude":50.110924,"longitude":8.682127,"reserved":0,"last_update":"0001-01-01T00:00:00Z","name_a2s":"Uncletopia | Frankfurt | 2 | All Maps","protocol":17,"map":"pl_swiftwater_final1","folder":"tf","game":"Team Fortress","app_id":440,"player_count":19,"max_players":24,"Bots":0,"server_type":"Dedicated","server_os":"Linux","password":true,"vac":true,"version":"7961495","steam_id":85568392924469990,"keywords":["nocrits","nodmgspread","payload","uncletopia"],"game_id":440,"stv_port":27026,"stv_name":"Uncletopia | Frankfurt | 2 | All Maps | STV","players":[{"user_id":487,"name":"FNF","steam_id":76561199151422826,"connected_time":1282000000000,"state":"active","ping":125},{"user_id":470,"name":"tiia (fool)","steam_id":76561198046196005,"connected_time":2698000000000,"state":"active","ping":34},{"user_id":496,"name":"Dude‚Ñ¢","steam_id":76561198082099161,"connected_time":772000000000,"state":"active","ping":83},{"user_id":500,"name":"Gold","steam_id":76561198071111501,"connected_time":465000000000,"state":"active","ping":60},{"user_id":475,"name":"LogainAblar","steam_id":76561198353261190,"connected_time":2183000000000,"state":"active","ping":65},{"user_id":376,"name":"CzechMate #SaveTF2","steam_id":76561198012687703,"connected_time":9978000000000,"state":"active","ping":43},{"user_id":488,"name":"JackButNotBlack","steam_id":76561198199196931,"connected_time":1234000000000,"state":"active","ping":65},{"user_id":493,"name":"Accident","steam_id":76561198037232641,"connected_time":861000000000,"state":"active","ping":79},{"user_id":474,"name":"sussy gussy","steam_id":76561198079461874,"connected_time":2293000000000,"state":"active","ping":104},{"user_id":437,"name":"El Wiwi","steam_id":76561198134378108,"connected_time":5611000000000,"state":"active","ping":79},{"user_id":464,"name":"bull","steam_id":76561199233979726,"connected_time":3164000000000,"state":"active","ping":85},{"user_id":430,"name":"desmo_","steam_id":76561198023528339,"connected_time":5970000000000,"state":"active","ping":59},{"user_id":453,"name":"Green Uncle","steam_id":76561198257163156,"connected_time":3703000000000,"state":"active","ping":52},{"user_id":465,"name":"I_Forgot_My_Name","steam_id":76561198173424578,"connected_time":3115000000000,"state":"active","ping":60},{"user_id":494,"name":"rag","steam_id":76561198083505031,"connected_time":835000000000,"state":"active","ping":47},{"user_id":481,"name":"A.I.M","steam_id":76561198140443468,"connected_time":1777000000000,"state":"active","ping":60},{"user_id":468,"name":"Reljadin","steam_id":76561198054997553,"connected_time":2953000000000,"state":"active","ping":89},{"user_id":499,"name":"e36 1.8","steam_id":76561198134203031,"connected_time":618000000000,"state":"active","ping":58},{"user_id":501,"name":"deez","steam_id":76561199093115772,"connected_time":443000000000,"state":"active","ping":72}]},{"server_id":308,"name":"Uncletopia | Frankfurt | 3 | All Maps","name_short":"frk-3","host":"frk-1.de.uncletopia.com","port":27035,"enabled":true,"region":"eu","cc":"de","latitude":50.110924,"longitude":8.682127,"reserved":0,"last_update":"0001-01-01T00:00:00Z","name_a2s":"Uncletopia | Frankfurt | 3 | All Maps","protocol":17,"map":"pl_barnblitz","folder":"tf","game":"Team Fortress","app_id":440,"player_count":0,"max_players":24,"Bots":0,"server_type":"Dedicated","server_os":"Linux","password":true,"vac":true,"version":"7961495","steam_id":85568392924504274,"keywords":["nocrits","nodmgspread","payload","uncletopia"],"game_id":440,"stv_port":27036,"stv_name":"Uncletopia | Frankfurt | 3 | All Maps | STV","players":null},{"server_id":309,"name":"Uncletopia | Frankfurt | 4 | All Maps","name_short":"frk-4","host":"frk-1.de.uncletopia.com","port":27045,"enabled":true,"region":"eu","cc":"de","latitude":50.110924,"longitude":8.682127,"reserved":0,"last_update":"0001-01-01T00:00:00Z","name_a2s":"Uncletopia | Frankfurt | 4 | All Maps","protocol":17,"map":"pl_pier","folder":"tf","game":"Team Fortress","app_id":440,"player_count":0,"max_players":24,"Bots":0,"server_type":"Dedicated","server_os":"Linux","password":true,"vac":true,"version":"7961495","steam_id":85568392924504275,"keywords":["nocrits","nodmgspread","payload","uncletopia"],"game_id":440,"stv_port":27046,"stv_name":"Uncletopia | Frankfurt | 4 | All Maps | STV","players":null},{"server_id":310,"name":"Uncletopia | Frankfurt | 5 | All Maps","name_short":"frk-5","host":"frk-1.de.uncletopia.com","port":27055,"enabled":true,"region":"eu","cc":"de","latitude":50.110924,"longitude":8.682127,"reserved":0,"last_update":"0001-01-01T00:00:00Z","name_a2s":"Uncletopia | Frankfurt | 5 | All Maps","protocol":17,"map":"koth_highpass","folder":"tf","game":"Team Fortress","app_id":440,"player_count":0,"max_players":24,"Bots":0,"server_type":"Dedicated","server_os":"Linux","password":true,"vac":true,"version":"7961495","steam_id":85568392924504277,"keywords":["cp","nocrits","nodmgspread","uncletopia"],"game_id":440,"stv_port":27056,"stv_name":"Uncletopia | Frankfurt | 5 | All Maps | STV","players":null},{"server_id":311,"name":"Uncletopia | Frankfurt | 6 | All Maps","name_short":"frk-6","host":"frk-1.de.uncletopia.com","port":27065,"enabled":true,"region":"eu","cc":"de","latitude":50.110924,"longitude":8.682127,"reserved":0,"last_update":"0001-01-01T00:00:00Z","name_a2s":"Uncletopia | Frankfurt | 6 | All Maps","protocol":17,"map":"koth_viaduct","folder":"tf","game":"Team Fortress","app_id":440,"player_count":0,"max_players":24,"Bots":0,"server_type":"Dedicated","server_os":"Linux","password":true,"vac":true,"version":"7961495","steam_id":85568392924504278,"keywords":["cp","nocrits","nodmgspread","uncletopia"],"game_id":440,"stv_port":27066,"stv_name":"Uncletopia | Frankfurt | 6 | All Maps | STV","players":null},{"server_id":23,"name":"Uncletopia | Frankfurt | 7 | Stopwatch","name_short":"frk-7","host":"frk-1.de.uncletopia.com","port":27075,"enabled":true,"region":"eu","cc":"de","latitude":50.110924,"longitude":8.682127,"reserved":0,"last_update":"0001-01-01T00:00:00Z","name_a2s":"Uncletopia | Frankfurt | 7 | Stopwatch","protocol":17,"map":"workshop/pl_summercoast_rc8e.ugc1761528829","folder":"tf","game":"Team Fortress","app_id":440,"player_count":0,"max_players":24,"Bots":0,"server_type":"Dedicated","server_os":"Linux","password":true,"vac":true,"version":"7961495","steam_id":85568392924742827,"keywords":["nocrits","nodmgspread","payload","uncletopia"],"game_id":440,"stv_port":27076,"stv_name":"Uncletopia | Frankfurt | 7 | Stopwatch | STV","players":null},{"server_id":24,"name":"Uncletopia | Frankfurt | 8 | Community","name_short":"frk-8","host":"frk-1.de.uncletopia.com","port":27085,"enabled":true,"region":"eu","cc":"de","latitude":50.110924,"longitude":8.682127,"reserved":0,"last_update":"0001-01-01T00:00:00Z","name_a2s":"Uncletopia | Frankfurt | 8 | Community","protocol":17,"map":"workshop/koth_slaughter_rc1.ugc1712845210","folder":"tf","game":"Team Fortress","app_id":440,"player_count":0,"max_players":24,"Bots":0,"server_type":"Dedicated","server_os":"Linux","password":true,"vac":true,"version":"7961495","steam_id":85568392924742828,"keywords":["cp","nocrits","nodmgspread","uncletopia"],"game_id":440,"stv_port":27086,"stv_name":"Uncletopia | Frankfurt | 8 | Community | STV","players":null},{"server_id":202,"name":"Uncletopia | Hong Kong | 1 | All Maps","name_short":"hgk-1","host":"hgk-1.hk.uncletopia.com","port":27015,"enabled":true,"region":"asia","cc":"hk","latitude":22.302711,"longitude":114.177216,"reserved":0,"last_update":"0001-01-01T00:00:00Z","name_a2s":"Uncletopia | Hong Kong | 1 | All Maps","protocol":17,"map":"koth_cascade","folder":"tf","game":"Team Fortress","app_id":440,"player_count":0,"max_players":24,"Bots":0,"server_type":"Dedicated","server_os":"Linux","password":true,"vac":true,"version":"7961495","steam_id":85568392924494504,"keywords":["cp","nocrits","nodmgspread","uncletopia"],"game_id":440,"stv_port":27016,"stv_name":"Uncletopia | Hong Kong | 1 | All Maps | STV","players":null},{"server_id":1,"name":"Uncletopia | Los Angeles | 1 | All Maps","name_short":"lax-1","host":"lax-1.us.uncletopia.com","port":27015,"enabled":true,"region":"us-west","cc":"us","latitude":33.94279,"longitude":-118.41004,"reserved":0,"last_update":"0001-01-01T00:00:00Z","name_a2s":"Uncletopia | Los Angeles | 1 | All Maps","protocol":17,"map":"pl_upward","folder":"tf","game":"Team Fortress","app_id":440,"player_count":24,"max_players":24,"Bots":0,"server_type":"Dedicated","server_os":"Linux","password":true,"vac":true,"version":"7961495","steam_id":85568392924469991,"keywords":["nocrits","nodmgspread","payload","uncletopia"],"game_id":440,"stv_port":27016,"stv_name":"Uncletopia | Los Angeles | 1 | All Maps | STV","players":[{"user_id":112,"name":"mr. nine","steam_id":76561198097599414,"connected_time":4194000000000,"state":"active","ping":68},{"user_id":138,"name":"sobaka","steam_id":76561198116008934,"connected_time":2798000000000,"state":"active","ping":61},{"user_id":166,"name":"Jovo","steam_id":76561197993265970,"connected_time":1704000000000,"state":"active","ping":74},{"user_id":211,"name":"cielael","steam_id":76561198043971956,"connected_time":285000000000,"state":"active","ping":49},{"user_id":205,"name":"booxofdeath","steam_id":76561198358253942,"connected_time":578000000000,"state":"active","ping":57},{"user_id":171,"name":"Do cOck","steam_id":76561198132755619,"connected_time":1639000000000,"state":"active","ping":39},{"user_id":202,"name":"roach","steam_id":76561198354811369,"connected_time":1197000000000,"state":"active","ping":46},{"user_id":209,"name":"Babushka Lady","steam_id":76561198153280053,"connected_time":477000000000,"state":"active","ping":95},{"user_id":201,"name":"Gumpy","steam_id":76561198144747235,"connected_time":1372000000000,"state":"active","ping":63},{"user_id":135,"name":"new ZAland","steam_id":76561198433114405,"connected_time":3036000000000,"state":"active","ping":66},{"user_id":208,"name":"NotAWeeb","steam_id":76561198165530739,"connected_time":545000000000,"state":"active","ping":55},{"user_id":167,"name":"moe","steam_id":76561198929586245,"connected_time":1698000000000,"state":"active","ping":41},{"user_id":203,"name":"NFL.com","steam_id":76561198113405376,"connected_time":1149000000000,"state":"active","ping":47},{"user_id":187,"name":"Mob Boss Baby","steam_id":76561199127590316,"connected_time":1514000000000,"state":"active","ping":57},{"user_id":204,"name":"Throat Goat","steam_id":76561198132532519,"connected_time":593000000000,"state":"active","ping":55},{"user_id":207,"name":"Seshreb","steam_id":76561198846614634,"connected_time":566000000000,"state":"active","ping":61},{"user_id":181,"name":"YEETCEN","steam_id":76561198132335963,"connected_time":1543000000000,"state":"active","ping":46},{"user_id":210,"name":"Sir Severus","steam_id":76561198061295188,"connected_time":441000000000,"state":"active","ping":75},{"user_id":159,"name":"AndrewGoo","steam_id":76561199023602747,"connected_time":2009000000000,"state":"active","ping":101},{"user_id":109,"name":"HAT-WEARING‚Ñ¢ Maggot Gamer Cat","steam_id":76561197973992705,"connected_time":4376000000000,"state":"active","ping":70},{"user_id":128,"name":"sola venereum","steam_id":76561198368179166,"connected_time":3111000000000,"state":"active","ping":38},{"user_id":151,"name":"Ockulus","steam_id":76561199069638460,"connected_time":2428000000000,"state":"active","ping":48},{"user_id":130,"name":"flo rida","steam_id":76561198226169704,"connected_time":3107000000000,"state":"active","ping":55},{"user_id":97,"name":"Matthew Lewis MJ","steam_id":76561199014695287,"connected_time":5148000000000,"state":"active","ping":105}]},{"server_id":112,"name":"Uncletopia | Los Angeles | 2 | All Maps","name_short":"lax-2","host":"lax-1.us.uncletopia.com","port":27025,"enabled":true,"region":"us-west","cc":"us","latitude":33.94279,"longitude":-118.41004,"reserved":0,"last_update":"0001-01-01T00:00:00Z","name_a2s":"Uncletopia | Los Angeles | 2 | All Maps","protocol":17,"map":"koth_cascade","folder":"tf","game":"Team Fortress","app_id":440,"player_count":2,"max_players":24,"Bots":0,"server_type":"Dedicated","server_os":"Linux","password":true,"vac":true,"version":"7961495","steam_id":85568392924469992,"keywords":["cp","nocrits","nodmgspread","uncletopia"],"game_id":440,"stv_port":27026,"stv_name":"Uncletopia | Los Angeles | 2 | All Maps | STV","players":[{"user_id":8,"name":"Zagadka","steam_id":76561198132307436,"connected_time":629000000000,"state":"active","ping":97},{"user_id":9,"name":"Tmiracle","steam_id":76561198052375275,"connected_time":393000000000,"state":"active","ping":47}]},{"server_id":324,"name":"Uncletopia | Los Angeles | 3 | All Maps","name_short":"lax-3","host":"lax-1.us.uncletopia.com","port":27035,"enabled":true,"region":"us-west","cc":"us","latitude":33.94279,"longitude":-118.41004,"reserved":0,"last_update":"0001-01-01T00:00:00Z","name_a2s":"Uncletopia | Los Angeles | 3 | All Maps","protocol":17,"map":"pl_badwater","folder":"tf","game":"Team Fortress","app_id":440,"player_count":0,"max_players":24,"Bots":0,"server_type":"Dedicated","server_os":"Linux","password":true,"vac":true,"version":"7961495","steam_id":85568392924510198,"keywords":["nocrits","nodmgspread","payload","uncletopia"],"game_id":440,"stv_port":27036,"stv_name":"Uncletopia | Los Angeles | 3 | All Maps | STV","players":null},{"server_id":25,"name":"Uncletopia | Los Angeles | 4 | Stopwatch","name_short":"lax-4","host":"lax-1.us.uncletopia.com","port":27045,"enabled":true,"region":"us-west","cc":"us","latitude":33.94279,"longitude":-118.41004,"reserved":0,"last_update":"0001-01-01T00:00:00Z","name_a2s":"Uncletopia | Los Angeles | 4 | Stopwatch","protocol":17,"map":"workshop/koth_ashville_final.ugc2130459942","folder":"tf","game":"Team Fortress","app_id":440,"player_count":0,"max_players":24,"Bots":0,"server_type":"Dedicated","server_os":"Linux","password":true,"vac":true,"version":"7961495","steam_id":85568392924510199,"keywords":["cp","nocrits","nodmgspread","uncletopia"],"game_id":440,"stv_port":27046,"stv_name":"Uncletopia | Los Angeles | 4 | Stopwatch | STV","players":null},{"server_id":11,"name":"Uncletopia | London | 1 | All Maps","name_short":"lon-1","host":"lon-1.uk.uncletopia.com","port":27015,"enabled":true,"region":"eu","cc":"gb","latitude":51.509865,"longitude":-0.118092,"reserved":0,"last_update":"0001-01-01T00:00:00Z","name_a2s":"Uncletopia | London | 1 | All Maps","protocol":17,"map":"cp_altitude","folder":"tf","game":"Team Fortress","app_id":440,"player_count":22,"max_players":24,"Bots":0,"server_type":"Dedicated","server_os":"Linux","password":true,"vac":true,"version":"7961495","steam_id":85568392924367362,"keywords":["cp","nocrits","nodmgspread","uncletopia"],"game_id":440,"stv_port":27016,"stv_name":"Uncletopia | London | 1 | All Maps | STV","players":[{"user_id":867,"name":"Deformed Gollum","steam_id":76561198155563589,"connected_time":144000000000,"state":"active","ping":47},{"user_id":826,"name":"‚ò≠King‚ò≠","steam_id":76561199214677088,"connected_time":3672000000000,"state":"active","ping":82},{"user_id":865,"name":"Borat","steam_id":76561198122226417,"connected_time":236000000000,"state":"active","ping":36},{"user_id":866,"name":"High-Key Cat","steam_id":76561198012929012,"connected_time":226000000000,"state":"active","ping":68},{"user_id":831,"name":"gibb (official)","steam_id":76561198074097655,"connected_time":3318000000000,"state":"active","ping":61},{"user_id":821,"name":"It's a me Malario","steam_id":76561198176546013,"connected_time":3938000000000,"state":"active","ping":49},{"user_id":832,"name":"dopamine overdose","steam_id":76561199032511302,"connected_time":3027000000000,"state":"active","ping":105},{"user_id":844,"name":"randem_","steam_id":76561198338793755,"connected_time":2171000000000,"state":"active","ping":41},{"user_id":837,"name":"f0x","steam_id":76561198072921704,"connected_time":2696000000000,"state":"active","ping":59},{"user_id":860,"name":"Xipheria","steam_id":76561198077414706,"connected_time":1069000000000,"state":"active","ping":73},{"user_id":857,"name":"Aaron","steam_id":76561197990046953,"connected_time":1179000000000,"state":"active","ping":48},{"user_id":864,"name":"M T F „ÉÖ","steam_id":76561198823703315,"connected_time":358000000000,"state":"active","ping":170},{"user_id":846,"name":"=BaFFe= Krakenpots","steam_id":76561198106600025,"connected_time":2163000000000,"state":"active","ping":55},{"user_id":841,"name":"BEDA","steam_id":76561198277943630,"connected_time":2470000000000,"state":"active","ping":75},{"user_id":861,"name":"Matoisbrah","steam_id":76561198282060171,"connected_time":963000000000,"state":"active","ping":86},{"user_id":843,"name":"Klorophyte","steam_id":76561198885112655,"connected_time":2337000000000,"state":"active","ping":100},{"user_id":858,"name":"Judicator Slifer","steam_id":76561198062255803,"connected_time":1076000000000,"state":"active","ping":68},{"user_id":853,"name":"HappyMonkey","steam_id":76561199131602359,"connected_time":2002000000000,"state":"active","ping":138},{"user_id":863,"name":"oozaru","steam_id":76561198236803694,"connected_time":628000000000,"state":"active","ping":59},{"user_id":859,"name":"shooer!","steam_id":76561198110531281,"connected_time":1070000000000,"state":"active","ping":72},{"user_id":854,"name":"SparkyDoodles - Artist","steam_id":76561198060128235,"connected_time":1979000000000,"state":"active","ping":60},{"user_id":855,"name":"vug","steam_id":76561198042227249,"connected_time":1915000000000,"state":"active","ping":44}]},{"server_id":114,"name":"Uncletopia | London | 2 | All Maps","name_short":"lon-2","host":"lon-1.uk.uncletopia.com","port":27025,"enabled":true,"region":"eu","cc":"gb","latitude":51.509865,"longitude":-0.118092,"reserved":0,"last_update":"0001-01-01T00:00:00Z","name_a2s":"Uncletopia | London | 2 | All Maps","protocol":17,"map":"cp_sunshine","folder":"tf","game":"Team Fortress","app_id":440,"player_count":23,"max_players":24,"Bots":0,"server_type":"Dedicated","server_os":"Linux","password":true,"vac":true,"version":"7961495","steam_id":85568392924470941,"keywords":["cp","nocrits","nodmgspread","uncletopia"],"game_id":440,"stv_port":27026,"stv_name":"Uncletopia | London | 2 | All Maps | STV","players":[{"user_id":698,"name":"Macci - Obismal","steam_id":76561198050485404,"connected_time":4523000000000,"state":"active","ping":88},{"user_id":768,"name":"nina levin","steam_id":76561197998546201,"connected_time":76000000000,"state":"active","ping":163},{"user_id":759,"name":"James","steam_id":76561198138558005,"connected_time":454000000000,"state":"active","ping":44},{"user_id":713,"name":"hbivnm#freeforsen","steam_id":76561197996468677,"connected_time":1910000000000,"state":"active","ping":60},{"user_id":734,"name":"sam-","steam_id":76561198013770973,"connected_time":1625000000000,"state":"active","ping":69},{"user_id":690,"name":"DesolateCabbage","steam_id":76561198064467423,"connected_time":4689000000000,"state":"active","ping":147},{"user_id":754,"name":"‚ú™ Danny","steam_id":76561198104483241,"connected_time":1109000000000,"state":"active","ping":50},{"user_id":769,"name":"Skansen","steam_id":76561198023525613,"connected_time":28000000000,"state":"active","ping":57},{"user_id":714,"name":"Emray","steam_id":76561198012084328,"connected_time":1909000000000,"state":"active","ping":91},{"user_id":701,"name":"froglids","steam_id":76561198045466919,"connected_time":4041000000000,"state":"active","ping":75},{"user_id":708,"name":"sora","steam_id":76561198096547662,"connected_time":3490000000000,"state":"active","ping":48},{"user_id":762,"name":"CharisThePig","steam_id":76561198142583131,"connected_time":352000000000,"state":"active","ping":110},{"user_id":763,"name":"[-K-R-I-S-]","steam_id":76561198298185714,"connected_time":323000000000,"state":"active","ping":54},{"user_id":733,"name":"Seail_M","steam_id":76561198002405605,"connected_time":1652000000000,"state":"active","ping":62},{"user_id":702,"name":"Sherlock Bond","steam_id":76561198042045955,"connected_time":3694000000000,"state":"active","ping":57},{"user_id":757,"name":"axxxturel66","steam_id":76561199094412145,"connected_time":730000000000,"state":"active","ping":86},{"user_id":700,"name":"BigDikNRJ - Obismal","steam_id":76561198055309521,"connected_time":4049000000000,"state":"active","ping":71},{"user_id":696,"name":"Caruzon - Obismal","steam_id":76561198036211170,"connected_time":4607000000000,"state":"active","ping":82},{"user_id":765,"name":"Sand","steam_id":76561199250506150,"connected_time":236000000000,"state":"active","ping":99},{"user_id":627,"name":"Jhare","steam_id":76561198211794225,"connected_time":9641000000000,"state":"active","ping":32},{"user_id":697,"name":"R8N - Obismal","steam_id":76561198007482714,"connected_time":4604000000000,"state":"active","ping":78},{"user_id":641,"name":"hipster_doofus","steam_id":76561197970902697,"connected_time":9068000000000,"state":"active","ping":55},{"user_id":752,"name":"I HATE SFM","steam_id":76561198051166015,"connected_time":1196000000000,"state":"active","ping":55}]},{"server_id":320,"name":"Uncletopia | London | 3 | All Maps","name_short":"lon-3","host":"lon-1.uk.uncletopia.com","port":27035,"enabled":true,"region":"eu","cc":"gb","latitude":51.509865,"longitude":-0.118092,"reserved":0,"last_update":"0001-01-01T00:00:00Z","name_a2s":"Uncletopia | London | 3 | All Maps","protocol":17,"map":"pl_snowycoast","folder":"tf","game":"Team Fortress","app_id":440,"player_count":24,"max_players":24,"Bots":0,"server_type":"Dedicated","server_os":"Linux","password":true,"vac":true,"version":"7961495","steam_id":85568392924510192,"keywords":["nocrits","nodmgspread","payload","uncletopia"],"game_id":440,"stv_port":27036,"stv_name":"Uncletopia | London | 3 | All Maps | STV","players":[{"user_id":374,"name":"phong","steam_id":76561198090990465,"connected_time":2998000000000,"state":"active","ping":62},{"user_id":396,"name":"Gentlemann Co.","steam_id":76561197997142921,"connected_time":1624000000000,"state":"active","ping":56},{"user_id":408,"name":"Woad Raider","steam_id":76561198215485788,"connected_time":920000000000,"state":"active","ping":78},{"user_id":410,"name":"KittyKate ‚ù§","steam_id":76561198116340817,"connected_time":615000000000,"state":"active","ping":60},{"user_id":387,"name":"Hamedius","steam_id":76561199152512027,"connected_time":2400000000000,"state":"active","ping":74},{"user_id":415,"name":"(:]„Éü","steam_id":76561198051279357,"connected_time":201000000000,"state":"active","ping":105},{"user_id":402,"name":"Name","steam_id":76561197990757157,"connected_time":1246000000000,"state":"active","ping":81},{"user_id":375,"name":"BenteBent","steam_id":76561198297920637,"connected_time":2943000000000,"state":"active","ping":29},{"user_id":395,"name":"Shillagh","steam_id":76561197979530383,"connected_time":1663000000000,"state":"active","ping":69},{"user_id":399,"name":"Broa28","steam_id":76561199072979817,"connected_time":1461000000000,"state":"active","ping":84},{"user_id":394,"name":"Vastol","steam_id":76561198294073078,"connected_time":1758000000000,"state":"active","ping":87},{"user_id":381,"name":"Nitro","steam_id":76561198093891507,"connected_time":2748000000000,"state":"active","ping":90},{"user_id":414,"name":"your biggest opp","steam_id":76561198801207748,"connected_time":355000000000,"state":"active","ping":122},{"user_id":335,"name":"R1k15h1","steam_id":76561198037955288,"connected_time":5423000000000,"state":"active","ping":49},{"user_id":411,"name":"BuzzBees ‚ù§","steam_id":76561198101502273,"connected_time":558000000000,"state":"active","ping":55},{"user_id":417,"name":":|","steam_id":76561198145232617,"connected_time":139000000000,"state":"active","ping":43},{"user_id":407,"name":"Marl Karx","steam_id":76561198396797516,"connected_time":946000000000,"state":"active","ping":61},{"user_id":389,"name":"H341","steam_id":76561198046754534,"connected_time":2290000000000,"state":"active","ping":90},{"user_id":416,"name":"Fexo","steam_id":76561197991649243,"connected_time":188000000000,"state":"active","ping":60},{"user_id":413,"name":"Jonno","steam_id":76561198023443744,"connected_time":476000000000,"state":"active","ping":55},{"user_id":382,"name":"paska","steam_id":76561198128841501,"connected_time":2741000000000,"state":"active","ping":107},{"user_id":383,"name":"Penis Contortionist","steam_id":76561198073663784,"connected_time":2736000000000,"state":"active","ping":41},{"user_id":384,"name":"Fissure","steam_id":76561198272595481,"connected_time":2730000000000,"state":"active","ping":67},{"user_id":401,"name":"Dr. Enforcicle (real)","steam_id":76561198964471859,"connected_time":1310000000000,"state":"active","ping":130}]},{"server_id":321,"name":"Uncletopia | London | 4 | All Maps","name_short":"lon-4","host":"lon-1.uk.uncletopia.com","port":27045,"enabled":true,"region":"eu","cc":"gb","latitude":51.509865,"longitude":-0.118092,"reserved":0,"last_update":"0001-01-01T00:00:00Z","name_a2s":"Uncletopia | London | 4 | All Maps","protocol":17,"map":"koth_viaduct","folder":"tf","game":"Team Fortress","app_id":440,"player_count":21,"max_players":24,"Bots":0,"server_type":"Dedicated","server_os":"Linux","password":true,"vac":true,"version":"7961495","steam_id":85568392924510193,"keywords":["cp","nocrits","nodmgspread","uncletopia"],"game_id":440,"stv_port":27046,"stv_name":"Uncletopia | London | 4 | All Maps | STV","players":[{"user_id":606,"name":"bowchika wowa #SlavaUkraine","steam_id":76561198159564550,"connected_time":319000000000,"state":"active","ping":75},{"user_id":539,"name":"coygus","steam_id":76561198071751994,"connected_time":6228000000000,"state":"active","ping":55},{"user_id":607,"name":"Donac Dum","steam_id":76561198064089294,"connected_time":314000000000,"state":"active","ping":53},{"user_id":608,"name":"Bootylicious42069","steam_id":76561199380849468,"connected_time":240000000000,"state":"active","ping":60},{"user_id":604,"name":"Cranbury","steam_id":76561198079170457,"connected_time":413000000000,"state":"active","ping":46},{"user_id":609,"name":"aeiou.","steam_id":76561198207929768,"connected_time":229000000000,"state":"active","ping":59},{"user_id":612,"name":"\u003e\u003c\u003e","steam_id":76561198152392309,"connected_time":84000000000,"state":"active","ping":56},{"user_id":610,"name":"Littleyoshifan","steam_id":76561198445491045,"connected_time":210000000000,"state":"active","ping":41},{"user_id":564,"name":"Ostara","steam_id":76561198200054489,"connected_time":4567000000000,"state":"active","ping":67},{"user_id":571,"name":"Cute Bulge","steam_id":76561198155494332,"connected_time":4267000000000,"state":"active","ping":46},{"user_id":611,"name":"committed to the bit","steam_id":76561198181368101,"connected_time":168000000000,"state":"active","ping":61},{"user_id":576,"name":"gustavo","steam_id":76561198091686339,"connected_time":3923000000000,"state":"active","ping":38},{"user_id":613,"name":"Crazy Cane","steam_id":76561198993941174,"connected_time":62000000000,"state":"active","ping":125},{"user_id":598,"name":"Herb","steam_id":76561198205266944,"connected_time":1184000000000,"state":"active","ping":43},{"user_id":596,"name":"Kelpy G gaming","steam_id":76561198056995633,"connected_time":1787000000000,"state":"active","ping":60},{"user_id":599,"name":"RSeph‚Ñ¢","steam_id":76561198107908797,"connected_time":872000000000,"state":"active","ping":64},{"user_id":614,"name":"wG toemon$terr","steam_id":76561198815271970,"connected_time":33000000000,"state":"active","ping":66},{"user_id":603,"name":"Ye","steam_id":76561198354719262,"connected_time":518000000000,"state":"active","ping":89},{"user_id":565,"name":"Shromide","steam_id":76561198140382935,"connected_time":4558000000000,"state":"active","ping":57},{"user_id":592,"name":"wow","steam_id":76561198880454530,"connected_time":2023000000000,"state":"active","ping":46},{"user_id":586,"name":"Fidacha","steam_id":76561198003060881,"connected_time":3624000000000,"state":"active","ping":66}]},{"server_id":21,"name":"Uncletopia | London | 5 | All Maps","name_short":"lon-5","host":"lon-1.uk.uncletopia.com","port":27055,"enabled":true,"region":"eu","cc":"gb","latitude":51.509865,"longitude":-0.118092,"reserved":0,"last_update":"0001-01-01T00:00:00Z","name_a2s":"Uncletopia | London | 5 | All Maps","protocol":17,"map":"pl_borneo","folder":"tf","game":"Team Fortress","app_id":440,"player_count":21,"max_players":24,"Bots":0,"server_type":"Dedicated","server_os":"Linux","password":true,"vac":true,"version":"7961495","steam_id":85568392924742829,"keywords":["nocrits","nodmgspread","payload","uncletopia"],"game_id":440,"stv_port":27056,"stv_name":"Uncletopia | London | 5 | All Maps | STV","players":[{"user_id":581,"name":"Boss Hog","steam_id":76561198140436196,"connected_time":431000000000,"state":"active","ping":46},{"user_id":557,"name":"Xiqui","steam_id":76561198818386611,"connected_time":2819000000000,"state":"active","ping":74},{"user_id":523,"name":"Valen","steam_id":76561198049614521,"connected_time":5821000000000,"state":"active","ping":75},{"user_id":541,"name":"I I","steam_id":76561199101935057,"connected_time":3906000000000,"state":"active","ping":101},{"user_id":583,"name":"-Potato Chip-","steam_id":76561198369125058,"connected_time":348000000000,"state":"active","ping":72},{"user_id":573,"name":"Sabour","steam_id":76561197963965445,"connected_time":1677000000000,"state":"active","ping":69},{"user_id":586,"name":"Cerise","steam_id":76561198261484969,"connected_time":159000000000,"state":"active","ping":51},{"user_id":540,"name":"Gry","steam_id":76561198053961616,"connected_time":4418000000000,"state":"active","ping":58},{"user_id":582,"name":"swallowed 10 pennies please hel","steam_id":76561198055816412,"connected_time":425000000000,"state":"active","ping":48},{"user_id":565,"name":"Marquis de Hoto","steam_id":76561198080687708,"connected_time":2438000000000,"state":"active","ping":68},{"user_id":454,"name":"random_player691","steam_id":76561199209946306,"connected_time":11261000000000,"state":"active","ping":59},{"user_id":548,"name":"tm`","steam_id":76561197993580412,"connected_time":3597000000000,"state":"active","ping":70},{"user_id":569,"name":"Conan the Librarian","steam_id":76561198007224654,"connected_time":2092000000000,"state":"active","ping":71},{"user_id":558,"name":"Stefman","steam_id":76561199025104038,"connected_time":2743000000000,"state":"active","ping":35},{"user_id":561,"name":"Cabbch","steam_id":76561198045955679,"connected_time":2631000000000,"state":"active","ping":59},{"user_id":575,"name":"Arctic","steam_id":76561199100669439,"connected_time":1441000000000,"state":"active","ping":54},{"user_id":574,"name":"[P-roc] BadJacKS","steam_id":76561197972666377,"connected_time":1517000000000,"state":"active","ping":60},{"user_id":578,"name":"yi","steam_id":76561198845837436,"connected_time":693000000000,"state":"active","ping":60},{"user_id":579,"name":"Hank J Wimbleton","steam_id":76561198408623293,"connected_time":678000000000,"state":"active","ping":68},{"user_id":549,"name":"overman","steam_id":76561198038348301,"connected_time":3590000000000,"state":"active","ping":73},{"user_id":571,"name":"remi, she wrote.","steam_id":76561198044045655,"connected_time":1788000000000,"state":"active","ping":85}]},{"server_id":22,"name":"Uncletopia | London | 6 | All Maps","name_short":"lon-6","host":"lon-1.uk.uncletopia.com","port":27065,"enabled":true,"region":"eu","cc":"gb","latitude":51.509865,"longitude":-0.118092,"reserved":0,"last_update":"0001-01-01T00:00:00Z","name_a2s":"Uncletopia | London | 6 | All Maps","protocol":17,"map":"ctf_doublecross","folder":"tf","game":"Team Fortress","app_id":440,"player_count":0,"max_players":24,"Bots":0,"server_type":"Dedicated","server_os":"Linux","password":true,"vac":true,"version":"7961495","steam_id":85568392924742830,"keywords":["ctf","nocrits","nodmgspread","uncletopia"],"game_id":440,"stv_port":27066,"stv_name":"Uncletopia | London | 6 | All Maps | STV","players":null},{"server_id":40,"name":"Uncletopia | London | 7 | Stopwatch","name_short":"lon-7","host":"lon-1.uk.uncletopia.com","port":27075,"enabled":true,"region":"eu","cc":"gb","latitude":51.509865,"longitude":-0.118092,"reserved":0,"last_update":"0001-01-01T00:00:00Z","name_a2s":"Uncletopia | London | 7 | Stopwatch","protocol":17,"map":"workshop/koth_product_final.ugc454272353","folder":"tf","game":"Team Fortress","app_id":440,"player_count":0,"max_players":24,"Bots":0,"server_type":"Dedicated","server_os":"Linux","password":true,"vac":true,"version":"7961495","steam_id":85568392924964314,"keywords":["cp","nocrits","nodmgspread","uncletopia"],"game_id":440,"stv_port":27076,"stv_name":"Uncletopia | London | 7 | Stopwatch | STV","players":null},{"server_id":41,"name":"Uncletopia | London | 8 | Community","name_short":"lon-8","host":"lon-1.uk.uncletopia.com","port":27085,"enabled":true,"region":"eu","cc":"gb","latitude":51.509865,"longitude":-0.118092,"reserved":0,"last_update":"0001-01-01T00:00:00Z","name_a2s":"Uncletopia | London | 8 | Community","protocol":17,"map":"workshop/pl_cashworks_final1.ugc2904065412","folder":"tf","game":"Team Fortress","app_id":440,"player_count":0,"max_players":24,"Bots":0,"server_type":"Dedicated","server_os":"Linux","password":true,"vac":true,"version":"7961495","steam_id":85568392924964315,"keywords":["nocrits","nodmgspread","payload","uncletopia"],"game_id":440,"stv_port":27086,"stv_name":"Uncletopia | London | 8 | Community | STV","players":null},{"server_id":300,"name":"Uncletopia | Montr√©al | 1 | One Thousand Uncles","name_short":"mtl-1","host":"mtl-1.ca.uncletopia.com","port":27015,"enabled":true,"region":"us-east","cc":"ca","latitude":45.50889,"longitude":-73.56167,"reserved":0,"last_update":"0001-01-01T00:00:00Z","name_a2s":"","protocol":0,"map":"","folder":"","game":"","app_id":0,"player_count":3,"max_players":0,"Bots":0,"server_type":"","server_os":"","password":false,"vac":false,"version":"","steam_id":0,"keywords":null,"game_id":0,"stv_port":0,"stv_name":"","players":[{"user_id":167,"name":"Zanartan","steam_id":76561198050528902,"connected_time":9388000000000,"state":"active","ping":153},{"user_id":173,"name":"Rhutebeer","steam_id":76561198018302761,"connected_time":5269000000000,"state":"active","ping":98},{"user_id":201,"name":"Yep","steam_id":76561198041437251,"connected_time":1604000000000,"state":"active","ping":60}]},{"server_id":301,"name":"Uncletopia | Montr√©al | 2 | One Thousand Uncles","name_short":"mtl-2","host":"mtl-1.ca.uncletopia.com","port":27025,"enabled":true,"region":"us-east","cc":"ca","latitude":45.50889,"longitude":-73.56167,"reserved":0,"last_update":"0001-01-01T00:00:00Z","name_a2s":"","protocol":0,"map":"","folder":"","game":"","app_id":0,"player_count":0,"max_players":0,"Bots":0,"server_type":"","server_os":"","password":false,"vac":false,"version":"","steam_id":0,"keywords":null,"game_id":0,"stv_port":0,"stv_name":"","players":null},{"server_id":302,"name":"Uncletopia | Montr√©al | 3 | One Thousand Uncles","name_short":"mtl-3","host":"mtl-1.ca.uncletopia.com","port":27035,"enabled":true,"region":"us-east","cc":"ca","latitude":45.50889,"longitude":-73.56167,"reserved":0,"last_update":"0001-01-01T00:00:00Z","name_a2s":"","protocol":0,"map":"","folder":"","game":"","app_id":0,"player_count":2,"max_players":0,"Bots":0,"server_type":"","server_os":"","password":false,"vac":false,"version":"","steam_id":0,"keywords":null,"game_id":0,"stv_port":0,"stv_name":"","players":[{"user_id":184,"name":"cpg","steam_id":76561198853515541,"connected_time":3438000000000,"state":"active","ping":65},{"user_id":185,"name":"doamgeo468","steam_id":76561199485287045,"connected_time":3398000000000,"state":"active","ping":44}]},{"server_id":13,"name":"Uncletopia | New York City | 1 | All Maps","name_short":"nyc-1","host":"nyc-1.us.uncletopia.com","port":27015,"enabled":true,"region":"us-east","cc":"us","latitude":40.73061,"longitude":-73.93524,"reserved":0,"last_update":"0001-01-01T00:00:00Z","name_a2s":"Uncletopia | New York City | 1 | All Maps","protocol":17,"map":"cp_sunshine","folder":"tf","game":"Team Fortress","app_id":440,"player_count":24,"max_players":24,"Bots":0,"server_type":"Dedicated","server_os":"Linux","password":true,"vac":true,"version":"7961495","steam_id":85568392924469993,"keywords":["cp","nocrits","nodmgspread","uncletopia"],"game_id":440,"stv_port":27016,"stv_name":"Uncletopia | New York City | 1 | All Maps | STV","players":[{"user_id":590,"name":"Doctor Yum Yums","steam_id":76561198826717792,"connected_time":3138000000000,"state":"active","ping":65},{"user_id":618,"name":"2 Percent Milk","steam_id":76561198118529039,"connected_time":351000000000,"state":"active","ping":45},{"user_id":609,"name":"malarkeyman","steam_id":76561198844473584,"connected_time":1104000000000,"state":"active","ping":61},{"user_id":600,"name":"speck","steam_id":76561198147107736,"connected_time":1529000000000,"state":"active","ping":53},{"user_id":544,"name":"Dareu","steam_id":76561198081781710,"connected_time":6514000000000,"state":"active","ping":54},{"user_id":613,"name":"tommy","steam_id":76561198111753974,"connected_time":891000000000,"state":"active","ping":35},{"user_id":624,"name":"SharkGuillotine","steam_id":76561198109028172,"connected_time":24000000000,"state":"active","ping":78},{"user_id":621,"name":"Weather Report","steam_id":76561199109494283,"connected_time":213000000000,"state":"active","ping":50},{"user_id":614,"name":"you forgot the sauce","steam_id":76561198387016713,"connected_time":811000000000,"state":"active","ping":53},{"user_id":615,"name":"Wintery Solstices","steam_id":76561198251108612,"connected_time":741000000000,"state":"active","ping":65},{"user_id":545,"name":"Joy","steam_id":76561198073690173,"connected_time":6512000000000,"state":"active","ping":55},{"user_id":606,"name":"Artgrendadier","steam_id":76561198063305359,"connected_time":1386000000000,"state":"active","ping":60},{"user_id":617,"name":"n00dl3s","steam_id":76561197964492868,"connected_time":561000000000,"state":"active","ping":44},{"user_id":592,"name":"Riske","steam_id":76561198115840568,"connected_time":3082000000000,"state":"active","ping":70},{"user_id":593,"name":"ndvr","steam_id":76561199379200102,"connected_time":3076000000000,"state":"active","ping":49},{"user_id":619,"name":"raz","steam_id":76561198828888086,"connected_time":287000000000,"state":"active","ping":47},{"user_id":568,"name":"trackftv","steam_id":76561198036488706,"connected_time":4490000000000,"state":"active","ping":110},{"user_id":610,"name":"Bee_Pirate","steam_id":76561199000599111,"connected_time":1035000000000,"state":"active","ping":62},{"user_id":559,"name":"Fiendish Frog","steam_id":76561198029478821,"connected_time":5229000000000,"state":"active","ping":53},{"user_id":616,"name":"TLG, Certified Gamer Mom","steam_id":76561198076669951,"connected_time":635000000000,"state":"active","ping":58},{"user_id":605,"name":"CASR","steam_id":76561199122040210,"connected_time":1440000000000,"state":"active","ping":79},{"user_id":611,"name":"Breen","steam_id":76561198846478006,"connected_time":990000000000,"state":"active","ping":65},{"user_id":623,"name":"wepry","steam_id":76561198114091417,"connected_time":131000000000,"state":"active","ping":60},{"user_id":622,"name":"DeepDive","steam_id":76561198140542184,"connected_time":185000000000,"state":"active","ping":54}]},{"server_id":14,"name":"Uncletopia | New York City | 2 | All Maps","name_short":"nyc-2","host":"nyc-1.us.uncletopia.com","port":27025,"enabled":true,"region":"us-east","cc":"us","latitude":40.73061,"longitude":-73.93524,"reserved":0,"last_update":"0001-01-01T00:00:00Z","name_a2s":"Uncletopia | New York City | 2 | All Maps","protocol":17,"map":"cp_dustbowl","folder":"tf","game":"Team Fortress","app_id":440,"player_count":23,"max_players":24,"Bots":0,"server_type":"Dedicated","server_os":"Linux","password":true,"vac":true,"version":"7961495","steam_id":85568392924469994,"keywords":["cp","nocrits","nodmgspread","uncletopia"],"game_id":440,"stv_port":27026,"stv_name":"Uncletopia | New York City | 2 | All Maps | STV","players":[{"user_id":264,"name":"Jmciano24","steam_id":76561198050723212,"connected_time":1393000000000,"state":"active","ping":48},{"user_id":247,"name":"googa","steam_id":76561198133130452,"connected_time":2380000000000,"state":"active","ping":42},{"user_id":275,"name":"Domswish","steam_id":76561198331444240,"connected_time":302000000000,"state":"active","ping":51},{"user_id":225,"name":"HollyBlocky","steam_id":76561198030156100,"connected_time":3018000000000,"state":"active","ping":73},{"user_id":277,"name":"DanFango","steam_id":76561198078300753,"connected_time":157000000000,"state":"active","ping":86},{"user_id":244,"name":"SpaceSanctum","steam_id":76561198805242305,"connected_time":2549000000000,"state":"active","ping":44},{"user_id":279,"name":"Alexthegreat","steam_id":76561197996796222,"connected_time":137000000000,"state":"active","ping":45},{"user_id":280,"name":"oopsboom24","steam_id":76561199105248648,"connected_time":87000000000,"state":"active","ping":89},{"user_id":272,"name":"yitz","steam_id":76561198375575841,"connected_time":517000000000,"state":"active","ping":72},{"user_id":262,"name":"Vordt","steam_id":76561198040942866,"connected_time":1582000000000,"state":"active","ping":47},{"user_id":281,"name":"-Avh-","steam_id":76561198087593160,"connected_time":76000000000,"state":"active","ping":47},{"user_id":282,"name":"Windup Monkey in a Human Suit","steam_id":76561198119501444,"connected_time":56000000000,"state":"active","ping":84},{"user_id":261,"name":"Don't Fuckle with Shuckle","steam_id":76561199020102367,"connected_time":1619000000000,"state":"active","ping":138},{"user_id":285,"name":"Normalux","steam_id":76561198293891426,"connected_time":3000000000,"state":"spawning","ping":82},{"user_id":250,"name":"Jaidster","steam_id":76561198191602767,"connected_time":2059000000000,"state":"active","ping":105},{"user_id":252,"name":"The Guy","steam_id":76561198799183693,"connected_time":1774000000000,"state":"active","ping":93},{"user_id":284,"name":"The Honorable Sir Knish IV","steam_id":76561198427047948,"connected_time":43000000000,"state":"spawning","ping":61},{"user_id":271,"name":"Applesauce (she/her)","steam_id":76561198049642811,"connected_time":565000000000,"state":"active","ping":72},{"user_id":259,"name":"Ryoko","steam_id":76561198084725087,"connected_time":1644000000000,"state":"active","ping":55},{"user_id":234,"name":"raccocooon","steam_id":76561199138602425,"connected_time":2811000000000,"state":"active","ping":85},{"user_id":211,"name":"MeKa4life","steam_id":76561198843713927,"connected_time":4376000000000,"state":"active","ping":173},{"user_id":235,"name":"NightEmerald","steam_id":76561198878856805,"connected_time":2792000000000,"state":"active","ping":46},{"user_id":274,"name":"Bored Barred Owl","steam_id":76561198263895597,"connected_time":480000000000,"state":"active","ping":59}]},{"server_id":15,"name":"Uncletopia | New York City | 3 | Stopwatch","name_short":"nyc-3","host":"nyc-1.us.uncletopia.com","port":27035,"enabled":true,"region":"us-east","cc":"us","latitude":40.73061,"longitude":-73.93524,"reserved":0,"last_update":"0001-01-01T00:00:00Z","name_a2s":"Uncletopia | New York City | 3 | Stopwatch","protocol":17,"map":"workshop/koth_product_final.ugc454272353","folder":"tf","game":"Team Fortress","app_id":440,"player_count":0,"max_players":24,"Bots":0,"server_type":"Dedicated","server_os":"Linux","password":true,"vac":true,"version":"7961495","steam_id":85568392924742820,"keywords":["cp","nocrits","nodmgspread","uncletopia"],"game_id":440,"stv_port":27036,"stv_name":"Uncletopia | New York City | 3 | Stopwatch | STV","players":null},{"server_id":16,"name":"Uncletopia | New York City | 4 | Community","name_short":"nyc-4","host":"nyc-1.us.uncletopia.com","port":27045,"enabled":true,"region":"us-east","cc":"us","latitude":40.73061,"longitude":-73.93524,"reserved":0,"last_update":"0001-01-01T00:00:00Z","name_a2s":"Uncletopia | New York City | 4 | Community","protocol":17,"map":"workshop/cp_sulfur_rc2.ugc619869471","folder":"tf","game":"Team Fortress","app_id":440,"player_count":2,"max_players":24,"Bots":0,"server_type":"Dedicated","server_os":"Linux","password":true,"vac":true,"version":"7961495","steam_id":85568392924742821,"keywords":["cp","nocrits","nodmgspread","uncletopia"],"game_id":440,"stv_port":27046,"stv_name":"Uncletopia | New York City | 4 | Community | STV","players":[{"user_id":10,"name":"DaybreakerYa","steam_id":76561199013632613,"connected_time":1094000000000,"state":"active","ping":59},{"user_id":11,"name":"11thbowtiecat","steam_id":76561199258202579,"connected_time":1081000000000,"state":"active","ping":64}]},{"server_id":142,"name":"Uncletopia | S√£o Paulo | 1 | All Maps","name_short":"sao-1","host":"sao-1.br.uncletopia.com","port":27015,"enabled":true,"region":"sa","cc":"br","latitude":-23.533773,"longitude":-46.62529,"reserved":0,"last_update":"0001-01-01T00:00:00Z","name_a2s":"Uncletopia | S√£o Paulo | 1 | All Maps","protocol":17,"map":"cp_dustbowl","folder":"tf","game":"Team Fortress","app_id":440,"player_count":0,"max_players":24,"Bots":0,"server_type":"Dedicated","server_os":"Linux","password":true,"vac":true,"version":"7961495","steam_id":85568392924469996,"keywords":["cp","nocrits","nodmgspread","uncletopia"],"game_id":440,"stv_port":27016,"stv_name":"Uncletopia | S√£o Paulo | 1 | All Maps | STV","players":null},{"server_id":143,"name":"Uncletopia | S√£o Paulo | 2 | Community","name_short":"sao-2","host":"sao-2.br.uncletopia.com","port":27015,"enabled":true,"region":"sa","cc":"br","latitude":-23.533773,"longitude":-46.62529,"reserved":0,"last_update":"0001-01-01T00:00:00Z","name_a2s":"Uncletopia | S√£o Paulo | 2 | Community","protocol":17,"map":"workshop/pl_vigil_rc10.ugc1266210012","folder":"tf","game":"Team Fortress","app_id":440,"player_count":3,"max_players":24,"Bots":0,"server_type":"Dedicated","server_os":"Linux","password":true,"vac":true,"version":"7961495","steam_id":85568392924485349,"keywords":["nocrits","nodmgspread","payload","uncletopia"],"game_id":440,"stv_port":27016,"stv_name":"Uncletopia | S√£o Paulo | 2 | Community | STV","players":[{"user_id":8,"name":"Chainsaw 286","steam_id":76561199006539437,"connected_time":367000000000,"state":"active","ping":49},{"user_id":9,"name":"rutmega70","steam_id":76561199160817466,"connected_time":366000000000,"state":"active","ping":68},{"user_id":10,"name":"PedrituanimA(f2p)","steam_id":76561199100811420,"connected_time":273000000000,"state":"active","ping":60}]},{"server_id":7,"name":"Uncletopia | Seattle | 1 | All Maps","name_short":"sea-1","host":"sea-1.us.uncletopia.com","port":27015,"enabled":true,"region":"us-west","cc":"us","latitude":47.608013,"longitude":-122.33517,"reserved":0,"last_update":"0001-01-01T00:00:00Z","name_a2s":"Uncletopia | Seattle | 1 | All Maps","protocol":17,"map":"pl_snowycoast","folder":"tf","game":"Team Fortress","app_id":440,"player_count":24,"max_players":24,"Bots":0,"server_type":"Dedicated","server_os":"Linux","password":true,"vac":true,"version":"7961495","steam_id":85568392924469997,"keywords":["nocrits","nodmgspread","payload","uncletopia"],"game_id":440,"stv_port":27016,"stv_name":"Uncletopia | Seattle | 1 | All Maps | STV","players":[{"user_id":438,"name":"greens beans","steam_id":76561198153611491,"connected_time":3216000000000,"state":"active","ping":44},{"user_id":459,"name":"CashGordon","steam_id":76561197975594096,"connected_time":1966000000000,"state":"active","ping":42},{"user_id":426,"name":"rad killl raccoon","steam_id":76561198980975595,"connected_time":4168000000000,"state":"active","ping":51},{"user_id":453,"name":"Pleasant Failure","steam_id":76561198196669161,"connected_time":2715000000000,"state":"active","ping":64},{"user_id":481,"name":"Seriously Bruh","steam_id":76561198070408485,"connected_time":363000000000,"state":"active","ping":59},{"user_id":476,"name":"Kyotea","steam_id":76561198384846649,"connected_time":818000000000,"state":"active","ping":52},{"user_id":471,"name":"Captain Underbelly","steam_id":76561198811270935,"connected_time":983000000000,"state":"active","ping":50},{"user_id":435,"name":"EEEEErectin","steam_id":76561199127423378,"connected_time":3385000000000,"state":"active","ping":65},{"user_id":480,"name":"Noah1k","steam_id":76561199428633514,"connected_time":553000000000,"state":"active","ping":55},{"user_id":433,"name":"Keamy","steam_id":76561199471434875,"connected_time":3532000000000,"state":"active","ping":39},{"user_id":454,"name":"Dim","steam_id":76561198061411324,"connected_time":2712000000000,"state":"active","ping":137},{"user_id":482,"name":"McSpazatron","steam_id":76561198955942148,"connected_time":247000000000,"state":"active","ping":54},{"user_id":483,"name":"–ö–æ—Ä–∑–∞–ø","steam_id":76561198086030373,"connected_time":182000000000,"state":"active","ping":50},{"user_id":473,"name":"transbian disaster","steam_id":76561198407600762,"connected_time":888000000000,"state":"active","ping":46},{"user_id":456,"name":"vfa","steam_id":76561198055729118,"connected_time":2583000000000,"state":"active","ping":61},{"user_id":464,"name":"Villchip","steam_id":76561198198599982,"connected_time":1824000000000,"state":"active","ping":54},{"user_id":484,"name":"Just the crust","steam_id":76561198118872550,"connected_time":146000000000,"state":"active","ping":153},{"user_id":457,"name":"Streamline","steam_id":76561198031098638,"connected_time":2372000000000,"state":"active","ping":102},{"user_id":458,"name":"Karthos","steam_id":76561198040827487,"connected_time":2062000000000,"state":"active","ping":67},{"user_id":486,"name":"CRT Cutie","steam_id":76561198055970193,"connected_time":131000000000,"state":"active","ping":110},{"user_id":487,"name":"Glanderson booper","steam_id":76561198021223747,"connected_time":95000000000,"state":"active","ping":50},{"user_id":474,"name":"ZeeKThe3rd","steam_id":76561198190156546,"connected_time":887000000000,"state":"active","ping":69},{"user_id":475,"name":"Can of Oranges","steam_id":76561199121813529,"connected_time":883000000000,"state":"active","ping":37},{"user_id":478,"name":"Pneumo.","steam_id":76561197987911883,"connected_time":739000000000,"state":"active","ping":58}]},{"server_id":119,"name":"Uncletopia | Seattle | 2 | All Maps","name_short":"sea-2","host":"sea-1.us.uncletopia.com","port":27025,"enabled":true,"region":"us-west","cc":"us","latitude":47.608013,"longitude":-122.33517,"reserved":0,"last_update":"0001-01-01T00:00:00Z","name_a2s":"Uncletopia | Seattle | 2 | All Maps","protocol":17,"map":"pl_upward","folder":"tf","game":"Team Fortress","app_id":440,"player_count":24,"max_players":24,"Bots":0,"server_type":"Dedicated","server_os":"Linux","password":true,"vac":true,"version":"7961495","steam_id":85568392924469998,"keywords":["nocrits","nodmgspread","payload","uncletopia"],"game_id":440,"stv_port":27026,"stv_name":"Uncletopia | Seattle | 2 | All Maps | STV","players":[{"user_id":165,"name":"you just got dyked on","steam_id":76561198018977723,"connected_time":8267000000000,"state":"active","ping":47},{"user_id":297,"name":"williamantinora","steam_id":76561199499535363,"connected_time":678000000000,"state":"active","ping":33},{"user_id":238,"name":"Rude Dog","steam_id":76561197980385816,"connected_time":3825000000000,"state":"active","ping":40},{"user_id":271,"name":"MrActionJaxon","steam_id":76561198093549908,"connected_time":2541000000000,"state":"active","ping":98},{"user_id":288,"name":"meme_lad21","steam_id":76561199229567068,"connected_time":1548000000000,"state":"active","ping":105},{"user_id":263,"name":"Beef Wellington","steam_id":76561197995635241,"connected_time":2652000000000,"state":"active","ping":179},{"user_id":280,"name":"STARZ#1400","steam_id":76561198965593434,"connected_time":1822000000000,"state":"active","ping":119},{"user_id":277,"name":"squart guy","steam_id":76561199411560141,"connected_time":1984000000000,"state":"active","ping":48},{"user_id":253,"name":"fey","steam_id":76561198119191002,"connected_time":3271000000000,"state":"active","ping":97},{"user_id":290,"name":"GoldtoothFour","steam_id":76561198055529332,"connected_time":1295000000000,"state":"active","ping":101},{"user_id":298,"name":"Goose","steam_id":76561198036774894,"connected_time":552000000000,"state":"active","ping":57},{"user_id":256,"name":"Bread","steam_id":76561199201106625,"connected_time":2979000000000,"state":"active","ping":53},{"user_id":276,"name":"Joh Bags","steam_id":76561198097004438,"connected_time":2077000000000,"state":"active","ping":126},{"user_id":269,"name":"predinator850","steam_id":76561199392085652,"connected_time":2615000000000,"state":"active","ping":116},{"user_id":293,"name":"Furious George","steam_id":76561198405111646,"connected_time":1199000000000,"state":"active","ping":60},{"user_id":300,"name":"Retroliar","steam_id":76561199004899484,"connected_time":371000000000,"state":"active","ping":83},{"user_id":266,"name":"011sra","steam_id":76561199489542125,"connected_time":2626000000000,"state":"active","ping":46},{"user_id":296,"name":"glocked2","steam_id":76561198212617489,"connected_time":934000000000,"state":"active","ping":60},{"user_id":283,"name":"BOY KISSER","steam_id":76561198329087915,"connected_time":1718000000000,"state":"active","ping":74},{"user_id":299,"name":"Duracell52","steam_id":76561199253828715,"connected_time":532000000000,"state":"active","ping":79},{"user_id":295,"name":"American Dad Funny Moments #32","steam_id":76561198254874328,"connected_time":958000000000,"state":"active","ping":46},{"user_id":241,"name":"eeethan","steam_id":76561198128868891,"connected_time":3745000000000,"state":"active","ping":55},{"user_id":255,"name":"cupcakedealer69402","steam_id":76561199122061900,"connected_time":3191000000000,"state":"active","ping":121},{"user_id":292,"name":"wugmup","steam_id":76561199096287734,"connected_time":1265000000000,"state":"active","ping":79}]},{"server_id":406,"name":"Uncletopia | Seattle | 3 | Stopwatch","name_short":"sea-3","host":"sea-1.us.uncletopia.com","port":27035,"enabled":true,"region":"us-west","cc":"us","latitude":47.608013,"longitude":-122.33517,"reserved":0,"last_update":"0001-01-01T00:00:00Z","name_a2s":"Uncletopia | Seattle | 3 | Stopwatch","protocol":17,"map":"koth_highpass","folder":"tf","game":"Team Fortress","app_id":440,"player_count":0,"max_players":24,"Bots":0,"server_type":"Dedicated","server_os":"Linux","password":true,"vac":true,"version":"7961495","steam_id":85568392924515217,"keywords":["cp","nocrits","nodmgspread","uncletopia"],"game_id":440,"stv_port":27036,"stv_name":"Uncletopia | Seattle | 3 | Stopwatch | STV","players":null},{"server_id":17,"name":"Uncletopia | San Francisco | 1 | All Maps","name_short":"sfo-1","host":"sfo-1.us.uncletopia.com","port":27015,"enabled":true,"region":"us-west","cc":"us","latitude":37.77397,"longitude":-122.4313,"reserved":0,"last_update":"0001-01-01T00:00:00Z","name_a2s":"Uncletopia | San Francisco | 1 | All Maps","protocol":17,"map":"cp_snakewater_final1","folder":"tf","game":"Team Fortress","app_id":440,"player_count":0,"max_players":24,"Bots":0,"server_type":"Dedicated","server_os":"Linux","password":true,"vac":true,"version":"7961495","steam_id":85568392924469999,"keywords":["cp","nocrits","nodmgspread","uncletopia"],"game_id":440,"stv_port":27016,"stv_name":"Uncletopia | San Francisco | 1 | All Maps | STV","players":null},{"server_id":18,"name":"Uncletopia | San Francisco | 2 | All Maps","name_short":"sfo-2","host":"sfo-1.us.uncletopia.com","port":27025,"enabled":true,"region":"us-west","cc":"us","latitude":37.77397,"longitude":-122.4313,"reserved":0,"last_update":"0001-01-01T00:00:00Z","name_a2s":"Uncletopia | San Francisco | 2 | All Maps","protocol":17,"map":"pl_snowycoast","folder":"tf","game":"Team Fortress","app_id":440,"player_count":24,"max_players":24,"Bots":0,"server_type":"Dedicated","server_os":"Linux","password":true,"vac":true,"version":"7961495","steam_id":85568392924470000,"keywords":["nocrits","nodmgspread","payload","uncletopia"],"game_id":440,"stv_port":27026,"stv_name":"Uncletopia | San Francisco | 2 | All Maps | STV","players":[{"user_id":114,"name":"silverstarmann","steam_id":76561199486377235,"connected_time":756000000000,"state":"active","ping":90},{"user_id":93,"name":"jerry.gonzalez.2077","steam_id":76561198858445311,"connected_time":1160000000000,"state":"active","ping":107},{"user_id":58,"name":"Boogie03","steam_id":76561198995812187,"connected_time":4293000000000,"state":"active","ping":70},{"user_id":95,"name":"beans","steam_id":76561199082781884,"connected_time":994000000000,"state":"active","ping":82},{"user_id":80,"name":"genetically altered shovel user","steam_id":76561199046667189,"connected_time":2217000000000,"state":"active","ping":134},{"user_id":96,"name":"sqnguine","steam_id":76561199481839224,"connected_time":982000000000,"state":"active","ping":62},{"user_id":67,"name":"Holo Jumpscare","steam_id":76561198153908250,"connected_time":3379000000000,"state":"active","ping":60},{"user_id":117,"name":"Hoovy","steam_id":76561198409907417,"connected_time":727000000000,"state":"active","ping":72},{"user_id":124,"name":"Caspian","steam_id":76561199041466962,"connected_time":291000000000,"state":"active","ping":42},{"user_id":68,"name":"abolish the federal reserve","steam_id":76561198047796437,"connected_time":3368000000000,"state":"active","ping":82},{"user_id":119,"name":"Chap","steam_id":76561198294226443,"connected_time":559000000000,"state":"active","ping":60},{"user_id":118,"name":"SoCal Kaizer","steam_id":76561198334361081,"connected_time":586000000000,"state":"active","ping":81},{"user_id":20,"name":"rey","steam_id":76561198021883683,"connected_time":5465000000000,"state":"active","ping":66},{"user_id":120,"name":"lime creator","steam_id":76561198074047574,"connected_time":495000000000,"state":"active","ping":47},{"user_id":125,"name":"nella","steam_id":76561198079349621,"connected_time":251000000000,"state":"active","ping":54},{"user_id":121,"name":"Rafl","steam_id":76561198055222756,"connected_time":433000000000,"state":"active","ping":81},{"user_id":64,"name":"Kung fu Mungus","steam_id":76561198069281556,"connected_time":3422000000000,"state":"active","ping":75},{"user_id":62,"name":"HUMBY","steam_id":76561198065045867,"connected_time":4001000000000,"state":"active","ping":95},{"user_id":61,"name":"Waesel","steam_id":76561198069188177,"connected_time":4064000000000,"state":"active","ping":80},{"user_id":126,"name":"Violet","steam_id":76561198199541493,"connected_time":177000000000,"state":"active","ping":61},{"user_id":123,"name":"FREAKS","steam_id":76561198285819311,"connected_time":388000000000,"state":"active","ping":46},{"user_id":54,"name":"Rennsellaer","steam_id":76561198096207580,"connected_time":4528000000000,"state":"active","ping":61},{"user_id":127,"name":"5oc","steam_id":76561199196300397,"connected_time":170000000000,"state":"active","ping":71},{"user_id":128,"name":"RadioRave","steam_id":76561198240837534,"connected_time":80000000000,"state":"active","ping":59}]},{"server_id":19,"name":"Uncletopia | San Francisco | 3 | Stopwatch","name_short":"sfo-3","host":"sfo-1.us.uncletopia.com","port":27035,"enabled":true,"region":"us-west","cc":"us","latitude":37.77397,"longitude":-122.4313,"reserved":0,"last_update":"0001-01-01T00:00:00Z","name_a2s":"Uncletopia | San Francisco | 3 | Stopwatch","protocol":17,"map":"workshop/koth_bagel_rc6.ugc2514036946","folder":"tf","game":"Team Fortress","app_id":440,"player_count":0,"max_players":24,"Bots":0,"server_type":"Dedicated","server_os":"Linux","password":true,"vac":true,"version":"7961495","steam_id":85568392924742824,"keywords":["cp","nocrits","nodmgspread","uncletopia"],"game_id":440,"stv_port":27036,"stv_name":"Uncletopia | San Francisco | 3 | Stopwatch | STV","players":null},{"server_id":20,"name":"Uncletopia | San Francisco | 4 | Community","name_short":"sfo-4","host":"sfo-1.us.uncletopia.com","port":27045,"enabled":true,"region":"us-west","cc":"us","latitude":37.77397,"longitude":-122.4313,"reserved":0,"last_update":"0001-01-01T00:00:00Z","name_a2s":"Uncletopia | San Francisco | 4 | Community","protocol":17,"map":"pl_pier","folder":"tf","game":"Team Fortress","app_id":440,"player_count":0,"max_players":24,"Bots":0,"server_type":"Dedicated","server_os":"Linux","password":true,"vac":true,"version":"7961495","steam_id":85568392924742826,"keywords":["nocrits","nodmgspread","payload","uncletopia"],"game_id":440,"stv_port":27046,"stv_name":"Uncletopia | San Francisco | 4 | Community | STV","players":null},{"server_id":141,"name":"Uncletopia | Sydney | 1 | All Maps","name_short":"syd-1","host":"syd-1.au.uncletopia.com","port":27015,"enabled":true,"region":"au","cc":"au","latitude":-33.865143,"longitude":151.2099,"reserved":0,"last_update":"0001-01-01T00:00:00Z","name_a2s":"Uncletopia | Sydney | 1 | All Maps","protocol":17,"map":"pl_swiftwater_final1","folder":"tf","game":"Team Fortress","app_id":440,"player_count":15,"max_players":24,"Bots":0,"server_type":"Dedicated","server_os":"Linux","password":true,"vac":true,"version":"7961495","steam_id":85568392924470001,"keywords":["nocrits","nodmgspread","payload","uncletopia"],"game_id":440,"stv_port":27016,"stv_name":"Uncletopia | Sydney | 1 | All Maps | STV","players":[{"user_id":48,"name":"ziah #buffcrossbow","steam_id":76561198159375596,"connected_time":1167000000000,"state":"active","ping":55},{"user_id":61,"name":"King Stan II","steam_id":76561198890742309,"connected_time":290000000000,"state":"active","ping":69},{"user_id":32,"name":"Wrainbow","steam_id":76561199039385168,"connected_time":3031000000000,"state":"active","ping":71},{"user_id":49,"name":"yui","steam_id":76561198241303512,"connected_time":1091000000000,"state":"active","ping":59},{"user_id":36,"name":"Saint Patrick #FineMaccasDining","steam_id":76561198336999112,"connected_time":2164000000000,"state":"active","ping":48},{"user_id":46,"name":"JUICYMANGOS","steam_id":76561198040019775,"connected_time":1480000000000,"state":"active","ping":99},{"user_id":37,"name":"Azure","steam_id":76561198108179408,"connected_time":2114000000000,"state":"active","ping":85},{"user_id":54,"name":"Static","steam_id":76561199247213153,"connected_time":806000000000,"state":"active","ping":55},{"user_id":51,"name":"RICE_PUDDING","steam_id":76561199219421878,"connected_time":911000000000,"state":"active","ping":68},{"user_id":57,"name":"applepine","steam_id":76561198128399166,"connected_time":633000000000,"state":"active","ping":60},{"user_id":62,"name":"soupcan","steam_id":76561199376385352,"connected_time":258000000000,"state":"active","ping":60},{"user_id":63,"name":"Parabolic","steam_id":76561198095307975,"connected_time":233000000000,"state":"active","ping":70},{"user_id":64,"name":"CinnamonRoll","steam_id":76561199439044885,"connected_time":195000000000,"state":"active","ping":83},{"user_id":59,"name":"helton1 #NerfCrossbow","steam_id":76561198841855657,"connected_time":477000000000,"state":"active","ping":59},{"user_id":60,"name":"Medieval Cucumber Sorcerer","steam_id":76561198972095766,"connected_time":465000000000,"state":"active","ping":31}]},{"server_id":123,"name":"Uncletopia | Sydney | 2 | All Maps","name_short":"syd-2","host":"syd-1.au.uncletopia.com","port":27025,"enabled":true,"region":"au","cc":"au","latitude":-33.865143,"longitude":151.2099,"reserved":0,"last_update":"0001-01-01T00:00:00Z","name_a2s":"Uncletopia | Sydney | 2 | All Maps","protocol":17,"map":"koth_lakeside_final","folder":"tf","game":"Team Fortress","app_id":440,"player_count":0,"max_players":24,"Bots":0,"server_type":"Dedicated","server_os":"Linux","password":true,"vac":true,"version":"7961495","steam_id":85568392924470002,"keywords":["cp","nocrits","nodmgspread","uncletopia"],"game_id":440,"stv_port":27026,"stv_name":"Uncletopia | Sydney | 2 | All Maps | STV","players":null},{"server_id":395,"name":"Uncletopia | Sydney | 3 | All Maps","name_short":"syd-3","host":"syd-1.au.uncletopia.com","port":27035,"enabled":true,"region":"au","cc":"au","latitude":-33.865143,"longitude":151.2099,"reserved":0,"last_update":"0001-01-01T00:00:00Z","name_a2s":"Uncletopia | Sydney | 3 | All Maps","protocol":17,"map":"koth_lakeside_final","folder":"tf","game":"Team Fortress","app_id":440,"player_count":0,"max_players":24,"Bots":0,"server_type":"Dedicated","server_os":"Linux","password":true,"vac":true,"version":"7961495","steam_id":85568392925194467,"keywords":["cp","nocrits","nodmgspread","uncletopia"],"game_id":440,"stv_port":27036,"stv_name":"Uncletopia | Sydney | 3 | All Maps | STV","players":null},{"server_id":396,"name":"Uncletopia | Sydney | 4 | All Maps","name_short":"syd-4","host":"syd-1.au.uncletopia.com","port":27045,"enabled":true,"region":"au","cc":"au","latitude":-33.865143,"longitude":151.2099,"reserved":0,"last_update":"0001-01-01T00:00:00Z","name_a2s":"Uncletopia | Sydney | 4 | All Maps","protocol":17,"map":"cp_process_final","folder":"tf","game":"Team Fortress","app_id":440,"player_count":0,"max_players":24,"Bots":0,"server_type":"Dedicated","server_os":"Linux","password":true,"vac":true,"version":"7961495","steam_id":85568392925397958,"keywords":["cp","nocrits","nodmgspread","uncletopia"],"game_id":440,"stv_port":27046,"stv_name":"Uncletopia | Sydney | 4 | All Maps | STV","players":null},{"server_id":58,"name":"Uncletopia | Sydney | 5 | Stopwatch","name_short":"syd-5","host":"syd-1.au.uncletopia.com","port":27055,"enabled":true,"region":"au","cc":"au","latitude":-33.865143,"longitude":151.2099,"reserved":0,"last_update":"0001-01-01T00:00:00Z","name_a2s":"Uncletopia | Sydney | 5 | Stopwatch","protocol":17,"map":"pl_frontier_final","folder":"tf","game":"Team Fortress","app_id":440,"player_count":0,"max_players":24,"Bots":0,"server_type":"Dedicated","server_os":"Linux","password":true,"vac":true,"version":"7961495","steam_id":85568392925397959,"keywords":["nocrits","nodmgspread","payload","uncletopia"],"game_id":440,"stv_port":27056,"stv_name":"Uncletopia | Sydney | 5 | Stopwatch | STV","players":null},{"server_id":59,"name":"Uncletopia | Sydney | 6 | Community","name_short":"syd-6","host":"syd-1.au.uncletopia.com","port":27065,"enabled":true,"region":"au","cc":"au","latitude":-33.865143,"longitude":151.2099,"reserved":0,"last_update":"0001-01-01T00:00:00Z","name_a2s":"Uncletopia | Sydney | 6 | Community","protocol":17,"map":"cp_sunshine","folder":"tf","game":"Team Fortress","app_id":440,"player_count":0,"max_players":24,"Bots":0,"server_type":"Dedicated","server_os":"Linux","password":true,"vac":true,"version":"7961495","steam_id":85568392925397960,"keywords":["cp","nocrits","nodmgspread","uncletopia"],"game_id":440,"stv_port":27066,"stv_name":"Uncletopia | Sydney | 6 | Community | STV","players":null},{"server_id":49,"name":"Uncletopia | Warsaw | 1 | One Thousand Uncles","name_short":"waw-1","host":"waw-1.pl.uncletopia.com","port":27015,"enabled":true,"region":"eu","cc":"pl","latitude":52.2297,"longitude":21.017532,"reserved":0,"last_update":"0001-01-01T00:00:00Z","name_a2s":"Uncletopia | Warsaw | 1 | One Thousand Uncles","protocol":17,"map":"pl_upward","folder":"tf","game":"Team Fortress","app_id":440,"player_count":23,"max_players":32,"Bots":16,"server_type":"Dedicated","server_os":"Linux","password":true,"vac":true,"version":"7961495","steam_id":85568392925397850,"keywords":["alltalk","bots","danepve","increased_maxplayers","nocrits","norespawntime","payload","uncletopia"],"game_id":440,"stv_port":0,"stv_name":"","players":[{"user_id":463,"name":"Zillsy","steam_id":76561198166436893,"connected_time":4484000000000,"state":"active","ping":45},{"user_id":482,"name":"Marx_guard","steam_id":76561198987233274,"connected_time":4111000000000,"state":"active","ping":50},{"user_id":481,"name":"SvinoPitek","steam_id":76561199402865949,"connected_time":4196000000000,"state":"active","ping":52},{"user_id":488,"name":"meriones","steam_id":76561198034234373,"connected_time":1432000000000,"state":"active","ping":74},{"user_id":487,"name":"NordicWinter","steam_id":76561198171769927,"connected_time":2275000000000,"state":"active","ping":84},{"user_id":491,"name":"noquieronitengo","steam_id":76561198108020034,"connected_time":1048000000000,"state":"active","ping":105},{"user_id":492,"name":"jalones al pecho","steam_id":76561198112986842,"connected_time":1010000000000,"state":"active","ping":90}]},{"server_id":50,"name":"Uncletopia | Warsaw | 2 | One Thousand Uncles","name_short":"waw-2","host":"waw-1.pl.uncletopia.com","port":27025,"enabled":true,"region":"eu","cc":"pl","latitude":52.2297,"longitude":21.017532,"reserved":0,"last_update":"0001-01-01T00:00:00Z","name_a2s":"Uncletopia | Warsaw | 2 | One Thousand Uncles","protocol":17,"map":"cp_dustbowl","folder":"tf","game":"Team Fortress","app_id":440,"player_count":24,"max_players":32,"Bots":16,"server_type":"Dedicated","server_os":"Linux","password":true,"vac":true,"version":"7961495","steam_id":85568392925397851,"keywords":["alltalk","bots","cp","danepve","increased_maxplayers","nocrits","norespawntime","uncletopia"],"game_id":440,"stv_port":0,"stv_name":"","players":[{"user_id":813,"name":"A sniper of culture","steam_id":76561199142158665,"connected_time":451000000000,"state":"active","ping":324},{"user_id":777,"name":"riaan222","steam_id":76561198167235331,"connected_time":5463000000000,"state":"active","ping":220},{"user_id":794,"name":"rofflehouse","steam_id":76561198090470768,"connected_time":2590000000000,"state":"active","ping":135},{"user_id":774,"name":"John Marston","steam_id":76561198998780070,"connected_time":5888000000000,"state":"active","ping":65},{"user_id":749,"name":"JellieGamerYT","steam_id":76561199113839333,"connected_time":8185000000000,"state":"active","ping":75},{"user_id":791,"name":"Mr.Kriss","steam_id":76561199445458247,"connected_time":3455000000000,"state":"active","ping":74},{"user_id":812,"name":"Meeper (f2p)","steam_id":76561199057437071,"connected_time":588000000000,"state":"active","ping":169},{"user_id":779,"name":"ZharMeny","steam_id":76561199086841610,"connected_time":5358000000000,"state":"active","ping":94}]},{"server_id":51,"name":"Uncletopia | Warsaw | 3 | All Maps","name_short":"waw-3","host":"waw-1.pl.uncletopia.com","port":27035,"enabled":true,"region":"eu","cc":"pl","latitude":52.2297,"longitude":21.017532,"reserved":0,"last_update":"0001-01-01T00:00:00Z","name_a2s":"Uncletopia | Warsaw | 3 | All Maps","protocol":17,"map":"cp_process_final","folder":"tf","game":"Team Fortress","app_id":440,"player_count":0,"max_players":24,"Bots":0,"server_type":"Dedicated","server_os":"Linux","password":true,"vac":true,"version":"7961495","steam_id":85568392925397852,"keywords":["cp","nocrits","nodmgspread","uncletopia"],"game_id":440,"stv_port":27036,"stv_name":"Uncletopia | Warsaw | 3 | All Maps | STV","players":null},{"server_id":52,"name":"Uncletopia | Warsaw | 4 | All Maps","name_short":"waw-4","host":"waw-1.pl.uncletopia.com","port":27045,"enabled":true,"region":"eu","cc":"pl","latitude":52.2297,"longitude":21.017532,"reserved":0,"last_update":"0001-01-01T00:00:00Z","name_a2s":"Uncletopia | Warsaw | 4 | All Maps","protocol":17,"map":"pl_borneo","folder":"tf","game":"Team Fortress","app_id":440,"player_count":0,"max_players":24,"Bots":0,"server_type":"Dedicated","server_os":"Linux","password":true,"vac":true,"version":"7961495","steam_id":85568392925397853,"keywords":["nocrits","nodmgspread","payload","uncletopia"],"game_id":440,"stv_port":27046,"stv_name":"Uncletopia | Warsaw | 4 | All Maps | STV","players":null},{"server_id":53,"name":"Uncletopia | Warsaw | 5 | Stopwatch","name_short":"waw-5","host":"waw-1.pl.uncletopia.com","port":27055,"enabled":true,"region":"eu","cc":"pl","latitude":52.2297,"longitude":21.017532,"reserved":0,"last_update":"0001-01-01T00:00:00Z","name_a2s":"Uncletopia | Warsaw | 5 | Stopwatch","protocol":17,"map":"workshop/cp_reckoner_rc6.ugc674719999","folder":"tf","game":"Team Fortress","app_id":440,"player_count":0,"max_players":24,"Bots":0,"server_type":"Dedicated","server_os":"Linux","password":true,"vac":true,"version":"7961495","steam_id":85568392925397854,"keywords":["cp","nocrits","nodmgspread","uncletopia"],"game_id":440,"stv_port":27056,"stv_name":"Uncletopia | Warsaw | 5 | Stopwatch | STV","players":null},{"server_id":54,"name":"Uncletopia | Warsaw | 6 | Community","name_short":"waw-6","host":"waw-1.pl.uncletopia.com","port":27065,"enabled":true,"region":"eu","cc":"pl","latitude":52.2297,"longitude":21.017532,"reserved":0,"last_update":"0001-01-01T00:00:00Z","name_a2s":"Uncletopia | Warsaw | 6 | Community","protocol":17,"map":"workshop/koth_synthetic_rc6a.ugc1549817316","folder":"tf","game":"Team Fortress","app_id":440,"player_count":0,"max_players":24,"Bots":0,"server_type":"Dedicated","server_os":"Linux","password":true,"vac":true,"version":"7961495","steam_id":85568392925397856,"keywords":["cp","nocrits","nodmgspread","uncletopia"],"game_id":440,"stv_port":27066,"stv_name":"Uncletopia | Warsaw | 6 | Community | STV","players":null}]}