{"status":true,"message":"","result":[{"server_id":2,"name":"Uncletopia | Chicago | 1 | All Maps","name_short":"chi-1","host":"chi-1.us.uncletopia.com","port":27015,"enabled":true,"region":"us-central","cc":"us","latitude":41.881832,"longitude":-87.62318,"reserved":0,"last_update":"0001-01-01T00:00:00Z","name_a2s":"Uncletopia | Chicago | 1 | All Maps","protocol":17,"map":"koth_lakeside_final","folder":"tf","game":"Team Fortress","app_id":440,"player_count":1,"max_players":24,"Bots":0,"server_type":"Dedicated","server_os":"Linux","password":true,"vac":true,"version":"7932396","steam_id":85568392924469984,"keywords":["cp","nocrits","nodmgspread","uncletopia"],"game_id":440,"stv_port":27016,"stv_name":"Uncletopia | Chicago | 1 | All Maps | STV","players":[{"user_id":10,"name":"ËÉ∏Èíà","steam_id":76561198797398533,"connected_time":38000000000,"state":"active","ping":45}]},{"server_id":106,"name":"Uncletopia | Chicago | 2 | All Maps","name_short":"chi-2","host":"chi-1.us.uncletopia.com","port":27025,"enabled":true,"region":"us-central","cc":"us","latitude":41.881832,"longitude":-87.62318,"reserved":0,"last_update":"0001-01-01T00:00:00Z","name_a2s":"Uncletopia | Chicago | 2 | All Maps","protocol":17,"map":"cp_gorge","folder":"tf","game":"Team Fortress","app_id":440,"player_count":24,"max_players":24,"Bots":0,"server_type":"Dedicated","server_os":"Linux","password":true,"vac":true,"version":"7932396","steam_id":85568392924469985,"keywords":["cp","nocrits","nodmgspread","uncletopia"],"game_id":440,"stv_port":27026,"stv_name":"Uncletopia | Chicago | 2 | All Maps | STV","players":[{"user_id":251,"name":"StompOnYourFace!!!!","steam_id":76561198065581117,"connected_time":2388000000000,"state":"active","ping":63},{"user_id":271,"name":"XXXXXXXXXXXXXXXXXXXXXXXXXXXXXXX","steam_id":76561198041499030,"connected_time":304000000000,"state":"active","ping":55},{"user_id":257,"name":"c64guy","steam_id":76561198023022744,"connected_time":1595000000000,"state":"active","ping":59},{"user_id":273,"name":"‚òÜNebula-Belt‚òÜ","steam_id":76561198151250806,"connected_time":163000000000,"state":"active","ping":69},{"user_id":276,"name":"E P H E M E R A L","steam_id":76561198128614882,"connected_time":137000000000,"state":"active","ping":81},{"user_id":265,"name":"Zanartan","steam_id":76561198050528902,"connected_time":835000000000,"state":"active","ping":179},{"user_id":282,"name":"Bluble___","steam_id":76561198259665472,"connected_time":77000000000,"state":"active","ping":75},{"user_id":247,"name":"Shattered Glass","steam_id":76561198116835391,"connected_time":3025000000000,"state":"active","ping":87},{"user_id":267,"name":"blazzeh","steam_id":76561198053407069,"connected_time":808000000000,"state":"active","ping":120},{"user_id":278,"name":"William Wallace","steam_id":76561199343316814,"connected_time":135000000000,"state":"active","ping":70},{"user_id":194,"name":"Copus","steam_id":76561199011708421,"connected_time":7814000000000,"state":"active","ping":67},{"user_id":212,"name":"gamerlegend47","steam_id":76561198122776598,"connected_time":6001000000000,"state":"active","ping":69},{"user_id":279,"name":"Drilly22","steam_id":76561198068838338,"connected_time":128000000000,"state":"active","ping":88},{"user_id":255,"name":"x3 ‚ô°","steam_id":76561198132011077,"connected_time":1709000000000,"state":"active","ping":60},{"user_id":237,"name":"Sir Loincloth","steam_id":76561198033073991,"connected_time":3740000000000,"state":"active","ping":67},{"user_id":259,"name":"jarrettconsult","steam_id":76561198249998262,"connected_time":1578000000000,"state":"active","ping":78},{"user_id":280,"name":"ttv/lilirouxxx","steam_id":76561198000522179,"connected_time":108000000000,"state":"active","ping":64},{"user_id":266,"name":"flaccid","steam_id":76561198299241777,"connected_time":834000000000,"state":"active","ping":87},{"user_id":231,"name":"Chiki","steam_id":76561198063590320,"connected_time":4186000000000,"state":"active","ping":59},{"user_id":281,"name":"lynt","steam_id":76561198988333976,"connected_time":97000000000,"state":"active","ping":60},{"user_id":248,"name":"Bonk Co.","steam_id":76561198009355408,"connected_time":2992000000000,"state":"active","ping":101},{"user_id":249,"name":"LerN","steam_id":76561198083463877,"connected_time":2935000000000,"state":"active","ping":47},{"user_id":262,"name":"a table","steam_id":76561198158461279,"connected_time":1486000000000,"state":"active","ping":58},{"user_id":270,"name":"josh","steam_id":76561198077902438,"connected_time":430000000000,"state":"active","ping":75}]},{"server_id":402,"name":"Uncletopia | Chicago | 3 | All Maps","name_short":"chi-3","host":"chi-1.us.uncletopia.com","port":27035,"enabled":true,"region":"us-central","cc":"us","latitude":41.881832,"longitude":-87.62318,"reserved":0,"last_update":"0001-01-01T00:00:00Z","name_a2s":"Uncletopia | Chicago | 3 | All Maps","protocol":17,"map":"pl_badwater","folder":"tf","game":"Team Fortress","app_id":440,"player_count":0,"max_players":24,"Bots":0,"server_type":"Dedicated","server_os":"Linux","password":true,"vac":true,"version":"7932396","steam_id":85568392924515191,"keywords":["nocrits","nodmgspread","payload","uncletopia"],"game_id":440,"stv_port":27036,"stv_name":"Uncletopia | Chicago | 3 | All Maps | STV","players":null},{"server_id":403,"name":"Uncletopia | Chicago | 4 | All Maps","name_short":"chi-4","host":"chi-1.us.uncletopia.com","port":27045,"enabled":true,"region":"us-central","cc":"us","latitude":41.881832,"longitude":-87.62318,"reserved":0,"last_update":"0001-01-01T00:00:00Z","name_a2s":"Uncletopia | Chicago | 4 | All Maps","protocol":17,"map":"pl_snowycoast","folder":"tf","game":"Team Fortress","app_id":440,"player_count":0,"max_players":24,"Bots":0,"server_type":"Dedicated","server_os":"Linux","password":true,"vac":true,"version":"7932396","steam_id":85568392924515193,"keywords":["nocrits","nodmgspread","payload","uncletopia"],"game_id":440,"stv_port":27046,"stv_name":"Uncletopia | Chicago | 4 | All Maps | STV","players":null},{"server_id":36,"name":"Uncletopia | Chicago | 5 | All Maps","name_short":"chi-5","host":"chi-2.us.uncletopia.com","port":27015,"enabled":true,"region":"us-central","cc":"us","latitude":41.881832,"longitude":-87.62318,"reserved":0,"last_update":"0001-01-01T00:00:00Z","name_a2s":"Uncletopia | Chicago | 5 | All Maps","protocol":17,"map":"cp_dustbowl","folder":"tf","game":"Team Fortress","app_id":440,"player_count":24,"max_players":24,"Bots":0,"server_type":"Dedicated","server_os":"Linux","password":true,"vac":true,"version":"7932396","steam_id":85568392924866362,"keywords":["cp","nocrits","nodmgspread","uncletopia"],"game_id":440,"stv_port":27016,"stv_name":"Uncletopia | Chicago | 5 | All Maps | STV","players":[{"user_id":296,"name":"Limitless","steam_id":76561198057139998,"connected_time":1958000000000,"state":"active","ping":79},{"user_id":311,"name":"Tamaguen","steam_id":76561198041478553,"connected_time":1483000000000,"state":"active","ping":76},{"user_id":304,"name":"Mattacam","steam_id":76561198862289471,"connected_time":1817000000000,"state":"active","ping":86},{"user_id":297,"name":"Sunflower","steam_id":76561198081223793,"connected_time":1944000000000,"state":"active","ping":55},{"user_id":277,"name":"--_Cook_--","steam_id":76561198080855748,"connected_time":3742000000000,"state":"active","ping":49},{"user_id":318,"name":"Ziath","steam_id":76561198094009164,"connected_time":507000000000,"state":"active","ping":60},{"user_id":272,"name":"[TSG] Turner's Chocolate Milk","steam_id":76561198058963288,"connected_time":4159000000000,"state":"active","ping":66},{"user_id":295,"name":"tristessa","steam_id":76561198160335315,"connected_time":1960000000000,"state":"active","ping":45},{"user_id":298,"name":"Cinna","steam_id":76561198997579674,"connected_time":1904000000000,"state":"active","ping":55},{"user_id":315,"name":"MondoDong","steam_id":76561197991400109,"connected_time":892000000000,"state":"active","ping":67},{"user_id":300,"name":"S–°–ê–¢–¢–ïR","steam_id":76561198405168492,"connected_time":1880000000000,"state":"active","ping":76},{"user_id":321,"name":"beans","steam_id":76561198074275991,"connected_time":71000000000,"state":"active","ping":47},{"user_id":306,"name":"Mkwhackertracker","steam_id":76561198128343704,"connected_time":1653000000000,"state":"active","ping":63},{"user_id":317,"name":"Jousty","steam_id":76561199162677853,"connected_time":832000000000,"state":"active","ping":92},{"user_id":307,"name":"AnthonyZeNerdyPandaWolf","steam_id":76561198153449208,"connected_time":1640000000000,"state":"active","ping":74},{"user_id":291,"name":"C Papi","steam_id":76561198027779564,"connected_time":2602000000000,"state":"active","ping":56},{"user_id":284,"name":"Stargazer","steam_id":76561198075490415,"connected_time":3244000000000,"state":"active","ping":66},{"user_id":324,"name":"‚ò£ cat fock ‚ò£","steam_id":76561198264641620,"connected_time":16000000000,"state":"active","ping":57},{"user_id":313,"name":"Smoker Lung","steam_id":76561198077167395,"connected_time":1181000000000,"state":"active","ping":46},{"user_id":323,"name":"donut","steam_id":76561198076635466,"connected_time":42000000000,"state":"active","ping":65},{"user_id":268,"name":"Ashes!","steam_id":76561197998475441,"connected_time":4637000000000,"state":"active","ping":80},{"user_id":320,"name":"daemon","steam_id":76561198001541433,"connected_time":398000000000,"state":"active","ping":61},{"user_id":314,"name":"Alpha","steam_id":76561198133229149,"connected_time":1173000000000,"state":"active","ping":171},{"user_id":316,"name":"Rambly Dambly","steam_id":76561198844496567,"connected_time":863000000000,"state":"active","ping":56}]},{"server_id":37,"name":"Uncletopia | Chicago | 6 | All Maps","name_short":"chi-6","host":"chi-2.us.uncletopia.com","port":27025,"enabled":true,"region":"us-central","cc":"us","latitude":41.881832,"longitude":-87.62318,"reserved":0,"last_update":"0001-01-01T00:00:00Z","name_a2s":"Uncletopia | Chicago | 6 | All Maps","protocol":17,"map":"koth_viaduct","folder":"tf","game":"Team Fortress","app_id":440,"player_count":0,"max_players":24,"Bots":0,"server_type":"Dedicated","server_os":"Linux","password":true,"vac":true,"version":"7932396","steam_id":85568392924866363,"keywords":["cp","nocrits","nodmgspread","uncletopia"],"game_id":440,"stv_port":27026,"stv_name":"Uncletopia | Chicago | 6 | All Maps | STV","players":null},{"server_id":38,"name":"Uncletopia | Chicago | 7 | Stopwatch Beta","name_short":"chi-7","host":"chi-2.us.uncletopia.com","port":27035,"enabled":true,"region":"us-central","cc":"us","latitude":41.881832,"longitude":-87.62318,"reserved":0,"last_update":"0001-01-01T00:00:00Z","name_a2s":"Uncletopia | Chicago | 7 | Stopwatch Beta","protocol":17,"map":"pl_borneo","folder":"tf","game":"Team Fortress","app_id":440,"player_count":0,"max_players":24,"Bots":0,"server_type":"Dedicated","server_os":"Linux","password":true,"vac":true,"version":"7932396","steam_id":85568392924866364,"keywords":["nocrits","nodmgspread","payload","uncletopia"],"game_id":440,"stv_port":27036,"stv_name":"Uncletopia | Chicago | 7 | Stopwatch Beta | STV","players":null},{"server_id":39,"name":"Uncletopia | Chicago | 8 | Community","name_short":"chi-8","host":"chi-2.us.uncletopia.com","port":27045,"enabled":true,"region":"us-central","cc":"us","latitude":41.881832,"longitude":-87.62318,"reserved":0,"last_update":"0001-01-01T00:00:00Z","name_a2s":"Uncletopia | Chicago | 8 | Community","protocol":17,"map":"koth_viaduct","folder":"tf","game":"Team Fortress","app_id":440,"player_count":0,"max_players":24,"Bots":0,"server_type":"Dedicated","server_os":"Linux","password":true,"vac":true,"version":"7932396","steam_id":85568392924866365,"keywords":["cp","nocrits","nodmgspread","uncletopia"],"game_id":440,"stv_port":27046,"stv_name":"Uncletopia | Chicago | 8 | Community | STV","players":null},{"server_id":8,"name":"Uncletopia | Dallas | 1 | All Maps","name_short":"dal-1","host":"dal-1.us.uncletopia.com","port":27015,"enabled":true,"region":"us-central","cc":"us","latitude":32.779167,"longitude":-96.80889,"reserved":0,"last_update":"0001-01-01T00:00:00Z","name_a2s":"Uncletopia | Dallas | 1 | All Maps","protocol":17,"map":"pl_pier","folder":"tf","game":"Team Fortress","app_id":440,"player_count":25,"max_players":24,"Bots":0,"server_type":"Dedicated","server_os":"Linux","password":true,"vac":true,"version":"7932396","steam_id":85568392924469986,"keywords":["nocrits","nodmgspread","payload","uncletopia"],"game_id":440,"stv_port":27016,"stv_name":"Uncletopia | Dallas | 1 | All Maps | STV","players":[{"user_id":166,"name":"James","steam_id":76561198077251918,"connected_time":5000000000,"state":"spawning","ping":253},{"user_id":111,"name":"Urist McDwarf","steam_id":76561198164004939,"connected_time":2276000000000,"state":"active","ping":99},{"user_id":117,"name":"Soju","steam_id":76561198044130442,"connected_time":1371000000000,"state":"active","ping":56},{"user_id":126,"name":"Congcrab","steam_id":76561198078687685,"connected_time":904000000000,"state":"active","ping":99},{"user_id":69,"name":"ZeFizzyPop‚Ñ¢","steam_id":76561198258104981,"connected_time":5283000000000,"state":"active","ping":76},{"user_id":97,"name":"\"Bill\"","steam_id":76561199089554379,"connected_time":3478000000000,"state":"active","ping":83},{"user_id":125,"name":"Earl S","steam_id":76561198064273772,"connected_time":1035000000000,"state":"active","ping":78},{"user_id":123,"name":"Sanamsam1","steam_id":76561198051890899,"connected_time":1100000000000,"state":"active","ping":76},{"user_id":143,"name":"Pornelius Hubert","steam_id":76561198186128723,"connected_time":414000000000,"state":"active","ping":48},{"user_id":78,"name":"Shadoe","steam_id":76561198218577281,"connected_time":4942000000000,"state":"active","ping":79},{"user_id":149,"name":"john egbert [NGW]","steam_id":76561198366204757,"connected_time":300000000000,"state":"active","ping":60},{"user_id":140,"name":"comet sooicidy","steam_id":76561198025173479,"connected_time":426000000000,"state":"active","ping":92},{"user_id":112,"name":"sand","steam_id":76561198214390228,"connected_time":2274000000000,"state":"active","ping":81},{"user_id":27,"name":"endo","steam_id":76561197995204381,"connected_time":8107000000000,"state":"active","ping":76},{"user_id":48,"name":"little buddy","steam_id":76561198066619792,"connected_time":7422000000000,"state":"active","ping":69},{"user_id":67,"name":"TTV/ChadMorningWood","steam_id":76561198139832291,"connected_time":5623000000000,"state":"active","ping":62},{"user_id":61,"name":"Glaceon","steam_id":76561198177715869,"connected_time":5931000000000,"state":"active","ping":61},{"user_id":127,"name":"Nahvee","steam_id":76561198119759695,"connected_time":712000000000,"state":"active","ping":86},{"user_id":119,"name":"MajorPlatinum","steam_id":76561198204291936,"connected_time":1195000000000,"state":"active","ping":30},{"user_id":93,"name":"Jonah Gaming","steam_id":76561198040969743,"connected_time":3873000000000,"state":"active","ping":74},{"user_id":100,"name":"dweamy","steam_id":76561198119181880,"connected_time":3422000000000,"state":"active","ping":60},{"user_id":120,"name":"Scorcho","steam_id":76561198071413833,"connected_time":1194000000000,"state":"active","ping":127},{"user_id":134,"name":"Monty","steam_id":76561197993567253,"connected_time":519000000000,"state":"active","ping":99},{"user_id":133,"name":"Medic Boyfriend","steam_id":76561198104086771,"connected_time":533000000000,"state":"active","ping":79},{"user_id":136,"name":"AnonymouzR011","steam_id":76561198262685906,"connected_time":485000000000,"state":"active","ping":87}]},{"server_id":108,"name":"Uncletopia | Dallas | 2 | All Maps","name_short":"dal-2","host":"dal-1.us.uncletopia.com","port":27025,"enabled":true,"region":"us-central","cc":"us","latitude":32.779167,"longitude":-96.80889,"reserved":0,"last_update":"0001-01-01T00:00:00Z","name_a2s":"Uncletopia | Dallas | 2 | All Maps","protocol":17,"map":"koth_highpass","folder":"tf","game":"Team Fortress","app_id":440,"player_count":0,"max_players":24,"Bots":0,"server_type":"Dedicated","server_os":"Linux","password":true,"vac":true,"version":"7932396","steam_id":85568392924469988,"keywords":["cp","nocrits","nodmgspread","uncletopia"],"game_id":440,"stv_port":27026,"stv_name":"Uncletopia | Dallas | 2 | All Maps | STV","players":null},{"server_id":5,"name":"Uncletopia | Frankfurt | 1 | All Maps","name_short":"frk-1","host":"frk-1.de.uncletopia.com","port":27015,"enabled":true,"region":"eu","cc":"de","latitude":50.110924,"longitude":8.682127,"reserved":0,"last_update":"0001-01-01T00:00:00Z","name_a2s":"Uncletopia | Frankfurt | 1 | All Maps","protocol":17,"map":"koth_harvest_final","folder":"tf","game":"Team Fortress","app_id":440,"player_count":24,"max_players":24,"Bots":0,"server_type":"Dedicated","server_os":"Linux","password":true,"vac":true,"version":"7932396","steam_id":85568392924469989,"keywords":["cp","nocrits","nodmgspread","uncletopia"],"game_id":440,"stv_port":27016,"stv_name":"Uncletopia | Frankfurt | 1 | All Maps | STV","players":[{"user_id":292,"name":"HwK!","steam_id":76561198287835588,"connected_time":803000000000,"state":"active","ping":84},{"user_id":286,"name":"rachel aldana's massive milkers","steam_id":76561198025916703,"connected_time":1092000000000,"state":"active","ping":85},{"user_id":283,"name":"zoinks!","steam_id":76561198068645362,"connected_time":1111000000000,"state":"active","ping":53},{"user_id":228,"name":"Veir≈´ Viseris","steam_id":76561197989857176,"connected_time":3281000000000,"state":"active","ping":69},{"user_id":273,"name":"Dandroid7","steam_id":76561198947673092,"connected_time":1538000000000,"state":"active","ping":52},{"user_id":287,"name":"Enkloth!","steam_id":76561198115106008,"connected_time":1025000000000,"state":"active","ping":59},{"user_id":303,"name":"KnusprigeKloake","steam_id":76561198051422734,"connected_time":58000000000,"state":"active","ping":44},{"user_id":297,"name":"sock","steam_id":76561198211198731,"connected_time":474000000000,"state":"active","ping":49},{"user_id":267,"name":"Edling","steam_id":76561199111565357,"connected_time":2016000000000,"state":"active","ping":88},{"user_id":290,"name":"Bumblebee","steam_id":76561198033551105,"connected_time":905000000000,"state":"active","ping":60},{"user_id":293,"name":"‚òÖ ‚òÖ ‚òÖ ‚òÖ ‚òÖ twyn.BRK","steam_id":76561197964461184,"connected_time":787000000000,"state":"active","ping":70},{"user_id":265,"name":"Michael","steam_id":76561198003146906,"connected_time":2062000000000,"state":"active","ping":51},{"user_id":296,"name":"Homosapien","steam_id":76561197972035953,"connected_time":540000000000,"state":"active","ping":52},{"user_id":302,"name":"axl","steam_id":76561198991661832,"connected_time":152000000000,"state":"active","ping":63},{"user_id":291,"name":"Finn","steam_id":76561197960315127,"connected_time":866000000000,"state":"active","ping":53},{"user_id":274,"name":"Valkyrie","steam_id":76561198998403448,"connected_time":1521000000000,"state":"active","ping":94},{"user_id":174,"name":"Nyhde","steam_id":76561198012771416,"connected_time":6328000000000,"state":"active","ping":89},{"user_id":263,"name":"bad farter","steam_id":76561198261853441,"connected_time":2089000000000,"state":"active","ping":60},{"user_id":250,"name":"Leifrü¶å","steam_id":76561198076271106,"connected_time":2427000000000,"state":"active","ping":64},{"user_id":295,"name":"Oxitocin","steam_id":76561198119542899,"connected_time":562000000000,"state":"active","ping":79},{"user_id":262,"name":"john fortress","steam_id":76561198013237629,"connected_time":2144000000000,"state":"active","ping":104},{"user_id":259,"name":"player with 0 skill","steam_id":76561198002451113,"connected_time":2268000000000,"state":"active","ping":100},{"user_id":268,"name":"Doriian","steam_id":76561198071438810,"connected_time":2010000000000,"state":"active","ping":81},{"user_id":276,"name":"Chicken hunter","steam_id":76561198359966356,"connected_time":1506000000000,"state":"active","ping":114}]},{"server_id":110,"name":"Uncletopia | Frankfurt | 2 | All Maps","name_short":"frk-2","host":"frk-1.de.uncletopia.com","port":27025,"enabled":true,"region":"eu","cc":"de","latitude":50.110924,"longitude":8.682127,"reserved":0,"last_update":"0001-01-01T00:00:00Z","name_a2s":"Uncletopia | Frankfurt | 2 | All Maps","protocol":17,"map":"cp_sunshine","folder":"tf","game":"Team Fortress","app_id":440,"player_count":24,"max_players":24,"Bots":0,"server_type":"Dedicated","server_os":"Linux","password":true,"vac":true,"version":"7932396","steam_id":85568392924469990,"keywords":["cp","nocrits","nodmgspread","uncletopia"],"game_id":440,"stv_port":27026,"stv_name":"Uncletopia | Frankfurt | 2 | All Maps | STV","players":[{"user_id":172,"name":"howabe","steam_id":76561197996486818,"connected_time":2211000000000,"state":"active","ping":49},{"user_id":154,"name":"The Wolf Leader","steam_id":76561198038007462,"connected_time":2776000000000,"state":"active","ping":84},{"user_id":187,"name":"halow","steam_id":76561198061505163,"connected_time":1272000000000,"state":"active","ping":96},{"user_id":194,"name":"TheEventGuy","steam_id":76561197972797744,"connected_time":459000000000,"state":"active","ping":61},{"user_id":185,"name":"D√•vid","steam_id":76561198184135755,"connected_time":1403000000000,"state":"active","ping":60},{"user_id":197,"name":"iyed","steam_id":76561198982141827,"connected_time":269000000000,"state":"active","ping":148},{"user_id":184,"name":"JayKey","steam_id":76561198008847925,"connected_time":1532000000000,"state":"active","ping":53},{"user_id":160,"name":"V4ren","steam_id":76561198063138371,"connected_time":2733000000000,"state":"active","ping":67},{"user_id":171,"name":"concorde","steam_id":76561198111134021,"connected_time":2234000000000,"state":"active","ping":82},{"user_id":189,"name":"Dr. sex","steam_id":76561199174677820,"connected_time":728000000000,"state":"active","ping":118},{"user_id":174,"name":"DIErector of death","steam_id":76561199217741639,"connected_time":1909000000000,"state":"active","ping":104},{"user_id":191,"name":"outlaw","steam_id":76561198323805289,"connected_time":601000000000,"state":"active","ping":45},{"user_id":183,"name":"Lubi Animal","steam_id":76561199041620433,"connected_time":1687000000000,"state":"active","ping":50},{"user_id":190,"name":"Cathedra","steam_id":76561198430227030,"connected_time":725000000000,"state":"active","ping":48},{"user_id":177,"name":"Daan77","steam_id":76561198129940468,"connected_time":1887000000000,"state":"active","ping":75},{"user_id":196,"name":"Kaek","steam_id":76561197960283484,"connected_time":328000000000,"state":"active","ping":75},{"user_id":178,"name":"jerf(pls make me woman)","steam_id":76561199213901239,"connected_time":1867000000000,"state":"active","ping":60},{"user_id":182,"name":"Qwerty","steam_id":76561198023525894,"connected_time":1795000000000,"state":"active","ping":91},{"user_id":165,"name":"‚ôÇ Animan ‚ôÇ Studios ‚ôÇ","steam_id":76561198308302932,"connected_time":2658000000000,"state":"active","ping":95},{"user_id":120,"name":"aww yeah","steam_id":76561197992978878,"connected_time":4587000000000,"state":"active","ping":83},{"user_id":195,"name":"CAR DOOR","steam_id":76561198055283295,"connected_time":354000000000,"state":"active","ping":46},{"user_id":198,"name":"VampiuS","steam_id":76561197998827007,"connected_time":261000000000,"state":"active","ping":54},{"user_id":167,"name":"powej","steam_id":76561198056381418,"connected_time":2506000000000,"state":"active","ping":46},{"user_id":199,"name":"LiptonIceTea","steam_id":76561198042418582,"connected_time":260000000000,"state":"active","ping":84}]},{"server_id":308,"name":"Uncletopia | Frankfurt | 3 | All Maps","name_short":"frk-3","host":"frk-1.de.uncletopia.com","port":27035,"enabled":true,"region":"eu","cc":"de","latitude":50.110924,"longitude":8.682127,"reserved":0,"last_update":"0001-01-01T00:00:00Z","name_a2s":"Uncletopia | Frankfurt | 3 | All Maps","protocol":17,"map":"cp_sunshine","folder":"tf","game":"Team Fortress","app_id":440,"player_count":0,"max_players":24,"Bots":0,"server_type":"Dedicated","server_os":"Linux","password":true,"vac":true,"version":"7932396","steam_id":85568392924504274,"keywords":["cp","nocrits","nodmgspread","uncletopia"],"game_id":440,"stv_port":27036,"stv_name":"Uncletopia | Frankfurt | 3 | All Maps | STV","players":null},{"server_id":309,"name":"Uncletopia | Frankfurt | 4 | All Maps","name_short":"frk-4","host":"frk-1.de.uncletopia.com","port":27045,"enabled":true,"region":"eu","cc":"de","latitude":50.110924,"longitude":8.682127,"reserved":0,"last_update":"0001-01-01T00:00:00Z","name_a2s":"Uncletopia | Frankfurt | 4 | All Maps","protocol":17,"map":"cp_gorge","folder":"tf","game":"Team Fortress","app_id":440,"player_count":24,"max_players":24,"Bots":0,"server_type":"Dedicated","server_os":"Linux","password":true,"vac":true,"version":"7932396","steam_id":85568392924504275,"keywords":["cp","nocrits","nodmgspread","uncletopia"],"game_id":440,"stv_port":27046,"stv_name":"Uncletopia | Frankfurt | 4 | All Maps | STV","players":[{"user_id":427,"name":"Miloleopard","steam_id":76561199196616680,"connected_time":4974000000000,"state":"active","ping":69},{"user_id":482,"name":"Lowb","steam_id":76561198137424821,"connected_time":1168000000000,"state":"active","ping":58},{"user_id":483,"name":"t.tv/Montreetor","steam_id":76561198088729562,"connected_time":1036000000000,"state":"active","ping":54},{"user_id":417,"name":"darkwater","steam_id":76561197986978738,"connected_time":5711000000000,"state":"active","ping":55},{"user_id":444,"name":"MrKampfCookie","steam_id":76561198085490175,"connected_time":3985000000000,"state":"active","ping":44},{"user_id":450,"name":"lambardziambar","steam_id":76561198277281267,"connected_time":3504000000000,"state":"active","ping":87},{"user_id":466,"name":"Chillrend | #SaveTF2","steam_id":76561198452963141,"connected_time":2483000000000,"state":"active","ping":73},{"user_id":495,"name":"I have a kiss pink","steam_id":76561198193357946,"connected_time":516000000000,"state":"active","ping":108},{"user_id":463,"name":"papaja","steam_id":76561199216208960,"connected_time":2855000000000,"state":"active","ping":74},{"user_id":490,"name":"Javier dorsaless","steam_id":76561198179324075,"connected_time":591000000000,"state":"active","ping":67},{"user_id":491,"name":"Lonely_gamer","steam_id":76561199181918295,"connected_time":580000000000,"state":"active","ping":58},{"user_id":467,"name":"peso enjoyer","steam_id":76561198798177799,"connected_time":2479000000000,"state":"active","ping":78},{"user_id":462,"name":"Chromega","steam_id":76561199075307750,"connected_time":2915000000000,"state":"active","ping":60},{"user_id":489,"name":"We are in a world of magic","steam_id":76561198104745492,"connected_time":606000000000,"state":"active","ping":156},{"user_id":492,"name":"General Petrov","steam_id":76561198027204104,"connected_time":562000000000,"state":"active","ping":80},{"user_id":476,"name":"Nelkobud","steam_id":76561198115606282,"connected_time":2018000000000,"state":"active","ping":65},{"user_id":474,"name":"ARYZON","steam_id":76561198070705087,"connected_time":2080000000000,"state":"active","ping":45},{"user_id":493,"name":"ksg","steam_id":76561198042894236,"connected_time":562000000000,"state":"active","ping":69},{"user_id":484,"name":"Alice","steam_id":76561198039030709,"connected_time":982000000000,"state":"active","ping":45},{"user_id":479,"name":"dakotztda","steam_id":76561198044189114,"connected_time":1455000000000,"state":"active","ping":56},{"user_id":497,"name":"Jack_26","steam_id":76561198034566531,"connected_time":498000000000,"state":"active","ping":96},{"user_id":383,"name":"Nornia","steam_id":76561198040509712,"connected_time":9101000000000,"state":"active","ping":61},{"user_id":494,"name":"TAFI03","steam_id":76561198213082089,"connected_time":557000000000,"state":"active","ping":57},{"user_id":498,"name":"I.C. Wiener","steam_id":76561197999912254,"connected_time":292000000000,"state":"active","ping":92}]},{"server_id":310,"name":"Uncletopia | Frankfurt | 5 | All Maps","name_short":"frk-5","host":"frk-1.de.uncletopia.com","port":27055,"enabled":true,"region":"eu","cc":"de","latitude":50.110924,"longitude":8.682127,"reserved":0,"last_update":"0001-01-01T00:00:00Z","name_a2s":"Uncletopia | Frankfurt | 5 | All Maps","protocol":17,"map":"pl_pier","folder":"tf","game":"Team Fortress","app_id":440,"player_count":20,"max_players":24,"Bots":0,"server_type":"Dedicated","server_os":"Linux","password":true,"vac":true,"version":"7932396","steam_id":85568392924504277,"keywords":["nocrits","nodmgspread","payload","uncletopia"],"game_id":440,"stv_port":27056,"stv_name":"Uncletopia | Frankfurt | 5 | All Maps | STV","players":[{"user_id":196,"name":"After8","steam_id":76561198090750865,"connected_time":3815000000000,"state":"active","ping":60},{"user_id":221,"name":":)","steam_id":76561198039964082,"connected_time":2113000000000,"state":"active","ping":64},{"user_id":257,"name":"Terminally Offline","steam_id":76561198146194820,"connected_time":239000000000,"state":"active","ping":52},{"user_id":261,"name":"pizzaboob","steam_id":76561198097507847,"connected_time":13000000000,"state":"active","ping":113},{"user_id":252,"name":"Udinese Dion","steam_id":76561198067931573,"connected_time":519000000000,"state":"active","ping":49},{"user_id":236,"name":"Romultra","steam_id":76561198354105082,"connected_time":1760000000000,"state":"active","ping":45},{"user_id":157,"name":"mixxxa_french","steam_id":76561198085098243,"connected_time":7436000000000,"state":"active","ping":113},{"user_id":247,"name":"FoOzTV","steam_id":76561197998636728,"connected_time":1020000000000,"state":"active","ping":73},{"user_id":219,"name":"just_adhenz1284 #SaveTF2","steam_id":76561198293654671,"connected_time":2184000000000,"state":"active","ping":177},{"user_id":245,"name":"Chen","steam_id":76561198440363619,"connected_time":1093000000000,"state":"active","ping":49},{"user_id":258,"name":"METhOphetamine","steam_id":76561198068216224,"connected_time":223000000000,"state":"active","ping":51},{"user_id":233,"name":"Intruder","steam_id":76561198156128173,"connected_time":1889000000000,"state":"active","ping":75},{"user_id":253,"name":"Dag!","steam_id":76561198030147941,"connected_time":455000000000,"state":"active","ping":64},{"user_id":194,"name":"BenteBent","steam_id":76561198297920637,"connected_time":4106000000000,"state":"active","ping":36},{"user_id":223,"name":"f.fred04 #save_tf2","steam_id":76561198311701465,"connected_time":2022000000000,"state":"active","ping":101},{"user_id":239,"name":"BELADIT","steam_id":76561198011911501,"connected_time":1576000000000,"state":"active","ping":63},{"user_id":259,"name":"cuddles \u003c3","steam_id":76561198805181599,"connected_time":25000000000,"state":"active","ping":62},{"user_id":224,"name":"–ü—É–∫—Å–µ–ª—å","steam_id":76561198294425174,"connected_time":2011000000000,"state":"active","ping":75},{"user_id":255,"name":"Qdarks","steam_id":76561198013391340,"connected_time":279000000000,"state":"active","ping":133},{"user_id":249,"name":"0xDEADBEEF","steam_id":76561199075416111,"connected_time":948000000000,"state":"active","ping":84}]},{"server_id":311,"name":"Uncletopia | Frankfurt | 6 | All Maps","name_short":"frk-6","host":"frk-1.de.uncletopia.com","port":27065,"enabled":true,"region":"eu","cc":"de","latitude":50.110924,"longitude":8.682127,"reserved":0,"last_update":"0001-01-01T00:00:00Z","name_a2s":"Uncletopia | Frankfurt | 6 | All Maps","protocol":17,"map":"koth_viaduct","folder":"tf","game":"Team Fortress","app_id":440,"player_count":0,"max_players":24,"Bots":0,"server_type":"Dedicated","server_os":"Linux","password":true,"vac":true,"version":"7932396","steam_id":85568392924504278,"keywords":["cp","nocrits","nodmgspread","uncletopia"],"game_id":440,"stv_port":27066,"stv_name":"Uncletopia | Frankfurt | 6 | All Maps | STV","players":null},{"server_id":23,"name":"Uncletopia | Frankfurt | 7 | Stopwatch Beta","name_short":"frk-7","host":"frk-1.de.uncletopia.com","port":27075,"enabled":true,"region":"eu","cc":"de","latitude":50.110924,"longitude":8.682127,"reserved":0,"last_update":"0001-01-01T00:00:00Z","name_a2s":"Uncletopia | Frankfurt | 7 | Stopwatch Beta","protocol":17,"map":"pl_snowycoast","folder":"tf","game":"Team Fortress","app_id":440,"player_count":0,"max_players":24,"Bots":0,"server_type":"Dedicated","server_os":"Linux","password":true,"vac":true,"version":"7932396","steam_id":85568392924742827,"keywords":["nocrits","nodmgspread","payload","uncletopia"],"game_id":440,"stv_port":27076,"stv_name":"Uncletopia | Frankfurt | 7 | Stopwatch Beta | STV","players":null},{"server_id":24,"name":"Uncletopia | Frankfurt | 8 | Community","name_short":"frk-8","host":"frk-1.de.uncletopia.com","port":27085,"enabled":true,"region":"eu","cc":"de","latitude":50.110924,"longitude":8.682127,"reserved":0,"last_update":"0001-01-01T00:00:00Z","name_a2s":"Uncletopia | Frankfurt | 8 | Community","protocol":17,"map":"pl_barnblitz","folder":"tf","game":"Team Fortress","app_id":440,"player_count":24,"max_players":24,"Bots":0,"server_type":"Dedicated","server_os":"Linux","password":true,"vac":true,"version":"7932396","steam_id":85568392924742828,"keywords":["nocrits","nodmgspread","payload","uncletopia"],"game_id":440,"stv_port":27086,"stv_name":"Uncletopia | Frankfurt | 8 | Community | STV","players":[{"user_id":5,"name":"kh","steam_id":76561198161142802,"connected_time":2182000000000,"state":"active","ping":74},{"user_id":6,"name":"Manneeeeeeeeeeeh","steam_id":76561198184298342,"connected_time":2176000000000,"state":"active","ping":91},{"user_id":7,"name":"salusaurus","steam_id":76561198347464379,"connected_time":2175000000000,"state":"active","ping":103},{"user_id":14,"name":"copium addict | blw.tf","steam_id":76561199401665282,"connected_time":1203000000000,"state":"active","ping":100},{"user_id":11,"name":"Rodia","steam_id":76561197968293161,"connected_time":1335000000000,"state":"active","ping":60},{"user_id":42,"name":"FilipeLuk","steam_id":76561198150675438,"connected_time":3000000000,"state":"spawning","ping":65},{"user_id":17,"name":"joe_panzer","steam_id":76561198061717026,"connected_time":1117000000000,"state":"active","ping":60},{"user_id":15,"name":"Abhorrent","steam_id":76561198056338288,"connected_time":1178000000000,"state":"active","ping":60},{"user_id":38,"name":"„É†GeRmAn |√óUA√ó„É†","steam_id":76561199044754898,"connected_time":589000000000,"state":"active","ping":74},{"user_id":19,"name":"–î–µ–Ω–∏—Å –ë–∞–∑—É–∫–∞","steam_id":76561198835849082,"connected_time":989000000000,"state":"active","ping":89},{"user_id":39,"name":"(wm) Das Fleisch","steam_id":76561198001250715,"connected_time":433000000000,"state":"active","ping":52},{"user_id":22,"name":"Purpurea","steam_id":76561198075376419,"connected_time":880000000000,"state":"active","ping":67},{"user_id":40,"name":"miiq130","steam_id":76561198188010666,"connected_time":422000000000,"state":"active","ping":79},{"user_id":26,"name":"Fenty","steam_id":76561198044991858,"connected_time":817000000000,"state":"active","ping":71},{"user_id":27,"name":"ScaryTree","steam_id":76561199384362833,"connected_time":817000000000,"state":"active","ping":75},{"user_id":28,"name":"Zenssei","steam_id":76561198209895623,"connected_time":811000000000,"state":"active","ping":104},{"user_id":29,"name":"Sentry Main","steam_id":76561198400674468,"connected_time":788000000000,"state":"active","ping":120},{"user_id":30,"name":"Tea","steam_id":76561198799243030,"connected_time":779000000000,"state":"active","ping":79},{"user_id":31,"name":"MrBanana","steam_id":76561198116021623,"connected_time":740000000000,"state":"active","ping":46},{"user_id":32,"name":"Ironnicall","steam_id":76561199060151538,"connected_time":711000000000,"state":"active","ping":136},{"user_id":33,"name":"ÔΩÑÔΩÖÔΩìÔΩãÔΩíÔΩÅÔΩô","steam_id":76561198805536170,"connected_time":707000000000,"state":"active","ping":76},{"user_id":34,"name":"Jeerven","steam_id":76561198259189841,"connected_time":706000000000,"state":"active","ping":60},{"user_id":35,"name":"Dark Wizart","steam_id":76561198377689439,"connected_time":705000000000,"state":"active","ping":65},{"user_id":41,"name":"swueuws","steam_id":76561198020716743,"connected_time":405000000000,"state":"active","ping":48}]},{"server_id":202,"name":"Uncletopia | Hong Kong | 1 | All Maps","name_short":"hgk-1","host":"hgk-1.hk.uncletopia.com","port":27015,"enabled":true,"region":"asia","cc":"hk","latitude":22.302711,"longitude":114.177216,"reserved":0,"last_update":"0001-01-01T00:00:00Z","name_a2s":"Uncletopia | Hong Kong | 1 | All Maps","protocol":17,"map":"cp_mountainlab","folder":"tf","game":"Team Fortress","app_id":440,"player_count":0,"max_players":24,"Bots":0,"server_type":"Dedicated","server_os":"Linux","password":true,"vac":true,"version":"7932396","steam_id":85568392924494504,"keywords":["cp","nocrits","nodmgspread","uncletopia"],"game_id":440,"stv_port":27016,"stv_name":"Uncletopia | Hong Kong | 1 | All Maps | STV","players":null},{"server_id":1,"name":"Uncletopia | Los Angeles | 1 | All Maps","name_short":"lax-1","host":"lax-1.us.uncletopia.com","port":27015,"enabled":true,"region":"us-west","cc":"us","latitude":33.94279,"longitude":-118.41004,"reserved":0,"last_update":"0001-01-01T00:00:00Z","name_a2s":"Uncletopia | Los Angeles | 1 | All Maps","protocol":17,"map":"pl_snowycoast","folder":"tf","game":"Team Fortress","app_id":440,"player_count":1,"max_players":24,"Bots":0,"server_type":"Dedicated","server_os":"Linux","password":true,"vac":true,"version":"7932396","steam_id":85568392924469991,"keywords":["nocrits","nodmgspread","payload","uncletopia"],"game_id":440,"stv_port":27016,"stv_name":"Uncletopia | Los Angeles | 1 | All Maps | STV","players":[{"user_id":13,"name":"sleck","steam_id":76561197993068585,"connected_time":268000000000,"state":"active","ping":34}]},{"server_id":112,"name":"Uncletopia | Los Angeles | 2 | All Maps","name_short":"lax-2","host":"lax-1.us.uncletopia.com","port":27025,"enabled":true,"region":"us-west","cc":"us","latitude":33.94279,"longitude":-118.41004,"reserved":0,"last_update":"0001-01-01T00:00:00Z","name_a2s":"Uncletopia | Los Angeles | 2 | All Maps","protocol":17,"map":"pl_upward","folder":"tf","game":"Team Fortress","app_id":440,"player_count":24,"max_players":24,"Bots":0,"server_type":"Dedicated","server_os":"Linux","password":true,"vac":true,"version":"7932396","steam_id":85568392924469992,"keywords":["nocrits","nodmgspread","payload","uncletopia"],"game_id":440,"stv_port":27026,"stv_name":"Uncletopia | Los Angeles | 2 | All Maps | STV","players":[{"user_id":68,"name":"PrinterLights","steam_id":76561198145909722,"connected_time":883000000000,"state":"active","ping":45},{"user_id":27,"name":"SNIPER MONKEY","steam_id":76561198403205128,"connected_time":2933000000000,"state":"active","ping":87},{"user_id":70,"name":"Joe Biden (Deceased)","steam_id":76561198170427507,"connected_time":576000000000,"state":"active","ping":49},{"user_id":9,"name":"..flop","steam_id":76561197989058876,"connected_time":3389000000000,"state":"active","ping":70},{"user_id":71,"name":"Tyler\u0026Fingers","steam_id":76561198085154485,"connected_time":174000000000,"state":"active","ping":119},{"user_id":11,"name":"SgtMaj Soggy Titties","steam_id":76561198067732216,"connected_time":3336000000000,"state":"active","ping":95},{"user_id":69,"name":"Laxoloni","steam_id":76561199197045700,"connected_time":750000000000,"state":"active","ping":84},{"user_id":13,"name":"‚í∑‚ì™‚ì™‚ì£‚ì®‚ìí‚ìê‚ìö‚ìî‚ì¢","steam_id":76561198088776421,"connected_time":3257000000000,"state":"active","ping":121},{"user_id":49,"name":"Mr. Pockets","steam_id":76561198053657771,"connected_time":2058000000000,"state":"active","ping":58},{"user_id":35,"name":"Dr. Hashbrown","steam_id":76561198410780370,"connected_time":2759000000000,"state":"active","ping":67},{"user_id":59,"name":"DoubleX2000","steam_id":76561198164134387,"connected_time":1462000000000,"state":"active","ping":84},{"user_id":39,"name":"shomo","steam_id":76561198158787127,"connected_time":2606000000000,"state":"active","ping":60},{"user_id":55,"name":"Queen Chrysalis","steam_id":76561198061225231,"connected_time":1675000000000,"state":"active","ping":69},{"user_id":21,"name":"Oktayey","steam_id":76561198143213426,"connected_time":3098000000000,"state":"active","ping":55},{"user_id":54,"name":"EOAW","steam_id":76561198310451639,"connected_time":1719000000000,"state":"active","ping":72},{"user_id":50,"name":"iku","steam_id":76561198847749278,"connected_time":1925000000000,"state":"active","ping":70},{"user_id":25,"name":"Lux","steam_id":76561198043146695,"connected_time":2978000000000,"state":"active","ping":115},{"user_id":52,"name":"mineblast99","steam_id":76561199065648954,"connected_time":1888000000000,"state":"active","ping":105},{"user_id":53,"name":"non_ai","steam_id":76561198270951938,"connected_time":1816000000000,"state":"active","ping":102},{"user_id":60,"name":"Shark","steam_id":76561198219031981,"connected_time":1403000000000,"state":"active","ping":124},{"user_id":46,"name":"dankalopacus","steam_id":76561198099254868,"connected_time":2294000000000,"state":"active","ping":60},{"user_id":62,"name":"Insane Cringe","steam_id":76561199163905036,"connected_time":1397000000000,"state":"active","ping":105},{"user_id":43,"name":"Mort Wrapped in a Chimichanga","steam_id":76561199062764883,"connected_time":2480000000000,"state":"active","ping":58},{"user_id":67,"name":"Skinny pete","steam_id":76561198801608576,"connected_time":999000000000,"state":"active","ping":83}]},{"server_id":324,"name":"Uncletopia | Los Angeles | 3 | All Maps","name_short":"lax-3","host":"lax-1.us.uncletopia.com","port":27035,"enabled":true,"region":"us-west","cc":"us","latitude":33.94279,"longitude":-118.41004,"reserved":0,"last_update":"0001-01-01T00:00:00Z","name_a2s":"Uncletopia | Los Angeles | 3 | All Maps","protocol":17,"map":"pl_borneo","folder":"tf","game":"Team Fortress","app_id":440,"player_count":0,"max_players":24,"Bots":0,"server_type":"Dedicated","server_os":"Linux","password":true,"vac":true,"version":"7932396","steam_id":85568392924510198,"keywords":["nocrits","nodmgspread","payload","uncletopia"],"game_id":440,"stv_port":27036,"stv_name":"Uncletopia | Los Angeles | 3 | All Maps | STV","players":null},{"server_id":25,"name":"Uncletopia | Los Angeles | 4 | Stopwatch Beta","name_short":"lax-4","host":"lax-1.us.uncletopia.com","port":27045,"enabled":true,"region":"us-west","cc":"us","latitude":33.94279,"longitude":-118.41004,"reserved":0,"last_update":"0001-01-01T00:00:00Z","name_a2s":"Uncletopia | Los Angeles | 4 | Stopwatch Beta","protocol":17,"map":"workshop/koth_clearcut_b15.ugc2107050255","folder":"tf","game":"Team Fortress","app_id":440,"player_count":0,"max_players":24,"Bots":0,"server_type":"Dedicated","server_os":"Linux","password":true,"vac":true,"version":"7932396","steam_id":85568392924510199,"keywords":["cp","nocrits","nodmgspread","uncletopia"],"game_id":440,"stv_port":27046,"stv_name":"Uncletopia | Los Angeles | 4 | Stopwatch Beta | STV","players":null},{"server_id":11,"name":"Uncletopia | London | 1 | All Maps","name_short":"lon-1","host":"lon-1.uk.uncletopia.com","port":27015,"enabled":true,"region":"eu","cc":"gb","latitude":51.509865,"longitude":-0.118092,"reserved":0,"last_update":"0001-01-01T00:00:00Z","name_a2s":"Uncletopia | London | 1 | All Maps","protocol":17,"map":"koth_viaduct","folder":"tf","game":"Team Fortress","app_id":440,"player_count":24,"max_players":24,"Bots":0,"server_type":"Dedicated","server_os":"Linux","password":true,"vac":true,"version":"7932396","steam_id":85568392924367362,"keywords":["cp","nocrits","nodmgspread","uncletopia"],"game_id":440,"stv_port":27016,"stv_name":"Uncletopia | London | 1 | All Maps | STV","players":[{"user_id":465,"name":"IceDreamer","steam_id":76561197997569989,"connected_time":3029000000000,"state":"active","ping":44},{"user_id":496,"name":"ice cream","steam_id":76561198087718730,"connected_time":376000000000,"state":"active","ping":53},{"user_id":492,"name":"nappo","steam_id":76561198060105180,"connected_time":403000000000,"state":"active","ping":64},{"user_id":497,"name":"scaramanga","steam_id":76561199444971686,"connected_time":360000000000,"state":"active","ping":45},{"user_id":493,"name":"Umbraprism","steam_id":76561197984504910,"connected_time":391000000000,"state":"active","ping":55},{"user_id":482,"name":"Mariny","steam_id":76561198169995378,"connected_time":1469000000000,"state":"active","ping":59},{"user_id":483,"name":"aminoxsos","steam_id":76561198839741609,"connected_time":1411000000000,"state":"active","ping":71},{"user_id":469,"name":"z29ba2t0t1l301e17 (Song)","steam_id":76561198032359132,"connected_time":2557000000000,"state":"active","ping":45},{"user_id":480,"name":"2fort's silliest soldier","steam_id":76561198128613675,"connected_time":1516000000000,"state":"active","ping":80},{"user_id":467,"name":"Seratonin deficient gamer","steam_id":76561198051685232,"connected_time":2614000000000,"state":"active","ping":51},{"user_id":415,"name":"Dog ?","steam_id":76561198347020945,"connected_time":7273000000000,"state":"active","ping":91},{"user_id":449,"name":"griejes","steam_id":76561198053184757,"connected_time":4250000000000,"state":"active","ping":34},{"user_id":502,"name":"el piano","steam_id":76561198030155915,"connected_time":57000000000,"state":"active","ping":67},{"user_id":491,"name":"Major","steam_id":76561198086483282,"connected_time":416000000000,"state":"active","ping":47},{"user_id":412,"name":"Lubrsi","steam_id":76561198040208195,"connected_time":7684000000000,"state":"active","ping":46},{"user_id":450,"name":"Hukka","steam_id":76561198035505355,"connected_time":4055000000000,"state":"active","ping":100},{"user_id":500,"name":"bald elite","steam_id":76561198087377610,"connected_time":104000000000,"state":"active","ping":82},{"user_id":498,"name":"Apulaite (Gin)","steam_id":76561198093458326,"connected_time":350000000000,"state":"active","ping":64},{"user_id":501,"name":"Chad prime","steam_id":76561198173218318,"connected_time":100000000000,"state":"active","ping":45},{"user_id":474,"name":"Lucan","steam_id":76561198219195135,"connected_time":2011000000000,"state":"active","ping":55},{"user_id":439,"name":"KiT","steam_id":76561198043770371,"connected_time":5275000000000,"state":"active","ping":80},{"user_id":471,"name":"electro","steam_id":76561198024536979,"connected_time":2477000000000,"state":"active","ping":83},{"user_id":461,"name":"Harex3360 #Savetf2","steam_id":76561199122302529,"connected_time":3545000000000,"state":"active","ping":50},{"user_id":477,"name":"PASTAMAN!!!","steam_id":76561198995641765,"connected_time":1550000000000,"state":"active","ping":60}]},{"server_id":114,"name":"Uncletopia | London | 2 | All Maps","name_short":"lon-2","host":"lon-1.uk.uncletopia.com","port":27025,"enabled":true,"region":"eu","cc":"gb","latitude":51.509865,"longitude":-0.118092,"reserved":0,"last_update":"0001-01-01T00:00:00Z","name_a2s":"Uncletopia | London | 2 | All Maps","protocol":17,"map":"pl_borneo","folder":"tf","game":"Team Fortress","app_id":440,"player_count":23,"max_players":24,"Bots":0,"server_type":"Dedicated","server_os":"Linux","password":true,"vac":true,"version":"7932396","steam_id":85568392924470941,"keywords":["nocrits","nodmgspread","payload","uncletopia"],"game_id":440,"stv_port":27026,"stv_name":"Uncletopia | London | 2 | All Maps | STV","players":[{"user_id":302,"name":"clunk","steam_id":76561198836460767,"connected_time":6234000000000,"state":"active","ping":81},{"user_id":392,"name":"fence_","steam_id":76561198150386379,"connected_time":1149000000000,"state":"active","ping":48},{"user_id":402,"name":"Sixie","steam_id":76561198251675360,"connected_time":166000000000,"state":"active","ping":53},{"user_id":403,"name":"Therapissed","steam_id":76561198966634987,"connected_time":166000000000,"state":"active","ping":108},{"user_id":353,"name":"askulap","steam_id":76561197992018795,"connected_time":3609000000000,"state":"active","ping":87},{"user_id":354,"name":"Twitch:RyukGhostlxrd","steam_id":76561198042545324,"connected_time":3605000000000,"state":"active","ping":104},{"user_id":399,"name":"RLCrazyCat3","steam_id":76561197983757878,"connected_time":466000000000,"state":"active","ping":57},{"user_id":397,"name":"Hexagon","steam_id":76561198151205758,"connected_time":883000000000,"state":"active","ping":56},{"user_id":358,"name":"Penis Contortionist","steam_id":76561198073663784,"connected_time":3508000000000,"state":"active","ping":34},{"user_id":360,"name":"One-Face","steam_id":76561197999384826,"connected_time":3481000000000,"state":"active","ping":60},{"user_id":386,"name":"femboy sniper main","steam_id":76561198119210003,"connected_time":1916000000000,"state":"active","ping":98},{"user_id":404,"name":"kryhu","steam_id":76561198293327713,"connected_time":61000000000,"state":"active","ping":76},{"user_id":364,"name":"UltimateSlayer","steam_id":76561198384109309,"connected_time":3305000000000,"state":"active","ping":58},{"user_id":365,"name":"quesadilla","steam_id":76561198162873354,"connected_time":3259000000000,"state":"active","ping":109},{"user_id":388,"name":"Dyfed","steam_id":76561198055389492,"connected_time":1548000000000,"state":"active","ping":45},{"user_id":367,"name":"Nyst","steam_id":76561198400998400,"connected_time":3246000000000,"state":"active","ping":78},{"user_id":390,"name":"cazador","steam_id":76561198123096922,"connected_time":1451000000000,"state":"active","ping":100},{"user_id":379,"name":"Omyskull","steam_id":76561198131711758,"connected_time":2462000000000,"state":"active","ping":65},{"user_id":401,"name":"Guwop","steam_id":76561197970425737,"connected_time":426000000000,"state":"active","ping":142},{"user_id":391,"name":"I jazzed myself","steam_id":76561198203016603,"connected_time":1371000000000,"state":"active","ping":88},{"user_id":377,"name":"f√©nix","steam_id":76561198083199151,"connected_time":2817000000000,"state":"active","ping":57},{"user_id":394,"name":"TobMan","steam_id":76561199132167284,"connected_time":1125000000000,"state":"active","ping":55},{"user_id":296,"name":"sushii","steam_id":76561198297987372,"connected_time":6793000000000,"state":"active","ping":51}]},{"server_id":320,"name":"Uncletopia | London | 3 | All Maps","name_short":"lon-3","host":"lon-1.uk.uncletopia.com","port":27035,"enabled":true,"region":"eu","cc":"gb","latitude":51.509865,"longitude":-0.118092,"reserved":0,"last_update":"0001-01-01T00:00:00Z","name_a2s":"Uncletopia | London | 3 | All Maps","protocol":17,"map":"pl_thundermountain","folder":"tf","game":"Team Fortress","app_id":440,"player_count":22,"max_players":24,"Bots":0,"server_type":"Dedicated","server_os":"Linux","password":true,"vac":true,"version":"7932396","steam_id":85568392924510192,"keywords":["nocrits","nodmgspread","payload","uncletopia"],"game_id":440,"stv_port":27036,"stv_name":"Uncletopia | London | 3 | All Maps | STV","players":[{"user_id":91,"name":"Stuid","steam_id":76561199427506542,"connected_time":459000000000,"state":"active","ping":74},{"user_id":41,"name":"FlameTheGame","steam_id":76561198841108519,"connected_time":4201000000000,"state":"active","ping":95},{"user_id":73,"name":"Akkie.","steam_id":76561198017619091,"connected_time":2142000000000,"state":"active","ping":62},{"user_id":55,"name":"Soerlssoelss√∂en","steam_id":76561197993060585,"connected_time":3574000000000,"state":"active","ping":79},{"user_id":65,"name":"Hoff","steam_id":76561198138540938,"connected_time":2803000000000,"state":"active","ping":81},{"user_id":13,"name":"Mozzaza","steam_id":76561198156316111,"connected_time":5781000000000,"state":"active","ping":116},{"user_id":78,"name":"A stripper","steam_id":76561198034865891,"connected_time":1312000000000,"state":"active","ping":55},{"user_id":83,"name":"Wardruna96","steam_id":76561199057083828,"connected_time":1006000000000,"state":"active","ping":87},{"user_id":30,"name":"CEO of Racism","steam_id":76561198211814371,"connected_time":4578000000000,"state":"active","ping":86},{"user_id":93,"name":"Ritzy","steam_id":76561198381955342,"connected_time":397000000000,"state":"active","ping":47},{"user_id":90,"name":"Rocade","steam_id":76561198116634856,"connected_time":686000000000,"state":"active","ping":53},{"user_id":76,"name":"NeonNewt","steam_id":76561198066699212,"connected_time":1397000000000,"state":"active","ping":50},{"user_id":85,"name":"uNem0_","steam_id":76561198836442412,"connected_time":923000000000,"state":"active","ping":99},{"user_id":94,"name":"Francis","steam_id":76561199486493777,"connected_time":43000000000,"state":"active","ping":45},{"user_id":79,"name":"wawawawawawawawa","steam_id":76561198104896547,"connected_time":1036000000000,"state":"active","ping":74},{"user_id":80,"name":"Slavko Palii","steam_id":76561198404241941,"connected_time":1033000000000,"state":"active","ping":58},{"user_id":52,"name":"Snake-chan","steam_id":76561199044755854,"connected_time":3906000000000,"state":"active","ping":81},{"user_id":82,"name":"DrExplosive","steam_id":76561198063678579,"connected_time":1014000000000,"state":"active","ping":32},{"user_id":49,"name":"OutOfDucks","steam_id":76561198166376227,"connected_time":4090000000000,"state":"active","ping":58},{"user_id":75,"name":"Well, off to hang myself","steam_id":76561198053374944,"connected_time":1499000000000,"state":"active","ping":65},{"user_id":84,"name":"the scringly dingly","steam_id":76561198192179174,"connected_time":981000000000,"state":"active","ping":142},{"user_id":68,"name":"Burpman","steam_id":76561198022897937,"connected_time":2748000000000,"state":"active","ping":48}]},{"server_id":321,"name":"Uncletopia | London | 4 | All Maps","name_short":"lon-4","host":"lon-1.uk.uncletopia.com","port":27045,"enabled":true,"region":"eu","cc":"gb","latitude":51.509865,"longitude":-0.118092,"reserved":0,"last_update":"0001-01-01T00:00:00Z","name_a2s":"Uncletopia | London | 4 | All Maps","protocol":17,"map":"pl_goldrush","folder":"tf","game":"Team Fortress","app_id":440,"player_count":17,"max_players":24,"Bots":0,"server_type":"Dedicated","server_os":"Linux","password":true,"vac":true,"version":"7932396","steam_id":85568392924510193,"keywords":["nocrits","nodmgspread","payload","uncletopia"],"game_id":440,"stv_port":27046,"stv_name":"Uncletopia | London | 4 | All Maps | STV","players":[{"user_id":14,"name":"Dr_Agent","steam_id":76561198330355519,"connected_time":2266000000000,"state":"active","ping":61},{"user_id":15,"name":"PUMPKiNH3D","steam_id":76561198412832513,"connected_time":2257000000000,"state":"active","ping":54},{"user_id":16,"name":"TezzRexx","steam_id":76561197965758653,"connected_time":2227000000000,"state":"active","ping":56},{"user_id":18,"name":"The Blue Moon","steam_id":76561198368140755,"connected_time":2086000000000,"state":"active","ping":38},{"user_id":54,"name":"homewurk","steam_id":76561199080327081,"connected_time":5000000000,"state":"spawning","ping":182},{"user_id":43,"name":"rtrt","steam_id":76561198113320697,"connected_time":888000000000,"state":"active","ping":105},{"user_id":48,"name":"James","steam_id":76561198168882012,"connected_time":320000000000,"state":"active","ping":43},{"user_id":26,"name":"Just Navlis","steam_id":76561198090479609,"connected_time":1788000000000,"state":"active","ping":52},{"user_id":51,"name":"Mr. Data","steam_id":76561198039083551,"connected_time":268000000000,"state":"active","ping":45},{"user_id":28,"name":"C.H.E.R.E.P.","steam_id":76561198026938595,"connected_time":1777000000000,"state":"active","ping":74},{"user_id":44,"name":"–≠–¢–û –ß–¢–û? –°–õ–Å–ó–ö–ò?","steam_id":76561198017852540,"connected_time":878000000000,"state":"active","ping":104},{"user_id":53,"name":"Pink ‚ùÄ","steam_id":76561198972047944,"connected_time":67000000000,"state":"active","ping":53},{"user_id":35,"name":"Linoleum","steam_id":76561198531978435,"connected_time":1706000000000,"state":"active","ping":64},{"user_id":45,"name":"beryl x6","steam_id":76561198046601398,"connected_time":877000000000,"state":"active","ping":75},{"user_id":38,"name":"Talent","steam_id":76561198153880354,"connected_time":1677000000000,"state":"active","ping":38},{"user_id":40,"name":"Joy","steam_id":76561198155314925,"connected_time":1659000000000,"state":"active","ping":60},{"user_id":47,"name":"Monkeytonk","steam_id":76561198081151851,"connected_time":537000000000,"state":"active","ping":35}]},{"server_id":21,"name":"Uncletopia | London | 5 | All Maps","name_short":"lon-5","host":"lon-1.uk.uncletopia.com","port":27055,"enabled":true,"region":"eu","cc":"gb","latitude":51.509865,"longitude":-0.118092,"reserved":0,"last_update":"0001-01-01T00:00:00Z","name_a2s":"Uncletopia | London | 5 | All Maps","protocol":17,"map":"pl_swiftwater_final1","folder":"tf","game":"Team Fortress","app_id":440,"player_count":23,"max_players":24,"Bots":0,"server_type":"Dedicated","server_os":"Linux","password":true,"vac":true,"version":"7932396","steam_id":85568392924742829,"keywords":["nocrits","nodmgspread","payload","uncletopia"],"game_id":440,"stv_port":27056,"stv_name":"Uncletopia | London | 5 | All Maps | STV","players":[{"user_id":10,"name":"Dubstep","steam_id":76561199181848818,"connected_time":501000000000,"state":"active","ping":119},{"user_id":9,"name":"Soaya","steam_id":76561199101510855,"connected_time":647000000000,"state":"active","ping":45},{"user_id":12,"name":"Axiom807","steam_id":76561198087359163,"connected_time":427000000000,"state":"active","ping":46},{"user_id":13,"name":"F","steam_id":76561199149462792,"connected_time":353000000000,"state":"active","ping":62},{"user_id":14,"name":"Dr. Ludwig","steam_id":76561198269672107,"connected_time":343000000000,"state":"active","ping":58},{"user_id":15,"name":"Cursed","steam_id":76561198381491880,"connected_time":229000000000,"state":"active","ping":106},{"user_id":25,"name":"Tony Two Times","steam_id":76561198064009563,"connected_time":114000000000,"state":"active","ping":61},{"user_id":36,"name":"LOBZIK","steam_id":76561198114830120,"connected_time":33000000000,"state":"active","ping":79},{"user_id":18,"name":"Le Chevalier Pingouin","steam_id":76561198221355000,"connected_time":164000000000,"state":"active","ping":37},{"user_id":19,"name":"Jaxxl0","steam_id":76561199088395800,"connected_time":158000000000,"state":"active","ping":60},{"user_id":21,"name":"BORGETENNISCLUB","steam_id":76561198049343723,"connected_time":149000000000,"state":"active","ping":56},{"user_id":22,"name":"KODE","steam_id":76561198053212394,"connected_time":145000000000,"state":"active","ping":62},{"user_id":23,"name":"TheButterPickle","steam_id":76561198354317787,"connected_time":137000000000,"state":"active","ping":56},{"user_id":38,"name":"skai","steam_id":76561198184881255,"connected_time":22000000000,"state":"active","ping":69},{"user_id":40,"name":"degenerate gaming","steam_id":76561198257495109,"connected_time":13000000000,"state":"spawning","ping":79},{"user_id":28,"name":"green juice box","steam_id":76561198824261997,"connected_time":88000000000,"state":"active","ping":471},{"user_id":30,"name":"‡πá‡πá‡πá‡πá‡πá‡πá‡πá‡πá‡πá‡πá","steam_id":76561198882155743,"connected_time":70000000000,"state":"active","ping":83},{"user_id":31,"name":"Powder that makes you play tf2","steam_id":76561197984661199,"connected_time":65000000000,"state":"active","ping":81},{"user_id":32,"name":"Strix","steam_id":76561198015322735,"connected_time":64000000000,"state":"active","ping":56},{"user_id":34,"name":"ldshwt","steam_id":76561198090364357,"connected_time":42000000000,"state":"active","ping":59},{"user_id":35,"name":"Want a sprite cranberry","steam_id":76561198372405270,"connected_time":36000000000,"state":"spawning","ping":163},{"user_id":37,"name":"BlueBlaster","steam_id":76561197995684708,"connected_time":32000000000,"state":"active","ping":71},{"user_id":39,"name":"DelT","steam_id":76561198204007537,"connected_time":19000000000,"state":"active","ping":114}]},{"server_id":22,"name":"Uncletopia | London | 6 | All Maps","name_short":"lon-6","host":"lon-1.uk.uncletopia.com","port":27065,"enabled":true,"region":"eu","cc":"gb","latitude":51.509865,"longitude":-0.118092,"reserved":0,"last_update":"0001-01-01T00:00:00Z","name_a2s":"Uncletopia | London | 6 | All Maps","protocol":17,"map":"koth_viaduct","folder":"tf","game":"Team Fortress","app_id":440,"player_count":0,"max_players":24,"Bots":0,"server_type":"Dedicated","server_os":"Linux","password":true,"vac":true,"version":"7932396","steam_id":85568392924742830,"keywords":["cp","nocrits","nodmgspread","uncletopia"],"game_id":440,"stv_port":27066,"stv_name":"Uncletopia | London | 6 | All Maps | STV","players":null},{"server_id":40,"name":"Uncletopia | London | 7 | No Payload","name_short":"lon-7","host":"lon-1.uk.uncletopia.com","port":27075,"enabled":true,"region":"eu","cc":"gb","latitude":51.509865,"longitude":-0.118092,"reserved":0,"last_update":"0001-01-01T00:00:00Z","name_a2s":"Uncletopia | London | 7 | No Payload","protocol":17,"map":"koth_cascade","folder":"tf","game":"Team Fortress","app_id":440,"player_count":0,"max_players":24,"Bots":0,"server_type":"Dedicated","server_os":"Linux","password":true,"vac":true,"version":"7932396","steam_id":85568392924964314,"keywords":["cp","nocrits","nodmgspread","uncletopia"],"game_id":440,"stv_port":27076,"stv_name":"Uncletopia | London | 7 | No Payload | STV","players":null},{"server_id":41,"name":"Uncletopia | London | 8 | Community","name_short":"lon-8","host":"lon-1.uk.uncletopia.com","port":27085,"enabled":true,"region":"eu","cc":"gb","latitude":51.509865,"longitude":-0.118092,"reserved":0,"last_update":"0001-01-01T00:00:00Z","name_a2s":"Uncletopia | London | 8 | Community","protocol":17,"map":"workshop/pl_highwood_b13.ugc1769496557","folder":"tf","game":"Team Fortress","app_id":440,"player_count":2,"max_players":24,"Bots":0,"server_type":"Dedicated","server_os":"Linux","password":true,"vac":true,"version":"7932396","steam_id":85568392924964315,"keywords":["nocrits","nodmgspread","payload","uncletopia"],"game_id":440,"stv_port":27086,"stv_name":"Uncletopia | London | 8 | Community | STV","players":[{"user_id":8,"name":"tf2 enjoyer","steam_id":76561198083615367,"connected_time":223000000000,"state":"active","ping":32},{"user_id":9,"name":"Mr Gnash","steam_id":76561198007410990,"connected_time":144000000000,"state":"active","ping":56}]},{"server_id":300,"name":"Uncletopia | Montr√©al | 1 | All Maps","name_short":"mtl-1","host":"mtl-1.ca.uncletopia.com","port":27015,"enabled":true,"region":"us-east","cc":"ca","latitude":45.50889,"longitude":-73.56167,"reserved":0,"last_update":"0001-01-01T00:00:00Z","name_a2s":"Uncletopia | Montr√©al | 1 | All Maps","protocol":17,"map":"cp_altitude","folder":"tf","game":"Team Fortress","app_id":440,"player_count":0,"max_players":24,"Bots":0,"server_type":"Dedicated","server_os":"Linux","password":true,"vac":true,"version":"7932396","steam_id":85568392924500087,"keywords":["cp","nocrits","nodmgspread","uncletopia"],"game_id":440,"stv_port":27016,"stv_name":"Uncletopia | Montr√©al | 1 | All Maps | STV","players":null},{"server_id":301,"name":"Uncletopia | Montr√©al | 2 | All Maps","name_short":"mtl-2","host":"mtl-1.ca.uncletopia.com","port":27025,"enabled":true,"region":"us-east","cc":"ca","latitude":45.50889,"longitude":-73.56167,"reserved":0,"last_update":"0001-01-01T00:00:00Z","name_a2s":"Uncletopia | Montr√©al | 2 | All Maps","protocol":17,"map":"koth_lakeside_final","folder":"tf","game":"Team Fortress","app_id":440,"player_count":0,"max_players":24,"Bots":0,"server_type":"Dedicated","server_os":"Linux","password":true,"vac":true,"version":"7932396","steam_id":85568392924500088,"keywords":["cp","nocrits","nodmgspread","uncletopia"],"game_id":440,"stv_port":27026,"stv_name":"Uncletopia | Montr√©al | 2 | All Maps | STV","players":null},{"server_id":302,"name":"Uncletopia | Montr√©al | 3 | All Maps","name_short":"mtl-3","host":"mtl-1.ca.uncletopia.com","port":27035,"enabled":true,"region":"us-east","cc":"ca","latitude":45.50889,"longitude":-73.56167,"reserved":0,"last_update":"0001-01-01T00:00:00Z","name_a2s":"Uncletopia | Montr√©al | 3 | All Maps","protocol":17,"map":"cp_process_final","folder":"tf","game":"Team Fortress","app_id":440,"player_count":0,"max_players":24,"Bots":0,"server_type":"Dedicated","server_os":"Linux","password":true,"vac":true,"version":"7932396","steam_id":85568392924500089,"keywords":["cp","nocrits","nodmgspread","uncletopia"],"game_id":440,"stv_port":27036,"stv_name":"Uncletopia | Montr√©al | 3 | All Maps | STV","players":null},{"server_id":303,"name":"Uncletopia | Montr√©al | 4 | No Payload","name_short":"mtl-4","host":"mtl-1.ca.uncletopia.com","port":27045,"enabled":true,"region":"us-east","cc":"ca","latitude":45.50889,"longitude":-73.56167,"reserved":0,"last_update":"0001-01-01T00:00:00Z","name_a2s":"Uncletopia | Montr√©al | 4 | No Payload","protocol":17,"map":"cp_snakewater_final1","folder":"tf","game":"Team Fortress","app_id":440,"player_count":0,"max_players":24,"Bots":0,"server_type":"Dedicated","server_os":"Linux","password":true,"vac":true,"version":"7932396","steam_id":85568392924500090,"keywords":["cp","nocrits","nodmgspread","uncletopia"],"game_id":440,"stv_port":27046,"stv_name":"Uncletopia | Montr√©al | 4 | No Payload | STV","players":null},{"server_id":13,"name":"Uncletopia | New York City | 1 | All Maps","name_short":"nyc-1","host":"nyc-1.us.uncletopia.com","port":27015,"enabled":true,"region":"us-east","cc":"us","latitude":40.73061,"longitude":-73.93524,"reserved":0,"last_update":"0001-01-01T00:00:00Z","name_a2s":"Uncletopia | New York City | 1 | All Maps","protocol":17,"map":"cp_mountainlab","folder":"tf","game":"Team Fortress","app_id":440,"player_count":24,"max_players":24,"Bots":0,"server_type":"Dedicated","server_os":"Linux","password":true,"vac":true,"version":"7932396","steam_id":85568392924469993,"keywords":["cp","nocrits","nodmgspread","uncletopia"],"game_id":440,"stv_port":27016,"stv_name":"Uncletopia | New York City | 1 | All Maps | STV","players":[{"user_id":62,"name":"Shino","steam_id":76561198272401589,"connected_time":2611000000000,"state":"active","ping":84},{"user_id":87,"name":"BLACK MAN FROM JOJO","steam_id":76561198272948471,"connected_time":1358000000000,"state":"active","ping":71},{"user_id":69,"name":"domolingus III","steam_id":76561198311015886,"connected_time":2217000000000,"state":"active","ping":100},{"user_id":96,"name":"noided","steam_id":76561198353924837,"connected_time":599000000000,"state":"active","ping":71},{"user_id":91,"name":"Spraxinator","steam_id":76561199083563607,"connected_time":1221000000000,"state":"active","ping":157},{"user_id":98,"name":"Deeply","steam_id":76561199000786530,"connected_time":531000000000,"state":"active","ping":87},{"user_id":92,"name":"a hyena","steam_id":76561198299493639,"connected_time":1157000000000,"state":"active","ping":60},{"user_id":101,"name":"Candy Sparkles (bday tomorrow)","steam_id":76561198126871264,"connected_time":514000000000,"state":"active","ping":78},{"user_id":99,"name":"Brown_Dream","steam_id":76561198975766145,"connected_time":529000000000,"state":"active","ping":64},{"user_id":94,"name":"triple_range_merge","steam_id":76561198991225026,"connected_time":947000000000,"state":"active","ping":62},{"user_id":93,"name":"geralde","steam_id":76561198454317908,"connected_time":1152000000000,"state":"active","ping":145},{"user_id":82,"name":"Rornir","steam_id":76561198081829615,"connected_time":1794000000000,"state":"active","ping":56},{"user_id":100,"name":"Xx_gam3rberg_xX","steam_id":76561199035781025,"connected_time":528000000000,"state":"active","ping":69},{"user_id":105,"name":"JoCaleb02","steam_id":76561198272389829,"connected_time":290000000000,"state":"active","ping":48},{"user_id":102,"name":"Medic","steam_id":76561198233988068,"connected_time":511000000000,"state":"active","ping":70},{"user_id":106,"name":"Grebnedulgo The Elder","steam_id":76561199123285878,"connected_time":33000000000,"state":"active","ping":62},{"user_id":103,"name":"Varie","steam_id":76561199454930210,"connected_time":495000000000,"state":"active","ping":95},{"user_id":71,"name":"Newt","steam_id":76561199119569440,"connected_time":2183000000000,"state":"active","ping":89},{"user_id":51,"name":"Stolid","steam_id":76561197998506423,"connected_time":3903000000000,"state":"active","ping":123},{"user_id":104,"name":"Mr Business","steam_id":76561199193931762,"connected_time":474000000000,"state":"active","ping":70},{"user_id":79,"name":"Queen Frau the Round","steam_id":76561197999942134,"connected_time":1968000000000,"state":"active","ping":61},{"user_id":42,"name":"we're so back","steam_id":76561198058485742,"connected_time":4571000000000,"state":"active","ping":67},{"user_id":80,"name":"Koishi","steam_id":76561198054541054,"connected_time":1966000000000,"state":"active","ping":45},{"user_id":81,"name":"ayecodex","steam_id":76561199477598858,"connected_time":1965000000000,"state":"active","ping":50}]},{"server_id":14,"name":"Uncletopia | New York City | 2 | All Maps","name_short":"nyc-2","host":"nyc-1.us.uncletopia.com","port":27025,"enabled":true,"region":"us-east","cc":"us","latitude":40.73061,"longitude":-73.93524,"reserved":0,"last_update":"0001-01-01T00:00:00Z","name_a2s":"Uncletopia | New York City | 2 | All Maps","protocol":17,"map":"koth_lakeside_final","folder":"tf","game":"Team Fortress","app_id":440,"player_count":0,"max_players":24,"Bots":0,"server_type":"Dedicated","server_os":"Linux","password":true,"vac":true,"version":"7932396","steam_id":85568392924469994,"keywords":["cp","nocrits","nodmgspread","uncletopia"],"game_id":440,"stv_port":27026,"stv_name":"Uncletopia | New York City | 2 | All Maps | STV","players":null},{"server_id":15,"name":"Uncletopia | New York City | 3 | Stopwatch Beta","name_short":"nyc-3","host":"nyc-1.us.uncletopia.com","port":27035,"enabled":true,"region":"us-east","cc":"us","latitude":40.73061,"longitude":-73.93524,"reserved":0,"last_update":"0001-01-01T00:00:00Z","name_a2s":"Uncletopia | New York City | 3 | Stopwatch Beta","protocol":17,"map":"koth_lakeside_final","folder":"tf","game":"Team Fortress","app_id":440,"player_count":0,"max_players":24,"Bots":0,"server_type":"Dedicated","server_os":"Linux","password":true,"vac":true,"version":"7932396","steam_id":85568392924742820,"keywords":["cp","nocrits","nodmgspread","uncletopia"],"game_id":440,"stv_port":27036,"stv_name":"Uncletopia | New York City | 3 | Stopwatch Beta | STV","players":null},{"server_id":16,"name":"Uncletopia | New York City | 4 | Community","name_short":"nyc-4","host":"nyc-1.us.uncletopia.com","port":27045,"enabled":true,"region":"us-east","cc":"us","latitude":40.73061,"longitude":-73.93524,"reserved":0,"last_update":"0001-01-01T00:00:00Z","name_a2s":"Uncletopia | New York City | 4 | Community","protocol":17,"map":"workshop/pl_cashworks_final1.ugc2904065412","folder":"tf","game":"Team Fortress","app_id":440,"player_count":23,"max_players":24,"Bots":0,"server_type":"Dedicated","server_os":"Linux","password":true,"vac":true,"version":"7932396","steam_id":85568392924742821,"keywords":["nocrits","nodmgspread","payload","uncletopia"],"game_id":440,"stv_port":27046,"stv_name":"Uncletopia | New York City | 4 | Community | STV","players":[{"user_id":180,"name":"bonehead","steam_id":76561199201489468,"connected_time":1305000000000,"state":"active","ping":119},{"user_id":158,"name":"Osrio","steam_id":76561198083428069,"connected_time":2767000000000,"state":"active","ping":96},{"user_id":48,"name":"I really enjoy MEN","steam_id":76561198164119602,"connected_time":9877000000000,"state":"active","ping":159},{"user_id":198,"name":"The_Milk_Man","steam_id":76561198085000339,"connected_time":433000000000,"state":"active","ping":78},{"user_id":184,"name":"Mecha","steam_id":76561198014927379,"connected_time":1235000000000,"state":"active","ping":71},{"user_id":195,"name":"MemeLord","steam_id":76561198135115524,"connected_time":644000000000,"state":"active","ping":124},{"user_id":200,"name":"Shadow Xaenen","steam_id":76561198345321624,"connected_time":352000000000,"state":"active","ping":48},{"user_id":141,"name":"chikin.sauce","steam_id":76561198042464635,"connected_time":3841000000000,"state":"active","ping":96},{"user_id":185,"name":"chungy -iwnl-","steam_id":76561198215559840,"connected_time":1214000000000,"state":"active","ping":74},{"user_id":193,"name":"Engideer","steam_id":76561198145733164,"connected_time":815000000000,"state":"active","ping":84},{"user_id":182,"name":"Medication Woman","steam_id":76561198348965524,"connected_time":1297000000000,"state":"active","ping":64},{"user_id":151,"name":"beats","steam_id":76561199245717718,"connected_time":3135000000000,"state":"active","ping":60},{"user_id":192,"name":"Adreeh","steam_id":76561198158492390,"connected_time":896000000000,"state":"active","ping":81},{"user_id":203,"name":"lvl 99 bastard","steam_id":76561198044761617,"connected_time":262000000000,"state":"active","ping":60},{"user_id":187,"name":"DroidDaB1Boi","steam_id":76561198251142108,"connected_time":1138000000000,"state":"active","ping":82},{"user_id":145,"name":"LORDO","steam_id":76561198044824675,"connected_time":3588000000000,"state":"active","ping":78},{"user_id":204,"name":"The Unfriendly Friendly","steam_id":76561199216559937,"connected_time":255000000000,"state":"active","ping":105},{"user_id":188,"name":"Lemon","steam_id":76561198119362095,"connected_time":1135000000000,"state":"active","ping":45},{"user_id":205,"name":"Violet42","steam_id":76561198072927887,"connected_time":246000000000,"state":"active","ping":45},{"user_id":197,"name":"zefir","steam_id":76561198041348890,"connected_time":476000000000,"state":"active","ping":85},{"user_id":206,"name":"Solstrom","steam_id":76561198313364985,"connected_time":215000000000,"state":"active","ping":101},{"user_id":189,"name":"FlameShake","steam_id":76561198084021005,"connected_time":1077000000000,"state":"active","ping":85},{"user_id":196,"name":"Starkiller","steam_id":76561198101643120,"connected_time":577000000000,"state":"active","ping":98}]},{"server_id":142,"name":"Uncletopia | S√£o Paulo | 1 | All Maps","name_short":"sao-1","host":"sao-1.br.uncletopia.com","port":27015,"enabled":true,"region":"sa","cc":"br","latitude":-23.533773,"longitude":-46.62529,"reserved":0,"last_update":"0001-01-01T00:00:00Z","name_a2s":"Uncletopia | S√£o Paulo | 1 | All Maps","protocol":17,"map":"pl_borneo","folder":"tf","game":"Team Fortress","app_id":440,"player_count":0,"max_players":24,"Bots":0,"server_type":"Dedicated","server_os":"Linux","password":true,"vac":true,"version":"7932396","steam_id":85568392924469996,"keywords":["nocrits","nodmgspread","payload","uncletopia"],"game_id":440,"stv_port":27016,"stv_name":"Uncletopia | S√£o Paulo | 1 | All Maps | STV","players":null},{"server_id":143,"name":"Uncletopia | S√£o Paulo | 2 | All Maps","name_short":"sao-2","host":"sao-2.br.uncletopia.com","port":27015,"enabled":true,"region":"sa","cc":"br","latitude":-23.533773,"longitude":-46.62529,"reserved":0,"last_update":"0001-01-01T00:00:00Z","name_a2s":"Uncletopia | S√£o Paulo | 2 | All Maps","protocol":17,"map":"koth_lakeside_final","folder":"tf","game":"Team Fortress","app_id":440,"player_count":0,"max_players":24,"Bots":0,"server_type":"Dedicated","server_os":"Linux","password":true,"vac":true,"version":"7932396","steam_id":85568392924485349,"keywords":["cp","nocrits","nodmgspread","uncletopia"],"game_id":440,"stv_port":27016,"stv_name":"Uncletopia | S√£o Paulo | 2 | All Maps | STV","players":null},{"server_id":7,"name":"Uncletopia | Seattle | 1 | All Maps","name_short":"sea-1","host":"sea-1.us.uncletopia.com","port":27015,"enabled":true,"region":"us-west","cc":"us","latitude":47.608013,"longitude":-122.33517,"reserved":0,"last_update":"0001-01-01T00:00:00Z","name_a2s":"Uncletopia | Seattle | 1 | All Maps","protocol":17,"map":"pl_pier","folder":"tf","game":"Team Fortress","app_id":440,"player_count":0,"max_players":24,"Bots":0,"server_type":"Dedicated","server_os":"Linux","password":true,"vac":true,"version":"7932396","steam_id":85568392924469997,"keywords":["nocrits","nodmgspread","payload","uncletopia"],"game_id":440,"stv_port":27016,"stv_name":"Uncletopia | Seattle | 1 | All Maps | STV","players":null},{"server_id":119,"name":"Uncletopia | Seattle | 2 | All Maps","name_short":"sea-2","host":"sea-1.us.uncletopia.com","port":27025,"enabled":true,"region":"us-west","cc":"us","latitude":47.608013,"longitude":-122.33517,"reserved":0,"last_update":"0001-01-01T00:00:00Z","name_a2s":"Uncletopia | Seattle | 2 | All Maps","protocol":17,"map":"pl_borneo","folder":"tf","game":"Team Fortress","app_id":440,"player_count":24,"max_players":24,"Bots":0,"server_type":"Dedicated","server_os":"Linux","password":true,"vac":true,"version":"7932396","steam_id":85568392924469998,"keywords":["nocrits","nodmgspread","payload","uncletopia"],"game_id":440,"stv_port":27026,"stv_name":"Uncletopia | Seattle | 2 | All Maps | STV","players":[{"user_id":237,"name":"Grify","steam_id":76561198012292317,"connected_time":925000000000,"state":"active","ping":128},{"user_id":257,"name":"TheMagicMrWaffle","steam_id":76561198104357256,"connected_time":321000000000,"state":"active","ping":73},{"user_id":255,"name":"GuyGoom","steam_id":76561198254522178,"connected_time":384000000000,"state":"active","ping":104},{"user_id":223,"name":"Aquiles Baeza","steam_id":76561198081053203,"connected_time":2830000000000,"state":"active","ping":107},{"user_id":251,"name":"kab789","steam_id":76561198069842202,"connected_time":423000000000,"state":"active","ping":110},{"user_id":208,"name":"IsThatAJoJoReference","steam_id":76561198835513424,"connected_time":3678000000000,"state":"active","ping":98},{"user_id":242,"name":"Traian","steam_id":76561197972290653,"connected_time":759000000000,"state":"active","ping":46},{"user_id":222,"name":"Daz","steam_id":76561198041431938,"connected_time":2865000000000,"state":"active","ping":49},{"user_id":182,"name":"HawkBlaze","steam_id":76561199000152914,"connected_time":7007000000000,"state":"active","ping":82},{"user_id":220,"name":"Thewaffleman141","steam_id":76561198083068694,"connected_time":2946000000000,"state":"active","ping":106},{"user_id":232,"name":"Thequirka","steam_id":76561198968058652,"connected_time":1811000000000,"state":"active","ping":51},{"user_id":238,"name":"Mr. Stockington","steam_id":76561198091354032,"connected_time":905000000000,"state":"active","ping":68},{"user_id":228,"name":"bodie._.","steam_id":76561198079474904,"connected_time":2664000000000,"state":"active","ping":71},{"user_id":258,"name":"Dr. PP","steam_id":76561199018184096,"connected_time":161000000000,"state":"active","ping":95},{"user_id":207,"name":"H0UZM@$T3R!!!!1","steam_id":76561198044297170,"connected_time":3799000000000,"state":"active","ping":71},{"user_id":259,"name":"Why am I the only person who","steam_id":76561198139634916,"connected_time":153000000000,"state":"active","ping":46},{"user_id":253,"name":"Cohydr","steam_id":76561199051460229,"connected_time":420000000000,"state":"active","ping":85},{"user_id":261,"name":"kiv","steam_id":76561198838223023,"connected_time":143000000000,"state":"active","ping":101},{"user_id":241,"name":"Mom","steam_id":76561198207936000,"connected_time":814000000000,"state":"active","ping":75},{"user_id":174,"name":"poofysters","steam_id":76561198800118537,"connected_time":7266000000000,"state":"active","ping":73},{"user_id":250,"name":"nelly modelo","steam_id":76561198044875206,"connected_time":487000000000,"state":"active","ping":55},{"user_id":262,"name":"Toxic Medic Main (he/they)","steam_id":76561198009314845,"connected_time":117000000000,"state":"active","ping":80},{"user_id":246,"name":"The Janitor","steam_id":76561198370152780,"connected_time":607000000000,"state":"active","ping":114},{"user_id":256,"name":"Ockulus","steam_id":76561199069638460,"connected_time":364000000000,"state":"active","ping":76}]},{"server_id":406,"name":"Uncletopia | Seattle | 3 | Stopwatch Beta","name_short":"sea-3","host":"sea-1.us.uncletopia.com","port":27035,"enabled":true,"region":"us-west","cc":"us","latitude":47.608013,"longitude":-122.33517,"reserved":0,"last_update":"0001-01-01T00:00:00Z","name_a2s":"Uncletopia | Seattle | 3 | Stopwatch Beta","protocol":17,"map":"workshop/koth_clearcut_b15.ugc2107050255","folder":"tf","game":"Team Fortress","app_id":440,"player_count":0,"max_players":24,"Bots":0,"server_type":"Dedicated","server_os":"Linux","password":true,"vac":true,"version":"7932396","steam_id":85568392924515217,"keywords":["cp","nocrits","nodmgspread","uncletopia"],"game_id":440,"stv_port":27036,"stv_name":"Uncletopia | Seattle | 3 | Stopwatch Beta | STV","players":null},{"server_id":17,"name":"Uncletopia | San Francisco | 1 | All Maps","name_short":"sfo-1","host":"sfo-1.us.uncletopia.com","port":27015,"enabled":true,"region":"us-west","cc":"us","latitude":37.77397,"longitude":-122.4313,"reserved":0,"last_update":"0001-01-01T00:00:00Z","name_a2s":"Uncletopia | San Francisco | 1 | All Maps","protocol":17,"map":"pl_frontier_final","folder":"tf","game":"Team Fortress","app_id":440,"player_count":0,"max_players":24,"Bots":0,"server_type":"Dedicated","server_os":"Linux","password":true,"vac":true,"version":"7932396","steam_id":85568392924469999,"keywords":["nocrits","nodmgspread","payload","uncletopia"],"game_id":440,"stv_port":27016,"stv_name":"Uncletopia | San Francisco | 1 | All Maps | STV","players":null},{"server_id":18,"name":"Uncletopia | San Francisco | 2 | All Maps","name_short":"sfo-2","host":"sfo-1.us.uncletopia.com","port":27025,"enabled":true,"region":"us-west","cc":"us","latitude":37.77397,"longitude":-122.4313,"reserved":0,"last_update":"0001-01-01T00:00:00Z","name_a2s":"Uncletopia | San Francisco | 2 | All Maps","protocol":17,"map":"ctf_turbine","folder":"tf","game":"Team Fortress","app_id":440,"player_count":0,"max_players":24,"Bots":0,"server_type":"Dedicated","server_os":"Linux","password":true,"vac":true,"version":"7932396","steam_id":85568392924470000,"keywords":["ctf","nocrits","nodmgspread","uncletopia"],"game_id":440,"stv_port":27026,"stv_name":"Uncletopia | San Francisco | 2 | All Maps | STV","players":null},{"server_id":19,"name":"Uncletopia | San Francisco | 3 | Stopwatch Beta","name_short":"sfo-3","host":"sfo-1.us.uncletopia.com","port":27035,"enabled":true,"region":"us-west","cc":"us","latitude":37.77397,"longitude":-122.4313,"reserved":0,"last_update":"0001-01-01T00:00:00Z","name_a2s":"Uncletopia | San Francisco | 3 | Stopwatch Beta","protocol":17,"map":"koth_lakeside_final","folder":"tf","game":"Team Fortress","app_id":440,"player_count":0,"max_players":24,"Bots":0,"server_type":"Dedicated","server_os":"Linux","password":true,"vac":true,"version":"7932396","steam_id":85568392924742824,"keywords":["cp","nocrits","nodmgspread","uncletopia"],"game_id":440,"stv_port":27036,"stv_name":"Uncletopia | San Francisco | 3 | Stopwatch Beta | STV","players":null},{"server_id":20,"name":"Uncletopia | San Francisco | 4 | Community","name_short":"sfo-4","host":"sfo-1.us.uncletopia.com","port":27045,"enabled":true,"region":"us-west","cc":"us","latitude":37.77397,"longitude":-122.4313,"reserved":0,"last_update":"0001-01-01T00:00:00Z","name_a2s":"Uncletopia | San Francisco | 4 | Community","protocol":17,"map":"pl_borneo","folder":"tf","game":"Team Fortress","app_id":440,"player_count":0,"max_players":24,"Bots":0,"server_type":"Dedicated","server_os":"Linux","password":true,"vac":true,"version":"7932396","steam_id":85568392924742826,"keywords":["nocrits","nodmgspread","payload","uncletopia"],"game_id":440,"stv_port":27046,"stv_name":"Uncletopia | San Francisco | 4 | Community | STV","players":null},{"server_id":141,"name":"Uncletopia | Sydney | 1 | All Maps","name_short":"syd-1","host":"syd-1.au.uncletopia.com","port":27015,"enabled":true,"region":"au","cc":"au","latitude":-33.865143,"longitude":151.2099,"reserved":0,"last_update":"0001-01-01T00:00:00Z","name_a2s":"Uncletopia | Sydney | 1 | All Maps","protocol":17,"map":"koth_lakeside_final","folder":"tf","game":"Team Fortress","app_id":440,"player_count":0,"max_players":24,"Bots":0,"server_type":"Dedicated","server_os":"Linux","password":true,"vac":true,"version":"7932396","steam_id":85568392924470001,"keywords":["cp","nocrits","nodmgspread","uncletopia"],"game_id":440,"stv_port":27016,"stv_name":"Uncletopia | Sydney | 1 | All Maps | STV","players":null},{"server_id":123,"name":"Uncletopia | Sydney | 2 | All Maps","name_short":"syd-2","host":"syd-1.au.uncletopia.com","port":27025,"enabled":true,"region":"au","cc":"au","latitude":-33.865143,"longitude":151.2099,"reserved":0,"last_update":"0001-01-01T00:00:00Z","name_a2s":"Uncletopia | Sydney | 2 | All Maps","protocol":17,"map":"koth_lakeside_final","folder":"tf","game":"Team Fortress","app_id":440,"player_count":0,"max_players":24,"Bots":0,"server_type":"Dedicated","server_os":"Linux","password":true,"vac":true,"version":"7932396","steam_id":85568392924470002,"keywords":["cp","nocrits","nodmgspread","uncletopia"],"game_id":440,"stv_port":27026,"stv_name":"Uncletopia | Sydney | 2 | All Maps | STV","players":null},{"server_id":395,"name":"Uncletopia | Sydney | 3 | All Maps","name_short":"syd-3","host":"syd-1.au.uncletopia.com","port":27035,"enabled":true,"region":"au","cc":"au","latitude":-33.865143,"longitude":151.2099,"reserved":0,"last_update":"0001-01-01T00:00:00Z","name_a2s":"Uncletopia | Sydney | 3 | All Maps","protocol":17,"map":"cp_process_final","folder":"tf","game":"Team Fortress","app_id":440,"player_count":0,"max_players":24,"Bots":0,"server_type":"Dedicated","server_os":"Linux","password":true,"vac":true,"version":"7932396","steam_id":85568392925194467,"keywords":["cp","nocrits","nodmgspread","uncletopia"],"game_id":440,"stv_port":27036,"stv_name":"Uncletopia | Sydney | 3 | All Maps | STV","players":null},{"server_id":396,"name":"Uncletopia | Sydney | 4 | All Maps","name_short":"syd-4","host":"syd-1.au.uncletopia.com","port":27045,"enabled":true,"region":"au","cc":"au","latitude":-33.865143,"longitude":151.2099,"reserved":0,"last_update":"0001-01-01T00:00:00Z","name_a2s":"Uncletopia | Sydney | 4 | All Maps","protocol":17,"map":"pl_upward","folder":"tf","game":"Team Fortress","app_id":440,"player_count":0,"max_players":24,"Bots":0,"server_type":"Dedicated","server_os":"Linux","password":true,"vac":true,"version":"7932396","steam_id":85568392925397958,"keywords":["nocrits","nodmgspread","payload","uncletopia"],"game_id":440,"stv_port":27046,"stv_name":"Uncletopia | Sydney | 4 | All Maps | STV","players":null},{"server_id":58,"name":"Uncletopia | Sydney | 5 | Stopwatch Beta","name_short":"syd-5","host":"syd-1.au.uncletopia.com","port":27055,"enabled":true,"region":"au","cc":"au","latitude":-33.865143,"longitude":151.2099,"reserved":0,"last_update":"0001-01-01T00:00:00Z","name_a2s":"Uncletopia | Sydney | 5 | Stopwatch Beta","protocol":17,"map":"pl_borneo","folder":"tf","game":"Team Fortress","app_id":440,"player_count":0,"max_players":24,"Bots":0,"server_type":"Dedicated","server_os":"Linux","password":true,"vac":true,"version":"7932396","steam_id":85568392925397959,"keywords":["nocrits","nodmgspread","payload","uncletopia"],"game_id":440,"stv_port":27056,"stv_name":"Uncletopia | Sydney | 5 | Stopwatch Beta | STV","players":null},{"server_id":59,"name":"Uncletopia | Sydney | 6 | Community","name_short":"syd-6","host":"syd-1.au.uncletopia.com","port":27065,"enabled":true,"region":"au","cc":"au","latitude":-33.865143,"longitude":151.2099,"reserved":0,"last_update":"0001-01-01T00:00:00Z","name_a2s":"Uncletopia | Sydney | 6 | Community","protocol":17,"map":"pl_badwater","folder":"tf","game":"Team Fortress","app_id":440,"player_count":0,"max_players":24,"Bots":0,"server_type":"Dedicated","server_os":"Linux","password":true,"vac":true,"version":"7932396","steam_id":85568392925397960,"keywords":["nocrits","nodmgspread","payload","uncletopia"],"game_id":440,"stv_port":27066,"stv_name":"Uncletopia | Sydney | 6 | Community | STV","players":null},{"server_id":49,"name":"Uncletopia | Warsaw | 1 | All Maps","name_short":"waw-1","host":"waw-1.pl.uncletopia.com","port":27015,"enabled":true,"region":"eu","cc":"pl","latitude":52.2297,"longitude":21.017532,"reserved":0,"last_update":"0001-01-01T00:00:00Z","name_a2s":"","protocol":0,"map":"","folder":"","game":"","app_id":0,"player_count":0,"max_players":0,"Bots":0,"server_type":"","server_os":"","password":false,"vac":false,"version":"","steam_id":0,"keywords":null,"game_id":0,"stv_port":0,"stv_name":"","players":null},{"server_id":50,"name":"Uncletopia | Warsaw | 2 | All Maps","name_short":"waw-2","host":"waw-1.pl.uncletopia.com","port":27025,"enabled":true,"region":"eu","cc":"pl","latitude":52.2297,"longitude":21.017532,"reserved":0,"last_update":"0001-01-01T00:00:00Z","name_a2s":"Uncletopia | Warsaw | 2 | All Maps","protocol":17,"map":"cp_altitude","folder":"tf","game":"Team Fortress","app_id":440,"player_count":0,"max_players":24,"Bots":0,"server_type":"Dedicated","server_os":"Linux","password":true,"vac":true,"version":"7932396","steam_id":85568392925397851,"keywords":["cp","nocrits","nodmgspread","uncletopia"],"game_id":440,"stv_port":27026,"stv_name":"Uncletopia | Warsaw | 2 | All Maps | STV","players":null},{"server_id":51,"name":"Uncletopia | Warsaw | 3 | All Maps","name_short":"waw-3","host":"waw-1.pl.uncletopia.com","port":27035,"enabled":true,"region":"eu","cc":"pl","latitude":52.2297,"longitude":21.017532,"reserved":0,"last_update":"0001-01-01T00:00:00Z","name_a2s":"Uncletopia | Warsaw | 3 | All Maps","protocol":17,"map":"koth_lakeside_final","folder":"tf","game":"Team Fortress","app_id":440,"player_count":0,"max_players":24,"Bots":0,"server_type":"Dedicated","server_os":"Linux","password":true,"vac":true,"version":"7932396","steam_id":85568392925397852,"keywords":["cp","nocrits","nodmgspread","uncletopia"],"game_id":440,"stv_port":27036,"stv_name":"Uncletopia | Warsaw | 3 | All Maps | STV","players":null},{"server_id":52,"name":"Uncletopia | Warsaw | 4 | All Maps","name_short":"waw-4","host":"waw-1.pl.uncletopia.com","port":27045,"enabled":true,"region":"eu","cc":"pl","latitude":52.2297,"longitude":21.017532,"reserved":0,"last_update":"0001-01-01T00:00:00Z","name_a2s":"Uncletopia | Warsaw | 4 | All Maps","protocol":17,"map":"pl_pier","folder":"tf","game":"Team Fortress","app_id":440,"player_count":0,"max_players":24,"Bots":0,"server_type":"Dedicated","server_os":"Linux","password":true,"vac":true,"version":"7932396","steam_id":85568392925397853,"keywords":["nocrits","nodmgspread","payload","uncletopia"],"game_id":440,"stv_port":27046,"stv_name":"Uncletopia | Warsaw | 4 | All Maps | STV","players":null},{"server_id":53,"name":"Uncletopia | Warsaw | 5 | Stopwatch Beta","name_short":"waw-5","host":"waw-1.pl.uncletopia.com","port":27055,"enabled":true,"region":"eu","cc":"pl","latitude":52.2297,"longitude":21.017532,"reserved":0,"last_update":"0001-01-01T00:00:00Z","name_a2s":"Uncletopia | Warsaw | 5 | Stopwatch Beta","protocol":17,"map":"cp_granary","folder":"tf","game":"Team Fortress","app_id":440,"player_count":0,"max_players":24,"Bots":0,"server_type":"Dedicated","server_os":"Linux","password":true,"vac":true,"version":"7932396","steam_id":85568392925397854,"keywords":["cp","nocrits","nodmgspread","uncletopia"],"game_id":440,"stv_port":27056,"stv_name":"Uncletopia | Warsaw | 5 | Stopwatch Beta | STV","players":null},{"server_id":54,"name":"Uncletopia | Warsaw | 6 | Community","name_short":"waw-6","host":"waw-1.pl.uncletopia.com","port":27065,"enabled":true,"region":"eu","cc":"pl","latitude":52.2297,"longitude":21.017532,"reserved":0,"last_update":"0001-01-01T00:00:00Z","name_a2s":"Uncletopia | Warsaw | 6 | Community","protocol":17,"map":"workshop/pl_shoreleave_rc2.ugc1238849347","folder":"tf","game":"Team Fortress","app_id":440,"player_count":0,"max_players":24,"Bots":0,"server_type":"Dedicated","server_os":"Linux","password":true,"vac":true,"version":"7932396","steam_id":85568392925397856,"keywords":["nocrits","nodmgspread","payload","uncletopia"],"game_id":440,"stv_port":27066,"stv_name":"Uncletopia | Warsaw | 6 | Community | STV","players":null}]}