{"status":true,"message":"","result":[{"server_id":9,"name":"Uncletopia | Atlanta | 1 | All Maps","name_short":"atl-1","host":"atl-1.us.uncletopia.com","port":27015,"enabled":true,"region":"us-east","cc":"us","latitude":33.753746,"longitude":-84.38633,"reserved":0,"last_update":"0001-01-01T00:00:00Z","name_a2s":"Uncletopia | Atlanta | 1 | All Maps","protocol":17,"map":"koth_cascade","folder":"tf","game":"Team Fortress","app_id":440,"player_count":0,"max_players":24,"Bots":0,"server_type":"Dedicated","server_os":"Linux","password":true,"vac":true,"version":"7757534","steam_id":85568392924469982,"keywords":["cp","nocrits","nodmgspread","uncletopia"],"game_id":440,"stv_port":27016,"stv_name":"Uncletopia | Atlanta | 1 | All Maps | STV","players":null},{"server_id":104,"name":"Uncletopia | Atlanta | 2 | All Maps","name_short":"atl-2","host":"atl-1.us.uncletopia.com","port":27025,"enabled":true,"region":"us-east","cc":"us","latitude":33.753746,"longitude":-84.38633,"reserved":0,"last_update":"0001-01-01T00:00:00Z","name_a2s":"Uncletopia | Atlanta | 2 | All Maps","protocol":17,"map":"cp_dustbowl","folder":"tf","game":"Team Fortress","app_id":440,"player_count":0,"max_players":24,"Bots":0,"server_type":"Dedicated","server_os":"Linux","password":true,"vac":true,"version":"7757534","steam_id":85568392924469983,"keywords":["cp","nocrits","nodmgspread","uncletopia"],"game_id":440,"stv_port":27026,"stv_name":"Uncletopia | Atlanta | 2 | All Maps | STV","players":null},{"server_id":400,"name":"Uncletopia | Atlanta | 3 | Community","name_short":"atl-3","host":"atl-1.us.uncletopia.com","port":27035,"enabled":true,"region":"us-east","cc":"us","latitude":33.753746,"longitude":-84.38633,"reserved":0,"last_update":"0001-01-01T00:00:00Z","name_a2s":"Uncletopia | Atlanta | 3 | Community","protocol":17,"map":"cp_snakewater_final1","folder":"tf","game":"Team Fortress","app_id":440,"player_count":0,"max_players":24,"Bots":0,"server_type":"Dedicated","server_os":"Linux","password":true,"vac":true,"version":"7757534","steam_id":85568392924515187,"keywords":["cp","nocrits","nodmgspread","uncletopia"],"game_id":440,"stv_port":27036,"stv_name":"Uncletopia | Atlanta | 3 | Community | STV","players":null},{"server_id":401,"name":"Uncletopia | Atlanta | 4 | No Payload","name_short":"atl-4","host":"atl-1.us.uncletopia.com","port":27045,"enabled":true,"region":"us-east","cc":"us","latitude":33.753746,"longitude":-84.38633,"reserved":0,"last_update":"0001-01-01T00:00:00Z","name_a2s":"","protocol":0,"map":"","folder":"","game":"","app_id":0,"player_count":0,"max_players":0,"Bots":0,"server_type":"","server_os":"","password":false,"vac":false,"version":"","steam_id":0,"keywords":null,"game_id":0,"stv_port":0,"stv_name":"","players":null},{"server_id":2,"name":"Uncletopia | Chicago | 1 | All Maps","name_short":"chi-1","host":"chi-1.us.uncletopia.com","port":27015,"enabled":true,"region":"us-central","cc":"us","latitude":41.881832,"longitude":-87.62318,"reserved":0,"last_update":"0001-01-01T00:00:00Z","name_a2s":"Uncletopia | Chicago | 1 | All Maps","protocol":17,"map":"koth_cascade","folder":"tf","game":"Team Fortress","app_id":440,"player_count":0,"max_players":24,"Bots":0,"server_type":"Dedicated","server_os":"Linux","password":true,"vac":true,"version":"7757534","steam_id":85568392924469984,"keywords":["cp","nocrits","nodmgspread","uncletopia"],"game_id":440,"stv_port":27016,"stv_name":"Uncletopia | Chicago | 1 | All Maps | STV","players":null},{"server_id":106,"name":"Uncletopia | Chicago | 2 | All Maps","name_short":"chi-2","host":"chi-1.us.uncletopia.com","port":27025,"enabled":true,"region":"us-central","cc":"us","latitude":41.881832,"longitude":-87.62318,"reserved":0,"last_update":"0001-01-01T00:00:00Z","name_a2s":"Uncletopia | Chicago | 2 | All Maps","protocol":17,"map":"pl_snowycoast","folder":"tf","game":"Team Fortress","app_id":440,"player_count":22,"max_players":24,"Bots":0,"server_type":"Dedicated","server_os":"Linux","password":true,"vac":true,"version":"7757534","steam_id":85568392924469985,"keywords":["nocrits","nodmgspread","payload","uncletopia"],"game_id":440,"stv_port":27026,"stv_name":"Uncletopia | Chicago | 2 | All Maps | STV","players":[{"user_id":588,"name":"Monster","steam_id":76561198189429665,"connected_time":5585000000000,"state":"spawning","ping":82},{"user_id":595,"name":"BuncusBeffer","steam_id":76561198285936616,"connected_time":4963000000000,"state":"spawning","ping":94},{"user_id":645,"name":"Zelith","steam_id":76561198234980480,"connected_time":729000000000,"state":"spawning","ping":48},{"user_id":646,"name":"dmdr1969","steam_id":76561198080469611,"connected_time":727000000000,"state":"spawning","ping":50},{"user_id":642,"name":"Aegis","steam_id":76561198272052750,"connected_time":793000000000,"state":"spawning","ping":78},{"user_id":647,"name":"Saldaña","steam_id":76561198214473001,"connected_time":706000000000,"state":"spawning","ping":95},{"user_id":626,"name":"Lorzaveth","steam_id":76561198263259436,"connected_time":3192000000000,"state":"spawning","ping":84},{"user_id":638,"name":"Lemon Luke","steam_id":76561199141696546,"connected_time":1417000000000,"state":"spawning","ping":151},{"user_id":639,"name":"Crunchy","steam_id":76561198240523882,"connected_time":1410000000000,"state":"spawning","ping":102},{"user_id":651,"name":"trinqette (she/her)","steam_id":76561198119543621,"connected_time":601000000000,"state":"spawning","ping":43},{"user_id":634,"name":"Slauvy","steam_id":76561198001479663,"connected_time":1555000000000,"state":"spawning","ping":165},{"user_id":637,"name":"LiliRouxxx [live]","steam_id":76561198000522179,"connected_time":1462000000000,"state":"spawning","ping":57},{"user_id":590,"name":"MankTKO","steam_id":76561198189421005,"connected_time":5579000000000,"state":"spawning","ping":125},{"user_id":617,"name":"diseasedsnail","steam_id":76561199069459042,"connected_time":3454000000000,"state":"spawning","ping":96},{"user_id":632,"name":"{ᴄᴇʀᴘ} mtc","steam_id":76561199433123171,"connected_time":1787000000000,"state":"spawning","ping":248},{"user_id":652,"name":"big shmoka","steam_id":76561198050768962,"connected_time":413000000000,"state":"spawning","ping":77},{"user_id":600,"name":"Stan","steam_id":76561199057962816,"connected_time":4812000000000,"state":"spawning","ping":41},{"user_id":619,"name":"Michaelpc1","steam_id":76561198088365519,"connected_time":3405000000000,"state":"spawning","ping":82},{"user_id":654,"name":"DinoFan11902","steam_id":76561198260348654,"connected_time":29000000000,"state":"spawning","ping":79},{"user_id":653,"name":"Provocator","steam_id":76561197961830410,"connected_time":374000000000,"state":"spawning","ping":65},{"user_id":633,"name":"Satan-2","steam_id":76561199231742764,"connected_time":1782000000000,"state":"spawning","ping":51}]},{"server_id":402,"name":"Uncletopia | Chicago | 3 | All Maps","name_short":"chi-3","host":"chi-1.us.uncletopia.com","port":27035,"enabled":true,"region":"us-central","cc":"us","latitude":41.881832,"longitude":-87.62318,"reserved":0,"last_update":"0001-01-01T00:00:00Z","name_a2s":"Uncletopia | Chicago | 3 | All Maps","protocol":17,"map":"koth_cascade","folder":"tf","game":"Team Fortress","app_id":440,"player_count":0,"max_players":24,"Bots":0,"server_type":"Dedicated","server_os":"Linux","password":true,"vac":true,"version":"7757534","steam_id":85568392924515191,"keywords":["cp","nocrits","nodmgspread","uncletopia"],"game_id":440,"stv_port":27036,"stv_name":"Uncletopia | Chicago | 3 | All Maps | STV","players":null},{"server_id":403,"name":"Uncletopia | Chicago | 4 | All Maps","name_short":"chi-4","host":"chi-1.us.uncletopia.com","port":27045,"enabled":true,"region":"us-central","cc":"us","latitude":41.881832,"longitude":-87.62318,"reserved":0,"last_update":"0001-01-01T00:00:00Z","name_a2s":"Uncletopia | Chicago | 4 | All Maps","protocol":17,"map":"pl_swiftwater_final1","folder":"tf","game":"Team Fortress","app_id":440,"player_count":0,"max_players":24,"Bots":0,"server_type":"Dedicated","server_os":"Linux","password":true,"vac":true,"version":"7757534","steam_id":85568392924515193,"keywords":["nocrits","nodmgspread","payload","uncletopia"],"game_id":440,"stv_port":27046,"stv_name":"Uncletopia | Chicago | 4 | All Maps | STV","players":null},{"server_id":36,"name":"Uncletopia | Chicago | 5 | All Maps","name_short":"chi-5","host":"chi-2.us.uncletopia.com","port":27015,"enabled":true,"region":"us-central","cc":"us","latitude":41.881832,"longitude":-87.62318,"reserved":0,"last_update":"0001-01-01T00:00:00Z","name_a2s":"Uncletopia | Chicago | 5 | All Maps","protocol":17,"map":"cp_mountainlab","folder":"tf","game":"Team Fortress","app_id":440,"player_count":0,"max_players":24,"Bots":0,"server_type":"Dedicated","server_os":"Linux","password":true,"vac":true,"version":"7757534","steam_id":85568392924866362,"keywords":["cp","nocrits","nodmgspread","uncletopia"],"game_id":440,"stv_port":27016,"stv_name":"Uncletopia | Chicago | 5 | All Maps | STV","players":null},{"server_id":37,"name":"Uncletopia | Chicago | 6 | All Maps","name_short":"chi-6","host":"chi-2.us.uncletopia.com","port":27025,"enabled":true,"region":"us-central","cc":"us","latitude":41.881832,"longitude":-87.62318,"reserved":0,"last_update":"0001-01-01T00:00:00Z","name_a2s":"Uncletopia | Chicago | 6 | All Maps","protocol":17,"map":"cp_dustbowl","folder":"tf","game":"Team Fortress","app_id":440,"player_count":0,"max_players":24,"Bots":0,"server_type":"Dedicated","server_os":"Linux","password":true,"vac":true,"version":"7757534","steam_id":85568392924866363,"keywords":["cp","nocrits","nodmgspread","uncletopia"],"game_id":440,"stv_port":27026,"stv_name":"Uncletopia | Chicago | 6 | All Maps | STV","players":null},{"server_id":38,"name":"Uncletopia | Chicago | 7 | Stopwatch Beta","name_short":"chi-7","host":"chi-2.us.uncletopia.com","port":27035,"enabled":true,"region":"us-central","cc":"us","latitude":41.881832,"longitude":-87.62318,"reserved":0,"last_update":"0001-01-01T00:00:00Z","name_a2s":"Uncletopia | Chicago | 7 | Stopwatch Beta","protocol":17,"map":"pl_barnblitz","folder":"tf","game":"Team Fortress","app_id":440,"player_count":0,"max_players":24,"Bots":0,"server_type":"Dedicated","server_os":"Linux","password":true,"vac":true,"version":"7757534","steam_id":85568392924866364,"keywords":["nocrits","nodmgspread","payload","uncletopia"],"game_id":440,"stv_port":27036,"stv_name":"Uncletopia | Chicago | 7 | Stopwatch Beta | STV","players":null},{"server_id":39,"name":"Uncletopia | Chicago | 8 | Community","name_short":"chi-8","host":"chi-2.us.uncletopia.com","port":27045,"enabled":true,"region":"us-central","cc":"us","latitude":41.881832,"longitude":-87.62318,"reserved":0,"last_update":"0001-01-01T00:00:00Z","name_a2s":"Uncletopia | Chicago | 8 | Community","protocol":17,"map":"workshop/koth_ramjam_rc1.ugc459778887","folder":"tf","game":"Team Fortress","app_id":440,"player_count":0,"max_players":24,"Bots":0,"server_type":"Dedicated","server_os":"Linux","password":true,"vac":true,"version":"7757534","steam_id":85568392924866365,"keywords":["cp","nocrits","nodmgspread","uncletopia"],"game_id":440,"stv_port":27046,"stv_name":"Uncletopia | Chicago | 8 | Community | STV","players":null},{"server_id":8,"name":"Uncletopia | Dallas | 1 | All Maps","name_short":"dal-1","host":"dal-1.us.uncletopia.com","port":27015,"enabled":true,"region":"us-central","cc":"us","latitude":32.779167,"longitude":-96.80889,"reserved":0,"last_update":"0001-01-01T00:00:00Z","name_a2s":"Uncletopia | Dallas | 1 | All Maps","protocol":17,"map":"cp_mountainlab","folder":"tf","game":"Team Fortress","app_id":440,"player_count":0,"max_players":24,"Bots":0,"server_type":"Dedicated","server_os":"Linux","password":true,"vac":true,"version":"7757534","steam_id":85568392924469986,"keywords":["cp","nocrits","nodmgspread","uncletopia"],"game_id":440,"stv_port":27016,"stv_name":"Uncletopia | Dallas | 1 | All Maps | STV","players":null},{"server_id":108,"name":"Uncletopia | Dallas | 2 | All Maps","name_short":"dal-2","host":"dal-1.us.uncletopia.com","port":27025,"enabled":true,"region":"us-central","cc":"us","latitude":32.779167,"longitude":-96.80889,"reserved":0,"last_update":"0001-01-01T00:00:00Z","name_a2s":"Uncletopia | Dallas | 2 | All Maps","protocol":17,"map":"pl_barnblitz","folder":"tf","game":"Team Fortress","app_id":440,"player_count":22,"max_players":24,"Bots":0,"server_type":"Dedicated","server_os":"Linux","password":true,"vac":true,"version":"7757534","steam_id":85568392924469988,"keywords":["nocrits","nodmgspread","payload","uncletopia"],"game_id":440,"stv_port":27026,"stv_name":"Uncletopia | Dallas | 2 | All Maps | STV","players":[{"user_id":742,"name":"it's peanut time","steam_id":76561198236028020,"connected_time":222000000000,"state":"active","ping":110},{"user_id":743,"name":"W00FR","steam_id":76561198010635986,"connected_time":120000000000,"state":"active","ping":98},{"user_id":744,"name":"Rebi","steam_id":76561199030110402,"connected_time":72000000000,"state":"active","ping":177},{"user_id":716,"name":"punished med","steam_id":76561198315674238,"connected_time":3007000000000,"state":"active","ping":119},{"user_id":677,"name":"ttv/whiteboyst0ner1997","steam_id":76561198064558316,"connected_time":5355000000000,"state":"active","ping":70},{"user_id":745,"name":"ilikecorn78","steam_id":76561198838784551,"connected_time":70000000000,"state":"active","ping":68},{"user_id":717,"name":"LumaDooma","steam_id":76561198076875817,"connected_time":2968000000000,"state":"active","ping":45},{"user_id":705,"name":"God","steam_id":76561198131089513,"connected_time":4068000000000,"state":"active","ping":74},{"user_id":746,"name":"ursa","steam_id":76561198025394298,"connected_time":51000000000,"state":"active","ping":90},{"user_id":740,"name":"Moop","steam_id":76561198096984681,"connected_time":404000000000,"state":"active","ping":55},{"user_id":747,"name":"s0ulful","steam_id":76561198109721532,"connected_time":35000000000,"state":"spawning","ping":68},{"user_id":706,"name":"DoDonPachi","steam_id":76561199085984801,"connected_time":3951000000000,"state":"active","ping":172},{"user_id":733,"name":"The Fiend","steam_id":76561199229771413,"connected_time":1854000000000,"state":"active","ping":103},{"user_id":748,"name":"mann","steam_id":76561199406261605,"connected_time":7000000000,"state":"spawning","ping":84},{"user_id":695,"name":"GuyGoom","steam_id":76561198254522178,"connected_time":4527000000000,"state":"active","ping":75},{"user_id":731,"name":"L + Maidenless + Tarnished","steam_id":76561198978605490,"connected_time":1944000000000,"state":"active","ping":76},{"user_id":738,"name":"ATL1 cheers2x","steam_id":76561198366299848,"connected_time":762000000000,"state":"active","ping":64},{"user_id":720,"name":"SAD MOSCOVIA","steam_id":76561198101081520,"connected_time":2851000000000,"state":"active","ping":115},{"user_id":741,"name":"Mr.Frundles","steam_id":76561198134559026,"connected_time":404000000000,"state":"active","ping":108},{"user_id":725,"name":"Phoenix","steam_id":76561198042171266,"connected_time":2398000000000,"state":"active","ping":106},{"user_id":723,"name":"juanjoesc","steam_id":76561198186368430,"connected_time":2799000000000,"state":"active","ping":129},{"user_id":698,"name":"bocaJ","steam_id":76561198374535092,"connected_time":4316000000000,"state":"active","ping":60}]},{"server_id":5,"name":"Uncletopia | Frankfurt | 1 | All Maps","name_short":"frk-1","host":"frk-1.de.uncletopia.com","port":27015,"enabled":true,"region":"eu","cc":"de","latitude":50.110924,"longitude":8.682127,"reserved":0,"last_update":"0001-01-01T00:00:00Z","name_a2s":"Uncletopia | Frankfurt | 1 | All Maps","protocol":17,"map":"pl_pier","folder":"tf","game":"Team Fortress","app_id":440,"player_count":0,"max_players":24,"Bots":0,"server_type":"Dedicated","server_os":"Linux","password":true,"vac":true,"version":"7757534","steam_id":85568392924469989,"keywords":["nocrits","nodmgspread","payload","uncletopia"],"game_id":440,"stv_port":27016,"stv_name":"Uncletopia | Frankfurt | 1 | All Maps | STV","players":null},{"server_id":110,"name":"Uncletopia | Frankfurt | 2 | All Maps","name_short":"frk-2","host":"frk-1.de.uncletopia.com","port":27025,"enabled":true,"region":"eu","cc":"de","latitude":50.110924,"longitude":8.682127,"reserved":0,"last_update":"0001-01-01T00:00:00Z","name_a2s":"Uncletopia | Frankfurt | 2 | All Maps","protocol":17,"map":"pl_upward","folder":"tf","game":"Team Fortress","app_id":440,"player_count":23,"max_players":24,"Bots":0,"server_type":"Dedicated","server_os":"Linux","password":true,"vac":true,"version":"7757534","steam_id":85568392924469990,"keywords":["nocrits","nodmgspread","payload","uncletopia"],"game_id":440,"stv_port":27026,"stv_name":"Uncletopia | Frankfurt | 2 | All Maps | STV","players":[{"user_id":46,"name":"Fulzus","steam_id":76561198347023668,"connected_time":487000000000,"state":"active","ping":119},{"user_id":49,"name":"Cypher","steam_id":76561197996967254,"connected_time":268000000000,"state":"active","ping":55},{"user_id":7,"name":"pain train tf2","steam_id":76561198111568728,"connected_time":2945000000000,"state":"active","ping":35},{"user_id":41,"name":"Firevell","steam_id":76561198154813359,"connected_time":809000000000,"state":"active","ping":60},{"user_id":9,"name":"[Walmart] HatsuneMiku","steam_id":76561198843075093,"connected_time":2669000000000,"state":"active","ping":84},{"user_id":34,"name":"XxSuperPenisxX","steam_id":76561199089532056,"connected_time":1232000000000,"state":"active","ping":57},{"user_id":42,"name":"remote-controlled bungus","steam_id":76561198401523966,"connected_time":742000000000,"state":"active","ping":90},{"user_id":13,"name":"lvl. 50 honkler","steam_id":76561198061688660,"connected_time":2132000000000,"state":"active","ping":100},{"user_id":35,"name":"BlinkedUp","steam_id":76561198249985618,"connected_time":1220000000000,"state":"active","ping":57},{"user_id":15,"name":"YinYang Ivy","steam_id":76561198319862585,"connected_time":2093000000000,"state":"active","ping":59},{"user_id":16,"name":"SmavionX","steam_id":76561198135227953,"connected_time":2089000000000,"state":"active","ping":46},{"user_id":43,"name":"beeb","steam_id":76561198211644077,"connected_time":734000000000,"state":"active","ping":75},{"user_id":37,"name":"AdmiralMorkBork","steam_id":76561198086813092,"connected_time":1095000000000,"state":"active","ping":190},{"user_id":19,"name":"Rahu 'Siebren' Godless","steam_id":76561198276259175,"connected_time":1905000000000,"state":"active","ping":96},{"user_id":48,"name":"XPullaHiiri","steam_id":76561198031652375,"connected_time":455000000000,"state":"active","ping":88},{"user_id":45,"name":"Wahoo.mp3","steam_id":76561198045722771,"connected_time":572000000000,"state":"active","ping":73},{"user_id":38,"name":"i look at gay people","steam_id":76561198078032019,"connected_time":987000000000,"state":"active","ping":67},{"user_id":47,"name":"Hedge Knight","steam_id":76561198989449047,"connected_time":483000000000,"state":"active","ping":119},{"user_id":26,"name":"Kildon","steam_id":76561198134661558,"connected_time":1739000000000,"state":"active","ping":83},{"user_id":27,"name":"Captain Scrumpe","steam_id":76561198032206577,"connected_time":1715000000000,"state":"active","ping":73},{"user_id":36,"name":"maerd.","steam_id":76561198031942623,"connected_time":1219000000000,"state":"active","ping":69},{"user_id":30,"name":"Princess Fuzz","steam_id":76561198025783000,"connected_time":1641000000000,"state":"active","ping":59},{"user_id":44,"name":"Dergi","steam_id":76561198040843250,"connected_time":685000000000,"state":"active","ping":59}]},{"server_id":308,"name":"Uncletopia | Frankfurt | 3 | All Maps","name_short":"frk-3","host":"frk-1.de.uncletopia.com","port":27035,"enabled":true,"region":"eu","cc":"de","latitude":50.110924,"longitude":8.682127,"reserved":0,"last_update":"0001-01-01T00:00:00Z","name_a2s":"Uncletopia | Frankfurt | 3 | All Maps","protocol":17,"map":"cp_altitude","folder":"tf","game":"Team Fortress","app_id":440,"player_count":0,"max_players":24,"Bots":0,"server_type":"Dedicated","server_os":"Linux","password":true,"vac":true,"version":"7757534","steam_id":85568392924504274,"keywords":["cp","nocrits","nodmgspread","uncletopia"],"game_id":440,"stv_port":27036,"stv_name":"Uncletopia | Frankfurt | 3 | All Maps | STV","players":null},{"server_id":309,"name":"Uncletopia | Frankfurt | 4 | All Maps","name_short":"frk-4","host":"frk-1.de.uncletopia.com","port":27045,"enabled":true,"region":"eu","cc":"de","latitude":50.110924,"longitude":8.682127,"reserved":0,"last_update":"0001-01-01T00:00:00Z","name_a2s":"Uncletopia | Frankfurt | 4 | All Maps","protocol":17,"map":"koth_viaduct","folder":"tf","game":"Team Fortress","app_id":440,"player_count":0,"max_players":24,"Bots":0,"server_type":"Dedicated","server_os":"Linux","password":true,"vac":true,"version":"7757534","steam_id":85568392924504275,"keywords":["cp","nocrits","nodmgspread","uncletopia"],"game_id":440,"stv_port":27046,"stv_name":"Uncletopia | Frankfurt | 4 | All Maps | STV","players":null},{"server_id":310,"name":"Uncletopia | Frankfurt | 5 | All Maps","name_short":"frk-5","host":"frk-1.de.uncletopia.com","port":27055,"enabled":true,"region":"eu","cc":"de","latitude":50.110924,"longitude":8.682127,"reserved":0,"last_update":"0001-01-01T00:00:00Z","name_a2s":"Uncletopia | Frankfurt | 5 | All Maps","protocol":17,"map":"koth_lakeside_final","folder":"tf","game":"Team Fortress","app_id":440,"player_count":0,"max_players":24,"Bots":0,"server_type":"Dedicated","server_os":"Linux","password":true,"vac":true,"version":"7757534","steam_id":85568392924504277,"keywords":["cp","nocrits","nodmgspread","uncletopia"],"game_id":440,"stv_port":27056,"stv_name":"Uncletopia | Frankfurt | 5 | All Maps | STV","players":null},{"server_id":311,"name":"Uncletopia | Frankfurt | 6 | All Maps","name_short":"frk-6","host":"frk-1.de.uncletopia.com","port":27065,"enabled":true,"region":"eu","cc":"de","latitude":50.110924,"longitude":8.682127,"reserved":0,"last_update":"0001-01-01T00:00:00Z","name_a2s":"Uncletopia | Frankfurt | 6 | All Maps","protocol":17,"map":"cp_dustbowl","folder":"tf","game":"Team Fortress","app_id":440,"player_count":0,"max_players":24,"Bots":0,"server_type":"Dedicated","server_os":"Linux","password":true,"vac":true,"version":"7757534","steam_id":85568392924504278,"keywords":["cp","nocrits","nodmgspread","uncletopia"],"game_id":440,"stv_port":27066,"stv_name":"Uncletopia | Frankfurt | 6 | All Maps | STV","players":null},{"server_id":23,"name":"Uncletopia | Frankfurt | 7 | Stopwatch Beta","name_short":"frk-7","host":"frk-1.de.uncletopia.com","port":27075,"enabled":true,"region":"eu","cc":"de","latitude":50.110924,"longitude":8.682127,"reserved":0,"last_update":"0001-01-01T00:00:00Z","name_a2s":"Uncletopia | Frankfurt | 7 | Stopwatch Beta","protocol":17,"map":"cp_sunshine","folder":"tf","game":"Team Fortress","app_id":440,"player_count":0,"max_players":24,"Bots":0,"server_type":"Dedicated","server_os":"Linux","password":true,"vac":true,"version":"7757534","steam_id":85568392924742827,"keywords":["cp","nocrits","nodmgspread","uncletopia"],"game_id":440,"stv_port":27076,"stv_name":"Uncletopia | Frankfurt | 7 | Stopwatch Beta | STV","players":null},{"server_id":24,"name":"Uncletopia | Frankfurt | 8 | Community","name_short":"frk-8","host":"frk-1.de.uncletopia.com","port":27085,"enabled":true,"region":"eu","cc":"de","latitude":50.110924,"longitude":8.682127,"reserved":0,"last_update":"0001-01-01T00:00:00Z","name_a2s":"Uncletopia | Frankfurt | 8 | Community","protocol":17,"map":"koth_lakeside_final","folder":"tf","game":"Team Fortress","app_id":440,"player_count":0,"max_players":24,"Bots":0,"server_type":"Dedicated","server_os":"Linux","password":true,"vac":true,"version":"7757534","steam_id":85568392924742828,"keywords":["cp","nocrits","nodmgspread","uncletopia"],"game_id":440,"stv_port":27086,"stv_name":"Uncletopia | Frankfurt | 8 | Community | STV","players":null},{"server_id":202,"name":"Uncletopia | Hong Kong | 1 | All Maps","name_short":"hgk-1","host":"hgk-1.hk.uncletopia.com","port":27015,"enabled":true,"region":"asia","cc":"hk","latitude":22.302711,"longitude":114.177216,"reserved":0,"last_update":"0001-01-01T00:00:00Z","name_a2s":"Uncletopia | Hong Kong | 1 | All Maps","protocol":17,"map":"pl_frontier_final","folder":"tf","game":"Team Fortress","app_id":440,"player_count":21,"max_players":24,"Bots":0,"server_type":"Dedicated","server_os":"Linux","password":true,"vac":true,"version":"7757534","steam_id":85568392924494504,"keywords":["nocrits","nodmgspread","payload","uncletopia"],"game_id":440,"stv_port":27016,"stv_name":"Uncletopia | Hong Kong | 1 | All Maps | STV","players":[{"user_id":184,"name":"b（￣▽￣）d　好","steam_id":76561199237383346,"connected_time":177000000000,"state":"active","ping":62},{"user_id":132,"name":"Saggle","steam_id":76561198056075147,"connected_time":3250000000000,"state":"active","ping":138},{"user_id":176,"name":"Phou","steam_id":76561198322136756,"connected_time":456000000000,"state":"active","ping":119},{"user_id":166,"name":"gutter runner","steam_id":76561198110545854,"connected_time":985000000000,"state":"active","ping":164},{"user_id":40,"name":"Vortex Medico","steam_id":76561198833527091,"connected_time":13173000000000,"state":"active","ping":89},{"user_id":160,"name":"Sneaky Ass Sniper","steam_id":76561198083923462,"connected_time":1135000000000,"state":"active","ping":74},{"user_id":183,"name":"The Worst Mobile Gamer","steam_id":76561199198665314,"connected_time":210000000000,"state":"active","ping":65},{"user_id":145,"name":"infra","steam_id":76561198924576271,"connected_time":2344000000000,"state":"active","ping":144},{"user_id":161,"name":"Nice","steam_id":76561199180653046,"connected_time":1120000000000,"state":"active","ping":129},{"user_id":174,"name":"screaming sniper","steam_id":76561199085568674,"connected_time":564000000000,"state":"active","ping":76},{"user_id":168,"name":"ItsAMeWilfred","steam_id":76561198965171490,"connected_time":959000000000,"state":"active","ping":73},{"user_id":144,"name":"Baresnuk","steam_id":76561198139171790,"connected_time":2415000000000,"state":"active","ping":74},{"user_id":170,"name":"SunShine","steam_id":76561198323642446,"connected_time":934000000000,"state":"active","ping":107},{"user_id":146,"name":"spinach (old mouse)","steam_id":76561198042539541,"connected_time":2344000000000,"state":"active","ping":83},{"user_id":186,"name":"yw","steam_id":76561199382726488,"connected_time":122000000000,"state":"active","ping":48},{"user_id":187,"name":"HopleVN","steam_id":76561199016625920,"connected_time":111000000000,"state":"active","ping":72},{"user_id":155,"name":"Panfoolery","steam_id":76561199042318535,"connected_time":1687000000000,"state":"active","ping":99},{"user_id":156,"name":"Crazywayne","steam_id":76561198056504010,"connected_time":1675000000000,"state":"active","ping":75},{"user_id":153,"name":"bruh","steam_id":76561199068229379,"connected_time":2019000000000,"state":"active","ping":61},{"user_id":154,"name":"daigennki","steam_id":76561198046328609,"connected_time":2017000000000,"state":"active","ping":101},{"user_id":78,"name":"JDSFE","steam_id":76561198975490851,"connected_time":10564000000000,"state":"active","ping":112}]},{"server_id":1,"name":"Uncletopia | Los Angeles | 1 | All Maps","name_short":"lax-1","host":"lax-1.us.uncletopia.com","port":27015,"enabled":true,"region":"us-west","cc":"us","latitude":33.94279,"longitude":-118.41004,"reserved":0,"last_update":"0001-01-01T00:00:00Z","name_a2s":"Uncletopia | Los Angeles | 1 | All Maps","protocol":17,"map":"pl_swiftwater_final1","folder":"tf","game":"Team Fortress","app_id":440,"player_count":0,"max_players":24,"Bots":0,"server_type":"Dedicated","server_os":"Linux","password":true,"vac":true,"version":"7757534","steam_id":85568392924469991,"keywords":["nocrits","nodmgspread","payload","uncletopia"],"game_id":440,"stv_port":27016,"stv_name":"Uncletopia | Los Angeles | 1 | All Maps | STV","players":null},{"server_id":112,"name":"Uncletopia | Los Angeles | 2 | All Maps","name_short":"lax-2","host":"lax-1.us.uncletopia.com","port":27025,"enabled":true,"region":"us-west","cc":"us","latitude":33.94279,"longitude":-118.41004,"reserved":0,"last_update":"0001-01-01T00:00:00Z","name_a2s":"Uncletopia | Los Angeles | 2 | All Maps","protocol":17,"map":"koth_viaduct","folder":"tf","game":"Team Fortress","app_id":440,"player_count":0,"max_players":24,"Bots":0,"server_type":"Dedicated","server_os":"Linux","password":true,"vac":true,"version":"7757534","steam_id":85568392924469992,"keywords":["cp","nocrits","nodmgspread","uncletopia"],"game_id":440,"stv_port":27026,"stv_name":"Uncletopia | Los Angeles | 2 | All Maps | STV","players":null},{"server_id":324,"name":"Uncletopia | Los Angeles | 3 | All Maps","name_short":"lax-3","host":"lax-1.us.uncletopia.com","port":27035,"enabled":true,"region":"us-west","cc":"us","latitude":33.94279,"longitude":-118.41004,"reserved":0,"last_update":"0001-01-01T00:00:00Z","name_a2s":"Uncletopia | Los Angeles | 3 | All Maps","protocol":17,"map":"pl_frontier_final","folder":"tf","game":"Team Fortress","app_id":440,"player_count":0,"max_players":24,"Bots":0,"server_type":"Dedicated","server_os":"Linux","password":true,"vac":true,"version":"7757534","steam_id":85568392924510198,"keywords":["nocrits","nodmgspread","payload","uncletopia"],"game_id":440,"stv_port":27036,"stv_name":"Uncletopia | Los Angeles | 3 | All Maps | STV","players":null},{"server_id":25,"name":"Uncletopia | Los Angeles | 4 | Stopwatch Beta","name_short":"lax-4","host":"lax-1.us.uncletopia.com","port":27045,"enabled":true,"region":"us-west","cc":"us","latitude":33.94279,"longitude":-118.41004,"reserved":0,"last_update":"0001-01-01T00:00:00Z","name_a2s":"Uncletopia | Los Angeles | 4 | Stopwatch Beta","protocol":17,"map":"pl_swiftwater_final1","folder":"tf","game":"Team Fortress","app_id":440,"player_count":0,"max_players":24,"Bots":0,"server_type":"Dedicated","server_os":"Linux","password":true,"vac":true,"version":"7757534","steam_id":85568392924510199,"keywords":["nocrits","nodmgspread","payload","uncletopia"],"game_id":440,"stv_port":27046,"stv_name":"Uncletopia | Los Angeles | 4 | Stopwatch Beta | STV","players":null},{"server_id":11,"name":"Uncletopia | London | 1 | All Maps","name_short":"lon-1","host":"lon-1.uk.uncletopia.com","port":27015,"enabled":true,"region":"eu","cc":"gb","latitude":51.509865,"longitude":-0.118092,"reserved":0,"last_update":"0001-01-01T00:00:00Z","name_a2s":"Uncletopia | London | 1 | All Maps","protocol":17,"map":"cp_vanguard","folder":"tf","game":"Team Fortress","app_id":440,"player_count":24,"max_players":24,"Bots":0,"server_type":"Dedicated","server_os":"Linux","password":true,"vac":true,"version":"7757534","steam_id":85568392924367362,"keywords":["cp","nocrits","nodmgspread","uncletopia"],"game_id":440,"stv_port":27016,"stv_name":"Uncletopia | London | 1 | All Maps | STV","players":[{"user_id":233,"name":"Max","steam_id":76561198138959361,"connected_time":194000000000,"state":"active","ping":70},{"user_id":236,"name":"and i'm javert!","steam_id":76561198117033273,"connected_time":87000000000,"state":"active","ping":59},{"user_id":105,"name":"ugly","steam_id":76561199050412617,"connected_time":12572000000000,"state":"active","ping":110},{"user_id":232,"name":"Dorich","steam_id":76561198287126217,"connected_time":324000000000,"state":"active","ping":60},{"user_id":193,"name":"SCRAMMMBLED","steam_id":76561197998307746,"connected_time":2883000000000,"state":"active","ping":73},{"user_id":211,"name":"Svilar","steam_id":76561198828348612,"connected_time":1648000000000,"state":"active","ping":60},{"user_id":210,"name":"disrespectful simplification","steam_id":76561198043836847,"connected_time":1662000000000,"state":"active","ping":75},{"user_id":206,"name":"Piteras","steam_id":76561198858532207,"connected_time":2227000000000,"state":"active","ping":82},{"user_id":201,"name":"dimitrij_6ix_god","steam_id":76561199023275543,"connected_time":2615000000000,"state":"active","ping":88},{"user_id":227,"name":"Ran33","steam_id":76561197991474499,"connected_time":469000000000,"state":"active","ping":79},{"user_id":173,"name":"maiden","steam_id":76561197994492154,"connected_time":6225000000000,"state":"active","ping":80},{"user_id":228,"name":"NitPig","steam_id":76561198212991935,"connected_time":442000000000,"state":"active","ping":113},{"user_id":237,"name":"kikkus ツ","steam_id":76561197993889739,"connected_time":2000000000,"state":"spawning","ping":54},{"user_id":213,"name":"alexander","steam_id":76561198388750592,"connected_time":1564000000000,"state":"active","ping":71},{"user_id":220,"name":"marlboro red","steam_id":76561198373653790,"connected_time":1336000000000,"state":"active","ping":67},{"user_id":219,"name":"Pirovideo","steam_id":76561198850819934,"connected_time":1349000000000,"state":"active","ping":44},{"user_id":46,"name":"Rin-Nakaret","steam_id":76561197971051188,"connected_time":16730000000000,"state":"active","ping":59},{"user_id":229,"name":"StarveCrafter","steam_id":76561199090019697,"connected_time":376000000000,"state":"active","ping":92},{"user_id":234,"name":"mixxxa_french","steam_id":76561198085098243,"connected_time":169000000000,"state":"active","ping":119},{"user_id":230,"name":"Kamikrazy","steam_id":76561198044254918,"connected_time":371000000000,"state":"active","ping":55},{"user_id":222,"name":"Woman (Real)","steam_id":76561199151823932,"connected_time":1206000000000,"state":"active","ping":88},{"user_id":231,"name":"Vitule","steam_id":76561198344265906,"connected_time":365000000000,"state":"active","ping":82},{"user_id":223,"name":"Blitzy","steam_id":76561198059253518,"connected_time":1195000000000,"state":"active","ping":64},{"user_id":207,"name":"Dwevy","steam_id":76561198090379437,"connected_time":2155000000000,"state":"active","ping":55}]},{"server_id":114,"name":"Uncletopia | London | 2 | All Maps","name_short":"lon-2","host":"lon-1.uk.uncletopia.com","port":27025,"enabled":true,"region":"eu","cc":"gb","latitude":51.509865,"longitude":-0.118092,"reserved":0,"last_update":"0001-01-01T00:00:00Z","name_a2s":"Uncletopia | London | 2 | All Maps","protocol":17,"map":"pl_badwater","folder":"tf","game":"Team Fortress","app_id":440,"player_count":24,"max_players":24,"Bots":0,"server_type":"Dedicated","server_os":"Linux","password":true,"vac":true,"version":"7757534","steam_id":85568392924470941,"keywords":["nocrits","nodmgspread","payload","uncletopia"],"game_id":440,"stv_port":27026,"stv_name":"Uncletopia | London | 2 | All Maps | STV","players":[{"user_id":153,"name":"AmPretzel","steam_id":76561198289877555,"connected_time":2037000000000,"state":"active","ping":51},{"user_id":173,"name":"poliakov.noam","steam_id":76561199259322961,"connected_time":986000000000,"state":"active","ping":103},{"user_id":184,"name":"Sacco","steam_id":76561199048451187,"connected_time":190000000000,"state":"active","ping":72},{"user_id":187,"name":"Urfangonultasadana","steam_id":76561199389286151,"connected_time":121000000000,"state":"active","ping":100},{"user_id":178,"name":"PinkKong","steam_id":76561197993950694,"connected_time":781000000000,"state":"active","ping":85},{"user_id":174,"name":"cat","steam_id":76561198832231975,"connected_time":961000000000,"state":"active","ping":91},{"user_id":155,"name":"Tsuki No Okami","steam_id":76561198012508184,"connected_time":1980000000000,"state":"active","ping":59},{"user_id":164,"name":"I'M CLINICALLY INSANE","steam_id":76561198208349835,"connected_time":1208000000000,"state":"active","ping":63},{"user_id":169,"name":"lulu","steam_id":76561199147764133,"connected_time":1112000000000,"state":"active","ping":72},{"user_id":188,"name":"Evelgrand","steam_id":76561199480523816,"connected_time":56000000000,"state":"spawning","ping":103},{"user_id":166,"name":"NT4Chan","steam_id":76561199482763562,"connected_time":1177000000000,"state":"active","ping":68},{"user_id":176,"name":"Lord z Párnie","steam_id":76561198070815677,"connected_time":849000000000,"state":"active","ping":70},{"user_id":181,"name":"on1on (fried)","steam_id":76561197995304137,"connected_time":268000000000,"state":"active","ping":71},{"user_id":182,"name":"G6 sherlock","steam_id":76561198802967796,"connected_time":212000000000,"state":"active","ping":119},{"user_id":144,"name":"Ega420","steam_id":76561198009600395,"connected_time":2525000000000,"state":"active","ping":96},{"user_id":170,"name":"Вадим Какашкин","steam_id":76561198383509320,"connected_time":1056000000000,"state":"active","ping":77},{"user_id":185,"name":"t0ksi","steam_id":76561198107240798,"connected_time":186000000000,"state":"active","ping":78},{"user_id":158,"name":"Mercedes Dens","steam_id":76561198397955132,"connected_time":1905000000000,"state":"active","ping":111},{"user_id":127,"name":"Charles Darwin","steam_id":76561197973496139,"connected_time":2877000000000,"state":"active","ping":60},{"user_id":186,"name":"YourDoom","steam_id":76561198080790857,"connected_time":185000000000,"state":"active","ping":61},{"user_id":172,"name":"vadim_kotler","steam_id":76561199016634369,"connected_time":993000000000,"state":"active","ping":101},{"user_id":175,"name":"RiX","steam_id":76561197969053733,"connected_time":925000000000,"state":"active","ping":69},{"user_id":150,"name":"Floris Kakadoris","steam_id":76561198258458741,"connected_time":2433000000000,"state":"active","ping":54},{"user_id":183,"name":"[NL] JTI","steam_id":76561198173153699,"connected_time":205000000000,"state":"active","ping":56}]},{"server_id":320,"name":"Uncletopia | London | 3 | All Maps","name_short":"lon-3","host":"lon-1.uk.uncletopia.com","port":27035,"enabled":true,"region":"eu","cc":"gb","latitude":51.509865,"longitude":-0.118092,"reserved":0,"last_update":"0001-01-01T00:00:00Z","name_a2s":"Uncletopia | London | 3 | All Maps","protocol":17,"map":"pl_badwater","folder":"tf","game":"Team Fortress","app_id":440,"player_count":0,"max_players":24,"Bots":0,"server_type":"Dedicated","server_os":"Linux","password":true,"vac":true,"version":"7757534","steam_id":85568392924510192,"keywords":["nocrits","nodmgspread","payload","uncletopia"],"game_id":440,"stv_port":27036,"stv_name":"Uncletopia | London | 3 | All Maps | STV","players":null},{"server_id":321,"name":"Uncletopia | London | 4 | All Maps","name_short":"lon-4","host":"lon-1.uk.uncletopia.com","port":27045,"enabled":true,"region":"eu","cc":"gb","latitude":51.509865,"longitude":-0.118092,"reserved":0,"last_update":"0001-01-01T00:00:00Z","name_a2s":"Uncletopia | London | 4 | All Maps","protocol":17,"map":"cp_dustbowl","folder":"tf","game":"Team Fortress","app_id":440,"player_count":0,"max_players":24,"Bots":0,"server_type":"Dedicated","server_os":"Linux","password":true,"vac":true,"version":"7757534","steam_id":85568392924510193,"keywords":["cp","nocrits","nodmgspread","uncletopia"],"game_id":440,"stv_port":27046,"stv_name":"Uncletopia | London | 4 | All Maps | STV","players":null},{"server_id":21,"name":"Uncletopia | London | 5 | All Maps","name_short":"lon-5","host":"lon-1.uk.uncletopia.com","port":27055,"enabled":true,"region":"eu","cc":"gb","latitude":51.509865,"longitude":-0.118092,"reserved":0,"last_update":"0001-01-01T00:00:00Z","name_a2s":"Uncletopia | London | 5 | All Maps","protocol":17,"map":"cp_altitude","folder":"tf","game":"Team Fortress","app_id":440,"player_count":0,"max_players":24,"Bots":0,"server_type":"Dedicated","server_os":"Linux","password":true,"vac":true,"version":"7757534","steam_id":85568392924742829,"keywords":["cp","nocrits","nodmgspread","uncletopia"],"game_id":440,"stv_port":27056,"stv_name":"Uncletopia | London | 5 | All Maps | STV","players":null},{"server_id":22,"name":"Uncletopia | London | 6 | All Maps","name_short":"lon-6","host":"lon-1.uk.uncletopia.com","port":27065,"enabled":true,"region":"eu","cc":"gb","latitude":51.509865,"longitude":-0.118092,"reserved":0,"last_update":"0001-01-01T00:00:00Z","name_a2s":"Uncletopia | London | 6 | All Maps","protocol":17,"map":"cp_mountainlab","folder":"tf","game":"Team Fortress","app_id":440,"player_count":0,"max_players":24,"Bots":0,"server_type":"Dedicated","server_os":"Linux","password":true,"vac":true,"version":"7757534","steam_id":85568392924742830,"keywords":["cp","nocrits","nodmgspread","uncletopia"],"game_id":440,"stv_port":27066,"stv_name":"Uncletopia | London | 6 | All Maps | STV","players":null},{"server_id":40,"name":"Uncletopia | London | 7 | No Payload","name_short":"lon-7","host":"lon-1.uk.uncletopia.com","port":27075,"enabled":true,"region":"eu","cc":"gb","latitude":51.509865,"longitude":-0.118092,"reserved":0,"last_update":"0001-01-01T00:00:00Z","name_a2s":"Uncletopia | London | 7 | No Payload","protocol":17,"map":"pl_badwater","folder":"tf","game":"Team Fortress","app_id":440,"player_count":0,"max_players":24,"Bots":0,"server_type":"Dedicated","server_os":"Linux","password":true,"vac":true,"version":"7757534","steam_id":85568392924964314,"keywords":["nocrits","nodmgspread","payload","uncletopia"],"game_id":440,"stv_port":27076,"stv_name":"Uncletopia | London | 7 | No Payload | STV","players":null},{"server_id":41,"name":"Uncletopia | London | 8 | Community","name_short":"lon-8","host":"lon-1.uk.uncletopia.com","port":27085,"enabled":true,"region":"eu","cc":"gb","latitude":51.509865,"longitude":-0.118092,"reserved":0,"last_update":"0001-01-01T00:00:00Z","name_a2s":"Uncletopia | London | 8 | Community","protocol":17,"map":"pl_barnblitz","folder":"tf","game":"Team Fortress","app_id":440,"player_count":0,"max_players":24,"Bots":0,"server_type":"Dedicated","server_os":"Linux","password":true,"vac":true,"version":"7757534","steam_id":85568392924964315,"keywords":["nocrits","nodmgspread","payload","uncletopia"],"game_id":440,"stv_port":27086,"stv_name":"Uncletopia | London | 8 | Community | STV","players":null},{"server_id":300,"name":"Uncletopia | Montréal | 1 | All Maps","name_short":"mtl-1","host":"mtl-1.ca.uncletopia.com","port":27015,"enabled":true,"region":"us-east","cc":"ca","latitude":45.50889,"longitude":-73.56167,"reserved":0,"last_update":"0001-01-01T00:00:00Z","name_a2s":"Uncletopia | Montréal | 1 | All Maps","protocol":17,"map":"pl_upward","folder":"tf","game":"Team Fortress","app_id":440,"player_count":0,"max_players":24,"Bots":0,"server_type":"Dedicated","server_os":"Linux","password":true,"vac":true,"version":"7757534","steam_id":85568392924500087,"keywords":["nocrits","nodmgspread","payload","uncletopia"],"game_id":440,"stv_port":27016,"stv_name":"Uncletopia | Montréal | 1 | All Maps | STV","players":null},{"server_id":301,"name":"Uncletopia | Montréal | 2 | All Maps","name_short":"mtl-2","host":"mtl-1.ca.uncletopia.com","port":27025,"enabled":true,"region":"us-east","cc":"ca","latitude":45.50889,"longitude":-73.56167,"reserved":0,"last_update":"0001-01-01T00:00:00Z","name_a2s":"Uncletopia | Montréal | 2 | All Maps","protocol":17,"map":"pl_snowycoast","folder":"tf","game":"Team Fortress","app_id":440,"player_count":0,"max_players":24,"Bots":0,"server_type":"Dedicated","server_os":"Linux","password":true,"vac":true,"version":"7757534","steam_id":85568392924500088,"keywords":["nocrits","nodmgspread","payload","uncletopia"],"game_id":440,"stv_port":27026,"stv_name":"Uncletopia | Montréal | 2 | All Maps | STV","players":null},{"server_id":302,"name":"Uncletopia | Montréal | 3 | All Maps","name_short":"mtl-3","host":"mtl-1.ca.uncletopia.com","port":27035,"enabled":true,"region":"us-east","cc":"ca","latitude":45.50889,"longitude":-73.56167,"reserved":0,"last_update":"0001-01-01T00:00:00Z","name_a2s":"Uncletopia | Montréal | 3 | All Maps","protocol":17,"map":"pl_swiftwater_final1","folder":"tf","game":"Team Fortress","app_id":440,"player_count":0,"max_players":24,"Bots":0,"server_type":"Dedicated","server_os":"Linux","password":true,"vac":true,"version":"7757534","steam_id":85568392924500089,"keywords":["nocrits","nodmgspread","payload","uncletopia"],"game_id":440,"stv_port":27036,"stv_name":"Uncletopia | Montréal | 3 | All Maps | STV","players":null},{"server_id":303,"name":"Uncletopia | Montréal | 4 | No Payload","name_short":"mtl-4","host":"mtl-1.ca.uncletopia.com","port":27045,"enabled":true,"region":"us-east","cc":"ca","latitude":45.50889,"longitude":-73.56167,"reserved":0,"last_update":"0001-01-01T00:00:00Z","name_a2s":"Uncletopia | Montréal | 4 | No Payload","protocol":17,"map":"pl_pier","folder":"tf","game":"Team Fortress","app_id":440,"player_count":0,"max_players":24,"Bots":0,"server_type":"Dedicated","server_os":"Linux","password":true,"vac":true,"version":"7757534","steam_id":85568392924500090,"keywords":["nocrits","nodmgspread","payload","uncletopia"],"game_id":440,"stv_port":27046,"stv_name":"Uncletopia | Montréal | 4 | No Payload | STV","players":null},{"server_id":13,"name":"Uncletopia | New York City | 1 | All Maps","name_short":"nyc-1","host":"nyc-1.us.uncletopia.com","port":27015,"enabled":true,"region":"us-east","cc":"us","latitude":40.73061,"longitude":-73.93524,"reserved":0,"last_update":"0001-01-01T00:00:00Z","name_a2s":"Uncletopia | New York City | 1 | All Maps","protocol":17,"map":"koth_viaduct","folder":"tf","game":"Team Fortress","app_id":440,"player_count":0,"max_players":24,"Bots":0,"server_type":"Dedicated","server_os":"Linux","password":true,"vac":true,"version":"7757534","steam_id":85568392924469993,"keywords":["cp","nocrits","nodmgspread","uncletopia"],"game_id":440,"stv_port":27016,"stv_name":"Uncletopia | New York City | 1 | All Maps | STV","players":null},{"server_id":14,"name":"Uncletopia | New York City | 2 | All Maps","name_short":"nyc-2","host":"nyc-1.us.uncletopia.com","port":27025,"enabled":true,"region":"us-east","cc":"us","latitude":40.73061,"longitude":-73.93524,"reserved":0,"last_update":"0001-01-01T00:00:00Z","name_a2s":"Uncletopia | New York City | 2 | All Maps","protocol":17,"map":"cp_dustbowl","folder":"tf","game":"Team Fortress","app_id":440,"player_count":0,"max_players":24,"Bots":0,"server_type":"Dedicated","server_os":"Linux","password":true,"vac":true,"version":"7757534","steam_id":85568392924469994,"keywords":["cp","nocrits","nodmgspread","uncletopia"],"game_id":440,"stv_port":27026,"stv_name":"Uncletopia | New York City | 2 | All Maps | STV","players":null},{"server_id":15,"name":"Uncletopia | New York City | 3 | Stopwatch Beta","name_short":"nyc-3","host":"nyc-1.us.uncletopia.com","port":27035,"enabled":true,"region":"us-east","cc":"us","latitude":40.73061,"longitude":-73.93524,"reserved":0,"last_update":"0001-01-01T00:00:00Z","name_a2s":"Uncletopia | New York City | 3 | Stopwatch Beta","protocol":17,"map":"pl_upward","folder":"tf","game":"Team Fortress","app_id":440,"player_count":0,"max_players":24,"Bots":0,"server_type":"Dedicated","server_os":"Linux","password":true,"vac":true,"version":"7757534","steam_id":85568392924742820,"keywords":["nocrits","nodmgspread","payload","uncletopia"],"game_id":440,"stv_port":27036,"stv_name":"Uncletopia | New York City | 3 | Stopwatch Beta | STV","players":null},{"server_id":16,"name":"Uncletopia | New York City | 4 | Community","name_short":"nyc-4","host":"nyc-1.us.uncletopia.com","port":27045,"enabled":true,"region":"us-east","cc":"us","latitude":40.73061,"longitude":-73.93524,"reserved":0,"last_update":"0001-01-01T00:00:00Z","name_a2s":"Uncletopia | New York City | 4 | Community","protocol":17,"map":"pl_swiftwater_final1","folder":"tf","game":"Team Fortress","app_id":440,"player_count":0,"max_players":24,"Bots":0,"server_type":"Dedicated","server_os":"Linux","password":true,"vac":true,"version":"7757534","steam_id":85568392924742821,"keywords":["nocrits","nodmgspread","payload","uncletopia"],"game_id":440,"stv_port":27046,"stv_name":"Uncletopia | New York City | 4 | Community | STV","players":null},{"server_id":142,"name":"Uncletopia | São Paulo | 1 | All Maps","name_short":"sao-1","host":"sao-1.br.uncletopia.com","port":27015,"enabled":true,"region":"sa","cc":"br","latitude":-23.533773,"longitude":-46.62529,"reserved":0,"last_update":"0001-01-01T00:00:00Z","name_a2s":"Uncletopia | São Paulo | 1 | All Maps","protocol":17,"map":"koth_lakeside_final","folder":"tf","game":"Team Fortress","app_id":440,"player_count":0,"max_players":24,"Bots":0,"server_type":"Dedicated","server_os":"Linux","password":true,"vac":true,"version":"7757534","steam_id":85568392924469996,"keywords":["cp","nocrits","nodmgspread","uncletopia"],"game_id":440,"stv_port":27016,"stv_name":"Uncletopia | São Paulo | 1 | All Maps | STV","players":null},{"server_id":143,"name":"Uncletopia | São Paulo | 2 | All Maps","name_short":"sao-2","host":"sao-2.br.uncletopia.com","port":27015,"enabled":true,"region":"sa","cc":"br","latitude":-23.533773,"longitude":-46.62529,"reserved":0,"last_update":"0001-01-01T00:00:00Z","name_a2s":"Uncletopia | São Paulo | 2 | All Maps","protocol":17,"map":"pl_borneo","folder":"tf","game":"Team Fortress","app_id":440,"player_count":0,"max_players":24,"Bots":0,"server_type":"Dedicated","server_os":"Linux","password":true,"vac":true,"version":"7757534","steam_id":85568392924485349,"keywords":["nocrits","nodmgspread","payload","uncletopia"],"game_id":440,"stv_port":27016,"stv_name":"Uncletopia | São Paulo | 2 | All Maps | STV","players":null},{"server_id":7,"name":"Uncletopia | Seattle | 1 | All Maps","name_short":"sea-1","host":"sea-1.us.uncletopia.com","port":27015,"enabled":true,"region":"us-west","cc":"us","latitude":47.608013,"longitude":-122.33517,"reserved":0,"last_update":"0001-01-01T00:00:00Z","name_a2s":"Uncletopia | Seattle | 1 | All Maps","protocol":17,"map":"pl_barnblitz","folder":"tf","game":"Team Fortress","app_id":440,"player_count":24,"max_players":24,"Bots":0,"server_type":"Dedicated","server_os":"Linux","password":true,"vac":true,"version":"7757534","steam_id":85568392924469997,"keywords":["nocrits","nodmgspread","payload","uncletopia"],"game_id":440,"stv_port":27016,"stv_name":"Uncletopia | Seattle | 1 | All Maps | STV","players":[{"user_id":704,"name":"ScrrtScout","steam_id":76561199001404376,"connected_time":1703000000000,"state":"active","ping":121},{"user_id":681,"name":"cracky","steam_id":76561197971365444,"connected_time":4957000000000,"state":"active","ping":49},{"user_id":684,"name":"Sgt Autmn","steam_id":76561198072047939,"connected_time":4507000000000,"state":"active","ping":86},{"user_id":701,"name":"HellaCopter","steam_id":76561198062313698,"connected_time":1760000000000,"state":"active","ping":62},{"user_id":690,"name":"[Zero] Lag","steam_id":76561198983494186,"connected_time":3956000000000,"state":"active","ping":118},{"user_id":666,"name":"DMAFGreatoverlordSchikonmaster","steam_id":76561198123510618,"connected_time":7027000000000,"state":"active","ping":100},{"user_id":705,"name":"☠Death Himself☠","steam_id":76561199118070947,"connected_time":1555000000000,"state":"active","ping":75},{"user_id":695,"name":"Jitterskull","steam_id":76561198060461871,"connected_time":3817000000000,"state":"active","ping":103},{"user_id":594,"name":"Flesh Eating Turtle","steam_id":76561198116742139,"connected_time":13509000000000,"state":"active","ping":54},{"user_id":708,"name":"Technology Man","steam_id":76561198196136573,"connected_time":1201000000000,"state":"active","ping":44},{"user_id":703,"name":"Soozy420","steam_id":76561198809074422,"connected_time":1735000000000,"state":"active","ping":72},{"user_id":691,"name":"Mordekaiser Gaming","steam_id":76561198060155858,"connected_time":3954000000000,"state":"active","ping":65},{"user_id":709,"name":"Sir Galahad","steam_id":76561198195999859,"connected_time":1008000000000,"state":"active","ping":56},{"user_id":717,"name":"Bassline","steam_id":76561199129606036,"connected_time":120000000000,"state":"active","ping":61},{"user_id":716,"name":"Bubblegum Tip","steam_id":76561198048131308,"connected_time":414000000000,"state":"active","ping":70},{"user_id":698,"name":"the cock","steam_id":76561198065153674,"connected_time":2509000000000,"state":"active","ping":96},{"user_id":693,"name":"vibe bunny","steam_id":76561198309944201,"connected_time":3945000000000,"state":"active","ping":95},{"user_id":702,"name":"Rain","steam_id":76561198065612273,"connected_time":1758000000000,"state":"active","ping":45},{"user_id":713,"name":"Tiny Microwave Quiches :3","steam_id":76561198025463423,"connected_time":757000000000,"state":"active","ping":86},{"user_id":694,"name":"Tatoski","steam_id":76561198292388540,"connected_time":3937000000000,"state":"active","ping":68},{"user_id":714,"name":"sierra","steam_id":76561197969873415,"connected_time":687000000000,"state":"active","ping":142},{"user_id":700,"name":"El Duderino","steam_id":76561199427900685,"connected_time":1764000000000,"state":"active","ping":92},{"user_id":677,"name":"RED","steam_id":76561198030282308,"connected_time":5774000000000,"state":"active","ping":71},{"user_id":697,"name":"seats","steam_id":76561197998756039,"connected_time":2543000000000,"state":"active","ping":70}]},{"server_id":119,"name":"Uncletopia | Seattle | 2 | All Maps","name_short":"sea-2","host":"sea-1.us.uncletopia.com","port":27025,"enabled":true,"region":"us-west","cc":"us","latitude":47.608013,"longitude":-122.33517,"reserved":0,"last_update":"0001-01-01T00:00:00Z","name_a2s":"Uncletopia | Seattle | 2 | All Maps","protocol":17,"map":"koth_cascade","folder":"tf","game":"Team Fortress","app_id":440,"player_count":0,"max_players":24,"Bots":0,"server_type":"Dedicated","server_os":"Linux","password":true,"vac":true,"version":"7757534","steam_id":85568392924469998,"keywords":["cp","nocrits","nodmgspread","uncletopia"],"game_id":440,"stv_port":27026,"stv_name":"Uncletopia | Seattle | 2 | All Maps | STV","players":null},{"server_id":406,"name":"Uncletopia | Seattle | 3 | Stopwatch Beta","name_short":"sea-3","host":"sea-1.us.uncletopia.com","port":27035,"enabled":true,"region":"us-west","cc":"us","latitude":47.608013,"longitude":-122.33517,"reserved":0,"last_update":"0001-01-01T00:00:00Z","name_a2s":"Uncletopia | Seattle | 3 | Stopwatch Beta","protocol":17,"map":"workshop/pl_vigil_rc9.ugc1266210012","folder":"tf","game":"Team Fortress","app_id":440,"player_count":0,"max_players":24,"Bots":0,"server_type":"Dedicated","server_os":"Linux","password":true,"vac":true,"version":"7757534","steam_id":85568392924515217,"keywords":["nocrits","nodmgspread","payload","uncletopia"],"game_id":440,"stv_port":27036,"stv_name":"Uncletopia | Seattle | 3 | Stopwatch Beta | STV","players":null},{"server_id":17,"name":"Uncletopia | San Francisco | 1 | All Maps","name_short":"sfo-1","host":"sfo-1.us.uncletopia.com","port":27015,"enabled":true,"region":"us-west","cc":"us","latitude":37.77397,"longitude":-122.4313,"reserved":0,"last_update":"0001-01-01T00:00:00Z","name_a2s":"Uncletopia | San Francisco | 1 | All Maps","protocol":17,"map":"ctf_2fort","folder":"tf","game":"Team Fortress","app_id":440,"player_count":13,"max_players":24,"Bots":0,"server_type":"Dedicated","server_os":"Linux","password":true,"vac":true,"version":"7757534","steam_id":85568392924469999,"keywords":["ctf","nocrits","nodmgspread","uncletopia"],"game_id":440,"stv_port":27016,"stv_name":"Uncletopia | San Francisco | 1 | All Maps | STV","players":[{"user_id":1023,"name":"Enderlord99","steam_id":76561198158152954,"connected_time":1874000000000,"state":"active","ping":68},{"user_id":1018,"name":"Mak","steam_id":76561198089197922,"connected_time":2938000000000,"state":"active","ping":61},{"user_id":1029,"name":"AstroVulpes","steam_id":76561198384277161,"connected_time":657000000000,"state":"active","ping":213},{"user_id":1019,"name":"rednasa","steam_id":76561198421358163,"connected_time":2636000000000,"state":"active","ping":75},{"user_id":1020,"name":"Cyber the Raccoon Fox","steam_id":76561198046571972,"connected_time":2615000000000,"state":"active","ping":125},{"user_id":1021,"name":"Toasty","steam_id":76561198274170167,"connected_time":2374000000000,"state":"active","ping":105},{"user_id":1030,"name":"nic","steam_id":76561198030654668,"connected_time":643000000000,"state":"active","ping":74},{"user_id":1034,"name":"Giant","steam_id":76561198851536991,"connected_time":6000000000,"state":"active","ping":81},{"user_id":1028,"name":"Capra-Cabra","steam_id":76561198298837805,"connected_time":760000000000,"state":"active","ping":77},{"user_id":1031,"name":"Jacob T. Fox","steam_id":76561198047279351,"connected_time":635000000000,"state":"active","ping":53},{"user_id":1032,"name":"Zizen","steam_id":76561199011832069,"connected_time":400000000000,"state":"active","ping":49},{"user_id":1033,"name":"- K.K.-","steam_id":76561198825567047,"connected_time":339000000000,"state":"active","ping":114},{"user_id":1000,"name":"Wacks","steam_id":76561198079476100,"connected_time":9753000000000,"state":"active","ping":48}]},{"server_id":18,"name":"Uncletopia | San Francisco | 2 | All Maps","name_short":"sfo-2","host":"sfo-1.us.uncletopia.com","port":27025,"enabled":true,"region":"us-west","cc":"us","latitude":37.77397,"longitude":-122.4313,"reserved":0,"last_update":"0001-01-01T00:00:00Z","name_a2s":"Uncletopia | San Francisco | 2 | All Maps","protocol":17,"map":"cp_dustbowl","folder":"tf","game":"Team Fortress","app_id":440,"player_count":0,"max_players":24,"Bots":0,"server_type":"Dedicated","server_os":"Linux","password":true,"vac":true,"version":"7757534","steam_id":85568392924470000,"keywords":["cp","nocrits","nodmgspread","uncletopia"],"game_id":440,"stv_port":27026,"stv_name":"Uncletopia | San Francisco | 2 | All Maps | STV","players":null},{"server_id":19,"name":"Uncletopia | San Francisco | 3 | Stopwatch Beta","name_short":"sfo-3","host":"sfo-1.us.uncletopia.com","port":27035,"enabled":true,"region":"us-west","cc":"us","latitude":37.77397,"longitude":-122.4313,"reserved":0,"last_update":"0001-01-01T00:00:00Z","name_a2s":"Uncletopia | San Francisco | 3 | Stopwatch Beta","protocol":17,"map":"workshop/koth_clearcut_b15.ugc2107050255","folder":"tf","game":"Team Fortress","app_id":440,"player_count":0,"max_players":24,"Bots":0,"server_type":"Dedicated","server_os":"Linux","password":true,"vac":true,"version":"7757534","steam_id":85568392924742824,"keywords":["cp","nocrits","nodmgspread","uncletopia"],"game_id":440,"stv_port":27036,"stv_name":"Uncletopia | San Francisco | 3 | Stopwatch Beta | STV","players":null},{"server_id":20,"name":"Uncletopia | San Francisco | 4 | Community","name_short":"sfo-4","host":"sfo-1.us.uncletopia.com","port":27045,"enabled":true,"region":"us-west","cc":"us","latitude":37.77397,"longitude":-122.4313,"reserved":0,"last_update":"0001-01-01T00:00:00Z","name_a2s":"Uncletopia | San Francisco | 4 | Community","protocol":17,"map":"workshop/pl_cactuscanyon_redux_final2.ugc2579644293","folder":"tf","game":"Team Fortress","app_id":440,"player_count":0,"max_players":24,"Bots":0,"server_type":"Dedicated","server_os":"Linux","password":true,"vac":true,"version":"7757534","steam_id":85568392924742826,"keywords":["nocrits","nodmgspread","payload","uncletopia"],"game_id":440,"stv_port":27046,"stv_name":"Uncletopia | San Francisco | 4 | Community | STV","players":null},{"server_id":141,"name":"Uncletopia | Sydney | 1 | All Maps","name_short":"syd-1","host":"syd-1.au.uncletopia.com","port":27015,"enabled":true,"region":"au","cc":"au","latitude":-33.865143,"longitude":151.2099,"reserved":0,"last_update":"0001-01-01T00:00:00Z","name_a2s":"Uncletopia | Sydney | 1 | All Maps","protocol":17,"map":"pl_badwater","folder":"tf","game":"Team Fortress","app_id":440,"player_count":24,"max_players":24,"Bots":0,"server_type":"Dedicated","server_os":"Linux","password":true,"vac":true,"version":"7757534","steam_id":85568392924470001,"keywords":["nocrits","nodmgspread","payload","uncletopia"],"game_id":440,"stv_port":27016,"stv_name":"Uncletopia | Sydney | 1 | All Maps | STV","players":[{"user_id":174,"name":"OverTasked ッ","steam_id":76561198829465540,"connected_time":846000000000,"state":"active","ping":67},{"user_id":69,"name":"soupy","steam_id":76561198073734936,"connected_time":7997000000000,"state":"active","ping":83},{"user_id":160,"name":"Frog Friend","steam_id":76561198054505772,"connected_time":1336000000000,"state":"active","ping":52},{"user_id":81,"name":"Rocky","steam_id":76561199195385481,"connected_time":7535000000000,"state":"active","ping":74},{"user_id":161,"name":"Nackle","steam_id":76561198176111621,"connected_time":1294000000000,"state":"active","ping":90},{"user_id":163,"name":"Leany","steam_id":76561198029322296,"connected_time":1163000000000,"state":"active","ping":91},{"user_id":175,"name":"biff","steam_id":76561198069603865,"connected_time":766000000000,"state":"active","ping":61},{"user_id":180,"name":"Jodelkönig Franzl Lang","steam_id":76561198007667830,"connected_time":235000000000,"state":"active","ping":50},{"user_id":162,"name":"curtis","steam_id":76561197993731862,"connected_time":1223000000000,"state":"active","ping":90},{"user_id":128,"name":"Blazey 伊達 政宗","steam_id":76561197971082275,"connected_time":3681000000000,"state":"active","ping":113},{"user_id":173,"name":"blicky","steam_id":76561198029829077,"connected_time":872000000000,"state":"active","ping":92},{"user_id":178,"name":"ramjamslam","steam_id":76561198084310292,"connected_time":430000000000,"state":"active","ping":58},{"user_id":181,"name":"Capt. Dea'Claw","steam_id":76561198025419320,"connected_time":132000000000,"state":"active","ping":49},{"user_id":95,"name":"birko bird","steam_id":76561198203407172,"connected_time":6606000000000,"state":"active","ping":37},{"user_id":144,"name":"Johnny","steam_id":76561198046140614,"connected_time":2953000000000,"state":"active","ping":101},{"user_id":65,"name":"Server Maintenance","steam_id":76561199396024219,"connected_time":8100000000000,"state":"active","ping":58},{"user_id":119,"name":"bread","steam_id":76561199405764106,"connected_time":4125000000000,"state":"active","ping":44},{"user_id":166,"name":"[FTW] RonnieD'","steam_id":76561197993957267,"connected_time":1131000000000,"state":"active","ping":53},{"user_id":177,"name":"wombraidre","steam_id":76561199375834537,"connected_time":563000000000,"state":"active","ping":121},{"user_id":179,"name":"Cris.p bacon","steam_id":76561199230423491,"connected_time":395000000000,"state":"active","ping":108},{"user_id":167,"name":"Johnny Fairplay","steam_id":76561198121757287,"connected_time":1126000000000,"state":"active","ping":46},{"user_id":170,"name":"saudi ambassador messi","steam_id":76561198031293430,"connected_time":1057000000000,"state":"active","ping":77},{"user_id":148,"name":"FrOStY","steam_id":76561198088155805,"connected_time":2669000000000,"state":"active","ping":82},{"user_id":125,"name":"covenofbats","steam_id":76561198152117315,"connected_time":3825000000000,"state":"active","ping":45}]},{"server_id":123,"name":"Uncletopia | Sydney | 2 | All Maps","name_short":"syd-2","host":"syd-1.au.uncletopia.com","port":27025,"enabled":true,"region":"au","cc":"au","latitude":-33.865143,"longitude":151.2099,"reserved":0,"last_update":"0001-01-01T00:00:00Z","name_a2s":"Uncletopia | Sydney | 2 | All Maps","protocol":17,"map":"cp_dustbowl","folder":"tf","game":"Team Fortress","app_id":440,"player_count":19,"max_players":24,"Bots":0,"server_type":"Dedicated","server_os":"Linux","password":true,"vac":true,"version":"7757534","steam_id":85568392924470002,"keywords":["cp","nocrits","nodmgspread","uncletopia"],"game_id":440,"stv_port":27026,"stv_name":"Uncletopia | Sydney | 2 | All Maps | STV","players":[{"user_id":373,"name":"Sgt Pavlov","steam_id":76561197977615123,"connected_time":2417000000000,"state":"active","ping":65},{"user_id":386,"name":"Pile of Sneed","steam_id":76561198143537391,"connected_time":1270000000000,"state":"active","ping":55},{"user_id":384,"name":"LilCringe","steam_id":76561198171135461,"connected_time":1395000000000,"state":"active","ping":56},{"user_id":392,"name":"battle buddy","steam_id":76561198160536841,"connected_time":829000000000,"state":"active","ping":84},{"user_id":370,"name":"tim88435","steam_id":76561198089653987,"connected_time":2988000000000,"state":"active","ping":58},{"user_id":383,"name":"cas ganister","steam_id":76561198879023728,"connected_time":1490000000000,"state":"active","ping":48},{"user_id":388,"name":"Khonshu","steam_id":76561198386345535,"connected_time":922000000000,"state":"active","ping":69},{"user_id":393,"name":"Midgetslayer69","steam_id":76561199017378513,"connected_time":786000000000,"state":"active","ping":98},{"user_id":390,"name":"chedd","steam_id":76561198241344362,"connected_time":920000000000,"state":"active","ping":90},{"user_id":398,"name":"mboy","steam_id":76561198136218040,"connected_time":684000000000,"state":"active","ping":45},{"user_id":394,"name":"Kögar","steam_id":76561198215752965,"connected_time":751000000000,"state":"active","ping":81},{"user_id":401,"name":"Wubs","steam_id":76561198169757490,"connected_time":551000000000,"state":"active","ping":50},{"user_id":399,"name":"FreeBeers","steam_id":76561198095448607,"connected_time":656000000000,"state":"active","ping":65},{"user_id":382,"name":"Dom","steam_id":76561198846401809,"connected_time":1602000000000,"state":"active","ping":55},{"user_id":357,"name":"Samedi","steam_id":76561198252369460,"connected_time":4292000000000,"state":"active","ping":65},{"user_id":404,"name":"sig kuntt","steam_id":76561198126638443,"connected_time":321000000000,"state":"active","ping":115},{"user_id":407,"name":"helryeginn","steam_id":76561198202750573,"connected_time":145000000000,"state":"active","ping":46},{"user_id":363,"name":"MININinja1308","steam_id":76561199040303660,"connected_time":3830000000000,"state":"active","ping":55},{"user_id":397,"name":"Jr. Cpt. Cringe","steam_id":76561198361925565,"connected_time":725000000000,"state":"active","ping":85}]},{"server_id":395,"name":"Uncletopia | Sydney | 3 | All Maps","name_short":"syd-3","host":"syd-1.au.uncletopia.com","port":27035,"enabled":true,"region":"au","cc":"au","latitude":-33.865143,"longitude":151.2099,"reserved":0,"last_update":"0001-01-01T00:00:00Z","name_a2s":"Uncletopia | Sydney | 3 | All Maps","protocol":17,"map":"koth_highpass","folder":"tf","game":"Team Fortress","app_id":440,"player_count":0,"max_players":24,"Bots":0,"server_type":"Dedicated","server_os":"Linux","password":true,"vac":true,"version":"7757534","steam_id":85568392925194467,"keywords":["cp","nocrits","nodmgspread","uncletopia"],"game_id":440,"stv_port":27036,"stv_name":"Uncletopia | Sydney | 3 | All Maps | STV","players":null},{"server_id":396,"name":"Uncletopia | Sydney | 4 | All Maps","name_short":"syd-4","host":"syd-1.au.uncletopia.com","port":27045,"enabled":true,"region":"au","cc":"au","latitude":-33.865143,"longitude":151.2099,"reserved":0,"last_update":"0001-01-01T00:00:00Z","name_a2s":"Uncletopia | Sydney | 4 | All Maps","protocol":17,"map":"pl_badwater","folder":"tf","game":"Team Fortress","app_id":440,"player_count":0,"max_players":24,"Bots":0,"server_type":"Dedicated","server_os":"Linux","password":true,"vac":true,"version":"7757534","steam_id":85568392925397958,"keywords":["nocrits","nodmgspread","payload","uncletopia"],"game_id":440,"stv_port":27046,"stv_name":"Uncletopia | Sydney | 4 | All Maps | STV","players":null},{"server_id":58,"name":"Uncletopia | Sydney | 5 | Stopwatch Beta","name_short":"syd-5","host":"syd-1.au.uncletopia.com","port":27055,"enabled":true,"region":"au","cc":"au","latitude":-33.865143,"longitude":151.2099,"reserved":0,"last_update":"0001-01-01T00:00:00Z","name_a2s":"Uncletopia | Sydney | 5 | Stopwatch Beta","protocol":17,"map":"workshop/koth_clearcut_b15.ugc2107050255","folder":"tf","game":"Team Fortress","app_id":440,"player_count":0,"max_players":24,"Bots":0,"server_type":"Dedicated","server_os":"Linux","password":true,"vac":true,"version":"7757534","steam_id":85568392925397959,"keywords":["cp","nocrits","nodmgspread","uncletopia"],"game_id":440,"stv_port":27056,"stv_name":"Uncletopia | Sydney | 5 | Stopwatch Beta | STV","players":null},{"server_id":59,"name":"Uncletopia | Sydney | 6 | Community","name_short":"syd-6","host":"syd-1.au.uncletopia.com","port":27065,"enabled":true,"region":"au","cc":"au","latitude":-33.865143,"longitude":151.2099,"reserved":0,"last_update":"0001-01-01T00:00:00Z","name_a2s":"Uncletopia | Sydney | 6 | Community","protocol":17,"map":"cp_snakewater_final1","folder":"tf","game":"Team Fortress","app_id":440,"player_count":0,"max_players":24,"Bots":0,"server_type":"Dedicated","server_os":"Linux","password":true,"vac":true,"version":"7757534","steam_id":85568392925397960,"keywords":["cp","nocrits","nodmgspread","uncletopia"],"game_id":440,"stv_port":27066,"stv_name":"Uncletopia | Sydney | 6 | Community | STV","players":null},{"server_id":49,"name":"Uncletopia | Warsaw | 1 | All Maps","name_short":"waw-1","host":"waw-1.pl.uncletopia.com","port":27015,"enabled":true,"region":"eu","cc":"pl","latitude":52.2297,"longitude":21.017532,"reserved":0,"last_update":"0001-01-01T00:00:00Z","name_a2s":"","protocol":0,"map":"","folder":"","game":"","app_id":0,"player_count":0,"max_players":0,"Bots":0,"server_type":"","server_os":"","password":false,"vac":false,"version":"","steam_id":0,"keywords":null,"game_id":0,"stv_port":0,"stv_name":"","players":null},{"server_id":50,"name":"Uncletopia | Warsaw | 2 | All Maps","name_short":"waw-2","host":"waw-1.pl.uncletopia.com","port":27025,"enabled":true,"region":"eu","cc":"pl","latitude":52.2297,"longitude":21.017532,"reserved":0,"last_update":"0001-01-01T00:00:00Z","name_a2s":"Uncletopia | Warsaw | 2 | All Maps","protocol":17,"map":"koth_lakeside_final","folder":"tf","game":"Team Fortress","app_id":440,"player_count":7,"max_players":24,"Bots":0,"server_type":"Dedicated","server_os":"Linux","password":true,"vac":true,"version":"7757534","steam_id":85568392925397851,"keywords":["cp","nocrits","nodmgspread","uncletopia"],"game_id":440,"stv_port":27026,"stv_name":"Uncletopia | Warsaw | 2 | All Maps | STV","players":[{"user_id":4,"name":"Fish Bait","steam_id":76561198196406966,"connected_time":2299000000000,"state":"active","ping":46},{"user_id":5,"name":"Blam","steam_id":76561199142730050,"connected_time":1881000000000,"state":"active","ping":130},{"user_id":7,"name":"leonardini.w","steam_id":76561199097963071,"connected_time":953000000000,"state":"active","ping":58},{"user_id":8,"name":"Cyan Ruby","steam_id":76561199237253577,"connected_time":700000000000,"state":"active","ping":183},{"user_id":9,"name":"Flying skyhigh","steam_id":76561198372971096,"connected_time":621000000000,"state":"active","ping":90},{"user_id":11,"name":"Loop_Cat","steam_id":76561199045902145,"connected_time":327000000000,"state":"active","ping":131},{"user_id":13,"name":"coPe#LGBTQ SUCKS","steam_id":76561198869055760,"connected_time":265000000000,"state":"active","ping":155}]},{"server_id":51,"name":"Uncletopia | Warsaw | 3 | All Maps","name_short":"waw-3","host":"waw-1.pl.uncletopia.com","port":27035,"enabled":true,"region":"eu","cc":"pl","latitude":52.2297,"longitude":21.017532,"reserved":0,"last_update":"0001-01-01T00:00:00Z","name_a2s":"Uncletopia | Warsaw | 3 | All Maps","protocol":17,"map":"pl_badwater","folder":"tf","game":"Team Fortress","app_id":440,"player_count":0,"max_players":24,"Bots":0,"server_type":"Dedicated","server_os":"Linux","password":true,"vac":true,"version":"7757534","steam_id":85568392925397852,"keywords":["nocrits","nodmgspread","payload","uncletopia"],"game_id":440,"stv_port":27036,"stv_name":"Uncletopia | Warsaw | 3 | All Maps | STV","players":null},{"server_id":52,"name":"Uncletopia | Warsaw | 4 | All Maps","name_short":"waw-4","host":"waw-1.pl.uncletopia.com","port":27045,"enabled":true,"region":"eu","cc":"pl","latitude":52.2297,"longitude":21.017532,"reserved":0,"last_update":"0001-01-01T00:00:00Z","name_a2s":"Uncletopia | Warsaw | 4 | All Maps","protocol":17,"map":"koth_lakeside_final","folder":"tf","game":"Team Fortress","app_id":440,"player_count":0,"max_players":24,"Bots":0,"server_type":"Dedicated","server_os":"Linux","password":true,"vac":true,"version":"7757534","steam_id":85568392925397853,"keywords":["cp","nocrits","nodmgspread","uncletopia"],"game_id":440,"stv_port":27046,"stv_name":"Uncletopia | Warsaw | 4 | All Maps | STV","players":null},{"server_id":53,"name":"Uncletopia | Warsaw | 5 | Stopwatch Beta","name_short":"waw-5","host":"waw-1.pl.uncletopia.com","port":27055,"enabled":true,"region":"eu","cc":"pl","latitude":52.2297,"longitude":21.017532,"reserved":0,"last_update":"0001-01-01T00:00:00Z","name_a2s":"Uncletopia | Warsaw | 5 | Stopwatch Beta","protocol":17,"map":"pl_borneo","folder":"tf","game":"Team Fortress","app_id":440,"player_count":0,"max_players":24,"Bots":0,"server_type":"Dedicated","server_os":"Linux","password":true,"vac":true,"version":"7757534","steam_id":85568392925397854,"keywords":["nocrits","nodmgspread","payload","uncletopia"],"game_id":440,"stv_port":27056,"stv_name":"Uncletopia | Warsaw | 5 | Stopwatch Beta | STV","players":null},{"server_id":54,"name":"Uncletopia | Warsaw | 6 | Community","name_short":"waw-6","host":"waw-1.pl.uncletopia.com","port":27065,"enabled":true,"region":"eu","cc":"pl","latitude":52.2297,"longitude":21.017532,"reserved":0,"last_update":"0001-01-01T00:00:00Z","name_a2s":"Uncletopia | Warsaw | 6 | Community","protocol":17,"map":"koth_lakeside_final","folder":"tf","game":"Team Fortress","app_id":440,"player_count":0,"max_players":24,"Bots":0,"server_type":"Dedicated","server_os":"Linux","password":true,"vac":true,"version":"7757534","steam_id":85568392925397856,"keywords":["cp","nocrits","nodmgspread","uncletopia"],"game_id":440,"stv_port":27066,"stv_name":"Uncletopia | Warsaw | 6 | Community | STV","players":null}]}