{"status":true,"message":"","result":[{"server_id":9,"name":"Uncletopia | Atlanta | 1 | All Maps","name_short":"atl-1","host":"atl-1.us.uncletopia.com","port":27015,"enabled":true,"region":"us-east","cc":"us","latitude":33.753746,"longitude":-84.38633,"reserved":0,"last_update":"0001-01-01T00:00:00Z","name_a2s":"Uncletopia | Atlanta | 1 | All Maps","protocol":17,"map":"cp_dustbowl","folder":"tf","game":"Team Fortress","app_id":440,"player_count":24,"max_players":24,"Bots":0,"server_type":"Dedicated","server_os":"Linux","password":true,"vac":true,"version":"7757534","steam_id":85568392924469982,"keywords":["cp","nocrits","nodmgspread","uncletopia"],"game_id":440,"stv_port":27016,"stv_name":"Uncletopia | Atlanta | 1 | All Maps | STV","players":[{"user_id":716,"name":"ATL1 | Kramer","steam_id":76561198083595936,"connected_time":5419000000000,"state":"active","ping":76},{"user_id":763,"name":"messy_","steam_id":76561199095580664,"connected_time":721000000000,"state":"active","ping":120},{"user_id":761,"name":"♥Noble♥","steam_id":76561198427370124,"connected_time":736000000000,"state":"active","ping":76},{"user_id":757,"name":"David","steam_id":76561199187421416,"connected_time":1450000000000,"state":"active","ping":125},{"user_id":767,"name":"Cricket","steam_id":76561198268349382,"connected_time":606000000000,"state":"active","ping":106},{"user_id":659,"name":"eish","steam_id":76561198089463603,"connected_time":11401000000000,"state":"active","ping":121},{"user_id":752,"name":"Peter McKay","steam_id":76561198842221188,"connected_time":2216000000000,"state":"active","ping":78},{"user_id":775,"name":"Freddy Fazbear","steam_id":76561198432036026,"connected_time":114000000000,"state":"active","ping":56},{"user_id":760,"name":"Im High","steam_id":76561198049954886,"connected_time":741000000000,"state":"active","ping":70},{"user_id":769,"name":"Pop","steam_id":76561199012562851,"connected_time":601000000000,"state":"active","ping":86},{"user_id":746,"name":"scrambledeggs3","steam_id":76561198066112579,"connected_time":2369000000000,"state":"active","ping":80},{"user_id":762,"name":"Intestinal Straw","steam_id":76561198082095303,"connected_time":734000000000,"state":"active","ping":71},{"user_id":772,"name":"LK","steam_id":76561199113443118,"connected_time":408000000000,"state":"active","ping":106},{"user_id":717,"name":"Shame","steam_id":76561198100490994,"connected_time":5418000000000,"state":"active","ping":60},{"user_id":745,"name":"Intro Bonito","steam_id":76561198119478838,"connected_time":3031000000000,"state":"active","ping":47},{"user_id":770,"name":"リグマ","steam_id":76561197993145277,"connected_time":582000000000,"state":"active","ping":86},{"user_id":724,"name":"lynt","steam_id":76561198988333976,"connected_time":5276000000000,"state":"active","ping":44},{"user_id":743,"name":"Cherry Coke","steam_id":76561198178233006,"connected_time":3143000000000,"state":"active","ping":83},{"user_id":774,"name":"SitizenSnips","steam_id":76561198036855014,"connected_time":270000000000,"state":"active","ping":61},{"user_id":738,"name":"Darklacuna","steam_id":76561198889013399,"connected_time":3515000000000,"state":"active","ping":76},{"user_id":753,"name":"Endgame","steam_id":76561198031297469,"connected_time":2200000000000,"state":"active","ping":80},{"user_id":718,"name":"nomad","steam_id":76561197998740399,"connected_time":5410000000000,"state":"active","ping":72},{"user_id":766,"name":"Dolphinjuice","steam_id":76561198047012433,"connected_time":658000000000,"state":"active","ping":88},{"user_id":771,"name":"What's My Age Again?","steam_id":76561198035304483,"connected_time":582000000000,"state":"active","ping":68}]},{"server_id":104,"name":"Uncletopia | Atlanta | 2 | All Maps","name_short":"atl-2","host":"atl-1.us.uncletopia.com","port":27025,"enabled":true,"region":"us-east","cc":"us","latitude":33.753746,"longitude":-84.38633,"reserved":0,"last_update":"0001-01-01T00:00:00Z","name_a2s":"Uncletopia | Atlanta | 2 | All Maps","protocol":17,"map":"pl_swiftwater_final1","folder":"tf","game":"Team Fortress","app_id":440,"player_count":25,"max_players":24,"Bots":0,"server_type":"Dedicated","server_os":"Linux","password":true,"vac":true,"version":"7757534","steam_id":85568392924469983,"keywords":["nocrits","nodmgspread","payload","uncletopia"],"game_id":440,"stv_port":27026,"stv_name":"Uncletopia | Atlanta | 2 | All Maps | STV","players":[{"user_id":684,"name":"legalizme223","steam_id":76561198051698391,"connected_time":377000000000,"state":"active","ping":87},{"user_id":673,"name":"Eblizard","steam_id":76561198111481965,"connected_time":601000000000,"state":"active","ping":95},{"user_id":687,"name":"Macro","steam_id":76561199442846226,"connected_time":186000000000,"state":"active","ping":85},{"user_id":618,"name":"Eins","steam_id":76561199030343810,"connected_time":5620000000000,"state":"active","ping":40},{"user_id":672,"name":"Leapinglionz11","steam_id":76561199216740065,"connected_time":613000000000,"state":"active","ping":82},{"user_id":648,"name":"cass","steam_id":76561198074502046,"connected_time":2845000000000,"state":"active","ping":53},{"user_id":579,"name":"Kraftlos","steam_id":76561198074350350,"connected_time":9139000000000,"state":"active","ping":76},{"user_id":664,"name":"Missing Minus","steam_id":76561198120822928,"connected_time":1575000000000,"state":"active","ping":46},{"user_id":657,"name":"a little teapot","steam_id":76561198017131568,"connected_time":1988000000000,"state":"active","ping":79},{"user_id":681,"name":"Concolor","steam_id":76561198027734150,"connected_time":406000000000,"state":"active","ping":90},{"user_id":674,"name":"Sobertoday","steam_id":76561198010606163,"connected_time":590000000000,"state":"active","ping":88},{"user_id":651,"name":"uniwu - BUFF THE SPEED","steam_id":76561198864421290,"connected_time":2565000000000,"state":"active","ping":54},{"user_id":591,"name":"flappyflap2","steam_id":76561198285048973,"connected_time":7636000000000,"state":"active","ping":68},{"user_id":608,"name":"Korshal","steam_id":76561198819036121,"connected_time":6427000000000,"state":"active","ping":69},{"user_id":675,"name":"Cheese","steam_id":76561199207081299,"connected_time":567000000000,"state":"active","ping":94},{"user_id":686,"name":"RectalExam","steam_id":76561197970502312,"connected_time":237000000000,"state":"connecting","ping":0},{"user_id":680,"name":"ʕ•ᴥ•ʔ the bear","steam_id":76561197989591976,"connected_time":409000000000,"state":"active","ping":81},{"user_id":639,"name":"CroutonCriminal","steam_id":76561198252145166,"connected_time":3363000000000,"state":"active","ping":67},{"user_id":678,"name":"Michaelpc1","steam_id":76561198088365519,"connected_time":547000000000,"state":"active","ping":75},{"user_id":653,"name":"bob","steam_id":76561198261060542,"connected_time":2309000000000,"state":"active","ping":82},{"user_id":548,"name":"Darkdrake","steam_id":76561198107200600,"connected_time":11455000000000,"state":"active","ping":60},{"user_id":679,"name":"automaticflight","steam_id":76561198099462784,"connected_time":545000000000,"state":"active","ping":59},{"user_id":683,"name":"Ninjy","steam_id":76561198203017400,"connected_time":389000000000,"state":"active","ping":92},{"user_id":688,"name":"Yummy Kabobz","steam_id":76561198067661705,"connected_time":177000000000,"state":"active","ping":61},{"user_id":689,"name":"chilis baby back ribs","steam_id":76561198813516435,"connected_time":103000000000,"state":"active","ping":106}]},{"server_id":400,"name":"Uncletopia | Atlanta | 3 | Community","name_short":"atl-3","host":"atl-1.us.uncletopia.com","port":27035,"enabled":true,"region":"us-east","cc":"us","latitude":33.753746,"longitude":-84.38633,"reserved":0,"last_update":"0001-01-01T00:00:00Z","name_a2s":"Uncletopia | Atlanta | 3 | Community","protocol":17,"map":"workshop/pl_corrode_rc2.ugc546577989","folder":"tf","game":"Team Fortress","app_id":440,"player_count":24,"max_players":24,"Bots":0,"server_type":"Dedicated","server_os":"Linux","password":true,"vac":true,"version":"7757534","steam_id":85568392924515187,"keywords":["nocrits","nodmgspread","payload","uncletopia"],"game_id":440,"stv_port":27036,"stv_name":"Uncletopia | Atlanta | 3 | Community | STV","players":[{"user_id":125,"name":"chronic hash","steam_id":76561198104679689,"connected_time":6145000000000,"state":"active","ping":126},{"user_id":174,"name":"Fanthxm177","steam_id":76561198831301188,"connected_time":1380000000000,"state":"active","ping":86},{"user_id":164,"name":"hatchetax","steam_id":76561199013337543,"connected_time":2410000000000,"state":"active","ping":46},{"user_id":98,"name":"jaqalope","steam_id":76561198152144009,"connected_time":8133000000000,"state":"active","ping":96},{"user_id":168,"name":"10k Calorie B\u0026R Oreo Shake","steam_id":76561198057745131,"connected_time":2089000000000,"state":"active","ping":33},{"user_id":61,"name":"UNIT 220","steam_id":76561198042243497,"connected_time":10224000000000,"state":"active","ping":65},{"user_id":184,"name":"Zoro01","steam_id":76561198407989540,"connected_time":792000000000,"state":"active","ping":114},{"user_id":188,"name":"Anomet","steam_id":76561198060246255,"connected_time":503000000000,"state":"active","ping":59},{"user_id":173,"name":"eXprey","steam_id":76561198086348328,"connected_time":1521000000000,"state":"active","ping":88},{"user_id":191,"name":"glass","steam_id":76561198845795659,"connected_time":172000000000,"state":"active","ping":86},{"user_id":137,"name":"Van","steam_id":76561198073518712,"connected_time":5335000000000,"state":"active","ping":70},{"user_id":95,"name":"deadpixel","steam_id":76561198150249843,"connected_time":8488000000000,"state":"active","ping":62},{"user_id":192,"name":"Meme","steam_id":76561198080326037,"connected_time":133000000000,"state":"active","ping":82},{"user_id":186,"name":"etl","steam_id":76561198205062367,"connected_time":567000000000,"state":"active","ping":58},{"user_id":179,"name":"bron jame","steam_id":76561198202195792,"connected_time":1114000000000,"state":"active","ping":68},{"user_id":193,"name":"r0zemary","steam_id":76561198128494897,"connected_time":16000000000,"state":"spawning","ping":324},{"user_id":103,"name":"melon soda","steam_id":76561198066748230,"connected_time":7935000000000,"state":"active","ping":113},{"user_id":180,"name":"Xmoonsheep","steam_id":76561198158384685,"connected_time":1086000000000,"state":"active","ping":59},{"user_id":194,"name":"Urist","steam_id":76561198047247422,"connected_time":7000000000,"state":"spawning","ping":100},{"user_id":169,"name":"GiraffeMan","steam_id":76561198042104084,"connected_time":2073000000000,"state":"active","ping":70},{"user_id":171,"name":"mio","steam_id":76561198239286750,"connected_time":1855000000000,"state":"active","ping":68},{"user_id":181,"name":"S O L I D","steam_id":76561198086095072,"connected_time":1047000000000,"state":"active","ping":73},{"user_id":92,"name":"jester","steam_id":76561198065970212,"connected_time":8658000000000,"state":"active","ping":62},{"user_id":94,"name":"Phil Collins","steam_id":76561198068868644,"connected_time":8571000000000,"state":"active","ping":108}]},{"server_id":401,"name":"Uncletopia | Atlanta | 4 | No Payload","name_short":"atl-4","host":"atl-1.us.uncletopia.com","port":27045,"enabled":true,"region":"us-east","cc":"us","latitude":33.753746,"longitude":-84.38633,"reserved":0,"last_update":"0001-01-01T00:00:00Z","name_a2s":"","protocol":0,"map":"","folder":"","game":"","app_id":0,"player_count":0,"max_players":0,"Bots":0,"server_type":"","server_os":"","password":false,"vac":false,"version":"","steam_id":0,"keywords":null,"game_id":0,"stv_port":0,"stv_name":"","players":null},{"server_id":2,"name":"Uncletopia | Chicago | 1 | All Maps","name_short":"chi-1","host":"chi-1.us.uncletopia.com","port":27015,"enabled":true,"region":"us-central","cc":"us","latitude":41.881832,"longitude":-87.62318,"reserved":0,"last_update":"0001-01-01T00:00:00Z","name_a2s":"Uncletopia | Chicago | 1 | All Maps","protocol":17,"map":"pl_rumford_event","folder":"tf","game":"Team Fortress","app_id":440,"player_count":24,"max_players":24,"Bots":0,"server_type":"Dedicated","server_os":"Linux","password":true,"vac":true,"version":"7757534","steam_id":85568392924469984,"keywords":["nocrits","nodmgspread","payload","uncletopia"],"game_id":440,"stv_port":27016,"stv_name":"Uncletopia | Chicago | 1 | All Maps | STV","players":[{"user_id":743,"name":"Snom","steam_id":76561198333827920,"connected_time":5136000000000,"state":"active","ping":100},{"user_id":818,"name":"PKBEAST_7","steam_id":76561198177136537,"connected_time":363000000000,"state":"active","ping":90},{"user_id":794,"name":"FunGi","steam_id":76561198881418662,"connected_time":2210000000000,"state":"active","ping":82},{"user_id":809,"name":"Metbol","steam_id":76561198001362410,"connected_time":1947000000000,"state":"active","ping":78},{"user_id":820,"name":"NUt","steam_id":76561198031007966,"connected_time":319000000000,"state":"active","ping":73},{"user_id":731,"name":"CORGI.EXE","steam_id":76561198077093432,"connected_time":5928000000000,"state":"active","ping":65},{"user_id":813,"name":"Sun-on-a-Stick Enjoyer","steam_id":76561198375987246,"connected_time":1336000000000,"state":"active","ping":53},{"user_id":827,"name":"hermit wizard","steam_id":76561198015156743,"connected_time":62000000000,"state":"active","ping":78},{"user_id":756,"name":"Baka!⑨⑨⑨⑨","steam_id":76561198152948254,"connected_time":3710000000000,"state":"active","ping":67},{"user_id":733,"name":"hazel","steam_id":76561198173271218,"connected_time":5583000000000,"state":"active","ping":75},{"user_id":810,"name":"MosBlunted","steam_id":76561198259380127,"connected_time":1785000000000,"state":"active","ping":71},{"user_id":636,"name":"Trogdor","steam_id":76561198121353181,"connected_time":14080000000000,"state":"active","ping":106},{"user_id":814,"name":"Madrox Who?","steam_id":76561197988859134,"connected_time":1186000000000,"state":"active","ping":70},{"user_id":817,"name":"Glar","steam_id":76561198341907150,"connected_time":514000000000,"state":"active","ping":83},{"user_id":746,"name":"Rashi","steam_id":76561198390962022,"connected_time":4751000000000,"state":"active","ping":89},{"user_id":811,"name":"eloressa","steam_id":76561198120330867,"connected_time":1594000000000,"state":"active","ping":52},{"user_id":752,"name":"TallBit","steam_id":76561199059748976,"connected_time":3872000000000,"state":"active","ping":53},{"user_id":815,"name":"Captain Beefheart's Magic Band","steam_id":76561198823256589,"connected_time":906000000000,"state":"active","ping":52},{"user_id":821,"name":"SIGMA [BS]","steam_id":76561197962604879,"connected_time":287000000000,"state":"active","ping":74},{"user_id":822,"name":"Hammerhead","steam_id":76561198897122890,"connected_time":283000000000,"state":"active","ping":56},{"user_id":828,"name":"Sweattadpole","steam_id":76561199456100100,"connected_time":47000000000,"state":"active","ping":267},{"user_id":823,"name":"Zyzx","steam_id":76561198054177355,"connected_time":272000000000,"state":"active","ping":63},{"user_id":824,"name":"Argo","steam_id":76561198353725622,"connected_time":258000000000,"state":"active","ping":81},{"user_id":755,"name":"MAXIMUM OVERDRIVE","steam_id":76561198113992547,"connected_time":3711000000000,"state":"active","ping":89}]},{"server_id":106,"name":"Uncletopia | Chicago | 2 | All Maps","name_short":"chi-2","host":"chi-1.us.uncletopia.com","port":27025,"enabled":true,"region":"us-central","cc":"us","latitude":41.881832,"longitude":-87.62318,"reserved":0,"last_update":"0001-01-01T00:00:00Z","name_a2s":"Uncletopia | Chicago | 2 | All Maps","protocol":17,"map":"pl_upward","folder":"tf","game":"Team Fortress","app_id":440,"player_count":23,"max_players":24,"Bots":0,"server_type":"Dedicated","server_os":"Linux","password":true,"vac":true,"version":"7757534","steam_id":85568392924469985,"keywords":["nocrits","nodmgspread","payload","uncletopia"],"game_id":440,"stv_port":27026,"stv_name":"Uncletopia | Chicago | 2 | All Maps | STV","players":[{"user_id":676,"name":"Hash Yellow Mellow","steam_id":76561198089697360,"connected_time":345000000000,"state":"active","ping":76},{"user_id":638,"name":"dbelow_","steam_id":76561198056148853,"connected_time":4878000000000,"state":"active","ping":61},{"user_id":672,"name":"Tay","steam_id":76561198059605568,"connected_time":1035000000000,"state":"active","ping":71},{"user_id":671,"name":"^2Moving^1shadoW","steam_id":76561198078674411,"connected_time":1042000000000,"state":"active","ping":78},{"user_id":624,"name":"gps","steam_id":76561198067492304,"connected_time":5878000000000,"state":"active","ping":77},{"user_id":678,"name":"Grilled Cheese Obama Sandwich","steam_id":76561199129002905,"connected_time":187000000000,"state":"active","ping":99},{"user_id":681,"name":"swooce","steam_id":76561198156232484,"connected_time":145000000000,"state":"active","ping":68},{"user_id":606,"name":"Carmine Lupertazzi Jr.","steam_id":76561198059535856,"connected_time":6856000000000,"state":"active","ping":77},{"user_id":674,"name":"McGangBang","steam_id":76561198862379865,"connected_time":963000000000,"state":"active","ping":54},{"user_id":682,"name":"Cats","steam_id":76561197965022076,"connected_time":132000000000,"state":"active","ping":60},{"user_id":647,"name":"Admiral","steam_id":76561198189176634,"connected_time":4402000000000,"state":"active","ping":83},{"user_id":649,"name":"Dr. Ｔｉｍｓｋａ","steam_id":76561198272075712,"connected_time":4088000000000,"state":"active","ping":70},{"user_id":662,"name":"Mister Rattlebones","steam_id":76561198065560157,"connected_time":2013000000000,"state":"active","ping":52},{"user_id":644,"name":"bash -lc ./asshat.sh","steam_id":76561198004584315,"connected_time":4834000000000,"state":"active","ping":64},{"user_id":654,"name":"kivee","steam_id":76561198838223023,"connected_time":3081000000000,"state":"active","ping":57},{"user_id":677,"name":"Xii","steam_id":76561198860209947,"connected_time":254000000000,"state":"active","ping":49},{"user_id":593,"name":"Skullypoo","steam_id":76561198067912022,"connected_time":8027000000000,"state":"active","ping":64},{"user_id":627,"name":"LegendaryMister151","steam_id":76561198064890524,"connected_time":5807000000000,"state":"active","ping":87},{"user_id":679,"name":"Squiddysquibbles","steam_id":76561198268476001,"connected_time":182000000000,"state":"active","ping":49},{"user_id":656,"name":"Mr.Clean(All Purpose Cleaner)","steam_id":76561198208014257,"connected_time":3073000000000,"state":"active","ping":85},{"user_id":670,"name":"Toottoot","steam_id":76561197992404836,"connected_time":1927000000000,"state":"active","ping":45},{"user_id":663,"name":"duneblaster0","steam_id":76561198040364680,"connected_time":2010000000000,"state":"active","ping":48},{"user_id":665,"name":"TheOdds","steam_id":76561198867256650,"connected_time":2001000000000,"state":"active","ping":81}]},{"server_id":402,"name":"Uncletopia | Chicago | 3 | All Maps","name_short":"chi-3","host":"chi-1.us.uncletopia.com","port":27035,"enabled":true,"region":"us-central","cc":"us","latitude":41.881832,"longitude":-87.62318,"reserved":0,"last_update":"0001-01-01T00:00:00Z","name_a2s":"Uncletopia | Chicago | 3 | All Maps","protocol":17,"map":"plr_bananabay","folder":"tf","game":"Team Fortress","app_id":440,"player_count":24,"max_players":24,"Bots":0,"server_type":"Dedicated","server_os":"Linux","password":true,"vac":true,"version":"7757534","steam_id":85568392924515191,"keywords":["nocrits","nodmgspread","payload","uncletopia"],"game_id":440,"stv_port":27036,"stv_name":"Uncletopia | Chicago | 3 | All Maps | STV","players":[{"user_id":364,"name":"Portal2Player","steam_id":76561198062870114,"connected_time":4448000000000,"state":"active","ping":80},{"user_id":425,"name":"Unregistered Hypercam 2","steam_id":76561198046895822,"connected_time":534000000000,"state":"active","ping":75},{"user_id":380,"name":"Uwu Micster","steam_id":76561198843890616,"connected_time":2779000000000,"state":"active","ping":85},{"user_id":323,"name":"Radon","steam_id":76561198294035077,"connected_time":7662000000000,"state":"active","ping":65},{"user_id":415,"name":"cade","steam_id":76561198349941380,"connected_time":1048000000000,"state":"active","ping":45},{"user_id":437,"name":"Hydroxianchaos","steam_id":76561198043786828,"connected_time":178000000000,"state":"active","ping":64},{"user_id":416,"name":"Mirage","steam_id":76561199133903803,"connected_time":1046000000000,"state":"active","ping":93},{"user_id":414,"name":"JetZ","steam_id":76561199122488957,"connected_time":1214000000000,"state":"active","ping":70},{"user_id":438,"name":"if i miss I WILL KILL MYSELF!!!","steam_id":76561198253747839,"connected_time":0,"state":"spawning","ping":11},{"user_id":435,"name":"footoftheday","steam_id":76561198052712449,"connected_time":237000000000,"state":"active","ping":60},{"user_id":321,"name":"Cave Dweller","steam_id":76561198374825685,"connected_time":7802000000000,"state":"active","ping":118},{"user_id":422,"name":"CEOlifestyle","steam_id":76561198025747866,"connected_time":715000000000,"state":"active","ping":90},{"user_id":408,"name":"Coach McFish","steam_id":76561198210456405,"connected_time":1433000000000,"state":"active","ping":79},{"user_id":421,"name":"Bread Baker","steam_id":76561198185335103,"connected_time":799000000000,"state":"active","ping":73},{"user_id":427,"name":"bob","steam_id":76561199107044061,"connected_time":508000000000,"state":"active","ping":61},{"user_id":376,"name":"The strongest ⑨ ball","steam_id":76561198126760743,"connected_time":2800000000000,"state":"active","ping":75},{"user_id":424,"name":"Duck nut","steam_id":76561198355475831,"connected_time":550000000000,"state":"active","ping":93},{"user_id":431,"name":"WM1 PYRO","steam_id":76561198045893896,"connected_time":341000000000,"state":"active","ping":100},{"user_id":433,"name":"Veles","steam_id":76561198255964493,"connected_time":313000000000,"state":"active","ping":58},{"user_id":404,"name":"HE’S IN THE GODDAMN WALLS","steam_id":76561198363267009,"connected_time":1499000000000,"state":"active","ping":71},{"user_id":429,"name":"aether","steam_id":76561198178293861,"connected_time":493000000000,"state":"active","ping":71},{"user_id":434,"name":"Tranq","steam_id":76561197967250757,"connected_time":295000000000,"state":"active","ping":55},{"user_id":324,"name":"Juan Pablo Gonzalez 2023","steam_id":76561199197961413,"connected_time":7590000000000,"state":"active","ping":57},{"user_id":436,"name":"[chef] iron","steam_id":76561197970888616,"connected_time":220000000000,"state":"active","ping":45}]},{"server_id":403,"name":"Uncletopia | Chicago | 4 | All Maps","name_short":"chi-4","host":"chi-1.us.uncletopia.com","port":27045,"enabled":true,"region":"us-central","cc":"us","latitude":41.881832,"longitude":-87.62318,"reserved":0,"last_update":"0001-01-01T00:00:00Z","name_a2s":"Uncletopia | Chicago | 4 | All Maps","protocol":17,"map":"pl_upward","folder":"tf","game":"Team Fortress","app_id":440,"player_count":24,"max_players":24,"Bots":0,"server_type":"Dedicated","server_os":"Linux","password":true,"vac":true,"version":"7757534","steam_id":85568392924515193,"keywords":["nocrits","nodmgspread","payload","uncletopia"],"game_id":440,"stv_port":27046,"stv_name":"Uncletopia | Chicago | 4 | All Maps | STV","players":[{"user_id":412,"name":"[El Fail] MR.BadassMCLee","steam_id":76561198043787818,"connected_time":557000000000,"state":"active","ping":110},{"user_id":393,"name":"Maniac","steam_id":76561197993729460,"connected_time":1204000000000,"state":"active","ping":141},{"user_id":407,"name":"GucciKat","steam_id":76561198113969850,"connected_time":868000000000,"state":"active","ping":76},{"user_id":376,"name":"WatchWill","steam_id":76561198157237945,"connected_time":2886000000000,"state":"active","ping":85},{"user_id":370,"name":"Shaper Loks","steam_id":76561198207958144,"connected_time":3960000000000,"state":"active","ping":95},{"user_id":413,"name":"Cyborg","steam_id":76561198278373788,"connected_time":494000000000,"state":"active","ping":51},{"user_id":389,"name":"[DEEP] Roz257","steam_id":76561198842844532,"connected_time":1729000000000,"state":"active","ping":63},{"user_id":419,"name":"craxyt","steam_id":76561198050192689,"connected_time":155000000000,"state":"active","ping":104},{"user_id":313,"name":"gαвє ησëℓ","steam_id":76561198067342352,"connected_time":8300000000000,"state":"active","ping":148},{"user_id":377,"name":"Miner2495","steam_id":76561198445904523,"connected_time":2648000000000,"state":"active","ping":71},{"user_id":424,"name":"Sabaman55","steam_id":76561198212267979,"connected_time":74000000000,"state":"active","ping":48},{"user_id":420,"name":"TheRealFryingDutchMan!","steam_id":76561199193784099,"connected_time":149000000000,"state":"active","ping":96},{"user_id":415,"name":"GatoSeiko","steam_id":76561198001001360,"connected_time":442000000000,"state":"active","ping":172},{"user_id":398,"name":"Friendly dispenser scoot","steam_id":76561199130459740,"connected_time":1020000000000,"state":"active","ping":63},{"user_id":386,"name":"[DEEP] Danmar33","steam_id":76561198056453091,"connected_time":1892000000000,"state":"active","ping":50},{"user_id":421,"name":"lili","steam_id":76561199391478575,"connected_time":141000000000,"state":"active","ping":101},{"user_id":411,"name":"Lasky","steam_id":76561198079437901,"connected_time":647000000000,"state":"active","ping":80},{"user_id":387,"name":"Skeleton Hotel","steam_id":76561198041704727,"connected_time":1849000000000,"state":"active","ping":57},{"user_id":338,"name":"Subderhenge","steam_id":76561198090955892,"connected_time":6288000000000,"state":"active","ping":100},{"user_id":402,"name":"Luke","steam_id":76561198072441047,"connected_time":957000000000,"state":"active","ping":113},{"user_id":405,"name":"Big Sip","steam_id":76561198127971341,"connected_time":924000000000,"state":"active","ping":107},{"user_id":408,"name":"Zacker","steam_id":76561198319645735,"connected_time":750000000000,"state":"active","ping":86},{"user_id":361,"name":"Error 4 Oh Four","steam_id":76561198121637567,"connected_time":4760000000000,"state":"active","ping":77},{"user_id":423,"name":"Dragonsofdra","steam_id":76561198253369292,"connected_time":130000000000,"state":"active","ping":105}]},{"server_id":36,"name":"Uncletopia | Chicago | 5 | All Maps","name_short":"chi-5","host":"chi-2.us.uncletopia.com","port":27015,"enabled":true,"region":"us-central","cc":"us","latitude":41.881832,"longitude":-87.62318,"reserved":0,"last_update":"0001-01-01T00:00:00Z","name_a2s":"Uncletopia | Chicago | 5 | All Maps","protocol":17,"map":"pl_upward","folder":"tf","game":"Team Fortress","app_id":440,"player_count":20,"max_players":24,"Bots":0,"server_type":"Dedicated","server_os":"Linux","password":true,"vac":true,"version":"7757534","steam_id":85568392924866362,"keywords":["nocrits","nodmgspread","payload","uncletopia"],"game_id":440,"stv_port":27016,"stv_name":"Uncletopia | Chicago | 5 | All Maps | STV","players":[{"user_id":644,"name":"ApertureCity","steam_id":76561198004153607,"connected_time":2869000000000,"state":"active","ping":84},{"user_id":668,"name":"Suited","steam_id":76561198068797313,"connected_time":1399000000000,"state":"active","ping":70},{"user_id":670,"name":"D.LeBlanc","steam_id":76561198119483989,"connected_time":1309000000000,"state":"active","ping":72},{"user_id":680,"name":"hej","steam_id":76561197996366940,"connected_time":23000000000,"state":"active","ping":50},{"user_id":627,"name":"Phillip Jeffries","steam_id":76561198064052174,"connected_time":4265000000000,"state":"active","ping":59},{"user_id":652,"name":"kaneki_vr_","steam_id":76561199043027738,"connected_time":2558000000000,"state":"active","ping":61},{"user_id":681,"name":"-=Bits=-Dinkleberg","steam_id":76561198080367616,"connected_time":2000000000,"state":"spawning","ping":54},{"user_id":622,"name":"MedRed™ #IATAH","steam_id":76561198002962970,"connected_time":4773000000000,"state":"active","ping":102},{"user_id":651,"name":"Griffin","steam_id":76561198159339442,"connected_time":2628000000000,"state":"active","ping":73},{"user_id":625,"name":"Swshbcklr","steam_id":76561197969421355,"connected_time":4530000000000,"state":"active","ping":72},{"user_id":660,"name":"Motreir","steam_id":76561198151717946,"connected_time":2040000000000,"state":"active","ping":78},{"user_id":663,"name":"A Very Confused Gentleman","steam_id":76561198051686391,"connected_time":1845000000000,"state":"active","ping":58},{"user_id":673,"name":"Dieu-Sama","steam_id":76561198002075862,"connected_time":1063000000000,"state":"active","ping":72},{"user_id":679,"name":"c00kie","steam_id":76561198418178297,"connected_time":299000000000,"state":"active","ping":34},{"user_id":615,"name":"PyroToaster","steam_id":76561198053057346,"connected_time":5333000000000,"state":"active","ping":63},{"user_id":630,"name":"SuperFresh","steam_id":76561198200723198,"connected_time":4112000000000,"state":"active","ping":45},{"user_id":659,"name":"Lore","steam_id":76561198098407538,"connected_time":2131000000000,"state":"active","ping":56},{"user_id":678,"name":"beefmachine","steam_id":76561198001196512,"connected_time":747000000000,"state":"active","ping":53},{"user_id":641,"name":"Shylo","steam_id":76561199276858045,"connected_time":2916000000000,"state":"active","ping":78},{"user_id":675,"name":"Kaboob","steam_id":76561199121870665,"connected_time":883000000000,"state":"active","ping":81}]},{"server_id":37,"name":"Uncletopia | Chicago | 6 | All Maps","name_short":"chi-6","host":"chi-2.us.uncletopia.com","port":27025,"enabled":true,"region":"us-central","cc":"us","latitude":41.881832,"longitude":-87.62318,"reserved":0,"last_update":"0001-01-01T00:00:00Z","name_a2s":"Uncletopia | Chicago | 6 | All Maps","protocol":17,"map":"pl_badwater","folder":"tf","game":"Team Fortress","app_id":440,"player_count":24,"max_players":24,"Bots":0,"server_type":"Dedicated","server_os":"Linux","password":true,"vac":true,"version":"7757534","steam_id":85568392924866363,"keywords":["nocrits","nodmgspread","payload","uncletopia"],"game_id":440,"stv_port":27026,"stv_name":"Uncletopia | Chicago | 6 | All Maps | STV","players":[{"user_id":195,"name":"AcenSamurai","steam_id":76561199440038716,"connected_time":1161000000000,"state":"active","ping":66},{"user_id":191,"name":"Yakul","steam_id":76561198100040013,"connected_time":1242000000000,"state":"active","ping":78},{"user_id":203,"name":"Aeri","steam_id":76561197996522919,"connected_time":230000000000,"state":"active","ping":81},{"user_id":179,"name":"gyozaking","steam_id":76561197972312696,"connected_time":2307000000000,"state":"active","ping":44},{"user_id":127,"name":"Mr_Frosty","steam_id":76561199380389079,"connected_time":6936000000000,"state":"active","ping":92},{"user_id":192,"name":"Tanner Jarring","steam_id":76561198172024365,"connected_time":1237000000000,"state":"active","ping":54},{"user_id":175,"name":"LilValWow","steam_id":76561198000827404,"connected_time":2427000000000,"state":"active","ping":65},{"user_id":196,"name":"Doctor_Hound56","steam_id":76561199230736757,"connected_time":1159000000000,"state":"active","ping":70},{"user_id":168,"name":"propeller rat","steam_id":76561198339195930,"connected_time":2570000000000,"state":"active","ping":101},{"user_id":165,"name":"Bzamo","steam_id":76561198039883392,"connected_time":2744000000000,"state":"active","ping":54},{"user_id":174,"name":"Deltapunk","steam_id":76561199122138062,"connected_time":2488000000000,"state":"active","ping":115},{"user_id":197,"name":"Marksito14","steam_id":76561199132272437,"connected_time":1126000000000,"state":"active","ping":131},{"user_id":22,"name":"Zin","steam_id":76561199041369507,"connected_time":13496000000000,"state":"active","ping":70},{"user_id":207,"name":"WaffleFalafel","steam_id":76561198072711474,"connected_time":32000000000,"state":"active","ping":61},{"user_id":204,"name":"grate_fiter-232","steam_id":76561198073424589,"connected_time":160000000000,"state":"active","ping":76},{"user_id":110,"name":"Periculosum PhD in Funny","steam_id":76561198123370914,"connected_time":8348000000000,"state":"active","ping":72},{"user_id":205,"name":"tin foil hat","steam_id":76561198083607304,"connected_time":155000000000,"state":"active","ping":69},{"user_id":181,"name":"Sarah","steam_id":76561199013702818,"connected_time":2091000000000,"state":"active","ping":65},{"user_id":200,"name":"es","steam_id":76561198006892337,"connected_time":1100000000000,"state":"active","ping":123},{"user_id":173,"name":"Dr. Mathew","steam_id":76561199015513652,"connected_time":2525000000000,"state":"active","ping":84},{"user_id":156,"name":"Feral Manchild","steam_id":76561198855322496,"connected_time":3712000000000,"state":"active","ping":57},{"user_id":206,"name":"LolJr45667","steam_id":76561199028172602,"connected_time":127000000000,"state":"active","ping":105},{"user_id":157,"name":"Lots0","steam_id":76561198043143145,"connected_time":3687000000000,"state":"active","ping":92},{"user_id":202,"name":"Kip","steam_id":76561197998180212,"connected_time":280000000000,"state":"active","ping":56}]},{"server_id":38,"name":"Uncletopia | Chicago | 7 | Stopwatch Beta","name_short":"chi-7","host":"chi-2.us.uncletopia.com","port":27035,"enabled":true,"region":"us-central","cc":"us","latitude":41.881832,"longitude":-87.62318,"reserved":0,"last_update":"0001-01-01T00:00:00Z","name_a2s":"Uncletopia | Chicago | 7 | Stopwatch Beta","protocol":17,"map":"workshop/pl_summercoast_rc8e.ugc1761528829","folder":"tf","game":"Team Fortress","app_id":440,"player_count":0,"max_players":24,"Bots":0,"server_type":"Dedicated","server_os":"Linux","password":true,"vac":true,"version":"7757534","steam_id":85568392924866364,"keywords":["nocrits","nodmgspread","payload","uncletopia"],"game_id":440,"stv_port":27036,"stv_name":"Uncletopia | Chicago | 7 | Stopwatch Beta | STV","players":null},{"server_id":39,"name":"Uncletopia | Chicago | 8 | Community","name_short":"chi-8","host":"chi-2.us.uncletopia.com","port":27045,"enabled":true,"region":"us-central","cc":"us","latitude":41.881832,"longitude":-87.62318,"reserved":0,"last_update":"0001-01-01T00:00:00Z","name_a2s":"Uncletopia | Chicago | 8 | Community","protocol":17,"map":"koth_cascade","folder":"tf","game":"Team Fortress","app_id":440,"player_count":16,"max_players":24,"Bots":0,"server_type":"Dedicated","server_os":"Linux","password":true,"vac":true,"version":"7757534","steam_id":85568392924866365,"keywords":["cp","nocrits","nodmgspread","uncletopia"],"game_id":440,"stv_port":27046,"stv_name":"Uncletopia | Chicago | 8 | Community | STV","players":[{"user_id":14,"name":"superkahles","steam_id":76561198844096180,"connected_time":1601000000000,"state":"active","ping":78},{"user_id":15,"name":"TacticalDuckie","steam_id":76561198275769295,"connected_time":1585000000000,"state":"active","ping":76},{"user_id":16,"name":"Drewey","steam_id":76561199258609863,"connected_time":1568000000000,"state":"active","ping":56},{"user_id":27,"name":"theloneflute","steam_id":76561198109316816,"connected_time":448000000000,"state":"active","ping":79},{"user_id":18,"name":"IanTheAwsm","steam_id":76561198093031738,"connected_time":1300000000000,"state":"active","ping":74},{"user_id":19,"name":"Olhado","steam_id":76561198390880200,"connected_time":1211000000000,"state":"active","ping":100},{"user_id":20,"name":"Annie DW3","steam_id":76561198268990628,"connected_time":1132000000000,"state":"active","ping":82},{"user_id":23,"name":"Robo Intern","steam_id":76561199067098696,"connected_time":1020000000000,"state":"active","ping":84},{"user_id":22,"name":"Riggamortis","steam_id":76561199237017378,"connected_time":1068000000000,"state":"active","ping":113},{"user_id":24,"name":"๖ۣۜ≫Ð!ϟ☾☉ℛÐ","steam_id":76561198095974361,"connected_time":622000000000,"state":"active","ping":90},{"user_id":25,"name":"Rose Wolf","steam_id":76561198437084762,"connected_time":594000000000,"state":"active","ping":80},{"user_id":26,"name":"mfwjuarez","steam_id":76561198856769712,"connected_time":553000000000,"state":"active","ping":74},{"user_id":28,"name":"reatardhole","steam_id":76561198141217941,"connected_time":409000000000,"state":"active","ping":72},{"user_id":29,"name":"Dr.Barber","steam_id":76561198053164815,"connected_time":403000000000,"state":"active","ping":64},{"user_id":30,"name":"Backtotheeric","steam_id":76561198331228470,"connected_time":341000000000,"state":"active","ping":66},{"user_id":31,"name":"Goldfire","steam_id":76561198061999410,"connected_time":50000000000,"state":"spawning","ping":123}]},{"server_id":8,"name":"Uncletopia | Dallas | 1 | All Maps","name_short":"dal-1","host":"dal-1.us.uncletopia.com","port":27015,"enabled":true,"region":"us-central","cc":"us","latitude":32.779167,"longitude":-96.80889,"reserved":0,"last_update":"0001-01-01T00:00:00Z","name_a2s":"Uncletopia | Dallas | 1 | All Maps","protocol":17,"map":"pl_borneo","folder":"tf","game":"Team Fortress","app_id":440,"player_count":24,"max_players":24,"Bots":0,"server_type":"Dedicated","server_os":"Linux","password":true,"vac":true,"version":"7757534","steam_id":85568392924469986,"keywords":["nocrits","nodmgspread","payload","uncletopia"],"game_id":440,"stv_port":27016,"stv_name":"Uncletopia | Dallas | 1 | All Maps | STV","players":[{"user_id":494,"name":"Knightly Knight","steam_id":76561198399569659,"connected_time":3580000000000,"state":"active","ping":59},{"user_id":538,"name":"Pope","steam_id":76561198053768137,"connected_time":919000000000,"state":"active","ping":48},{"user_id":529,"name":"Señor_Awesome","steam_id":76561197995206768,"connected_time":1227000000000,"state":"active","ping":67},{"user_id":511,"name":"Rick Beato","steam_id":76561199080451611,"connected_time":2651000000000,"state":"active","ping":51},{"user_id":530,"name":"plink","steam_id":76561198057829889,"connected_time":1216000000000,"state":"active","ping":113},{"user_id":540,"name":"0x01FE","steam_id":76561198838881917,"connected_time":690000000000,"state":"active","ping":60},{"user_id":514,"name":"Maranata","steam_id":76561198830158092,"connected_time":2499000000000,"state":"active","ping":77},{"user_id":532,"name":"KongPunk 20XX","steam_id":76561198077878799,"connected_time":1212000000000,"state":"active","ping":94},{"user_id":549,"name":"Claybrd","steam_id":76561198332695592,"connected_time":130000000000,"state":"active","ping":61},{"user_id":527,"name":"maddoxmomo","steam_id":76561198816228532,"connected_time":1488000000000,"state":"active","ping":59},{"user_id":545,"name":"[glue-sn1fferz] Astro","steam_id":76561199012496747,"connected_time":446000000000,"state":"active","ping":76},{"user_id":548,"name":"RectalExam","steam_id":76561197970502312,"connected_time":224000000000,"state":"active","ping":67},{"user_id":536,"name":"Flubdy_","steam_id":76561198073338521,"connected_time":1113000000000,"state":"active","ping":58},{"user_id":534,"name":"Handle On The Fridge","steam_id":76561198881228117,"connected_time":1200000000000,"state":"active","ping":66},{"user_id":507,"name":"ClericsRose","steam_id":76561198011013806,"connected_time":2672000000000,"state":"active","ping":79},{"user_id":525,"name":"DargaribdusPersonOfLordlyCalibe","steam_id":76561198020876416,"connected_time":1843000000000,"state":"active","ping":69},{"user_id":526,"name":"Kosmic Ink","steam_id":76561198344286099,"connected_time":1667000000000,"state":"active","ping":55},{"user_id":502,"name":"George","steam_id":76561198020046873,"connected_time":3102000000000,"state":"active","ping":81},{"user_id":535,"name":"Tejo","steam_id":76561198200617911,"connected_time":1159000000000,"state":"active","ping":53},{"user_id":546,"name":"Yahtza","steam_id":76561198152171495,"connected_time":264000000000,"state":"active","ping":76},{"user_id":517,"name":"Smalls","steam_id":76561198046081504,"connected_time":2226000000000,"state":"active","ping":55},{"user_id":544,"name":"Shamrock Shake Oct.10.2020 @8pm","steam_id":76561198833313201,"connected_time":516000000000,"state":"active","ping":86},{"user_id":523,"name":"[ØWQJØ]chubacaalatake","steam_id":76561198136201697,"connected_time":1944000000000,"state":"active","ping":126},{"user_id":493,"name":"Mayo_","steam_id":76561198289375121,"connected_time":3989000000000,"state":"active","ping":61}]},{"server_id":108,"name":"Uncletopia | Dallas | 2 | All Maps","name_short":"dal-2","host":"dal-1.us.uncletopia.com","port":27025,"enabled":true,"region":"us-central","cc":"us","latitude":32.779167,"longitude":-96.80889,"reserved":0,"last_update":"0001-01-01T00:00:00Z","name_a2s":"Uncletopia | Dallas | 2 | All Maps","protocol":17,"map":"pl_swiftwater_final1","folder":"tf","game":"Team Fortress","app_id":440,"player_count":24,"max_players":24,"Bots":0,"server_type":"Dedicated","server_os":"Linux","password":true,"vac":true,"version":"7757534","steam_id":85568392924469988,"keywords":["nocrits","nodmgspread","payload","uncletopia"],"game_id":440,"stv_port":27026,"stv_name":"Uncletopia | Dallas | 2 | All Maps | STV","players":[{"user_id":528,"name":"Joyous Jenny","steam_id":76561198127998866,"connected_time":859000000000,"state":"active","ping":74},{"user_id":530,"name":"kirkland signature sex","steam_id":76561199077027954,"connected_time":76000000000,"state":"active","ping":53},{"user_id":395,"name":"High Tier Mortal","steam_id":76561198138347045,"connected_time":11618000000000,"state":"active","ping":77},{"user_id":489,"name":"Accept Gub","steam_id":76561198354220640,"connected_time":3769000000000,"state":"active","ping":88},{"user_id":380,"name":"moe5x","steam_id":76561198316877833,"connected_time":12156000000000,"state":"active","ping":74},{"user_id":529,"name":"ChottoAMinute","steam_id":76561198873157775,"connected_time":463000000000,"state":"active","ping":25},{"user_id":525,"name":"merlin","steam_id":76561198334511480,"connected_time":1047000000000,"state":"active","ping":72},{"user_id":524,"name":"SilverLife25","steam_id":76561198392015722,"connected_time":1522000000000,"state":"active","ping":57},{"user_id":482,"name":"Zigadox","steam_id":76561198079813479,"connected_time":4641000000000,"state":"active","ping":87},{"user_id":465,"name":"Sup m8","steam_id":76561198081659121,"connected_time":6071000000000,"state":"active","ping":44},{"user_id":485,"name":"dayman fighter of the nightman","steam_id":76561198010019214,"connected_time":4557000000000,"state":"active","ping":61},{"user_id":531,"name":"Stay Gold, Ponyboy...","steam_id":76561198042444734,"connected_time":26000000000,"state":"active","ping":71},{"user_id":508,"name":"hfs","steam_id":76561198153020266,"connected_time":2323000000000,"state":"active","ping":75},{"user_id":474,"name":"xZackAttack27x","steam_id":76561198035446639,"connected_time":5196000000000,"state":"active","ping":37},{"user_id":532,"name":"♦♣Quadric♥♠","steam_id":76561198061003853,"connected_time":9000000000,"state":"spawning","ping":99},{"user_id":498,"name":"java","steam_id":76561198030276792,"connected_time":2696000000000,"state":"active","ping":66},{"user_id":521,"name":"viper","steam_id":76561198839942937,"connected_time":1642000000000,"state":"active","ping":84},{"user_id":522,"name":"LuciD","steam_id":76561198242842394,"connected_time":1540000000000,"state":"active","ping":78},{"user_id":519,"name":"grape","steam_id":76561198150447896,"connected_time":1788000000000,"state":"active","ping":78},{"user_id":430,"name":"cheezits face","steam_id":76561198000564263,"connected_time":8260000000000,"state":"active","ping":67},{"user_id":437,"name":"proud owner of a large tongue","steam_id":76561198106690989,"connected_time":8110000000000,"state":"active","ping":94},{"user_id":438,"name":"Cofi","steam_id":76561199026721822,"connected_time":8033000000000,"state":"active","ping":91},{"user_id":432,"name":"lanoc","steam_id":76561198055415367,"connected_time":8256000000000,"state":"active","ping":60},{"user_id":492,"name":"Victor Poole","steam_id":76561198042848500,"connected_time":3372000000000,"state":"active","ping":83}]},{"server_id":5,"name":"Uncletopia | Frankfurt | 1 | All Maps","name_short":"frk-1","host":"frk-1.de.uncletopia.com","port":27015,"enabled":true,"region":"eu","cc":"de","latitude":50.110924,"longitude":8.682127,"reserved":0,"last_update":"0001-01-01T00:00:00Z","name_a2s":"Uncletopia | Frankfurt | 1 | All Maps","protocol":17,"map":"pl_snowycoast","folder":"tf","game":"Team Fortress","app_id":440,"player_count":0,"max_players":24,"Bots":0,"server_type":"Dedicated","server_os":"Linux","password":true,"vac":true,"version":"7757534","steam_id":85568392924469989,"keywords":["nocrits","nodmgspread","payload","uncletopia"],"game_id":440,"stv_port":27016,"stv_name":"Uncletopia | Frankfurt | 1 | All Maps | STV","players":null},{"server_id":110,"name":"Uncletopia | Frankfurt | 2 | All Maps","name_short":"frk-2","host":"frk-1.de.uncletopia.com","port":27025,"enabled":true,"region":"eu","cc":"de","latitude":50.110924,"longitude":8.682127,"reserved":0,"last_update":"0001-01-01T00:00:00Z","name_a2s":"Uncletopia | Frankfurt | 2 | All Maps","protocol":17,"map":"cp_snakewater_final1","folder":"tf","game":"Team Fortress","app_id":440,"player_count":0,"max_players":24,"Bots":0,"server_type":"Dedicated","server_os":"Linux","password":true,"vac":true,"version":"7757534","steam_id":85568392924469990,"keywords":["cp","nocrits","nodmgspread","uncletopia"],"game_id":440,"stv_port":27026,"stv_name":"Uncletopia | Frankfurt | 2 | All Maps | STV","players":null},{"server_id":308,"name":"Uncletopia | Frankfurt | 3 | All Maps","name_short":"frk-3","host":"frk-1.de.uncletopia.com","port":27035,"enabled":true,"region":"eu","cc":"de","latitude":50.110924,"longitude":8.682127,"reserved":0,"last_update":"0001-01-01T00:00:00Z","name_a2s":"Uncletopia | Frankfurt | 3 | All Maps","protocol":17,"map":"pl_swiftwater_final1","folder":"tf","game":"Team Fortress","app_id":440,"player_count":0,"max_players":24,"Bots":0,"server_type":"Dedicated","server_os":"Linux","password":true,"vac":true,"version":"7757534","steam_id":85568392924504274,"keywords":["nocrits","nodmgspread","payload","uncletopia"],"game_id":440,"stv_port":27036,"stv_name":"Uncletopia | Frankfurt | 3 | All Maps | STV","players":null},{"server_id":309,"name":"Uncletopia | Frankfurt | 4 | All Maps","name_short":"frk-4","host":"frk-1.de.uncletopia.com","port":27045,"enabled":true,"region":"eu","cc":"de","latitude":50.110924,"longitude":8.682127,"reserved":0,"last_update":"0001-01-01T00:00:00Z","name_a2s":"Uncletopia | Frankfurt | 4 | All Maps","protocol":17,"map":"koth_viaduct","folder":"tf","game":"Team Fortress","app_id":440,"player_count":0,"max_players":24,"Bots":0,"server_type":"Dedicated","server_os":"Linux","password":true,"vac":true,"version":"7757534","steam_id":85568392924504275,"keywords":["cp","nocrits","nodmgspread","uncletopia"],"game_id":440,"stv_port":27046,"stv_name":"Uncletopia | Frankfurt | 4 | All Maps | STV","players":null},{"server_id":310,"name":"Uncletopia | Frankfurt | 5 | All Maps","name_short":"frk-5","host":"frk-1.de.uncletopia.com","port":27055,"enabled":true,"region":"eu","cc":"de","latitude":50.110924,"longitude":8.682127,"reserved":0,"last_update":"0001-01-01T00:00:00Z","name_a2s":"Uncletopia | Frankfurt | 5 | All Maps","protocol":17,"map":"koth_lakeside_final","folder":"tf","game":"Team Fortress","app_id":440,"player_count":0,"max_players":24,"Bots":0,"server_type":"Dedicated","server_os":"Linux","password":true,"vac":true,"version":"7757534","steam_id":85568392924504277,"keywords":["cp","nocrits","nodmgspread","uncletopia"],"game_id":440,"stv_port":27056,"stv_name":"Uncletopia | Frankfurt | 5 | All Maps | STV","players":null},{"server_id":311,"name":"Uncletopia | Frankfurt | 6 | All Maps","name_short":"frk-6","host":"frk-1.de.uncletopia.com","port":27065,"enabled":true,"region":"eu","cc":"de","latitude":50.110924,"longitude":8.682127,"reserved":0,"last_update":"0001-01-01T00:00:00Z","name_a2s":"Uncletopia | Frankfurt | 6 | All Maps","protocol":17,"map":"pl_frontier_final","folder":"tf","game":"Team Fortress","app_id":440,"player_count":0,"max_players":24,"Bots":0,"server_type":"Dedicated","server_os":"Linux","password":true,"vac":true,"version":"7757534","steam_id":85568392924504278,"keywords":["nocrits","nodmgspread","payload","uncletopia"],"game_id":440,"stv_port":27066,"stv_name":"Uncletopia | Frankfurt | 6 | All Maps | STV","players":null},{"server_id":23,"name":"Uncletopia | Frankfurt | 7 | Stopwatch Beta","name_short":"frk-7","host":"frk-1.de.uncletopia.com","port":27075,"enabled":true,"region":"eu","cc":"de","latitude":50.110924,"longitude":8.682127,"reserved":0,"last_update":"0001-01-01T00:00:00Z","name_a2s":"Uncletopia | Frankfurt | 7 | Stopwatch Beta","protocol":17,"map":"cp_sunshine","folder":"tf","game":"Team Fortress","app_id":440,"player_count":0,"max_players":24,"Bots":0,"server_type":"Dedicated","server_os":"Linux","password":true,"vac":true,"version":"7757534","steam_id":85568392924742827,"keywords":["cp","nocrits","nodmgspread","uncletopia"],"game_id":440,"stv_port":27076,"stv_name":"Uncletopia | Frankfurt | 7 | Stopwatch Beta | STV","players":null},{"server_id":24,"name":"Uncletopia | Frankfurt | 8 | Community","name_short":"frk-8","host":"frk-1.de.uncletopia.com","port":27085,"enabled":true,"region":"eu","cc":"de","latitude":50.110924,"longitude":8.682127,"reserved":0,"last_update":"0001-01-01T00:00:00Z","name_a2s":"Uncletopia | Frankfurt | 8 | Community","protocol":17,"map":"koth_lakeside_final","folder":"tf","game":"Team Fortress","app_id":440,"player_count":0,"max_players":24,"Bots":0,"server_type":"Dedicated","server_os":"Linux","password":true,"vac":true,"version":"7757534","steam_id":85568392924742828,"keywords":["cp","nocrits","nodmgspread","uncletopia"],"game_id":440,"stv_port":27086,"stv_name":"Uncletopia | Frankfurt | 8 | Community | STV","players":null},{"server_id":202,"name":"Uncletopia | Hong Kong | 1 | All Maps","name_short":"hgk-1","host":"hgk-1.hk.uncletopia.com","port":27015,"enabled":true,"region":"asia","cc":"hk","latitude":22.302711,"longitude":114.177216,"reserved":0,"last_update":"0001-01-01T00:00:00Z","name_a2s":"Uncletopia | Hong Kong | 1 | All Maps","protocol":17,"map":"koth_cascade","folder":"tf","game":"Team Fortress","app_id":440,"player_count":2,"max_players":24,"Bots":0,"server_type":"Dedicated","server_os":"Linux","password":true,"vac":true,"version":"7757534","steam_id":85568392924494504,"keywords":["cp","nocrits","nodmgspread","uncletopia"],"game_id":440,"stv_port":27016,"stv_name":"Uncletopia | Hong Kong | 1 | All Maps | STV","players":[{"user_id":24,"name":"Nimbus","steam_id":76561198877713016,"connected_time":1060000000000,"state":"active","ping":124},{"user_id":28,"name":"NOPE","steam_id":76561199244543572,"connected_time":282000000000,"state":"active","ping":63}]},{"server_id":1,"name":"Uncletopia | Los Angeles | 1 | All Maps","name_short":"lax-1","host":"lax-1.us.uncletopia.com","port":27015,"enabled":true,"region":"us-west","cc":"us","latitude":33.94279,"longitude":-118.41004,"reserved":0,"last_update":"0001-01-01T00:00:00Z","name_a2s":"Uncletopia | Los Angeles | 1 | All Maps","protocol":17,"map":"pl_borneo","folder":"tf","game":"Team Fortress","app_id":440,"player_count":24,"max_players":24,"Bots":0,"server_type":"Dedicated","server_os":"Linux","password":true,"vac":true,"version":"7757534","steam_id":85568392924469991,"keywords":["nocrits","nodmgspread","payload","uncletopia"],"game_id":440,"stv_port":27016,"stv_name":"Uncletopia | Los Angeles | 1 | All Maps | STV","players":[{"user_id":349,"name":"Chalupa Jones","steam_id":76561198335855588,"connected_time":107000000000,"state":"active","ping":48},{"user_id":335,"name":"Nobody","steam_id":76561199352089107,"connected_time":1151000000000,"state":"active","ping":43},{"user_id":308,"name":"Dr. B Busta","steam_id":76561198206387303,"connected_time":2198000000000,"state":"active","ping":35},{"user_id":304,"name":"Psych03","steam_id":76561198061753667,"connected_time":2667000000000,"state":"active","ping":46},{"user_id":352,"name":"LG_Fridge_User","steam_id":76561198977815014,"connected_time":76000000000,"state":"active","ping":76},{"user_id":348,"name":"Fachedin","steam_id":76561198041850415,"connected_time":149000000000,"state":"active","ping":55},{"user_id":274,"name":"Skullgirls enjoyer","steam_id":76561198077811162,"connected_time":4219000000000,"state":"active","ping":51},{"user_id":276,"name":"MORE BOUNCE TO THE OUNCE","steam_id":76561198243399336,"connected_time":3808000000000,"state":"active","ping":70},{"user_id":347,"name":"jdrtuning","steam_id":76561198185400438,"connected_time":152000000000,"state":"active","ping":56},{"user_id":295,"name":"Ballista","steam_id":76561197983182562,"connected_time":3366000000000,"state":"active","ping":73},{"user_id":351,"name":"Stapler","steam_id":76561198099295077,"connected_time":81000000000,"state":"active","ping":46},{"user_id":333,"name":"Anax Alter","steam_id":76561198110249546,"connected_time":1213000000000,"state":"active","ping":106},{"user_id":334,"name":"MyMonkeyBaby","steam_id":76561198046896670,"connected_time":1200000000000,"state":"active","ping":85},{"user_id":353,"name":"Reef","steam_id":76561199130187039,"connected_time":75000000000,"state":"active","ping":63},{"user_id":343,"name":"basil","steam_id":76561198075758026,"connected_time":439000000000,"state":"active","ping":111},{"user_id":342,"name":"i cant aim","steam_id":76561198065873462,"connected_time":460000000000,"state":"active","ping":47},{"user_id":340,"name":"Dr. drips","steam_id":76561198209380493,"connected_time":992000000000,"state":"active","ping":105},{"user_id":354,"name":"harmless_nerd","steam_id":76561199470510373,"connected_time":41000000000,"state":"active","ping":119},{"user_id":345,"name":"b i i g m a n","steam_id":76561198111147624,"connected_time":337000000000,"state":"active","ping":53},{"user_id":355,"name":"liftin'","steam_id":76561199089515791,"connected_time":40000000000,"state":"spawning","ping":45},{"user_id":341,"name":"thedomterTTV","steam_id":76561198045169719,"connected_time":740000000000,"state":"active","ping":104},{"user_id":346,"name":"I UBER SPIES #SAVETF2","steam_id":76561199118711243,"connected_time":227000000000,"state":"active","ping":57},{"user_id":339,"name":"SneekiCheekiQbone","steam_id":76561198045077980,"connected_time":1121000000000,"state":"active","ping":44},{"user_id":326,"name":"❤ Ashley ❤","steam_id":76561198056428303,"connected_time":1459000000000,"state":"active","ping":45}]},{"server_id":112,"name":"Uncletopia | Los Angeles | 2 | All Maps","name_short":"lax-2","host":"lax-1.us.uncletopia.com","port":27025,"enabled":true,"region":"us-west","cc":"us","latitude":33.94279,"longitude":-118.41004,"reserved":0,"last_update":"0001-01-01T00:00:00Z","name_a2s":"Uncletopia | Los Angeles | 2 | All Maps","protocol":17,"map":"pl_rumford_event","folder":"tf","game":"Team Fortress","app_id":440,"player_count":23,"max_players":24,"Bots":0,"server_type":"Dedicated","server_os":"Linux","password":true,"vac":true,"version":"7757534","steam_id":85568392924469992,"keywords":["nocrits","nodmgspread","payload","uncletopia"],"game_id":440,"stv_port":27026,"stv_name":"Uncletopia | Los Angeles | 2 | All Maps | STV","players":[{"user_id":447,"name":"cyborgor","steam_id":76561198040782513,"connected_time":926000000000,"state":"active","ping":45},{"user_id":449,"name":"BigGoose","steam_id":76561198833281392,"connected_time":673000000000,"state":"active","ping":73},{"user_id":410,"name":"Mr.Pwng3","steam_id":76561198139469530,"connected_time":3765000000000,"state":"active","ping":105},{"user_id":444,"name":"kr1tsurf3r","steam_id":76561198076402476,"connected_time":1233000000000,"state":"active","ping":64},{"user_id":450,"name":"Compress Dong","steam_id":76561198018950826,"connected_time":464000000000,"state":"active","ping":52},{"user_id":422,"name":"WaywardHero","steam_id":76561198404043351,"connected_time":3420000000000,"state":"active","ping":83},{"user_id":384,"name":"wubber","steam_id":76561198286627157,"connected_time":5833000000000,"state":"active","ping":49},{"user_id":317,"name":"Crazy Hungarian","steam_id":76561198025498172,"connected_time":9810000000000,"state":"active","ping":73},{"user_id":437,"name":"Timewaves","steam_id":76561198000186054,"connected_time":2030000000000,"state":"active","ping":54},{"user_id":451,"name":"Ferry gary","steam_id":76561198184698262,"connected_time":451000000000,"state":"active","ping":81},{"user_id":431,"name":"Flembrane","steam_id":76561197995328898,"connected_time":2898000000000,"state":"active","ping":44},{"user_id":443,"name":"MayoMateo","steam_id":76561198360809933,"connected_time":1304000000000,"state":"active","ping":66},{"user_id":452,"name":"lukamine","steam_id":76561198166827208,"connected_time":361000000000,"state":"active","ping":76},{"user_id":409,"name":"yachabosha imalaka... ah ah ah","steam_id":76561198971743530,"connected_time":3837000000000,"state":"active","ping":48},{"user_id":453,"name":"DIGGY","steam_id":76561198991238982,"connected_time":349000000000,"state":"active","ping":76},{"user_id":454,"name":"Ginger Mountain Man","steam_id":76561198272593857,"connected_time":262000000000,"state":"active","ping":131},{"user_id":399,"name":"wait no stop dont do that","steam_id":76561199117157198,"connected_time":4738000000000,"state":"active","ping":105},{"user_id":434,"name":"Kopenich","steam_id":76561198066205245,"connected_time":2753000000000,"state":"active","ping":54},{"user_id":455,"name":"felinae","steam_id":76561198085308417,"connected_time":256000000000,"state":"active","ping":81},{"user_id":446,"name":"mr.dog","steam_id":76561199305637990,"connected_time":1180000000000,"state":"active","ping":68},{"user_id":436,"name":"hapi bananuh","steam_id":76561198091547092,"connected_time":2597000000000,"state":"active","ping":95},{"user_id":456,"name":"Notation","steam_id":76561198119509319,"connected_time":211000000000,"state":"active","ping":91},{"user_id":396,"name":"Bongo John","steam_id":76561198045309016,"connected_time":5158000000000,"state":"active","ping":79}]},{"server_id":324,"name":"Uncletopia | Los Angeles | 3 | All Maps","name_short":"lax-3","host":"lax-1.us.uncletopia.com","port":27035,"enabled":true,"region":"us-west","cc":"us","latitude":33.94279,"longitude":-118.41004,"reserved":0,"last_update":"0001-01-01T00:00:00Z","name_a2s":"Uncletopia | Los Angeles | 3 | All Maps","protocol":17,"map":"pl_upward","folder":"tf","game":"Team Fortress","app_id":440,"player_count":17,"max_players":24,"Bots":0,"server_type":"Dedicated","server_os":"Linux","password":true,"vac":true,"version":"7757534","steam_id":85568392924510198,"keywords":["nocrits","nodmgspread","payload","uncletopia"],"game_id":440,"stv_port":27036,"stv_name":"Uncletopia | Los Angeles | 3 | All Maps | STV","players":[{"user_id":167,"name":"pizzasam","steam_id":76561197972511201,"connected_time":20000000000,"state":"active","ping":83},{"user_id":131,"name":"Npenplz","steam_id":76561197999605423,"connected_time":4861000000000,"state":"active","ping":47},{"user_id":157,"name":"Megabulldog","steam_id":76561198069116057,"connected_time":2628000000000,"state":"active","ping":51},{"user_id":155,"name":"Japheth","steam_id":76561198012902961,"connected_time":2801000000000,"state":"active","ping":95},{"user_id":158,"name":"I am a mooshroom","steam_id":76561198104198295,"connected_time":2572000000000,"state":"active","ping":96},{"user_id":153,"name":"Simply Mystic","steam_id":76561198055495647,"connected_time":3484000000000,"state":"active","ping":139},{"user_id":114,"name":"Zykron","steam_id":76561199056400800,"connected_time":6399000000000,"state":"active","ping":48},{"user_id":123,"name":"Seanvich","steam_id":76561198065805500,"connected_time":5789000000000,"state":"active","ping":104},{"user_id":163,"name":"AtomSQRRL","steam_id":76561199151951364,"connected_time":1387000000000,"state":"active","ping":46},{"user_id":121,"name":"futanari","steam_id":76561198066268854,"connected_time":6086000000000,"state":"active","ping":82},{"user_id":165,"name":"Grimvibes","steam_id":76561198065621941,"connected_time":961000000000,"state":"active","ping":75},{"user_id":166,"name":"Frontier Psychiatrist","steam_id":76561198378587138,"connected_time":488000000000,"state":"active","ping":62},{"user_id":50,"name":"SolarusD","steam_id":76561198029279861,"connected_time":10593000000000,"state":"active","ping":60},{"user_id":154,"name":"Aquadango","steam_id":76561198244891752,"connected_time":3475000000000,"state":"active","ping":81},{"user_id":83,"name":"RyInc","steam_id":76561198874261643,"connected_time":9379000000000,"state":"active","ping":92},{"user_id":95,"name":"Lambchop","steam_id":76561198043900363,"connected_time":7948000000000,"state":"active","ping":70},{"user_id":156,"name":"JamesSetRadio","steam_id":76561198444320809,"connected_time":2800000000000,"state":"active","ping":168}]},{"server_id":25,"name":"Uncletopia | Los Angeles | 4 | Stopwatch Beta","name_short":"lax-4","host":"lax-1.us.uncletopia.com","port":27045,"enabled":true,"region":"us-west","cc":"us","latitude":33.94279,"longitude":-118.41004,"reserved":0,"last_update":"0001-01-01T00:00:00Z","name_a2s":"Uncletopia | Los Angeles | 4 | Stopwatch Beta","protocol":17,"map":"pl_swiftwater_final1","folder":"tf","game":"Team Fortress","app_id":440,"player_count":0,"max_players":24,"Bots":0,"server_type":"Dedicated","server_os":"Linux","password":true,"vac":true,"version":"7757534","steam_id":85568392924510199,"keywords":["nocrits","nodmgspread","payload","uncletopia"],"game_id":440,"stv_port":27046,"stv_name":"Uncletopia | Los Angeles | 4 | Stopwatch Beta | STV","players":null},{"server_id":11,"name":"Uncletopia | London | 1 | All Maps","name_short":"lon-1","host":"lon-1.uk.uncletopia.com","port":27015,"enabled":true,"region":"eu","cc":"gb","latitude":51.509865,"longitude":-0.118092,"reserved":0,"last_update":"0001-01-01T00:00:00Z","name_a2s":"Uncletopia | London | 1 | All Maps","protocol":17,"map":"pl_badwater","folder":"tf","game":"Team Fortress","app_id":440,"player_count":21,"max_players":24,"Bots":0,"server_type":"Dedicated","server_os":"Linux","password":true,"vac":true,"version":"7757534","steam_id":85568392924367362,"keywords":["nocrits","nodmgspread","payload","uncletopia"],"game_id":440,"stv_port":27016,"stv_name":"Uncletopia | London | 1 | All Maps | STV","players":[{"user_id":1024,"name":"Turtle Fuckers 2","steam_id":76561198071938027,"connected_time":142000000000,"state":"active","ping":35},{"user_id":1023,"name":"Pingutaro","steam_id":76561198112803718,"connected_time":218000000000,"state":"active","ping":56},{"user_id":1025,"name":"Rick Makakezzz","steam_id":76561198057495653,"connected_time":114000000000,"state":"active","ping":81},{"user_id":995,"name":"Qwerty (Kiwee)","steam_id":76561198991043855,"connected_time":2275000000000,"state":"active","ping":51},{"user_id":996,"name":"foreskin rizz","steam_id":76561198411114440,"connected_time":2265000000000,"state":"active","ping":75},{"user_id":1009,"name":"Jooks","steam_id":76561197994932443,"connected_time":1473000000000,"state":"active","ping":84},{"user_id":971,"name":"WhoIsFrosty","steam_id":76561198880588117,"connected_time":5664000000000,"state":"active","ping":148},{"user_id":1005,"name":"Thomas.Alvarez.12","steam_id":76561198083529567,"connected_time":1707000000000,"state":"active","ping":54},{"user_id":973,"name":"MadClutches","steam_id":76561198978204906,"connected_time":5625000000000,"state":"active","ping":175},{"user_id":1020,"name":"mmm delicious bullets","steam_id":76561198254664484,"connected_time":730000000000,"state":"active","ping":65},{"user_id":1016,"name":"Nekoma","steam_id":76561198115044116,"connected_time":1254000000000,"state":"active","ping":102},{"user_id":1021,"name":"aight","steam_id":76561198174474613,"connected_time":640000000000,"state":"active","ping":33},{"user_id":1026,"name":"Scr1pt","steam_id":76561199107875318,"connected_time":112000000000,"state":"active","ping":129},{"user_id":1007,"name":"MORI JAH ★","steam_id":76561198112816541,"connected_time":1664000000000,"state":"active","ping":65},{"user_id":1015,"name":"Snoogs","steam_id":76561198444880931,"connected_time":1301000000000,"state":"active","ping":131},{"user_id":1008,"name":"Goldy","steam_id":76561198386274766,"connected_time":1600000000000,"state":"active","ping":166},{"user_id":1027,"name":"engie?","steam_id":76561198331852832,"connected_time":50000000000,"state":"active","ping":45},{"user_id":1028,"name":"Blaxxun","steam_id":76561198035090697,"connected_time":26000000000,"state":"active","ping":73},{"user_id":1029,"name":"Lowy","steam_id":76561198031470048,"connected_time":8000000000,"state":"active","ping":121},{"user_id":1011,"name":"regimiro","steam_id":76561198120457008,"connected_time":1411000000000,"state":"active","ping":46},{"user_id":983,"name":"AntiAnimus","steam_id":76561198039074432,"connected_time":5036000000000,"state":"active","ping":166}]},{"server_id":114,"name":"Uncletopia | London | 2 | All Maps","name_short":"lon-2","host":"lon-1.uk.uncletopia.com","port":27025,"enabled":true,"region":"eu","cc":"gb","latitude":51.509865,"longitude":-0.118092,"reserved":0,"last_update":"0001-01-01T00:00:00Z","name_a2s":"Uncletopia | London | 2 | All Maps","protocol":17,"map":"koth_lakeside_final","folder":"tf","game":"Team Fortress","app_id":440,"player_count":0,"max_players":24,"Bots":0,"server_type":"Dedicated","server_os":"Linux","password":true,"vac":true,"version":"7757534","steam_id":85568392924470941,"keywords":["cp","nocrits","nodmgspread","uncletopia"],"game_id":440,"stv_port":27026,"stv_name":"Uncletopia | London | 2 | All Maps | STV","players":null},{"server_id":320,"name":"Uncletopia | London | 3 | All Maps","name_short":"lon-3","host":"lon-1.uk.uncletopia.com","port":27035,"enabled":true,"region":"eu","cc":"gb","latitude":51.509865,"longitude":-0.118092,"reserved":0,"last_update":"0001-01-01T00:00:00Z","name_a2s":"Uncletopia | London | 3 | All Maps","protocol":17,"map":"koth_cascade","folder":"tf","game":"Team Fortress","app_id":440,"player_count":0,"max_players":24,"Bots":0,"server_type":"Dedicated","server_os":"Linux","password":true,"vac":true,"version":"7757534","steam_id":85568392924510192,"keywords":["cp","nocrits","nodmgspread","uncletopia"],"game_id":440,"stv_port":27036,"stv_name":"Uncletopia | London | 3 | All Maps | STV","players":null},{"server_id":321,"name":"Uncletopia | London | 4 | All Maps","name_short":"lon-4","host":"lon-1.uk.uncletopia.com","port":27045,"enabled":true,"region":"eu","cc":"gb","latitude":51.509865,"longitude":-0.118092,"reserved":0,"last_update":"0001-01-01T00:00:00Z","name_a2s":"Uncletopia | London | 4 | All Maps","protocol":17,"map":"pl_pier","folder":"tf","game":"Team Fortress","app_id":440,"player_count":4,"max_players":24,"Bots":0,"server_type":"Dedicated","server_os":"Linux","password":true,"vac":true,"version":"7757534","steam_id":85568392924510193,"keywords":["nocrits","nodmgspread","payload","uncletopia"],"game_id":440,"stv_port":27046,"stv_name":"Uncletopia | London | 4 | All Maps | STV","players":[{"user_id":792,"name":"User77","steam_id":76561198795602677,"connected_time":540000000000,"state":"active","ping":84},{"user_id":793,"name":"dinorno","steam_id":76561198146276830,"connected_time":291000000000,"state":"active","ping":87},{"user_id":788,"name":"Joseph Stalin","steam_id":76561198033199746,"connected_time":1454000000000,"state":"active","ping":51},{"user_id":790,"name":"rag","steam_id":76561198083505031,"connected_time":1214000000000,"state":"active","ping":29}]},{"server_id":21,"name":"Uncletopia | London | 5 | All Maps","name_short":"lon-5","host":"lon-1.uk.uncletopia.com","port":27055,"enabled":true,"region":"eu","cc":"gb","latitude":51.509865,"longitude":-0.118092,"reserved":0,"last_update":"0001-01-01T00:00:00Z","name_a2s":"Uncletopia | London | 5 | All Maps","protocol":17,"map":"koth_viaduct","folder":"tf","game":"Team Fortress","app_id":440,"player_count":0,"max_players":24,"Bots":0,"server_type":"Dedicated","server_os":"Linux","password":true,"vac":true,"version":"7757534","steam_id":85568392924742829,"keywords":["cp","nocrits","nodmgspread","uncletopia"],"game_id":440,"stv_port":27056,"stv_name":"Uncletopia | London | 5 | All Maps | STV","players":null},{"server_id":22,"name":"Uncletopia | London | 6 | All Maps","name_short":"lon-6","host":"lon-1.uk.uncletopia.com","port":27065,"enabled":true,"region":"eu","cc":"gb","latitude":51.509865,"longitude":-0.118092,"reserved":0,"last_update":"0001-01-01T00:00:00Z","name_a2s":"Uncletopia | London | 6 | All Maps","protocol":17,"map":"koth_highpass","folder":"tf","game":"Team Fortress","app_id":440,"player_count":0,"max_players":24,"Bots":0,"server_type":"Dedicated","server_os":"Linux","password":true,"vac":true,"version":"7757534","steam_id":85568392924742830,"keywords":["cp","nocrits","nodmgspread","uncletopia"],"game_id":440,"stv_port":27066,"stv_name":"Uncletopia | London | 6 | All Maps | STV","players":null},{"server_id":40,"name":"Uncletopia | London | 7 | No Payload","name_short":"lon-7","host":"lon-1.uk.uncletopia.com","port":27075,"enabled":true,"region":"eu","cc":"gb","latitude":51.509865,"longitude":-0.118092,"reserved":0,"last_update":"0001-01-01T00:00:00Z","name_a2s":"Uncletopia | London | 7 | No Payload","protocol":17,"map":"cp_badlands","folder":"tf","game":"Team Fortress","app_id":440,"player_count":0,"max_players":24,"Bots":0,"server_type":"Dedicated","server_os":"Linux","password":true,"vac":true,"version":"7757534","steam_id":85568392924964314,"keywords":["cp","nocrits","nodmgspread","uncletopia"],"game_id":440,"stv_port":27076,"stv_name":"Uncletopia | London | 7 | No Payload | STV","players":null},{"server_id":41,"name":"Uncletopia | London | 8 | Community","name_short":"lon-8","host":"lon-1.uk.uncletopia.com","port":27085,"enabled":true,"region":"eu","cc":"gb","latitude":51.509865,"longitude":-0.118092,"reserved":0,"last_update":"0001-01-01T00:00:00Z","name_a2s":"Uncletopia | London | 8 | Community","protocol":17,"map":"workshop/cp_glassworks_rc6a.ugc454118349","folder":"tf","game":"Team Fortress","app_id":440,"player_count":0,"max_players":24,"Bots":0,"server_type":"Dedicated","server_os":"Linux","password":true,"vac":true,"version":"7757534","steam_id":85568392924964315,"keywords":["cp","nocrits","nodmgspread","uncletopia"],"game_id":440,"stv_port":27086,"stv_name":"Uncletopia | London | 8 | Community | STV","players":null},{"server_id":300,"name":"Uncletopia | Montréal | 1 | All Maps","name_short":"mtl-1","host":"mtl-1.ca.uncletopia.com","port":27015,"enabled":true,"region":"us-east","cc":"ca","latitude":45.50889,"longitude":-73.56167,"reserved":0,"last_update":"0001-01-01T00:00:00Z","name_a2s":"Uncletopia | Montréal | 1 | All Maps","protocol":17,"map":"pl_badwater","folder":"tf","game":"Team Fortress","app_id":440,"player_count":24,"max_players":24,"Bots":0,"server_type":"Dedicated","server_os":"Linux","password":true,"vac":true,"version":"7757534","steam_id":85568392924500087,"keywords":["nocrits","nodmgspread","payload","uncletopia"],"game_id":440,"stv_port":27016,"stv_name":"Uncletopia | Montréal | 1 | All Maps | STV","players":[{"user_id":267,"name":"MjrMovnTARGET","steam_id":76561199125908849,"connected_time":893000000000,"state":"active","ping":69},{"user_id":233,"name":"ribbonborn","steam_id":76561198001195423,"connected_time":4214000000000,"state":"active","ping":105},{"user_id":234,"name":"Voon","steam_id":76561198166843533,"connected_time":4156000000000,"state":"active","ping":60},{"user_id":238,"name":"Hawf","steam_id":76561197998364880,"connected_time":3190000000000,"state":"active","ping":75},{"user_id":239,"name":"sex chess world champion","steam_id":76561198045518214,"connected_time":3176000000000,"state":"active","ping":82},{"user_id":246,"name":"nyxia- .*:･ﾟ✧","steam_id":76561198174415170,"connected_time":2239000000000,"state":"active","ping":45},{"user_id":241,"name":"Fudgie Wudgie","steam_id":76561198032622237,"connected_time":3127000000000,"state":"active","ping":93},{"user_id":253,"name":"EvilMrPotoo ｡◕‿◕｡","steam_id":76561198012566870,"connected_time":1878000000000,"state":"active","ping":48},{"user_id":262,"name":"Wiener Hole Paper Cut","steam_id":76561198000808203,"connected_time":1429000000000,"state":"active","ping":69},{"user_id":249,"name":"froggy :3 ☣","steam_id":76561198079405234,"connected_time":2076000000000,"state":"active","ping":45},{"user_id":250,"name":"lili of the valley","steam_id":76561198253172399,"connected_time":2074000000000,"state":"active","ping":86},{"user_id":272,"name":"Jaydyn","steam_id":76561198140326797,"connected_time":647000000000,"state":"active","ping":75},{"user_id":252,"name":"Lux E Tenebris","steam_id":76561198072664199,"connected_time":2023000000000,"state":"active","ping":72},{"user_id":270,"name":"StillNotGinger","steam_id":76561198063419189,"connected_time":729000000000,"state":"active","ping":96},{"user_id":255,"name":"jiggle muffin","steam_id":76561199013107272,"connected_time":1750000000000,"state":"active","ping":151},{"user_id":256,"name":"bobby peanstalk","steam_id":76561198040495463,"connected_time":1693000000000,"state":"active","ping":60},{"user_id":257,"name":"PinguEnjoyer6","steam_id":76561199186723516,"connected_time":1692000000000,"state":"active","ping":109},{"user_id":268,"name":"puppygirl gaming","steam_id":76561198044363630,"connected_time":885000000000,"state":"active","ping":60},{"user_id":259,"name":"Homosexual Trapezoids","steam_id":76561198039427246,"connected_time":1642000000000,"state":"active","ping":86},{"user_id":260,"name":"soup","steam_id":76561198099977572,"connected_time":1594000000000,"state":"active","ping":73},{"user_id":271,"name":"boo_thefeared","steam_id":76561198127967685,"connected_time":698000000000,"state":"active","ping":134},{"user_id":263,"name":"Bobby Zimmeruski","steam_id":76561198171428589,"connected_time":1395000000000,"state":"active","ping":89},{"user_id":264,"name":"Theta Yeti","steam_id":76561198216780915,"connected_time":1378000000000,"state":"active","ping":119},{"user_id":265,"name":"brian cancer","steam_id":76561198992069646,"connected_time":1291000000000,"state":"active","ping":68}]},{"server_id":301,"name":"Uncletopia | Montréal | 2 | All Maps","name_short":"mtl-2","host":"mtl-1.ca.uncletopia.com","port":27025,"enabled":true,"region":"us-east","cc":"ca","latitude":45.50889,"longitude":-73.56167,"reserved":0,"last_update":"0001-01-01T00:00:00Z","name_a2s":"Uncletopia | Montréal | 2 | All Maps","protocol":17,"map":"cp_process_final","folder":"tf","game":"Team Fortress","app_id":440,"player_count":24,"max_players":24,"Bots":0,"server_type":"Dedicated","server_os":"Linux","password":true,"vac":true,"version":"7757534","steam_id":85568392924500088,"keywords":["cp","nocrits","nodmgspread","uncletopia"],"game_id":440,"stv_port":27026,"stv_name":"Uncletopia | Montréal | 2 | All Maps | STV","players":[{"user_id":233,"name":"Sonku10","steam_id":76561198922842677,"connected_time":1764000000000,"state":"active","ping":136},{"user_id":217,"name":"O'Keearns","steam_id":76561198042213797,"connected_time":3137000000000,"state":"active","ping":64},{"user_id":251,"name":"Bee","steam_id":76561198074681324,"connected_time":927000000000,"state":"active","ping":55},{"user_id":218,"name":"Joshy","steam_id":76561198061405421,"connected_time":3102000000000,"state":"active","ping":77},{"user_id":219,"name":"Pourpel","steam_id":76561198059125470,"connected_time":3090000000000,"state":"active","ping":76},{"user_id":188,"name":"Tea Enthusiast","steam_id":76561198185583925,"connected_time":6880000000000,"state":"active","ping":44},{"user_id":236,"name":"totally not a pile of beans","steam_id":76561198119851931,"connected_time":1693000000000,"state":"active","ping":75},{"user_id":247,"name":"EL Matador","steam_id":76561197971206879,"connected_time":1091000000000,"state":"active","ping":66},{"user_id":261,"name":"pest","steam_id":76561198052571208,"connected_time":66000000000,"state":"active","ping":61},{"user_id":260,"name":"nailbxmb98","steam_id":76561199131463997,"connected_time":131000000000,"state":"active","ping":149},{"user_id":263,"name":"Box Spy","steam_id":76561198414175953,"connected_time":7000000000,"state":"spawning","ping":399},{"user_id":249,"name":"Expert Piss Enjoyer","steam_id":76561199104359197,"connected_time":1079000000000,"state":"active","ping":67},{"user_id":239,"name":"Mr.Castle","steam_id":76561199037121304,"connected_time":1597000000000,"state":"active","ping":147},{"user_id":214,"name":"guac","steam_id":76561198025481672,"connected_time":3323000000000,"state":"active","ping":54},{"user_id":252,"name":"Kdash","steam_id":76561198043829155,"connected_time":916000000000,"state":"active","ping":94},{"user_id":257,"name":"Now You See It!","steam_id":76561198028606123,"connected_time":541000000000,"state":"active","ping":60},{"user_id":220,"name":"booty gremlin","steam_id":76561198044546534,"connected_time":3021000000000,"state":"active","ping":75},{"user_id":250,"name":"Expert Shit Enjoyer","steam_id":76561199245782886,"connected_time":1078000000000,"state":"active","ping":139},{"user_id":232,"name":"The Angel of Death","steam_id":76561198026079349,"connected_time":1885000000000,"state":"active","ping":124},{"user_id":253,"name":"Hifumi Togo","steam_id":76561198074930636,"connected_time":833000000000,"state":"active","ping":67},{"user_id":264,"name":"Bunglue","steam_id":76561198200675321,"connected_time":6000000000,"state":"spawning","ping":49},{"user_id":215,"name":"COFFIN FILLER","steam_id":76561198018271944,"connected_time":3155000000000,"state":"active","ping":67},{"user_id":258,"name":"THE MILK MAN","steam_id":76561198314720486,"connected_time":321000000000,"state":"active","ping":114},{"user_id":259,"name":"クレオラ","steam_id":76561198000830794,"connected_time":299000000000,"state":"active","ping":110}]},{"server_id":302,"name":"Uncletopia | Montréal | 3 | All Maps","name_short":"mtl-3","host":"mtl-1.ca.uncletopia.com","port":27035,"enabled":true,"region":"us-east","cc":"ca","latitude":45.50889,"longitude":-73.56167,"reserved":0,"last_update":"0001-01-01T00:00:00Z","name_a2s":"Uncletopia | Montréal | 3 | All Maps","protocol":17,"map":"pl_upward","folder":"tf","game":"Team Fortress","app_id":440,"player_count":0,"max_players":24,"Bots":0,"server_type":"Dedicated","server_os":"Linux","password":true,"vac":true,"version":"7757534","steam_id":85568392924500089,"keywords":["nocrits","nodmgspread","payload","uncletopia"],"game_id":440,"stv_port":27036,"stv_name":"Uncletopia | Montréal | 3 | All Maps | STV","players":null},{"server_id":303,"name":"Uncletopia | Montréal | 4 | No Payload","name_short":"mtl-4","host":"mtl-1.ca.uncletopia.com","port":27045,"enabled":true,"region":"us-east","cc":"ca","latitude":45.50889,"longitude":-73.56167,"reserved":0,"last_update":"0001-01-01T00:00:00Z","name_a2s":"Uncletopia | Montréal | 4 | No Payload","protocol":17,"map":"cp_process_final","folder":"tf","game":"Team Fortress","app_id":440,"player_count":0,"max_players":24,"Bots":0,"server_type":"Dedicated","server_os":"Linux","password":true,"vac":true,"version":"7757534","steam_id":85568392924500090,"keywords":["cp","nocrits","nodmgspread","uncletopia"],"game_id":440,"stv_port":27046,"stv_name":"Uncletopia | Montréal | 4 | No Payload | STV","players":null},{"server_id":13,"name":"Uncletopia | New York City | 1 | All Maps","name_short":"nyc-1","host":"nyc-1.us.uncletopia.com","port":27015,"enabled":true,"region":"us-east","cc":"us","latitude":40.73061,"longitude":-73.93524,"reserved":0,"last_update":"0001-01-01T00:00:00Z","name_a2s":"Uncletopia | New York City | 1 | All Maps","protocol":17,"map":"pl_upward","folder":"tf","game":"Team Fortress","app_id":440,"player_count":24,"max_players":24,"Bots":0,"server_type":"Dedicated","server_os":"Linux","password":true,"vac":true,"version":"7757534","steam_id":85568392924469993,"keywords":["nocrits","nodmgspread","payload","uncletopia"],"game_id":440,"stv_port":27016,"stv_name":"Uncletopia | New York City | 1 | All Maps | STV","players":[{"user_id":557,"name":"Pineapple Pizza","steam_id":76561197997233176,"connected_time":3032000000000,"state":"active","ping":61},{"user_id":597,"name":"Peepster","steam_id":76561198297854733,"connected_time":46000000000,"state":"active","ping":77},{"user_id":573,"name":"DrinkWater","steam_id":76561198147422187,"connected_time":1789000000000,"state":"active","ping":38},{"user_id":592,"name":"Sone","steam_id":76561198069601032,"connected_time":257000000000,"state":"active","ping":56},{"user_id":589,"name":"sosu","steam_id":76561198012675381,"connected_time":725000000000,"state":"active","ping":69},{"user_id":579,"name":"sauce","steam_id":76561198068430673,"connected_time":1560000000000,"state":"active","ping":68},{"user_id":530,"name":"Citron","steam_id":76561198278687374,"connected_time":5414000000000,"state":"active","ping":44},{"user_id":581,"name":"New Update Man","steam_id":76561198257872736,"connected_time":1498000000000,"state":"active","ping":47},{"user_id":585,"name":"MyrButCool","steam_id":76561198177245933,"connected_time":982000000000,"state":"active","ping":52},{"user_id":580,"name":"wool","steam_id":76561198869689933,"connected_time":1545000000000,"state":"active","ping":53},{"user_id":574,"name":"Motorbung87","steam_id":76561198976821898,"connected_time":1788000000000,"state":"active","ping":114},{"user_id":590,"name":"jarby","steam_id":76561198130689358,"connected_time":363000000000,"state":"active","ping":45},{"user_id":560,"name":"XCellent","steam_id":76561198805514323,"connected_time":3000000000000,"state":"active","ping":125},{"user_id":547,"name":"Cursed mario","steam_id":76561198971168093,"connected_time":3912000000000,"state":"active","ping":164},{"user_id":594,"name":"Acid-talon","steam_id":76561198039545578,"connected_time":233000000000,"state":"active","ping":58},{"user_id":553,"name":"YellerImp","steam_id":76561199221805167,"connected_time":3149000000000,"state":"active","ping":74},{"user_id":591,"name":"Subway Fan","steam_id":76561198336372790,"connected_time":275000000000,"state":"active","ping":32},{"user_id":561,"name":"crinklenuts","steam_id":76561198087092000,"connected_time":2953000000000,"state":"active","ping":79},{"user_id":564,"name":"burninballsack","steam_id":76561198124614879,"connected_time":2869000000000,"state":"active","ping":76},{"user_id":542,"name":"BUNGACOWA","steam_id":76561198979176018,"connected_time":4456000000000,"state":"active","ping":91},{"user_id":596,"name":"masterchiefvinesaucedoomguy985","steam_id":76561198339008585,"connected_time":100000000000,"state":"active","ping":89},{"user_id":598,"name":"A Rope, for big pits","steam_id":76561198068044782,"connected_time":41000000000,"state":"active","ping":59},{"user_id":570,"name":"Lanky Kong","steam_id":76561198142455488,"connected_time":2513000000000,"state":"active","ping":57},{"user_id":593,"name":"rump shaker","steam_id":76561198042590396,"connected_time":233000000000,"state":"active","ping":52}]},{"server_id":14,"name":"Uncletopia | New York City | 2 | All Maps","name_short":"nyc-2","host":"nyc-1.us.uncletopia.com","port":27025,"enabled":true,"region":"us-east","cc":"us","latitude":40.73061,"longitude":-73.93524,"reserved":0,"last_update":"0001-01-01T00:00:00Z","name_a2s":"Uncletopia | New York City | 2 | All Maps","protocol":17,"map":"cp_altitude","folder":"tf","game":"Team Fortress","app_id":440,"player_count":11,"max_players":24,"Bots":0,"server_type":"Dedicated","server_os":"Linux","password":true,"vac":true,"version":"7757534","steam_id":85568392924469994,"keywords":["cp","nocrits","nodmgspread","uncletopia"],"game_id":440,"stv_port":27026,"stv_name":"Uncletopia | New York City | 2 | All Maps | STV","players":[{"user_id":876,"name":"weedcat","steam_id":76561198346054736,"connected_time":296000000000,"state":"active","ping":60},{"user_id":877,"name":"Krookzior","steam_id":76561198076035948,"connected_time":177000000000,"state":"active","ping":113},{"user_id":864,"name":"JohnnyGitGud","steam_id":76561198401455467,"connected_time":1393000000000,"state":"active","ping":111},{"user_id":868,"name":"Smokey2603","steam_id":76561198988487621,"connected_time":927000000000,"state":"active","ping":79},{"user_id":878,"name":"Goose of Wisdom","steam_id":76561198233465044,"connected_time":32000000000,"state":"active","ping":397},{"user_id":870,"name":"Obsidian Comet","steam_id":76561198046907540,"connected_time":849000000000,"state":"active","ping":47},{"user_id":836,"name":"【⊚ ө ⊚】","steam_id":76561198263895597,"connected_time":3252000000000,"state":"active","ping":52},{"user_id":871,"name":"Grapeboy402","steam_id":76561199122035713,"connected_time":844000000000,"state":"active","ping":88},{"user_id":866,"name":"Aristotle Voulton","steam_id":76561198100174923,"connected_time":1392000000000,"state":"active","ping":73},{"user_id":856,"name":"saurhead","steam_id":76561198132937722,"connected_time":1952000000000,"state":"active","ping":45},{"user_id":855,"name":"nastypass","steam_id":76561198002601054,"connected_time":2170000000000,"state":"active","ping":87}]},{"server_id":15,"name":"Uncletopia | New York City | 3 | Stopwatch Beta","name_short":"nyc-3","host":"nyc-1.us.uncletopia.com","port":27035,"enabled":true,"region":"us-east","cc":"us","latitude":40.73061,"longitude":-73.93524,"reserved":0,"last_update":"0001-01-01T00:00:00Z","name_a2s":"Uncletopia | New York City | 3 | Stopwatch Beta","protocol":17,"map":"workshop/koth_product_final.ugc454272353","folder":"tf","game":"Team Fortress","app_id":440,"player_count":8,"max_players":24,"Bots":0,"server_type":"Dedicated","server_os":"Linux","password":true,"vac":true,"version":"7757534","steam_id":85568392924742820,"keywords":["cp","nocrits","nodmgspread","uncletopia"],"game_id":440,"stv_port":27036,"stv_name":"Uncletopia | New York City | 3 | Stopwatch Beta | STV","players":[{"user_id":33,"name":"spades.w","steam_id":76561199099653719,"connected_time":7306000000000,"state":"active","ping":80},{"user_id":34,"name":"xGordon_Gaming_TF2x","steam_id":76561198120930750,"connected_time":7217000000000,"state":"active","ping":47},{"user_id":128,"name":"engie","steam_id":76561199229629045,"connected_time":18000000000,"state":"active","ping":140},{"user_id":94,"name":"Sprinklze","steam_id":76561198163562681,"connected_time":3561000000000,"state":"active","ping":76},{"user_id":101,"name":"NICKELHEIM","steam_id":76561198049429218,"connected_time":3102000000000,"state":"active","ping":69},{"user_id":107,"name":".9 lg","steam_id":76561198092238353,"connected_time":2287000000000,"state":"active","ping":82},{"user_id":124,"name":"Gues","steam_id":76561198058022955,"connected_time":726000000000,"state":"active","ping":54},{"user_id":125,"name":"Davy Jones","steam_id":76561198956823243,"connected_time":623000000000,"state":"active","ping":57}]},{"server_id":16,"name":"Uncletopia | New York City | 4 | Community","name_short":"nyc-4","host":"nyc-1.us.uncletopia.com","port":27045,"enabled":true,"region":"us-east","cc":"us","latitude":40.73061,"longitude":-73.93524,"reserved":0,"last_update":"0001-01-01T00:00:00Z","name_a2s":"Uncletopia | New York City | 4 | Community","protocol":17,"map":"workshop/koth_kemptown_rc1.ugc767410655","folder":"tf","game":"Team Fortress","app_id":440,"player_count":0,"max_players":24,"Bots":0,"server_type":"Dedicated","server_os":"Linux","password":true,"vac":true,"version":"7757534","steam_id":85568392924742821,"keywords":["cp","nocrits","nodmgspread","uncletopia"],"game_id":440,"stv_port":27046,"stv_name":"Uncletopia | New York City | 4 | Community | STV","players":null},{"server_id":142,"name":"Uncletopia | São Paulo | 1 | All Maps","name_short":"sao-1","host":"sao-1.br.uncletopia.com","port":27015,"enabled":true,"region":"sa","cc":"br","latitude":-23.533773,"longitude":-46.62529,"reserved":0,"last_update":"0001-01-01T00:00:00Z","name_a2s":"Uncletopia | São Paulo | 1 | All Maps","protocol":17,"map":"koth_viaduct","folder":"tf","game":"Team Fortress","app_id":440,"player_count":0,"max_players":24,"Bots":0,"server_type":"Dedicated","server_os":"Linux","password":true,"vac":true,"version":"7757534","steam_id":85568392924469996,"keywords":["cp","nocrits","nodmgspread","uncletopia"],"game_id":440,"stv_port":27016,"stv_name":"Uncletopia | São Paulo | 1 | All Maps | STV","players":null},{"server_id":143,"name":"Uncletopia | São Paulo | 2 | All Maps","name_short":"sao-2","host":"sao-2.br.uncletopia.com","port":27015,"enabled":true,"region":"sa","cc":"br","latitude":-23.533773,"longitude":-46.62529,"reserved":0,"last_update":"0001-01-01T00:00:00Z","name_a2s":"Uncletopia | São Paulo | 2 | All Maps","protocol":17,"map":"koth_harvest_final","folder":"tf","game":"Team Fortress","app_id":440,"player_count":0,"max_players":24,"Bots":0,"server_type":"Dedicated","server_os":"Linux","password":true,"vac":true,"version":"7757534","steam_id":85568392924485349,"keywords":["cp","nocrits","nodmgspread","uncletopia"],"game_id":440,"stv_port":27016,"stv_name":"Uncletopia | São Paulo | 2 | All Maps | STV","players":null},{"server_id":7,"name":"Uncletopia | Seattle | 1 | All Maps","name_short":"sea-1","host":"sea-1.us.uncletopia.com","port":27015,"enabled":true,"region":"us-west","cc":"us","latitude":47.608013,"longitude":-122.33517,"reserved":0,"last_update":"0001-01-01T00:00:00Z","name_a2s":"Uncletopia | Seattle | 1 | All Maps","protocol":17,"map":"pl_frontier_final","folder":"tf","game":"Team Fortress","app_id":440,"player_count":24,"max_players":24,"Bots":0,"server_type":"Dedicated","server_os":"Linux","password":true,"vac":true,"version":"7757534","steam_id":85568392924469997,"keywords":["nocrits","nodmgspread","payload","uncletopia"],"game_id":440,"stv_port":27016,"stv_name":"Uncletopia | Seattle | 1 | All Maps | STV","players":[{"user_id":675,"name":"Wumpy","steam_id":76561198084435852,"connected_time":1942000000000,"state":"active","ping":150},{"user_id":680,"name":"The Winter Medic","steam_id":76561198197112922,"connected_time":1158000000000,"state":"active","ping":144},{"user_id":686,"name":"WACKY JIM","steam_id":76561198961641122,"connected_time":797000000000,"state":"active","ping":55},{"user_id":682,"name":"times table","steam_id":76561198341452558,"connected_time":848000000000,"state":"active","ping":113},{"user_id":669,"name":"Skabbety","steam_id":76561198168044257,"connected_time":2284000000000,"state":"active","ping":38},{"user_id":649,"name":"MCman","steam_id":76561198412110305,"connected_time":3897000000000,"state":"active","ping":77},{"user_id":687,"name":"Dr. Banana boy","steam_id":76561199012105803,"connected_time":627000000000,"state":"active","ping":54},{"user_id":666,"name":"William P. Ennis","steam_id":76561198073464877,"connected_time":2327000000000,"state":"active","ping":104},{"user_id":662,"name":"soup","steam_id":76561198043209046,"connected_time":3119000000000,"state":"active","ping":74},{"user_id":688,"name":"purple™","steam_id":76561198057459725,"connected_time":122000000000,"state":"active","ping":84},{"user_id":670,"name":"Idontknow","steam_id":76561199207044048,"connected_time":2155000000000,"state":"active","ping":44},{"user_id":685,"name":"forest","steam_id":76561198157960257,"connected_time":827000000000,"state":"active","ping":44},{"user_id":674,"name":"Cam(era)","steam_id":76561198285054047,"connected_time":2046000000000,"state":"active","ping":81},{"user_id":647,"name":"https://en.wikipedia.org/","steam_id":76561198261326806,"connected_time":4144000000000,"state":"active","ping":73},{"user_id":678,"name":"Klone","steam_id":76561198854485605,"connected_time":1395000000000,"state":"active","ping":107},{"user_id":676,"name":"jirafa nefasta","steam_id":76561199107482851,"connected_time":1716000000000,"state":"active","ping":71},{"user_id":679,"name":"resting neutral face","steam_id":76561197999259502,"connected_time":1205000000000,"state":"active","ping":63},{"user_id":677,"name":"Henchie!","steam_id":76561198047567464,"connected_time":1419000000000,"state":"active","ping":110},{"user_id":665,"name":"Lime","steam_id":76561198080786408,"connected_time":2940000000000,"state":"active","ping":54},{"user_id":671,"name":"Karl The Kube","steam_id":76561198079856988,"connected_time":2154000000000,"state":"active","ping":114},{"user_id":683,"name":"der","steam_id":76561198060762287,"connected_time":848000000000,"state":"active","ping":45},{"user_id":643,"name":"Silvercoat's Stargazer","steam_id":76561198399525329,"connected_time":4292000000000,"state":"active","ping":153},{"user_id":664,"name":"alaska","steam_id":76561198017030029,"connected_time":2960000000000,"state":"active","ping":68},{"user_id":580,"name":"Ayayahuasca","steam_id":76561199002906056,"connected_time":9966000000000,"state":"active","ping":55}]},{"server_id":119,"name":"Uncletopia | Seattle | 2 | All Maps","name_short":"sea-2","host":"sea-1.us.uncletopia.com","port":27025,"enabled":true,"region":"us-west","cc":"us","latitude":47.608013,"longitude":-122.33517,"reserved":0,"last_update":"0001-01-01T00:00:00Z","name_a2s":"Uncletopia | Seattle | 2 | All Maps","protocol":17,"map":"cp_mountainlab","folder":"tf","game":"Team Fortress","app_id":440,"player_count":24,"max_players":24,"Bots":0,"server_type":"Dedicated","server_os":"Linux","password":true,"vac":true,"version":"7757534","steam_id":85568392924469998,"keywords":["cp","nocrits","nodmgspread","uncletopia"],"game_id":440,"stv_port":27026,"stv_name":"Uncletopia | Seattle | 2 | All Maps | STV","players":[{"user_id":592,"name":"catrinaisahuman","steam_id":76561198281355729,"connected_time":646000000000,"state":"active","ping":75},{"user_id":584,"name":"HDI","steam_id":76561199062715724,"connected_time":1069000000000,"state":"active","ping":55},{"user_id":581,"name":"Gaming","steam_id":76561198327632113,"connected_time":1417000000000,"state":"active","ping":45},{"user_id":520,"name":"Mimic","steam_id":76561198060164147,"connected_time":4545000000000,"state":"active","ping":75},{"user_id":544,"name":"Digitic","steam_id":76561198080295536,"connected_time":3307000000000,"state":"active","ping":121},{"user_id":545,"name":"DoubleX2000","steam_id":76561198164134387,"connected_time":3302000000000,"state":"active","ping":57},{"user_id":594,"name":"Predatorial","steam_id":76561198057791254,"connected_time":116000000000,"state":"active","ping":113},{"user_id":585,"name":"laggy mcstab","steam_id":76561198106379962,"connected_time":1066000000000,"state":"active","ping":59},{"user_id":524,"name":"firestabber","steam_id":76561198057055577,"connected_time":3877000000000,"state":"active","ping":50},{"user_id":554,"name":"Snippykeegan","steam_id":76561198274529343,"connected_time":2972000000000,"state":"active","ping":94},{"user_id":579,"name":"ulysses","steam_id":76561198059313367,"connected_time":1562000000000,"state":"active","ping":39},{"user_id":586,"name":"space creep","steam_id":76561198025668545,"connected_time":1052000000000,"state":"active","ping":116},{"user_id":587,"name":"Gaige","steam_id":76561198063462825,"connected_time":986000000000,"state":"active","ping":92},{"user_id":593,"name":"Orca?","steam_id":76561198164341099,"connected_time":508000000000,"state":"active","ping":86},{"user_id":589,"name":"Dilo","steam_id":76561198799078414,"connected_time":878000000000,"state":"active","ping":87},{"user_id":570,"name":"litcherally in vents","steam_id":76561199169558959,"connected_time":2418000000000,"state":"active","ping":42},{"user_id":559,"name":"CollDragon","steam_id":76561198067534450,"connected_time":2869000000000,"state":"active","ping":127},{"user_id":591,"name":"omgitisme321","steam_id":76561198437173029,"connected_time":676000000000,"state":"active","ping":107},{"user_id":571,"name":"joethefool","steam_id":76561199015436319,"connected_time":2377000000000,"state":"active","ping":127},{"user_id":562,"name":"Veritox","steam_id":76561198075778026,"connected_time":2817000000000,"state":"active","ping":78},{"user_id":521,"name":"Justy","steam_id":76561198044014069,"connected_time":4477000000000,"state":"active","ping":78},{"user_id":564,"name":"squid","steam_id":76561198070236972,"connected_time":2742000000000,"state":"active","ping":90},{"user_id":575,"name":"Obvious131","steam_id":76561198874065644,"connected_time":2203000000000,"state":"active","ping":83},{"user_id":577,"name":"Yesterday's Grouse's Son","steam_id":76561198259873083,"connected_time":2126000000000,"state":"active","ping":73}]},{"server_id":406,"name":"Uncletopia | Seattle | 3 | Stopwatch Beta","name_short":"sea-3","host":"sea-1.us.uncletopia.com","port":27035,"enabled":true,"region":"us-west","cc":"us","latitude":47.608013,"longitude":-122.33517,"reserved":0,"last_update":"0001-01-01T00:00:00Z","name_a2s":"Uncletopia | Seattle | 3 | Stopwatch Beta","protocol":17,"map":"workshop/koth_ramjam_rc1.ugc459778887","folder":"tf","game":"Team Fortress","app_id":440,"player_count":5,"max_players":24,"Bots":0,"server_type":"Dedicated","server_os":"Linux","password":true,"vac":true,"version":"7757534","steam_id":85568392924515217,"keywords":["cp","nocrits","nodmgspread","uncletopia"],"game_id":440,"stv_port":27036,"stv_name":"Uncletopia | Seattle | 3 | Stopwatch Beta | STV","players":[{"user_id":39,"name":"Feldspaten","steam_id":76561199122059102,"connected_time":411000000000,"state":"active","ping":75},{"user_id":40,"name":"MAJ suck","steam_id":76561199097957544,"connected_time":383000000000,"state":"active","ping":336},{"user_id":41,"name":"Sgt. Shithead","steam_id":76561199098845129,"connected_time":375000000000,"state":"active","ping":69},{"user_id":42,"name":"emily","steam_id":76561198893519605,"connected_time":353000000000,"state":"active","ping":114},{"user_id":43,"name":"IntoTheXone","steam_id":76561198905866778,"connected_time":335000000000,"state":"active","ping":91}]},{"server_id":17,"name":"Uncletopia | San Francisco | 1 | All Maps","name_short":"sfo-1","host":"sfo-1.us.uncletopia.com","port":27015,"enabled":true,"region":"us-west","cc":"us","latitude":37.77397,"longitude":-122.4313,"reserved":0,"last_update":"0001-01-01T00:00:00Z","name_a2s":"Uncletopia | San Francisco | 1 | All Maps","protocol":17,"map":"pl_snowycoast","folder":"tf","game":"Team Fortress","app_id":440,"player_count":23,"max_players":24,"Bots":0,"server_type":"Dedicated","server_os":"Linux","password":true,"vac":true,"version":"7757534","steam_id":85568392924469999,"keywords":["nocrits","nodmgspread","payload","uncletopia"],"game_id":440,"stv_port":27016,"stv_name":"Uncletopia | San Francisco | 1 | All Maps | STV","players":[{"user_id":686,"name":"unlucky","steam_id":76561199204822104,"connected_time":2396000000000,"state":"active","ping":87},{"user_id":660,"name":"RapidXenophage","steam_id":76561198175149973,"connected_time":2999000000000,"state":"active","ping":77},{"user_id":657,"name":"PL0T0","steam_id":76561198157481171,"connected_time":3041000000000,"state":"active","ping":61},{"user_id":708,"name":"El Gato Paranoico","steam_id":76561198116567116,"connected_time":655000000000,"state":"active","ping":104},{"user_id":672,"name":"YASAI JUICE","steam_id":76561198131971992,"connected_time":2779000000000,"state":"active","ping":90},{"user_id":710,"name":"CHIANG KAI-SHEK","steam_id":76561198281612642,"connected_time":238000000000,"state":"active","ping":66},{"user_id":691,"name":"Bheem","steam_id":76561198170453459,"connected_time":1963000000000,"state":"active","ping":57},{"user_id":697,"name":"toodles","steam_id":76561198025463883,"connected_time":1554000000000,"state":"active","ping":74},{"user_id":700,"name":"Snake_AssEater","steam_id":76561198963753530,"connected_time":1435000000000,"state":"active","ping":63},{"user_id":709,"name":"jello","steam_id":76561198149683030,"connected_time":323000000000,"state":"active","ping":47},{"user_id":705,"name":"Red Shift","steam_id":76561198057517699,"connected_time":939000000000,"state":"active","ping":101},{"user_id":692,"name":"Whapper","steam_id":76561198044029606,"connected_time":1939000000000,"state":"active","ping":57},{"user_id":687,"name":"Yuhh","steam_id":76561199112894955,"connected_time":2386000000000,"state":"active","ping":87},{"user_id":643,"name":"Drake from State Farm","steam_id":76561199069029812,"connected_time":4428000000000,"state":"active","ping":58},{"user_id":693,"name":"Gugomo","steam_id":76561198121428316,"connected_time":1928000000000,"state":"active","ping":46},{"user_id":701,"name":"Ion","steam_id":76561197992690915,"connected_time":1212000000000,"state":"active","ping":76},{"user_id":650,"name":"ForAPessimistImPrettyOptimistic","steam_id":76561198170128009,"connected_time":3916000000000,"state":"active","ping":56},{"user_id":556,"name":"wrongs","steam_id":76561198084208649,"connected_time":10938000000000,"state":"active","ping":73},{"user_id":675,"name":"oToqd","steam_id":76561198389063713,"connected_time":2639000000000,"state":"active","ping":83},{"user_id":611,"name":"Highground","steam_id":76561199197544789,"connected_time":6987000000000,"state":"active","ping":158},{"user_id":698,"name":"Tricky","steam_id":76561198287908105,"connected_time":1536000000000,"state":"active","ping":82},{"user_id":702,"name":"Aux","steam_id":76561199091651065,"connected_time":1070000000000,"state":"active","ping":61},{"user_id":711,"name":"Let's dance","steam_id":76561198031215761,"connected_time":86000000000,"state":"active","ping":48}]},{"server_id":18,"name":"Uncletopia | San Francisco | 2 | All Maps","name_short":"sfo-2","host":"sfo-1.us.uncletopia.com","port":27025,"enabled":true,"region":"us-west","cc":"us","latitude":37.77397,"longitude":-122.4313,"reserved":0,"last_update":"0001-01-01T00:00:00Z","name_a2s":"Uncletopia | San Francisco | 2 | All Maps","protocol":17,"map":"koth_highpass","folder":"tf","game":"Team Fortress","app_id":440,"player_count":0,"max_players":24,"Bots":0,"server_type":"Dedicated","server_os":"Linux","password":true,"vac":true,"version":"7757534","steam_id":85568392924470000,"keywords":["cp","nocrits","nodmgspread","uncletopia"],"game_id":440,"stv_port":27026,"stv_name":"Uncletopia | San Francisco | 2 | All Maps | STV","players":null},{"server_id":19,"name":"Uncletopia | San Francisco | 3 | Stopwatch Beta","name_short":"sfo-3","host":"sfo-1.us.uncletopia.com","port":27035,"enabled":true,"region":"us-west","cc":"us","latitude":37.77397,"longitude":-122.4313,"reserved":0,"last_update":"0001-01-01T00:00:00Z","name_a2s":"Uncletopia | San Francisco | 3 | Stopwatch Beta","protocol":17,"map":"workshop/pl_barnblitz_pro7.ugc582280235","folder":"tf","game":"Team Fortress","app_id":440,"player_count":0,"max_players":24,"Bots":0,"server_type":"Dedicated","server_os":"Linux","password":true,"vac":true,"version":"7757534","steam_id":85568392924742824,"keywords":["nocrits","nodmgspread","payload","uncletopia"],"game_id":440,"stv_port":27036,"stv_name":"Uncletopia | San Francisco | 3 | Stopwatch Beta | STV","players":null},{"server_id":20,"name":"Uncletopia | San Francisco | 4 | Community","name_short":"sfo-4","host":"sfo-1.us.uncletopia.com","port":27045,"enabled":true,"region":"us-west","cc":"us","latitude":37.77397,"longitude":-122.4313,"reserved":0,"last_update":"0001-01-01T00:00:00Z","name_a2s":"Uncletopia | San Francisco | 4 | Community","protocol":17,"map":"workshop/cp_villa_b19.ugc2113052569","folder":"tf","game":"Team Fortress","app_id":440,"player_count":11,"max_players":24,"Bots":0,"server_type":"Dedicated","server_os":"Linux","password":true,"vac":true,"version":"7757534","steam_id":85568392924742826,"keywords":["cp","nocrits","nodmgspread","uncletopia"],"game_id":440,"stv_port":27046,"stv_name":"Uncletopia | San Francisco | 4 | Community | STV","players":[{"user_id":157,"name":"Chongo","steam_id":76561198017604393,"connected_time":1908000000000,"state":"active","ping":57},{"user_id":173,"name":"Arcturus","steam_id":76561198237155540,"connected_time":393000000000,"state":"active","ping":107},{"user_id":177,"name":"Zephyr","steam_id":76561198129785553,"connected_time":208000000000,"state":"active","ping":115},{"user_id":172,"name":"RING DONG DORINGOS","steam_id":76561198043558709,"connected_time":423000000000,"state":"active","ping":60},{"user_id":174,"name":"Le0901","steam_id":76561198372891244,"connected_time":314000000000,"state":"active","ping":104},{"user_id":143,"name":"awootism","steam_id":76561198046130018,"connected_time":2562000000000,"state":"active","ping":117},{"user_id":166,"name":"DoomsdaySnail","steam_id":76561198131444200,"connected_time":776000000000,"state":"active","ping":117},{"user_id":167,"name":"anipe10","steam_id":76561199084698417,"connected_time":755000000000,"state":"active","ping":71},{"user_id":46,"name":"Ahcer","steam_id":76561198125190121,"connected_time":11522000000000,"state":"active","ping":49},{"user_id":170,"name":"Tanky","steam_id":76561199440310323,"connected_time":592000000000,"state":"active","ping":114},{"user_id":124,"name":"Please_insert_id","steam_id":76561198058140301,"connected_time":5393000000000,"state":"active","ping":131}]},{"server_id":141,"name":"Uncletopia | Sydney | 1 | All Maps","name_short":"syd-1","host":"syd-1.au.uncletopia.com","port":27015,"enabled":true,"region":"au","cc":"au","latitude":-33.865143,"longitude":151.2099,"reserved":0,"last_update":"0001-01-01T00:00:00Z","name_a2s":"Uncletopia | Sydney | 1 | All Maps","protocol":17,"map":"cp_steel","folder":"tf","game":"Team Fortress","app_id":440,"player_count":24,"max_players":24,"Bots":0,"server_type":"Dedicated","server_os":"Linux","password":true,"vac":true,"version":"7757534","steam_id":85568392924470001,"keywords":["cp","nocrits","nodmgspread","uncletopia"],"game_id":440,"stv_port":27016,"stv_name":"Uncletopia | Sydney | 1 | All Maps | STV","players":[{"user_id":189,"name":"Syujiji","steam_id":76561198004276345,"connected_time":1243000000000,"state":"active","ping":53},{"user_id":197,"name":"Fixer","steam_id":76561199349854515,"connected_time":838000000000,"state":"active","ping":61},{"user_id":190,"name":"bart","steam_id":76561197998556050,"connected_time":1240000000000,"state":"active","ping":65},{"user_id":150,"name":"Mr Mahal","steam_id":76561198123234137,"connected_time":4288000000000,"state":"active","ping":78},{"user_id":129,"name":"jim :)","steam_id":76561198127508905,"connected_time":5889000000000,"state":"active","ping":43},{"user_id":201,"name":"Snowy","steam_id":76561198255720598,"connected_time":470000000000,"state":"active","ping":45},{"user_id":198,"name":"Gwarp","steam_id":76561198061960926,"connected_time":645000000000,"state":"active","ping":98},{"user_id":105,"name":"01001110 01101111","steam_id":76561198290288735,"connected_time":6886000000000,"state":"active","ping":60},{"user_id":203,"name":"freddydog711","steam_id":76561199475821017,"connected_time":271000000000,"state":"active","ping":62},{"user_id":162,"name":"RinzlerAmi","steam_id":76561198158165048,"connected_time":3880000000000,"state":"active","ping":68},{"user_id":118,"name":"itsjustmarvin77","steam_id":76561199375656301,"connected_time":6494000000000,"state":"active","ping":73},{"user_id":204,"name":"wombraidre","steam_id":76561199375834537,"connected_time":186000000000,"state":"active","ping":128},{"user_id":106,"name":"Emanuel Augustus","steam_id":76561199081848498,"connected_time":6805000000000,"state":"active","ping":63},{"user_id":199,"name":"Zacy","steam_id":76561198114841670,"connected_time":476000000000,"state":"active","ping":119},{"user_id":176,"name":"Pile of Sneed","steam_id":76561198143537391,"connected_time":2845000000000,"state":"active","ping":55},{"user_id":145,"name":"Zieria","steam_id":76561199261811388,"connected_time":4497000000000,"state":"active","ping":40},{"user_id":185,"name":"little raw meat boy","steam_id":76561199248254676,"connected_time":1992000000000,"state":"active","ping":61},{"user_id":187,"name":"nurf","steam_id":76561198019391327,"connected_time":1860000000000,"state":"active","ping":60},{"user_id":205,"name":"Bin","steam_id":76561199117653318,"connected_time":180000000000,"state":"active","ping":68},{"user_id":93,"name":"Piklz","steam_id":76561198043384139,"connected_time":7663000000000,"state":"active","ping":53},{"user_id":175,"name":"Black Clad Gang Man","steam_id":76561198281156018,"connected_time":3129000000000,"state":"active","ping":71},{"user_id":206,"name":"Marzell","steam_id":76561198151276153,"connected_time":155000000000,"state":"active","ping":89},{"user_id":188,"name":"EmmArrGus","steam_id":76561198106343847,"connected_time":1804000000000,"state":"active","ping":51},{"user_id":131,"name":"Cup","steam_id":76561198038485845,"connected_time":5849000000000,"state":"active","ping":30}]},{"server_id":123,"name":"Uncletopia | Sydney | 2 | All Maps","name_short":"syd-2","host":"syd-1.au.uncletopia.com","port":27025,"enabled":true,"region":"au","cc":"au","latitude":-33.865143,"longitude":151.2099,"reserved":0,"last_update":"0001-01-01T00:00:00Z","name_a2s":"Uncletopia | Sydney | 2 | All Maps","protocol":17,"map":"pl_pier","folder":"tf","game":"Team Fortress","app_id":440,"player_count":0,"max_players":24,"Bots":0,"server_type":"Dedicated","server_os":"Linux","password":true,"vac":true,"version":"7757534","steam_id":85568392924470002,"keywords":["nocrits","nodmgspread","payload","uncletopia"],"game_id":440,"stv_port":27026,"stv_name":"Uncletopia | Sydney | 2 | All Maps | STV","players":null},{"server_id":395,"name":"Uncletopia | Sydney | 3 | All Maps","name_short":"syd-3","host":"syd-1.au.uncletopia.com","port":27035,"enabled":true,"region":"au","cc":"au","latitude":-33.865143,"longitude":151.2099,"reserved":0,"last_update":"0001-01-01T00:00:00Z","name_a2s":"Uncletopia | Sydney | 3 | All Maps","protocol":17,"map":"cp_process_final","folder":"tf","game":"Team Fortress","app_id":440,"player_count":24,"max_players":24,"Bots":0,"server_type":"Dedicated","server_os":"Linux","password":true,"vac":true,"version":"7757534","steam_id":85568392925194467,"keywords":["cp","nocrits","nodmgspread","uncletopia"],"game_id":440,"stv_port":27036,"stv_name":"Uncletopia | Sydney | 3 | All Maps | STV","players":[{"user_id":147,"name":"jv","steam_id":76561198267475132,"connected_time":1728000000000,"state":"active","ping":48},{"user_id":137,"name":"Gazza","steam_id":76561198195761449,"connected_time":2659000000000,"state":"active","ping":64},{"user_id":118,"name":"Pat","steam_id":76561198244663182,"connected_time":3664000000000,"state":"active","ping":56},{"user_id":164,"name":".ki","steam_id":76561198241303512,"connected_time":117000000000,"state":"active","ping":51},{"user_id":158,"name":"Kremmen","steam_id":76561198051368641,"connected_time":841000000000,"state":"active","ping":70},{"user_id":165,"name":"Doctor Estonia","steam_id":76561198057365089,"connected_time":94000000000,"state":"active","ping":101},{"user_id":80,"name":"perturb","steam_id":76561198085124297,"connected_time":5170000000000,"state":"active","ping":56},{"user_id":163,"name":"Kenos234","steam_id":76561199183803664,"connected_time":279000000000,"state":"active","ping":178},{"user_id":150,"name":"Haste","steam_id":76561198173155142,"connected_time":1620000000000,"state":"active","ping":59},{"user_id":47,"name":"bobo","steam_id":76561198156622144,"connected_time":7593000000000,"state":"active","ping":59},{"user_id":140,"name":"mixyad3","steam_id":76561198046461767,"connected_time":2552000000000,"state":"active","ping":59},{"user_id":166,"name":"Denszeal","steam_id":76561198313718095,"connected_time":31000000000,"state":"active","ping":79},{"user_id":151,"name":"ADUCK","steam_id":76561198249887912,"connected_time":1565000000000,"state":"active","ping":64},{"user_id":142,"name":"Ok Mate","steam_id":76561198254922035,"connected_time":2138000000000,"state":"active","ping":52},{"user_id":160,"name":"Flesh Thing with a Soul","steam_id":76561198242072204,"connected_time":643000000000,"state":"active","ping":63},{"user_id":161,"name":"Wampy","steam_id":76561199211235248,"connected_time":636000000000,"state":"active","ping":54},{"user_id":115,"name":"ziah","steam_id":76561198159375596,"connected_time":3766000000000,"state":"active","ping":54},{"user_id":153,"name":"Threeface","steam_id":76561199044095674,"connected_time":1452000000000,"state":"active","ping":77},{"user_id":139,"name":"MR Martian","steam_id":76561198157854561,"connected_time":2557000000000,"state":"active","ping":90},{"user_id":128,"name":"Tiger_Tan","steam_id":76561198221733844,"connected_time":3151000000000,"state":"active","ping":73},{"user_id":155,"name":"Nah","steam_id":76561198869190432,"connected_time":1265000000000,"state":"active","ping":56},{"user_id":135,"name":"zore","steam_id":76561198016233021,"connected_time":2915000000000,"state":"active","ping":56},{"user_id":141,"name":"Pokelock","steam_id":76561198160389063,"connected_time":2542000000000,"state":"active","ping":102},{"user_id":162,"name":"Bateman","steam_id":76561198071905445,"connected_time":622000000000,"state":"active","ping":57}]},{"server_id":396,"name":"Uncletopia | Sydney | 4 | All Maps","name_short":"syd-4","host":"syd-1.au.uncletopia.com","port":27045,"enabled":true,"region":"au","cc":"au","latitude":-33.865143,"longitude":151.2099,"reserved":0,"last_update":"0001-01-01T00:00:00Z","name_a2s":"Uncletopia | Sydney | 4 | All Maps","protocol":17,"map":"koth_highpass","folder":"tf","game":"Team Fortress","app_id":440,"player_count":0,"max_players":24,"Bots":0,"server_type":"Dedicated","server_os":"Linux","password":true,"vac":true,"version":"7757534","steam_id":85568392925397958,"keywords":["cp","nocrits","nodmgspread","uncletopia"],"game_id":440,"stv_port":27046,"stv_name":"Uncletopia | Sydney | 4 | All Maps | STV","players":null},{"server_id":58,"name":"Uncletopia | Sydney | 5 | Stopwatch Beta","name_short":"syd-5","host":"syd-1.au.uncletopia.com","port":27055,"enabled":true,"region":"au","cc":"au","latitude":-33.865143,"longitude":151.2099,"reserved":0,"last_update":"0001-01-01T00:00:00Z","name_a2s":"Uncletopia | Sydney | 5 | Stopwatch Beta","protocol":17,"map":"pl_upward","folder":"tf","game":"Team Fortress","app_id":440,"player_count":0,"max_players":24,"Bots":0,"server_type":"Dedicated","server_os":"Linux","password":true,"vac":true,"version":"7757534","steam_id":85568392925397959,"keywords":["nocrits","nodmgspread","payload","uncletopia"],"game_id":440,"stv_port":27056,"stv_name":"Uncletopia | Sydney | 5 | Stopwatch Beta | STV","players":null},{"server_id":59,"name":"Uncletopia | Sydney | 6 | Community","name_short":"syd-6","host":"syd-1.au.uncletopia.com","port":27065,"enabled":true,"region":"au","cc":"au","latitude":-33.865143,"longitude":151.2099,"reserved":0,"last_update":"0001-01-01T00:00:00Z","name_a2s":"Uncletopia | Sydney | 6 | Community","protocol":17,"map":"cp_snakewater_final1","folder":"tf","game":"Team Fortress","app_id":440,"player_count":0,"max_players":24,"Bots":0,"server_type":"Dedicated","server_os":"Linux","password":true,"vac":true,"version":"7757534","steam_id":85568392925397960,"keywords":["cp","nocrits","nodmgspread","uncletopia"],"game_id":440,"stv_port":27066,"stv_name":"Uncletopia | Sydney | 6 | Community | STV","players":null},{"server_id":49,"name":"Uncletopia | Warsaw | 1 | All Maps","name_short":"waw-1","host":"waw-1.pl.uncletopia.com","port":27015,"enabled":true,"region":"eu","cc":"pl","latitude":52.2297,"longitude":21.017532,"reserved":0,"last_update":"0001-01-01T00:00:00Z","name_a2s":"","protocol":0,"map":"","folder":"","game":"","app_id":0,"player_count":0,"max_players":0,"Bots":0,"server_type":"","server_os":"","password":false,"vac":false,"version":"","steam_id":0,"keywords":null,"game_id":0,"stv_port":0,"stv_name":"","players":null},{"server_id":50,"name":"Uncletopia | Warsaw | 2 | All Maps","name_short":"waw-2","host":"waw-1.pl.uncletopia.com","port":27025,"enabled":true,"region":"eu","cc":"pl","latitude":52.2297,"longitude":21.017532,"reserved":0,"last_update":"0001-01-01T00:00:00Z","name_a2s":"Uncletopia | Warsaw | 2 | All Maps","protocol":17,"map":"koth_viaduct","folder":"tf","game":"Team Fortress","app_id":440,"player_count":0,"max_players":24,"Bots":0,"server_type":"Dedicated","server_os":"Linux","password":true,"vac":true,"version":"7757534","steam_id":85568392925397851,"keywords":["cp","nocrits","nodmgspread","uncletopia"],"game_id":440,"stv_port":27026,"stv_name":"Uncletopia | Warsaw | 2 | All Maps | STV","players":null},{"server_id":51,"name":"Uncletopia | Warsaw | 3 | All Maps","name_short":"waw-3","host":"waw-1.pl.uncletopia.com","port":27035,"enabled":true,"region":"eu","cc":"pl","latitude":52.2297,"longitude":21.017532,"reserved":0,"last_update":"0001-01-01T00:00:00Z","name_a2s":"Uncletopia | Warsaw | 3 | All Maps","protocol":17,"map":"koth_viaduct","folder":"tf","game":"Team Fortress","app_id":440,"player_count":0,"max_players":24,"Bots":0,"server_type":"Dedicated","server_os":"Linux","password":true,"vac":true,"version":"7757534","steam_id":85568392925397852,"keywords":["cp","nocrits","nodmgspread","uncletopia"],"game_id":440,"stv_port":27036,"stv_name":"Uncletopia | Warsaw | 3 | All Maps | STV","players":null},{"server_id":52,"name":"Uncletopia | Warsaw | 4 | All Maps","name_short":"waw-4","host":"waw-1.pl.uncletopia.com","port":27045,"enabled":true,"region":"eu","cc":"pl","latitude":52.2297,"longitude":21.017532,"reserved":0,"last_update":"0001-01-01T00:00:00Z","name_a2s":"Uncletopia | Warsaw | 4 | All Maps","protocol":17,"map":"koth_lakeside_final","folder":"tf","game":"Team Fortress","app_id":440,"player_count":0,"max_players":24,"Bots":0,"server_type":"Dedicated","server_os":"Linux","password":true,"vac":true,"version":"7757534","steam_id":85568392925397853,"keywords":["cp","nocrits","nodmgspread","uncletopia"],"game_id":440,"stv_port":27046,"stv_name":"Uncletopia | Warsaw | 4 | All Maps | STV","players":null},{"server_id":53,"name":"Uncletopia | Warsaw | 5 | Stopwatch Beta","name_short":"waw-5","host":"waw-1.pl.uncletopia.com","port":27055,"enabled":true,"region":"eu","cc":"pl","latitude":52.2297,"longitude":21.017532,"reserved":0,"last_update":"0001-01-01T00:00:00Z","name_a2s":"Uncletopia | Warsaw | 5 | Stopwatch Beta","protocol":17,"map":"pl_borneo","folder":"tf","game":"Team Fortress","app_id":440,"player_count":0,"max_players":24,"Bots":0,"server_type":"Dedicated","server_os":"Linux","password":true,"vac":true,"version":"7757534","steam_id":85568392925397854,"keywords":["nocrits","nodmgspread","payload","uncletopia"],"game_id":440,"stv_port":27056,"stv_name":"Uncletopia | Warsaw | 5 | Stopwatch Beta | STV","players":null},{"server_id":54,"name":"Uncletopia | Warsaw | 6 | Community","name_short":"waw-6","host":"waw-1.pl.uncletopia.com","port":27065,"enabled":true,"region":"eu","cc":"pl","latitude":52.2297,"longitude":21.017532,"reserved":0,"last_update":"0001-01-01T00:00:00Z","name_a2s":"Uncletopia | Warsaw | 6 | Community","protocol":17,"map":"koth_lakeside_final","folder":"tf","game":"Team Fortress","app_id":440,"player_count":0,"max_players":24,"Bots":0,"server_type":"Dedicated","server_os":"Linux","password":true,"vac":true,"version":"7757534","steam_id":85568392925397856,"keywords":["cp","nocrits","nodmgspread","uncletopia"],"game_id":440,"stv_port":27066,"stv_name":"Uncletopia | Warsaw | 6 | Community | STV","players":null}]}