{"status":true,"message":"","result":[{"server_id":9,"name":"Uncletopia | Atlanta | 1 | All Maps","name_short":"atl-1","host":"atl-1.us.uncletopia.com","port":27015,"enabled":true,"region":"us-east","cc":"us","latitude":33.753746,"longitude":-84.38633,"reserved":0,"last_update":"0001-01-01T00:00:00Z","name_a2s":"Uncletopia | Atlanta | 1 | All Maps","protocol":17,"map":"pl_snowycoast","folder":"tf","game":"Team Fortress","app_id":440,"player_count":24,"max_players":24,"Bots":0,"server_type":"Dedicated","server_os":"Linux","password":true,"vac":true,"version":"7757534","steam_id":85568392924469982,"keywords":["nocrits","nodmgspread","payload","uncletopia"],"game_id":440,"stv_port":27016,"stv_name":"Uncletopia | Atlanta | 1 | All Maps | STV","players":[{"user_id":126,"name":"ally of big tobacco","steam_id":76561198169927835,"connected_time":717000000000,"state":"active","ping":72},{"user_id":92,"name":"Monster","steam_id":76561198189429665,"connected_time":3930000000000,"state":"active","ping":58},{"user_id":137,"name":"Crazy Insane Proboscis Monkey","steam_id":76561198061011176,"connected_time":121000000000,"state":"active","ping":88},{"user_id":100,"name":"Sans (real)","steam_id":76561199084939435,"connected_time":3341000000000,"state":"active","ping":62},{"user_id":127,"name":"Cayenne","steam_id":76561198004614086,"connected_time":713000000000,"state":"active","ping":64},{"user_id":106,"name":"8,000,000 merged Chihuahuas","steam_id":76561198130772096,"connected_time":3268000000000,"state":"active","ping":44},{"user_id":95,"name":"Thotimus Begonimus","steam_id":76561197970275938,"connected_time":3867000000000,"state":"active","ping":41},{"user_id":109,"name":"N√∏rzaq","steam_id":76561198143188802,"connected_time":2731000000000,"state":"active","ping":120},{"user_id":141,"name":"GotYourNose","steam_id":76561198803527852,"connected_time":80000000000,"state":"active","ping":55},{"user_id":143,"name":"paint pig","steam_id":76561198024817457,"connected_time":43000000000,"state":"active","ping":72},{"user_id":123,"name":"butterbutt!","steam_id":76561198038160740,"connected_time":964000000000,"state":"active","ping":45},{"user_id":108,"name":"Argo","steam_id":76561198353725622,"connected_time":2828000000000,"state":"active","ping":76},{"user_id":116,"name":"Ejaculation Zach","steam_id":76561198203765200,"connected_time":2024000000000,"state":"active","ping":84},{"user_id":134,"name":"Brandonazz","steam_id":76561197994366351,"connected_time":237000000000,"state":"active","ping":71},{"user_id":129,"name":"IanTheAwsm","steam_id":76561198093031738,"connected_time":664000000000,"state":"active","ping":86},{"user_id":104,"name":"Scorch","steam_id":76561198167024005,"connected_time":3328000000000,"state":"active","ping":55},{"user_id":124,"name":"S\u003eCosmic Constellation Patriot ","steam_id":76561198251665862,"connected_time":828000000000,"state":"active","ping":84},{"user_id":136,"name":"Khailby","steam_id":76561198811728410,"connected_time":133000000000,"state":"active","ping":58},{"user_id":121,"name":"jandajanda","steam_id":76561198235722476,"connected_time":1575000000000,"state":"active","ping":59},{"user_id":73,"name":"Jester","steam_id":76561198156746320,"connected_time":5867000000000,"state":"active","ping":63},{"user_id":133,"name":"God's Sleepiest Puppy","steam_id":76561198070315609,"connected_time":510000000000,"state":"active","ping":47},{"user_id":138,"name":"Uganda Knuckles lll","steam_id":76561199121276474,"connected_time":99000000000,"state":"spawning","ping":91},{"user_id":131,"name":"Broadsword","steam_id":76561198011160411,"connected_time":650000000000,"state":"active","ping":61},{"user_id":140,"name":"whisper","steam_id":76561198116741891,"connected_time":97000000000,"state":"active","ping":56}]},{"server_id":400,"name":"Uncletopia | Atlanta | 3 | Community","name_short":"atl-3","host":"atl-1.us.uncletopia.com","port":27035,"enabled":true,"region":"us-east","cc":"us","latitude":33.753746,"longitude":-84.38633,"reserved":0,"last_update":"0001-01-01T00:00:00Z","name_a2s":"Uncletopia | Atlanta | 3 | Community","protocol":17,"map":"workshop/pl_vigil_rc9.ugc1266210012","folder":"tf","game":"Team Fortress","app_id":440,"player_count":24,"max_players":24,"Bots":0,"server_type":"Dedicated","server_os":"Linux","password":true,"vac":true,"version":"7757534","steam_id":85568392924515187,"keywords":["nocrits","nodmgspread","payload","uncletopia"],"game_id":440,"stv_port":27036,"stv_name":"Uncletopia | Atlanta | 3 | Community | STV","players":[{"user_id":83,"name":"bigboy2457","steam_id":76561199096489471,"connected_time":15000000000,"state":"spawning","ping":139},{"user_id":57,"name":"lexrit18","steam_id":76561198343554822,"connected_time":1554000000000,"state":"active","ping":75},{"user_id":73,"name":"cheeto dealer","steam_id":76561199243489976,"connected_time":539000000000,"state":"active","ping":142},{"user_id":13,"name":"Flameknight93969","steam_id":76561199107810392,"connected_time":4194000000000,"state":"active","ping":125},{"user_id":81,"name":"rustyorion","steam_id":76561198439186347,"connected_time":106000000000,"state":"active","ping":109},{"user_id":77,"name":"RAMPAGE","steam_id":76561199183495620,"connected_time":211000000000,"state":"active","ping":66},{"user_id":18,"name":"Fresh0c0","steam_id":76561198271933283,"connected_time":3749000000000,"state":"active","ping":94},{"user_id":16,"name":"usasan","steam_id":76561198044654399,"connected_time":4042000000000,"state":"active","ping":95},{"user_id":30,"name":"PISSF****T","steam_id":76561199062570438,"connected_time":3046000000000,"state":"active","ping":51},{"user_id":78,"name":"benito","steam_id":76561199098569869,"connected_time":194000000000,"state":"spawning","ping":600},{"user_id":44,"name":"Hey","steam_id":76561198447517893,"connected_time":2668000000000,"state":"active","ping":63},{"user_id":53,"name":"king_nebblit","steam_id":76561199183321935,"connected_time":2203000000000,"state":"active","ping":94},{"user_id":63,"name":"JoJo","steam_id":76561198063687796,"connected_time":1195000000000,"state":"active","ping":91},{"user_id":75,"name":"fudo myoo","steam_id":76561198456258164,"connected_time":347000000000,"state":"active","ping":57},{"user_id":66,"name":"Yardy","steam_id":76561199014069096,"connected_time":917000000000,"state":"active","ping":132},{"user_id":68,"name":"broos","steam_id":76561198061648271,"connected_time":832000000000,"state":"active","ping":118},{"user_id":50,"name":"LukaNDR_11","steam_id":76561198813816127,"connected_time":2310000000000,"state":"active","ping":189},{"user_id":79,"name":"LazyGoomba","steam_id":76561198418166083,"connected_time":175000000000,"state":"active","ping":164},{"user_id":36,"name":"Accidental Fall","steam_id":76561198840019488,"connected_time":2816000000000,"state":"active","ping":86},{"user_id":80,"name":"heimdall","steam_id":76561198069380992,"connected_time":156000000000,"state":"active","ping":80},{"user_id":40,"name":"Redninka","steam_id":76561198426721366,"connected_time":2750000000000,"state":"active","ping":61},{"user_id":41,"name":"Malevo","steam_id":76561198148606522,"connected_time":2745000000000,"state":"active","ping":83},{"user_id":82,"name":"Manly Emerald","steam_id":76561198245838476,"connected_time":71000000000,"state":"active","ping":63},{"user_id":76,"name":"HollowMan","steam_id":76561198967266827,"connected_time":327000000000,"state":"active","ping":95}]},{"server_id":401,"name":"Uncletopia | Atlanta | 4 | No Payload","name_short":"atl-4","host":"atl-1.us.uncletopia.com","port":27045,"enabled":true,"region":"us-east","cc":"us","latitude":33.753746,"longitude":-84.38633,"reserved":0,"last_update":"0001-01-01T00:00:00Z","name_a2s":"","protocol":0,"map":"","folder":"","game":"","app_id":0,"player_count":0,"max_players":0,"Bots":0,"server_type":"","server_os":"","password":false,"vac":false,"version":"","steam_id":0,"keywords":null,"game_id":0,"stv_port":0,"stv_name":"","players":null},{"server_id":2,"name":"Uncletopia | Chicago | 1 | All Maps","name_short":"chi-1","host":"chi-1.us.uncletopia.com","port":27015,"enabled":true,"region":"us-central","cc":"us","latitude":41.881832,"longitude":-87.62318,"reserved":0,"last_update":"0001-01-01T00:00:00Z","name_a2s":"Uncletopia | Chicago | 1 | All Maps","protocol":17,"map":"cp_mountainlab","folder":"tf","game":"Team Fortress","app_id":440,"player_count":24,"max_players":24,"Bots":0,"server_type":"Dedicated","server_os":"Linux","password":true,"vac":true,"version":"7757534","steam_id":85568392924469984,"keywords":["cp","nocrits","nodmgspread","uncletopia"],"game_id":440,"stv_port":27016,"stv_name":"Uncletopia | Chicago | 1 | All Maps | STV","players":[{"user_id":130,"name":"alcohol","steam_id":76561198328109873,"connected_time":6492000000000,"state":"active","ping":73},{"user_id":196,"name":"AER0.exe","steam_id":76561198062940197,"connected_time":656000000000,"state":"active","ping":56},{"user_id":201,"name":"NOM","steam_id":76561199059006203,"connected_time":435000000000,"state":"active","ping":58},{"user_id":169,"name":"Convict Police Officers","steam_id":76561197993527275,"connected_time":2599000000000,"state":"active","ping":56},{"user_id":177,"name":"Quiet","steam_id":76561198119175817,"connected_time":2203000000000,"state":"active","ping":86},{"user_id":184,"name":"Zornplays","steam_id":76561199175292302,"connected_time":1528000000000,"state":"active","ping":94},{"user_id":163,"name":"Code","steam_id":76561198121528534,"connected_time":2991000000000,"state":"active","ping":69},{"user_id":200,"name":"MrDarkc","steam_id":76561199233053848,"connected_time":470000000000,"state":"active","ping":87},{"user_id":190,"name":"Vitamint","steam_id":76561198121196505,"connected_time":1474000000000,"state":"active","ping":102},{"user_id":205,"name":"boulder shover","steam_id":76561198390674873,"connected_time":303000000000,"state":"active","ping":91},{"user_id":173,"name":"Wiener Hole Paper Cut","steam_id":76561198000808203,"connected_time":2468000000000,"state":"active","ping":74},{"user_id":203,"name":"Winter the Witchie","steam_id":76561198151971178,"connected_time":429000000000,"state":"active","ping":59},{"user_id":204,"name":"Decs","steam_id":76561198825197974,"connected_time":425000000000,"state":"active","ping":122},{"user_id":191,"name":"Angstrom Boli","steam_id":76561198025670585,"connected_time":1385000000000,"state":"active","ping":73},{"user_id":188,"name":"bojack from the show bojack hor","steam_id":76561198053006712,"connected_time":1496000000000,"state":"active","ping":53},{"user_id":182,"name":"Luca!","steam_id":76561198137880777,"connected_time":1544000000000,"state":"active","ping":92},{"user_id":195,"name":"PKBEAST_7","steam_id":76561198177136537,"connected_time":751000000000,"state":"active","ping":85},{"user_id":127,"name":"Big Phony","steam_id":76561199092395311,"connected_time":6524000000000,"state":"active","ping":60},{"user_id":198,"name":"Adam (Cursed Confetti Creature)","steam_id":76561198317690197,"connected_time":496000000000,"state":"active","ping":45},{"user_id":197,"name":"Lightatex","steam_id":76561199068097196,"connected_time":656000000000,"state":"active","ping":57},{"user_id":185,"name":"super","steam_id":76561198800358844,"connected_time":1521000000000,"state":"active","ping":84},{"user_id":193,"name":"Nefy","steam_id":76561198030017316,"connected_time":1256000000000,"state":"active","ping":84},{"user_id":161,"name":"beta central","steam_id":76561198301876831,"connected_time":3787000000000,"state":"active","ping":58},{"user_id":199,"name":"dan","steam_id":76561198061589465,"connected_time":496000000000,"state":"active","ping":60}]},{"server_id":106,"name":"Uncletopia | Chicago | 2 | All Maps","name_short":"chi-2","host":"chi-1.us.uncletopia.com","port":27025,"enabled":true,"region":"us-central","cc":"us","latitude":41.881832,"longitude":-87.62318,"reserved":0,"last_update":"0001-01-01T00:00:00Z","name_a2s":"Uncletopia | Chicago | 2 | All Maps","protocol":17,"map":"koth_cascade","folder":"tf","game":"Team Fortress","app_id":440,"player_count":0,"max_players":24,"Bots":0,"server_type":"Dedicated","server_os":"Linux","password":true,"vac":true,"version":"7757534","steam_id":85568392924469985,"keywords":["cp","nocrits","nodmgspread","uncletopia"],"game_id":440,"stv_port":27026,"stv_name":"Uncletopia | Chicago | 2 | All Maps | STV","players":null},{"server_id":402,"name":"Uncletopia | Chicago | 3 | All Maps","name_short":"chi-3","host":"chi-1.us.uncletopia.com","port":27035,"enabled":true,"region":"us-central","cc":"us","latitude":41.881832,"longitude":-87.62318,"reserved":0,"last_update":"0001-01-01T00:00:00Z","name_a2s":"Uncletopia | Chicago | 3 | All Maps","protocol":17,"map":"pl_upward","folder":"tf","game":"Team Fortress","app_id":440,"player_count":4,"max_players":24,"Bots":0,"server_type":"Dedicated","server_os":"Linux","password":true,"vac":true,"version":"7757534","steam_id":85568392924515191,"keywords":["nocrits","nodmgspread","payload","uncletopia"],"game_id":440,"stv_port":27036,"stv_name":"Uncletopia | Chicago | 3 | All Maps | STV","players":[{"user_id":12,"name":"Nukem","steam_id":76561198166236574,"connected_time":541000000000,"state":"active","ping":75},{"user_id":9,"name":"matthatter98","steam_id":76561198953709416,"connected_time":800000000000,"state":"active","ping":59},{"user_id":13,"name":"katryna","steam_id":76561198023440304,"connected_time":159000000000,"state":"active","ping":58},{"user_id":14,"name":"Wahooka","steam_id":76561197962240925,"connected_time":7000000000,"state":"spawning","ping":44}]},{"server_id":403,"name":"Uncletopia | Chicago | 4 | All Maps","name_short":"chi-4","host":"chi-1.us.uncletopia.com","port":27045,"enabled":true,"region":"us-central","cc":"us","latitude":41.881832,"longitude":-87.62318,"reserved":0,"last_update":"0001-01-01T00:00:00Z","name_a2s":"Uncletopia | Chicago | 4 | All Maps","protocol":17,"map":"koth_cascade","folder":"tf","game":"Team Fortress","app_id":440,"player_count":0,"max_players":24,"Bots":0,"server_type":"Dedicated","server_os":"Linux","password":true,"vac":true,"version":"7757534","steam_id":85568392924515193,"keywords":["cp","nocrits","nodmgspread","uncletopia"],"game_id":440,"stv_port":27046,"stv_name":"Uncletopia | Chicago | 4 | All Maps | STV","players":null},{"server_id":36,"name":"Uncletopia | Chicago | 5 | All Maps","name_short":"chi-5","host":"chi-2.us.uncletopia.com","port":27015,"enabled":true,"region":"us-central","cc":"us","latitude":41.881832,"longitude":-87.62318,"reserved":0,"last_update":"0001-01-01T00:00:00Z","name_a2s":"Uncletopia | Chicago | 5 | All Maps","protocol":17,"map":"koth_lakeside_final","folder":"tf","game":"Team Fortress","app_id":440,"player_count":0,"max_players":24,"Bots":0,"server_type":"Dedicated","server_os":"Linux","password":true,"vac":true,"version":"7757534","steam_id":85568392924866362,"keywords":["cp","nocrits","nodmgspread","uncletopia"],"game_id":440,"stv_port":27016,"stv_name":"Uncletopia | Chicago | 5 | All Maps | STV","players":null},{"server_id":37,"name":"Uncletopia | Chicago | 6 | All Maps","name_short":"chi-6","host":"chi-2.us.uncletopia.com","port":27025,"enabled":true,"region":"us-central","cc":"us","latitude":41.881832,"longitude":-87.62318,"reserved":0,"last_update":"0001-01-01T00:00:00Z","name_a2s":"Uncletopia | Chicago | 6 | All Maps","protocol":17,"map":"pl_swiftwater_final1","folder":"tf","game":"Team Fortress","app_id":440,"player_count":0,"max_players":24,"Bots":0,"server_type":"Dedicated","server_os":"Linux","password":true,"vac":true,"version":"7757534","steam_id":85568392924866363,"keywords":["nocrits","nodmgspread","payload","uncletopia"],"game_id":440,"stv_port":27026,"stv_name":"Uncletopia | Chicago | 6 | All Maps | STV","players":null},{"server_id":38,"name":"Uncletopia | Chicago | 7 | Stopwatch Beta","name_short":"chi-7","host":"chi-2.us.uncletopia.com","port":27035,"enabled":true,"region":"us-central","cc":"us","latitude":41.881832,"longitude":-87.62318,"reserved":0,"last_update":"0001-01-01T00:00:00Z","name_a2s":"Uncletopia | Chicago | 7 | Stopwatch Beta","protocol":17,"map":"koth_viaduct","folder":"tf","game":"Team Fortress","app_id":440,"player_count":0,"max_players":24,"Bots":0,"server_type":"Dedicated","server_os":"Linux","password":true,"vac":true,"version":"7757534","steam_id":85568392924866364,"keywords":["cp","nocrits","nodmgspread","uncletopia"],"game_id":440,"stv_port":27036,"stv_name":"Uncletopia | Chicago | 7 | Stopwatch Beta | STV","players":null},{"server_id":39,"name":"Uncletopia | Chicago | 8 | Community","name_short":"chi-8","host":"chi-2.us.uncletopia.com","port":27045,"enabled":true,"region":"us-central","cc":"us","latitude":41.881832,"longitude":-87.62318,"reserved":0,"last_update":"0001-01-01T00:00:00Z","name_a2s":"Uncletopia | Chicago | 8 | Community","protocol":17,"map":"koth_lakeside_final","folder":"tf","game":"Team Fortress","app_id":440,"player_count":0,"max_players":24,"Bots":0,"server_type":"Dedicated","server_os":"Linux","password":true,"vac":true,"version":"7757534","steam_id":85568392924866365,"keywords":["cp","nocrits","nodmgspread","uncletopia"],"game_id":440,"stv_port":27046,"stv_name":"Uncletopia | Chicago | 8 | Community | STV","players":null},{"server_id":8,"name":"Uncletopia | Dallas | 1 | All Maps","name_short":"dal-1","host":"dal-1.us.uncletopia.com","port":27015,"enabled":true,"region":"us-central","cc":"us","latitude":32.779167,"longitude":-96.80889,"reserved":0,"last_update":"0001-01-01T00:00:00Z","name_a2s":"Uncletopia | Dallas | 1 | All Maps","protocol":17,"map":"pl_badwater","folder":"tf","game":"Team Fortress","app_id":440,"player_count":0,"max_players":24,"Bots":0,"server_type":"Dedicated","server_os":"Linux","password":true,"vac":true,"version":"7757534","steam_id":85568392924469986,"keywords":["nocrits","nodmgspread","payload","uncletopia"],"game_id":440,"stv_port":27016,"stv_name":"Uncletopia | Dallas | 1 | All Maps | STV","players":null},{"server_id":108,"name":"Uncletopia | Dallas | 2 | All Maps","name_short":"dal-2","host":"dal-1.us.uncletopia.com","port":27025,"enabled":true,"region":"us-central","cc":"us","latitude":32.779167,"longitude":-96.80889,"reserved":0,"last_update":"0001-01-01T00:00:00Z","name_a2s":"Uncletopia | Dallas | 2 | All Maps","protocol":17,"map":"pl_pier","folder":"tf","game":"Team Fortress","app_id":440,"player_count":24,"max_players":24,"Bots":0,"server_type":"Dedicated","server_os":"Linux","password":true,"vac":true,"version":"7757534","steam_id":85568392924469988,"keywords":["nocrits","nodmgspread","payload","uncletopia"],"game_id":440,"stv_port":27026,"stv_name":"Uncletopia | Dallas | 2 | All Maps | STV","players":[{"user_id":99,"name":"Jelpo","steam_id":76561198406920072,"connected_time":3856000000000,"state":"active","ping":76},{"user_id":31,"name":"Nic0","steam_id":76561198305690218,"connected_time":5853000000000,"state":"active","ping":90},{"user_id":445,"name":"Rust","steam_id":76561198063959574,"connected_time":1279000000000,"state":"active","ping":95},{"user_id":457,"name":"QueenPinharam","steam_id":76561199015626409,"connected_time":287000000000,"state":"active","ping":54},{"user_id":434,"name":"carrot cake","steam_id":76561198055174915,"connected_time":2055000000000,"state":"active","ping":88},{"user_id":444,"name":"Jailbreak","steam_id":76561198802085218,"connected_time":1324000000000,"state":"active","ping":54},{"user_id":34,"name":"junki","steam_id":76561198353456379,"connected_time":5788000000000,"state":"active","ping":61},{"user_id":456,"name":"DrCinnnamon","steam_id":76561199123142319,"connected_time":366000000000,"state":"active","ping":60},{"user_id":427,"name":"still bad at video games","steam_id":76561198328675913,"connected_time":2696000000000,"state":"active","ping":143},{"user_id":442,"name":"Chafn","steam_id":76561197969386702,"connected_time":1488000000000,"state":"active","ping":85},{"user_id":426,"name":"SkrubWrecker","steam_id":76561198044717015,"connected_time":2975000000000,"state":"active","ping":110},{"user_id":446,"name":"gyozaking","steam_id":76561197972312696,"connected_time":1273000000000,"state":"active","ping":71},{"user_id":47,"name":"captainspatklz","steam_id":76561198432167270,"connected_time":5169000000000,"state":"active","ping":76},{"user_id":460,"name":"Yords","steam_id":76561198027925729,"connected_time":89000000000,"state":"active","ping":56},{"user_id":448,"name":"hoOmIN","steam_id":76561198334947079,"connected_time":1201000000000,"state":"active","ping":75},{"user_id":449,"name":"Kat","steam_id":76561199039256180,"connected_time":1185000000000,"state":"active","ping":57},{"user_id":458,"name":"momb","steam_id":76561198142234038,"connected_time":285000000000,"state":"active","ping":85},{"user_id":424,"name":"FREE IPAD (Click to Download)","steam_id":76561199012771039,"connected_time":2993000000000,"state":"active","ping":68},{"user_id":450,"name":"Cave","steam_id":76561198263551216,"connected_time":1128000000000,"state":"active","ping":93},{"user_id":453,"name":"scuttles","steam_id":76561199250039100,"connected_time":813000000000,"state":"active","ping":54},{"user_id":451,"name":"Cretin32","steam_id":76561198986265728,"connected_time":1048000000000,"state":"active","ping":71},{"user_id":459,"name":"Deborp","steam_id":76561198118868430,"connected_time":262000000000,"state":"active","ping":80},{"user_id":441,"name":"Rin \"Hindwing\" Redtail","steam_id":76561199074865638,"connected_time":1544000000000,"state":"active","ping":53},{"user_id":454,"name":"Bandanadee#SaveTF2","steam_id":76561199014194373,"connected_time":418000000000,"state":"active","ping":105}]},{"server_id":5,"name":"Uncletopia | Frankfurt | 1 | All Maps","name_short":"frk-1","host":"frk-1.de.uncletopia.com","port":27015,"enabled":true,"region":"eu","cc":"de","latitude":50.110924,"longitude":8.682127,"reserved":0,"last_update":"0001-01-01T00:00:00Z","name_a2s":"Uncletopia | Frankfurt | 1 | All Maps","protocol":17,"map":"pl_barnblitz","folder":"tf","game":"Team Fortress","app_id":440,"player_count":24,"max_players":24,"Bots":0,"server_type":"Dedicated","server_os":"Linux","password":true,"vac":true,"version":"7757534","steam_id":85568392924469989,"keywords":["nocrits","nodmgspread","payload","uncletopia"],"game_id":440,"stv_port":27016,"stv_name":"Uncletopia | Frankfurt | 1 | All Maps | STV","players":[{"user_id":297,"name":"Lucan","steam_id":76561198219195135,"connected_time":5301000000000,"state":"active","ping":48},{"user_id":300,"name":"JohnTraveltime","steam_id":76561199244281754,"connected_time":5280000000000,"state":"active","ping":68},{"user_id":310,"name":"Chuck Norris","steam_id":76561198031573426,"connected_time":3663000000000,"state":"active","ping":65},{"user_id":255,"name":"GardenFungus","steam_id":76561198054894337,"connected_time":7596000000000,"state":"active","ping":45},{"user_id":343,"name":"breedable","steam_id":76561198010300032,"connected_time":308000000000,"state":"active","ping":60},{"user_id":344,"name":"axl#pizdaaim","steam_id":76561198991661832,"connected_time":298000000000,"state":"active","ping":64},{"user_id":317,"name":"Kretur","steam_id":76561198161086266,"connected_time":2479000000000,"state":"active","ping":95},{"user_id":340,"name":"sinapsid","steam_id":76561199130784607,"connected_time":785000000000,"state":"active","ping":85},{"user_id":345,"name":"sir wanksalot","steam_id":76561198021975468,"connected_time":255000000000,"state":"active","ping":67},{"user_id":337,"name":"Ged","steam_id":76561198079288943,"connected_time":963000000000,"state":"active","ping":101},{"user_id":346,"name":"Kapitan Polska","steam_id":76561197968069413,"connected_time":242000000000,"state":"active","ping":66},{"user_id":347,"name":"certified transphobe","steam_id":76561198845044956,"connected_time":230000000000,"state":"active","ping":93},{"user_id":348,"name":"gjhkgfkjfh","steam_id":76561198031181349,"connected_time":227000000000,"state":"active","ping":91},{"user_id":342,"name":"makiverem","steam_id":76561198425866216,"connected_time":319000000000,"state":"active","ping":84},{"user_id":335,"name":"The 4th Doctor","steam_id":76561198191516706,"connected_time":1338000000000,"state":"active","ping":69},{"user_id":329,"name":"lord-carlos","steam_id":76561198025150761,"connected_time":1490000000000,"state":"active","ping":51},{"user_id":293,"name":"SammyDodgers","steam_id":76561198282901336,"connected_time":5685000000000,"state":"active","ping":85},{"user_id":341,"name":"Drdarlekzzz","steam_id":76561198160141785,"connected_time":323000000000,"state":"active","ping":54},{"user_id":326,"name":"Miatthew","steam_id":76561198034102895,"connected_time":1608000000000,"state":"active","ping":58},{"user_id":282,"name":"dane uncle","steam_id":76561199374351531,"connected_time":6673000000000,"state":"active","ping":73},{"user_id":352,"name":"Giovine Killjoy","steam_id":76561198059375315,"connected_time":184000000000,"state":"active","ping":57},{"user_id":350,"name":"Joe","steam_id":76561197973896073,"connected_time":213000000000,"state":"active","ping":60},{"user_id":336,"name":"dotdotdot","steam_id":76561198057628751,"connected_time":1338000000000,"state":"active","ping":61},{"user_id":353,"name":"hourglass","steam_id":76561198166613799,"connected_time":165000000000,"state":"active","ping":131}]},{"server_id":110,"name":"Uncletopia | Frankfurt | 2 | All Maps","name_short":"frk-2","host":"frk-1.de.uncletopia.com","port":27025,"enabled":true,"region":"eu","cc":"de","latitude":50.110924,"longitude":8.682127,"reserved":0,"last_update":"0001-01-01T00:00:00Z","name_a2s":"Uncletopia | Frankfurt | 2 | All Maps","protocol":17,"map":"pl_upward","folder":"tf","game":"Team Fortress","app_id":440,"player_count":24,"max_players":24,"Bots":0,"server_type":"Dedicated","server_os":"Linux","password":true,"vac":true,"version":"7757534","steam_id":85568392924469990,"keywords":["nocrits","nodmgspread","payload","uncletopia"],"game_id":440,"stv_port":27026,"stv_name":"Uncletopia | Frankfurt | 2 | All Maps | STV","players":[{"user_id":161,"name":"‚ô´‚òÖXriasp‚òÖ‚ô´","steam_id":76561198104721321,"connected_time":279000000000,"state":"active","ping":70},{"user_id":162,"name":"ev1lboyo","steam_id":76561199199499453,"connected_time":124000000000,"state":"active","ping":73},{"user_id":147,"name":"Brother Roga","steam_id":76561198029613515,"connected_time":663000000000,"state":"active","ping":68},{"user_id":148,"name":"nachtraaf","steam_id":76561197960473205,"connected_time":628000000000,"state":"active","ping":58},{"user_id":145,"name":"kaczuszka","steam_id":76561198969373800,"connected_time":861000000000,"state":"active","ping":70},{"user_id":149,"name":"Denialman (Muted)","steam_id":76561198309182092,"connected_time":620000000000,"state":"active","ping":59},{"user_id":98,"name":"Kati","steam_id":76561198007231088,"connected_time":4027000000000,"state":"active","ping":63},{"user_id":150,"name":"mesŒª","steam_id":76561198324582918,"connected_time":608000000000,"state":"active","ping":100},{"user_id":152,"name":"Loc Dog","steam_id":76561198252712636,"connected_time":572000000000,"state":"active","ping":56},{"user_id":153,"name":"spiegelsberge","steam_id":76561199469797619,"connected_time":556000000000,"state":"active","ping":49},{"user_id":154,"name":"Amon Gus","steam_id":76561199094540960,"connected_time":492000000000,"state":"active","ping":79},{"user_id":130,"name":"W√ºstenfuchs","steam_id":76561198453885708,"connected_time":1806000000000,"state":"active","ping":69},{"user_id":155,"name":"f√©nix","steam_id":76561198083199151,"connected_time":483000000000,"state":"active","ping":61},{"user_id":156,"name":"smell_my_cheese","steam_id":76561198008517427,"connected_time":478000000000,"state":"active","ping":62},{"user_id":92,"name":"I was good before.","steam_id":76561198187045217,"connected_time":4314000000000,"state":"active","ping":75},{"user_id":125,"name":"Grillem Dafoe","steam_id":76561198306874574,"connected_time":2188000000000,"state":"active","ping":78},{"user_id":56,"name":"Hansi","steam_id":76561198035577047,"connected_time":5813000000000,"state":"active","ping":61},{"user_id":140,"name":"X-morph","steam_id":76561198386408649,"connected_time":1117000000000,"state":"active","ping":69},{"user_id":157,"name":"Deacon Dracul","steam_id":76561198046880663,"connected_time":474000000000,"state":"active","ping":101},{"user_id":138,"name":"Tyra","steam_id":76561198043739064,"connected_time":1520000000000,"state":"active","ping":72},{"user_id":158,"name":"MimiMain","steam_id":76561198220024275,"connected_time":409000000000,"state":"active","ping":104},{"user_id":159,"name":"relic_","steam_id":76561199053114167,"connected_time":409000000000,"state":"active","ping":86},{"user_id":160,"name":"bAdmon","steam_id":76561197961785793,"connected_time":397000000000,"state":"active","ping":60},{"user_id":163,"name":"Explosive_kink","steam_id":76561198998702838,"connected_time":123000000000,"state":"active","ping":71}]},{"server_id":308,"name":"Uncletopia | Frankfurt | 3 | All Maps","name_short":"frk-3","host":"frk-1.de.uncletopia.com","port":27035,"enabled":true,"region":"eu","cc":"de","latitude":50.110924,"longitude":8.682127,"reserved":0,"last_update":"0001-01-01T00:00:00Z","name_a2s":"Uncletopia | Frankfurt | 3 | All Maps","protocol":17,"map":"pl_pier","folder":"tf","game":"Team Fortress","app_id":440,"player_count":21,"max_players":24,"Bots":0,"server_type":"Dedicated","server_os":"Linux","password":true,"vac":true,"version":"7757534","steam_id":85568392924504274,"keywords":["nocrits","nodmgspread","payload","uncletopia"],"game_id":440,"stv_port":27036,"stv_name":"Uncletopia | Frankfurt | 3 | All Maps | STV","players":[{"user_id":70,"name":"Bilbo Ballbaggins","steam_id":76561198070593514,"connected_time":1768000000000,"state":"active","ping":58},{"user_id":43,"name":"tummaluppo taivaltaja","steam_id":76561198093458326,"connected_time":2564000000000,"state":"active","ping":49},{"user_id":92,"name":"666sammy","steam_id":76561198016607625,"connected_time":28000000000,"state":"spawning","ping":101},{"user_id":84,"name":"TryX","steam_id":76561199356781475,"connected_time":653000000000,"state":"active","ping":68},{"user_id":39,"name":"Skeletros","steam_id":76561198130969152,"connected_time":3639000000000,"state":"active","ping":130},{"user_id":42,"name":"Mottinen","steam_id":76561198223868928,"connected_time":2668000000000,"state":"active","ping":68},{"user_id":93,"name":"icebro","steam_id":76561199123450840,"connected_time":27000000000,"state":"active","ping":69},{"user_id":45,"name":".bRdyyy","steam_id":76561198057256978,"connected_time":2474000000000,"state":"active","ping":49},{"user_id":73,"name":"PLUTO","steam_id":76561198312436128,"connected_time":1536000000000,"state":"active","ping":119},{"user_id":47,"name":"barosans FR","steam_id":76561198038109099,"connected_time":2326000000000,"state":"active","ping":49},{"user_id":78,"name":"Mr.Schnittlauch","steam_id":76561198295868113,"connected_time":1107000000000,"state":"active","ping":57},{"user_id":80,"name":"Fran","steam_id":76561199070516960,"connected_time":987000000000,"state":"active","ping":58},{"user_id":94,"name":"Peter Cipher","steam_id":76561198078944963,"connected_time":24000000000,"state":"spawning","ping":53},{"user_id":53,"name":"a name","steam_id":76561198352172098,"connected_time":2128000000000,"state":"active","ping":86},{"user_id":59,"name":"Markus R√ºhl","steam_id":76561198074899144,"connected_time":2046000000000,"state":"active","ping":45},{"user_id":57,"name":"sharkmax12312","steam_id":76561198996008569,"connected_time":2066000000000,"state":"active","ping":72},{"user_id":91,"name":"Baba Sraka","steam_id":76561198128292318,"connected_time":108000000000,"state":"active","ping":307},{"user_id":87,"name":"New","steam_id":76561198402195911,"connected_time":506000000000,"state":"active","ping":125},{"user_id":88,"name":"zazuza","steam_id":76561198049820905,"connected_time":400000000000,"state":"active","ping":60},{"user_id":65,"name":"therebirth021","steam_id":76561199024295856,"connected_time":1968000000000,"state":"active","ping":102},{"user_id":82,"name":"The Spah","steam_id":76561198292845505,"connected_time":853000000000,"state":"active","ping":95}]},{"server_id":309,"name":"Uncletopia | Frankfurt | 4 | All Maps","name_short":"frk-4","host":"frk-1.de.uncletopia.com","port":27045,"enabled":true,"region":"eu","cc":"de","latitude":50.110924,"longitude":8.682127,"reserved":0,"last_update":"0001-01-01T00:00:00Z","name_a2s":"Uncletopia | Frankfurt | 4 | All Maps","protocol":17,"map":"koth_cascade","folder":"tf","game":"Team Fortress","app_id":440,"player_count":0,"max_players":24,"Bots":0,"server_type":"Dedicated","server_os":"Linux","password":true,"vac":true,"version":"7757534","steam_id":85568392924504275,"keywords":["cp","nocrits","nodmgspread","uncletopia"],"game_id":440,"stv_port":27046,"stv_name":"Uncletopia | Frankfurt | 4 | All Maps | STV","players":null},{"server_id":310,"name":"Uncletopia | Frankfurt | 5 | All Maps","name_short":"frk-5","host":"frk-1.de.uncletopia.com","port":27055,"enabled":true,"region":"eu","cc":"de","latitude":50.110924,"longitude":8.682127,"reserved":0,"last_update":"0001-01-01T00:00:00Z","name_a2s":"Uncletopia | Frankfurt | 5 | All Maps","protocol":17,"map":"pl_upward","folder":"tf","game":"Team Fortress","app_id":440,"player_count":24,"max_players":24,"Bots":0,"server_type":"Dedicated","server_os":"Linux","password":true,"vac":true,"version":"7757534","steam_id":85568392924504277,"keywords":["nocrits","nodmgspread","payload","uncletopia"],"game_id":440,"stv_port":27056,"stv_name":"Uncletopia | Frankfurt | 5 | All Maps | STV","players":[{"user_id":253,"name":"sleep","steam_id":76561198034882276,"connected_time":127000000000,"state":"active","ping":76},{"user_id":255,"name":"Gr√∏nkj√¶r","steam_id":76561198041075280,"connected_time":83000000000,"state":"active","ping":78},{"user_id":250,"name":"kallerannar","steam_id":76561199095701143,"connected_time":326000000000,"state":"active","ping":82},{"user_id":251,"name":"Klinmir","steam_id":76561198352339376,"connected_time":297000000000,"state":"active","ping":91},{"user_id":246,"name":"Triper","steam_id":76561198041256762,"connected_time":369000000000,"state":"active","ping":45},{"user_id":243,"name":"dunduu","steam_id":76561198875240717,"connected_time":386000000000,"state":"active","ping":67},{"user_id":224,"name":"MiGGo","steam_id":76561198041645362,"connected_time":1472000000000,"state":"active","ping":90},{"user_id":215,"name":"Felix","steam_id":76561198172029653,"connected_time":1676000000000,"state":"active","ping":73},{"user_id":216,"name":"ZazyLou_","steam_id":76561198411134617,"connected_time":1655000000000,"state":"active","ping":64},{"user_id":245,"name":"Gabriel Masa","steam_id":76561198211455375,"connected_time":378000000000,"state":"active","ping":75},{"user_id":254,"name":"Deckard","steam_id":76561198004704647,"connected_time":117000000000,"state":"active","ping":83},{"user_id":234,"name":"Piteras","steam_id":76561198858532207,"connected_time":764000000000,"state":"active","ping":82},{"user_id":230,"name":"a Regurar Barroon","steam_id":76561198834913692,"connected_time":1396000000000,"state":"active","ping":62},{"user_id":249,"name":"Syll","steam_id":76561198040736202,"connected_time":356000000000,"state":"active","ping":91},{"user_id":240,"name":"monky","steam_id":76561199380595946,"connected_time":511000000000,"state":"active","ping":56},{"user_id":252,"name":"citronous","steam_id":76561198093290934,"connected_time":284000000000,"state":"active","ping":60},{"user_id":235,"name":"iBojhut","steam_id":76561198427102646,"connected_time":762000000000,"state":"active","ping":99},{"user_id":256,"name":"MEDiUM","steam_id":76561198112328561,"connected_time":78000000000,"state":"active","ping":75},{"user_id":242,"name":"dominaka","steam_id":76561198062090246,"connected_time":420000000000,"state":"active","ping":64},{"user_id":209,"name":"night.s","steam_id":76561198326287823,"connected_time":1894000000000,"state":"active","ping":79},{"user_id":221,"name":"Janti ‚ù§","steam_id":76561199387238623,"connected_time":1595000000000,"state":"active","ping":99},{"user_id":198,"name":"Homosapien","steam_id":76561197972035953,"connected_time":3293000000000,"state":"active","ping":60},{"user_id":244,"name":"AwterSix","steam_id":76561198042561678,"connected_time":383000000000,"state":"active","ping":60},{"user_id":248,"name":"punchmypotatoes","steam_id":76561198091255731,"connected_time":364000000000,"state":"active","ping":68}]},{"server_id":311,"name":"Uncletopia | Frankfurt | 6 | All Maps","name_short":"frk-6","host":"frk-1.de.uncletopia.com","port":27065,"enabled":true,"region":"eu","cc":"de","latitude":50.110924,"longitude":8.682127,"reserved":0,"last_update":"0001-01-01T00:00:00Z","name_a2s":"Uncletopia | Frankfurt | 6 | All Maps","protocol":17,"map":"cp_sunshine","folder":"tf","game":"Team Fortress","app_id":440,"player_count":0,"max_players":24,"Bots":0,"server_type":"Dedicated","server_os":"Linux","password":true,"vac":true,"version":"7757534","steam_id":85568392924504278,"keywords":["cp","nocrits","nodmgspread","uncletopia"],"game_id":440,"stv_port":27066,"stv_name":"Uncletopia | Frankfurt | 6 | All Maps | STV","players":null},{"server_id":23,"name":"Uncletopia | Frankfurt | 7 | Stopwatch Beta","name_short":"frk-7","host":"frk-1.de.uncletopia.com","port":27075,"enabled":true,"region":"eu","cc":"de","latitude":50.110924,"longitude":8.682127,"reserved":0,"last_update":"0001-01-01T00:00:00Z","name_a2s":"Uncletopia | Frankfurt | 7 | Stopwatch Beta","protocol":17,"map":"pl_borneo","folder":"tf","game":"Team Fortress","app_id":440,"player_count":0,"max_players":24,"Bots":0,"server_type":"Dedicated","server_os":"Linux","password":true,"vac":true,"version":"7757534","steam_id":85568392924742827,"keywords":["nocrits","nodmgspread","payload","uncletopia"],"game_id":440,"stv_port":27076,"stv_name":"Uncletopia | Frankfurt | 7 | Stopwatch Beta | STV","players":null},{"server_id":24,"name":"Uncletopia | Frankfurt | 8 | Community","name_short":"frk-8","host":"frk-1.de.uncletopia.com","port":27085,"enabled":true,"region":"eu","cc":"de","latitude":50.110924,"longitude":8.682127,"reserved":0,"last_update":"0001-01-01T00:00:00Z","name_a2s":"Uncletopia | Frankfurt | 8 | Community","protocol":17,"map":"workshop/koth_ashville_final.ugc2130459942","folder":"tf","game":"Team Fortress","app_id":440,"player_count":5,"max_players":24,"Bots":0,"server_type":"Dedicated","server_os":"Linux","password":true,"vac":true,"version":"7757534","steam_id":85568392924742828,"keywords":["cp","nocrits","nodmgspread","uncletopia"],"game_id":440,"stv_port":27086,"stv_name":"Uncletopia | Frankfurt | 8 | Community | STV","players":[{"user_id":369,"name":"3.1-tan","steam_id":76561199121690944,"connected_time":56000000000,"state":"active","ping":72},{"user_id":355,"name":"Pan Pan","steam_id":76561199074670515,"connected_time":2292000000000,"state":"active","ping":74},{"user_id":366,"name":"Spatula lemmy","steam_id":76561199067354269,"connected_time":664000000000,"state":"active","ping":119},{"user_id":358,"name":"Gibbed_GIBus30","steam_id":76561199272782484,"connected_time":1150000000000,"state":"active","ping":53},{"user_id":362,"name":"Vitun vittu","steam_id":76561198110679463,"connected_time":956000000000,"state":"active","ping":77}]},{"server_id":202,"name":"Uncletopia | Hong Kong | 1 | All Maps","name_short":"hgk-1","host":"hgk-1.hk.uncletopia.com","port":27015,"enabled":true,"region":"asia","cc":"hk","latitude":22.302711,"longitude":114.177216,"reserved":0,"last_update":"0001-01-01T00:00:00Z","name_a2s":"Uncletopia | Hong Kong | 1 | All Maps","protocol":17,"map":"pl_barnblitz","folder":"tf","game":"Team Fortress","app_id":440,"player_count":23,"max_players":24,"Bots":0,"server_type":"Dedicated","server_os":"Linux","password":true,"vac":true,"version":"7757534","steam_id":85568392924494504,"keywords":["nocrits","nodmgspread","payload","uncletopia"],"game_id":440,"stv_port":27016,"stv_name":"Uncletopia | Hong Kong | 1 | All Maps | STV","players":[{"user_id":826,"name":"Jaysong","steam_id":76561198828599078,"connected_time":2086000000000,"state":"active","ping":70},{"user_id":848,"name":"ÁÖôÊµ∑ | Enkai","steam_id":76561198050460825,"connected_time":508000000000,"state":"active","ping":75},{"user_id":786,"name":"‚ô´Fire_Phoenix‚ô´","steam_id":76561198320711516,"connected_time":5063000000000,"state":"active","ping":94},{"user_id":851,"name":"mspwurb","steam_id":76561199089208647,"connected_time":301000000000,"state":"active","ping":90},{"user_id":792,"name":"Ïø†ÌÇ§","steam_id":76561197997220367,"connected_time":4580000000000,"state":"active","ping":52},{"user_id":838,"name":"no vc no c","steam_id":76561197989503095,"connected_time":1218000000000,"state":"active","ping":89},{"user_id":835,"name":"The Scout","steam_id":76561198959978678,"connected_time":1440000000000,"state":"active","ping":117},{"user_id":793,"name":"killman47","steam_id":76561198348487408,"connected_time":4456000000000,"state":"active","ping":40},{"user_id":780,"name":"Lesser Dragon","steam_id":76561198397226680,"connected_time":5454000000000,"state":"active","ping":112},{"user_id":795,"name":"17","steam_id":76561198241530712,"connected_time":4408000000000,"state":"active","ping":67},{"user_id":852,"name":"ctap","steam_id":76561198360026912,"connected_time":256000000000,"state":"active","ping":83},{"user_id":840,"name":"Noyour","steam_id":76561198323259830,"connected_time":1119000000000,"state":"active","ping":115},{"user_id":845,"name":"MyuriK","steam_id":76561199156341643,"connected_time":936000000000,"state":"active","ping":84},{"user_id":813,"name":"S√©xy4ss","steam_id":76561198018511579,"connected_time":2744000000000,"state":"active","ping":141},{"user_id":853,"name":"Peppermint","steam_id":76561198820630422,"connected_time":134000000000,"state":"active","ping":87},{"user_id":846,"name":"Mr.Pump_Kin","steam_id":76561198060984277,"connected_time":881000000000,"state":"active","ping":124},{"user_id":622,"name":"Bertengkar","steam_id":76561198213031155,"connected_time":11557000000000,"state":"active","ping":98},{"user_id":726,"name":"Azi","steam_id":76561198147872523,"connected_time":8169000000000,"state":"active","ping":61},{"user_id":800,"name":"Nasi Lemak Gaming","steam_id":76561198082921407,"connected_time":4214000000000,"state":"active","ping":106},{"user_id":849,"name":"Â°©„Å£Â≠ê„Å†„Çà","steam_id":76561198292457688,"connected_time":402000000000,"state":"active","ping":81},{"user_id":847,"name":"Leo Chung","steam_id":76561198044007777,"connected_time":878000000000,"state":"active","ping":63},{"user_id":809,"name":"Momoxhien","steam_id":76561198414997429,"connected_time":3670000000000,"state":"active","ping":65},{"user_id":831,"name":"no_op","steam_id":76561197967217488,"connected_time":1849000000000,"state":"active","ping":60}]},{"server_id":1,"name":"Uncletopia | Los Angeles | 1 | All Maps","name_short":"lax-1","host":"lax-1.us.uncletopia.com","port":27015,"enabled":true,"region":"us-west","cc":"us","latitude":33.94279,"longitude":-118.41004,"reserved":0,"last_update":"0001-01-01T00:00:00Z","name_a2s":"Uncletopia | Los Angeles | 1 | All Maps","protocol":17,"map":"koth_highpass","folder":"tf","game":"Team Fortress","app_id":440,"player_count":1,"max_players":24,"Bots":0,"server_type":"Dedicated","server_os":"Linux","password":true,"vac":true,"version":"7757534","steam_id":85568392924469991,"keywords":["cp","nocrits","nodmgspread","uncletopia"],"game_id":440,"stv_port":27016,"stv_name":"Uncletopia | Los Angeles | 1 | All Maps | STV","players":[{"user_id":3,"name":"gawkingcow","steam_id":76561199268341751,"connected_time":570000000000,"state":"active","ping":53}]},{"server_id":112,"name":"Uncletopia | Los Angeles | 2 | All Maps","name_short":"lax-2","host":"lax-1.us.uncletopia.com","port":27025,"enabled":true,"region":"us-west","cc":"us","latitude":33.94279,"longitude":-118.41004,"reserved":0,"last_update":"0001-01-01T00:00:00Z","name_a2s":"Uncletopia | Los Angeles | 2 | All Maps","protocol":17,"map":"koth_viaduct","folder":"tf","game":"Team Fortress","app_id":440,"player_count":0,"max_players":24,"Bots":0,"server_type":"Dedicated","server_os":"Linux","password":true,"vac":true,"version":"7757534","steam_id":85568392924469992,"keywords":["cp","nocrits","nodmgspread","uncletopia"],"game_id":440,"stv_port":27026,"stv_name":"Uncletopia | Los Angeles | 2 | All Maps | STV","players":null},{"server_id":324,"name":"Uncletopia | Los Angeles | 3 | All Maps","name_short":"lax-3","host":"lax-1.us.uncletopia.com","port":27035,"enabled":true,"region":"us-west","cc":"us","latitude":33.94279,"longitude":-118.41004,"reserved":0,"last_update":"0001-01-01T00:00:00Z","name_a2s":"Uncletopia | Los Angeles | 3 | All Maps","protocol":17,"map":"cp_altitude","folder":"tf","game":"Team Fortress","app_id":440,"player_count":0,"max_players":24,"Bots":0,"server_type":"Dedicated","server_os":"Linux","password":true,"vac":true,"version":"7757534","steam_id":85568392924510198,"keywords":["cp","nocrits","nodmgspread","uncletopia"],"game_id":440,"stv_port":27036,"stv_name":"Uncletopia | Los Angeles | 3 | All Maps | STV","players":null},{"server_id":25,"name":"Uncletopia | Los Angeles | 4 | Stopwatch Beta","name_short":"lax-4","host":"lax-1.us.uncletopia.com","port":27045,"enabled":true,"region":"us-west","cc":"us","latitude":33.94279,"longitude":-118.41004,"reserved":0,"last_update":"0001-01-01T00:00:00Z","name_a2s":"Uncletopia | Los Angeles | 4 | Stopwatch Beta","protocol":17,"map":"cp_dustbowl","folder":"tf","game":"Team Fortress","app_id":440,"player_count":0,"max_players":24,"Bots":0,"server_type":"Dedicated","server_os":"Linux","password":true,"vac":true,"version":"7757534","steam_id":85568392924510199,"keywords":["cp","nocrits","nodmgspread","uncletopia"],"game_id":440,"stv_port":27046,"stv_name":"Uncletopia | Los Angeles | 4 | Stopwatch Beta | STV","players":null},{"server_id":11,"name":"Uncletopia | London | 1 | All Maps","name_short":"lon-1","host":"lon-1.uk.uncletopia.com","port":27015,"enabled":true,"region":"eu","cc":"gb","latitude":51.509865,"longitude":-0.118092,"reserved":0,"last_update":"0001-01-01T00:00:00Z","name_a2s":"Uncletopia | London | 1 | All Maps","protocol":17,"map":"pl_borneo","folder":"tf","game":"Team Fortress","app_id":440,"player_count":24,"max_players":24,"Bots":0,"server_type":"Dedicated","server_os":"Linux","password":true,"vac":true,"version":"7757534","steam_id":85568392924367362,"keywords":["nocrits","nodmgspread","payload","uncletopia"],"game_id":440,"stv_port":27016,"stv_name":"Uncletopia | London | 1 | All Maps | STV","players":[{"user_id":253,"name":"Canis[Magnus]Pectus","steam_id":76561198363775072,"connected_time":1002000000000,"state":"active","ping":129},{"user_id":171,"name":"Kitfist","steam_id":76561198048559338,"connected_time":7966000000000,"state":"active","ping":48},{"user_id":268,"name":"Amoru","steam_id":76561198798161817,"connected_time":332000000000,"state":"active","ping":80},{"user_id":105,"name":"jimbob","steam_id":76561198089322416,"connected_time":12200000000000,"state":"active","ping":90},{"user_id":94,"name":"ldshwt","steam_id":76561198090364357,"connected_time":12925000000000,"state":"active","ping":60},{"user_id":254,"name":"ü¶ê Tust ü¶ê","steam_id":76561198045694677,"connected_time":871000000000,"state":"active","ping":51},{"user_id":155,"name":"Gimli","steam_id":76561198004149706,"connected_time":9521000000000,"state":"active","ping":68},{"user_id":212,"name":"regimiro","steam_id":76561198120457008,"connected_time":5044000000000,"state":"active","ping":55},{"user_id":255,"name":"jerf","steam_id":76561199213901239,"connected_time":864000000000,"state":"active","ping":45},{"user_id":262,"name":"Thors","steam_id":76561197968739075,"connected_time":603000000000,"state":"active","ping":44},{"user_id":205,"name":"john fortress","steam_id":76561198013237629,"connected_time":5977000000000,"state":"active","ping":100},{"user_id":266,"name":"Chambersite","steam_id":76561198197022399,"connected_time":416000000000,"state":"active","ping":102},{"user_id":263,"name":"Hanƒ±mSever23","steam_id":76561198142124751,"connected_time":596000000000,"state":"active","ping":121},{"user_id":261,"name":"FairlyFatFungus","steam_id":76561199152828854,"connected_time":656000000000,"state":"active","ping":48},{"user_id":258,"name":"FUKTARD2005","steam_id":76561198839121591,"connected_time":764000000000,"state":"active","ping":61},{"user_id":245,"name":"SlwoF√∏","steam_id":76561198049663931,"connected_time":2521000000000,"state":"active","ping":59},{"user_id":223,"name":"Space","steam_id":76561198021572167,"connected_time":3786000000000,"state":"active","ping":45},{"user_id":269,"name":"how do i sprint in this game","steam_id":76561198853521123,"connected_time":307000000000,"state":"active","ping":65},{"user_id":270,"name":"TheLogicult","steam_id":76561198072324306,"connected_time":182000000000,"state":"active","ping":30},{"user_id":29,"name":"Birdseye","steam_id":76561198025852216,"connected_time":17540000000000,"state":"active","ping":57},{"user_id":264,"name":"Spetse","steam_id":76561197990649972,"connected_time":548000000000,"state":"active","ping":91},{"user_id":246,"name":"Axord","steam_id":76561199289652176,"connected_time":2495000000000,"state":"active","ping":67},{"user_id":265,"name":"Faxter","steam_id":76561198011771605,"connected_time":534000000000,"state":"active","ping":77},{"user_id":203,"name":"subway vergil","steam_id":76561199110064166,"connected_time":6367000000000,"state":"active","ping":67}]},{"server_id":114,"name":"Uncletopia | London | 2 | All Maps","name_short":"lon-2","host":"lon-1.uk.uncletopia.com","port":27025,"enabled":true,"region":"eu","cc":"gb","latitude":51.509865,"longitude":-0.118092,"reserved":0,"last_update":"0001-01-01T00:00:00Z","name_a2s":"Uncletopia | London | 2 | All Maps","protocol":17,"map":"plr_hightower","folder":"tf","game":"Team Fortress","app_id":440,"player_count":24,"max_players":24,"Bots":0,"server_type":"Dedicated","server_os":"Linux","password":true,"vac":true,"version":"7757534","steam_id":85568392924470941,"keywords":["nocrits","nodmgspread","payload","uncletopia"],"game_id":440,"stv_port":27026,"stv_name":"Uncletopia | London | 2 | All Maps | STV","players":[{"user_id":567,"name":"el duende","steam_id":76561198059699043,"connected_time":320000000000,"state":"active","ping":79},{"user_id":560,"name":"Topia","steam_id":76561198163571788,"connected_time":661000000000,"state":"active","ping":100},{"user_id":562,"name":"r06u3","steam_id":76561198254099253,"connected_time":526000000000,"state":"active","ping":178},{"user_id":534,"name":"Slim3rs","steam_id":76561199088010585,"connected_time":2374000000000,"state":"active","ping":183},{"user_id":509,"name":"tank","steam_id":76561198068027379,"connected_time":3298000000000,"state":"active","ping":75},{"user_id":559,"name":"Diamondeevee305","steam_id":76561199223098113,"connected_time":705000000000,"state":"active","ping":52},{"user_id":568,"name":"Acheron","steam_id":76561198306593373,"connected_time":309000000000,"state":"active","ping":75},{"user_id":491,"name":"ChaosMaster","steam_id":76561198360983155,"connected_time":4089000000000,"state":"active","ping":90},{"user_id":569,"name":"Cosmonaut Moon","steam_id":76561198831222952,"connected_time":271000000000,"state":"active","ping":46},{"user_id":546,"name":"Aztek","steam_id":76561197980496357,"connected_time":1344000000000,"state":"active","ping":53},{"user_id":570,"name":"bANji","steam_id":76561198108898161,"connected_time":231000000000,"state":"active","ping":51},{"user_id":531,"name":"‚ú™Kritz","steam_id":76561198110226775,"connected_time":2442000000000,"state":"active","ping":62},{"user_id":574,"name":"Reisen","steam_id":76561199174579733,"connected_time":79000000000,"state":"active","ping":155},{"user_id":572,"name":"Sakari","steam_id":76561197997811299,"connected_time":208000000000,"state":"active","ping":60},{"user_id":519,"name":"StabbyKnife","steam_id":76561198094010004,"connected_time":3141000000000,"state":"active","ping":96},{"user_id":563,"name":"smallpotato","steam_id":76561198408851937,"connected_time":523000000000,"state":"active","ping":41},{"user_id":549,"name":"Big Knoxy","steam_id":76561198291107227,"connected_time":1281000000000,"state":"active","ping":72},{"user_id":550,"name":"Weenie Hut Jr's","steam_id":76561198050515739,"connected_time":1269000000000,"state":"active","ping":45},{"user_id":551,"name":"FLORAL COMPUTING","steam_id":76561199056492130,"connected_time":1260000000000,"state":"active","ping":132},{"user_id":556,"name":"Pootis penser","steam_id":76561198944032480,"connected_time":1028000000000,"state":"active","ping":129},{"user_id":575,"name":"sethlington14","steam_id":76561199438357690,"connected_time":67000000000,"state":"active","ping":57},{"user_id":458,"name":"meow","steam_id":76561198289343488,"connected_time":6181000000000,"state":"active","ping":61},{"user_id":573,"name":"zapdos981","steam_id":76561198119674397,"connected_time":184000000000,"state":"active","ping":83},{"user_id":553,"name":"Peas4nt","steam_id":76561198287510052,"connected_time":1235000000000,"state":"active","ping":74}]},{"server_id":320,"name":"Uncletopia | London | 3 | All Maps","name_short":"lon-3","host":"lon-1.uk.uncletopia.com","port":27035,"enabled":true,"region":"eu","cc":"gb","latitude":51.509865,"longitude":-0.118092,"reserved":0,"last_update":"0001-01-01T00:00:00Z","name_a2s":"Uncletopia | London | 3 | All Maps","protocol":17,"map":"pl_hoodoo_final","folder":"tf","game":"Team Fortress","app_id":440,"player_count":24,"max_players":24,"Bots":0,"server_type":"Dedicated","server_os":"Linux","password":true,"vac":true,"version":"7757534","steam_id":85568392924510192,"keywords":["nocrits","nodmgspread","payload","uncletopia"],"game_id":440,"stv_port":27036,"stv_name":"Uncletopia | London | 3 | All Maps | STV","players":[{"user_id":220,"name":"Dedeil","steam_id":76561198254839532,"connected_time":2743000000000,"state":"active","ping":51},{"user_id":236,"name":"Vic maher","steam_id":76561198097523768,"connected_time":1803000000000,"state":"active","ping":79},{"user_id":258,"name":"herobrine.fucker.2014","steam_id":76561198305806575,"connected_time":659000000000,"state":"active","ping":77},{"user_id":270,"name":"DreamlessKnight","steam_id":76561198414469325,"connected_time":83000000000,"state":"spawning","ping":237},{"user_id":253,"name":"Cheers Mate!","steam_id":76561198265192382,"connected_time":1136000000000,"state":"active","ping":73},{"user_id":255,"name":"abdelmajeedmowafaq","steam_id":76561199470606396,"connected_time":816000000000,"state":"active","ping":125},{"user_id":241,"name":"Delab","steam_id":76561198846356572,"connected_time":1463000000000,"state":"active","ping":99},{"user_id":213,"name":"Jamie","steam_id":76561198007043853,"connected_time":3056000000000,"state":"active","ping":56},{"user_id":242,"name":"Roger Slippers","steam_id":76561198188642265,"connected_time":1453000000000,"state":"active","ping":53},{"user_id":259,"name":"Dr. Funkenstein","steam_id":76561197977816210,"connected_time":494000000000,"state":"active","ping":47},{"user_id":228,"name":"AMU","steam_id":76561198092346231,"connected_time":2320000000000,"state":"active","ping":153},{"user_id":260,"name":"mracnjak","steam_id":76561198358370787,"connected_time":483000000000,"state":"active","ping":119},{"user_id":223,"name":"Frikerf","steam_id":76561198079602952,"connected_time":2725000000000,"state":"active","ping":56},{"user_id":261,"name":"Eminem","steam_id":76561198171635918,"connected_time":473000000000,"state":"active","ping":70},{"user_id":271,"name":"fshfkr","steam_id":76561198095979282,"connected_time":59000000000,"state":"active","ping":42},{"user_id":262,"name":"vitalij.ochs","steam_id":76561199438809382,"connected_time":468000000000,"state":"active","ping":85},{"user_id":272,"name":"antiGuide","steam_id":76561198840176468,"connected_time":47000000000,"state":"active","ping":73},{"user_id":263,"name":"Lightbulb Monkey","steam_id":76561198045033173,"connected_time":455000000000,"state":"active","ping":53},{"user_id":247,"name":"Dolcelatte","steam_id":76561198038501770,"connected_time":1398000000000,"state":"active","ping":60},{"user_id":224,"name":"Rustikles","steam_id":76561198186874150,"connected_time":2696000000000,"state":"active","ping":114},{"user_id":268,"name":"Big Smoke","steam_id":76561199242777363,"connected_time":236000000000,"state":"active","ping":66},{"user_id":265,"name":"erobrine2","steam_id":76561198173218318,"connected_time":426000000000,"state":"active","ping":46},{"user_id":173,"name":"mmm delicious bullets","steam_id":76561198254664484,"connected_time":6539000000000,"state":"active","ping":64},{"user_id":269,"name":"AFRICAN ASS NIGGA WITH EBOLA","steam_id":76561198059635136,"connected_time":234000000000,"state":"active","ping":60}]},{"server_id":321,"name":"Uncletopia | London | 4 | All Maps","name_short":"lon-4","host":"lon-1.uk.uncletopia.com","port":27045,"enabled":true,"region":"eu","cc":"gb","latitude":51.509865,"longitude":-0.118092,"reserved":0,"last_update":"0001-01-01T00:00:00Z","name_a2s":"Uncletopia | London | 4 | All Maps","protocol":17,"map":"pl_badwater","folder":"tf","game":"Team Fortress","app_id":440,"player_count":24,"max_players":24,"Bots":0,"server_type":"Dedicated","server_os":"Linux","password":true,"vac":true,"version":"7757534","steam_id":85568392924510193,"keywords":["nocrits","nodmgspread","payload","uncletopia"],"game_id":440,"stv_port":27046,"stv_name":"Uncletopia | London | 4 | All Maps | STV","players":[{"user_id":369,"name":"plazma","steam_id":76561198886594048,"connected_time":4516000000000,"state":"active","ping":104},{"user_id":385,"name":"elchi","steam_id":76561198009531752,"connected_time":3310000000000,"state":"active","ping":49},{"user_id":403,"name":"not∆íreshprince","steam_id":76561198012239150,"connected_time":1712000000000,"state":"active","ping":41},{"user_id":398,"name":"UltimateSlayer","steam_id":76561198384109309,"connected_time":2308000000000,"state":"active","ping":56},{"user_id":406,"name":"eoy","steam_id":76561198116511067,"connected_time":1661000000000,"state":"active","ping":90},{"user_id":416,"name":"Nitrogue","steam_id":76561198349928418,"connected_time":269000000000,"state":"active","ping":33},{"user_id":359,"name":"tired","steam_id":76561198046838168,"connected_time":5198000000000,"state":"active","ping":60},{"user_id":415,"name":"Shovelhalfrusty","steam_id":76561198346447513,"connected_time":282000000000,"state":"active","ping":75},{"user_id":407,"name":"Jay.k","steam_id":76561198079387590,"connected_time":1638000000000,"state":"active","ping":57},{"user_id":408,"name":"Magirby","steam_id":76561198818777390,"connected_time":1636000000000,"state":"active","ping":107},{"user_id":337,"name":"LSKi","steam_id":76561198215470228,"connected_time":7435000000000,"state":"active","ping":55},{"user_id":409,"name":"ElegantSort","steam_id":76561198236788328,"connected_time":1550000000000,"state":"active","ping":127},{"user_id":414,"name":"Krabs","steam_id":76561198161679477,"connected_time":334000000000,"state":"active","ping":39},{"user_id":410,"name":"Nnyllazxz","steam_id":76561198247797436,"connected_time":1486000000000,"state":"active","ping":141},{"user_id":347,"name":"Valoxi","steam_id":76561197995042938,"connected_time":6247000000000,"state":"active","ping":72},{"user_id":373,"name":"Certified Hood pybro (ua)","steam_id":76561198970562699,"connected_time":4132000000000,"state":"active","ping":42},{"user_id":400,"name":"Rask","steam_id":76561198052934944,"connected_time":2145000000000,"state":"active","ping":90},{"user_id":335,"name":"Houlles","steam_id":76561198095277383,"connected_time":7601000000000,"state":"active","ping":55},{"user_id":327,"name":"Dlaf'rferg (she/her)","steam_id":76561198284744735,"connected_time":7989000000000,"state":"active","ping":48},{"user_id":395,"name":"Hanzo (Poor)","steam_id":76561198041690676,"connected_time":2854000000000,"state":"active","ping":48},{"user_id":328,"name":"Kiers","steam_id":76561198834266801,"connected_time":7978000000000,"state":"active","ping":79},{"user_id":401,"name":"elio","steam_id":76561198142662131,"connected_time":1964000000000,"state":"active","ping":66},{"user_id":381,"name":"Aspartus","steam_id":76561198101385763,"connected_time":3766000000000,"state":"active","ping":39},{"user_id":267,"name":"GuSkand","steam_id":76561198043775605,"connected_time":12053000000000,"state":"active","ping":88}]},{"server_id":21,"name":"Uncletopia | London | 5 | All Maps","name_short":"lon-5","host":"lon-1.uk.uncletopia.com","port":27055,"enabled":true,"region":"eu","cc":"gb","latitude":51.509865,"longitude":-0.118092,"reserved":0,"last_update":"0001-01-01T00:00:00Z","name_a2s":"Uncletopia | London | 5 | All Maps","protocol":17,"map":"cp_steel","folder":"tf","game":"Team Fortress","app_id":440,"player_count":22,"max_players":24,"Bots":0,"server_type":"Dedicated","server_os":"Linux","password":true,"vac":true,"version":"7757534","steam_id":85568392924742829,"keywords":["cp","nocrits","nodmgspread","uncletopia"],"game_id":440,"stv_port":27056,"stv_name":"Uncletopia | London | 5 | All Maps | STV","players":[{"user_id":103,"name":"Fat Pigeon","steam_id":76561198817940142,"connected_time":2171000000000,"state":"active","ping":45},{"user_id":122,"name":"kotorro","steam_id":76561198275080398,"connected_time":836000000000,"state":"active","ping":72},{"user_id":85,"name":"The Fresh Meat","steam_id":76561199443064206,"connected_time":3222000000000,"state":"active","ping":73},{"user_id":120,"name":"Na'vi Misato (by popular demand","steam_id":76561198130860698,"connected_time":1207000000000,"state":"active","ping":66},{"user_id":105,"name":"X-tis","steam_id":76561198043837480,"connected_time":2143000000000,"state":"active","ping":63},{"user_id":121,"name":"Most Palone","steam_id":76561198267612598,"connected_time":1078000000000,"state":"active","ping":100},{"user_id":117,"name":"PizzaPete123","steam_id":76561198089478290,"connected_time":1504000000000,"state":"active","ping":41},{"user_id":109,"name":"Blacksheep","steam_id":76561198019621063,"connected_time":1904000000000,"state":"active","ping":49},{"user_id":104,"name":"hey bestie","steam_id":76561198404802175,"connected_time":2159000000000,"state":"active","ping":158},{"user_id":128,"name":"NLSAM","steam_id":76561199111154916,"connected_time":280000000000,"state":"active","ping":65},{"user_id":126,"name":"1couver","steam_id":76561198168553215,"connected_time":454000000000,"state":"active","ping":99},{"user_id":127,"name":"static","steam_id":76561198836825741,"connected_time":451000000000,"state":"active","ping":45},{"user_id":130,"name":"akakez","steam_id":76561198095432821,"connected_time":273000000000,"state":"active","ping":118},{"user_id":70,"name":"Lev","steam_id":76561198125104877,"connected_time":4193000000000,"state":"active","ping":121},{"user_id":124,"name":"il","steam_id":76561198122662610,"connected_time":488000000000,"state":"active","ping":91},{"user_id":92,"name":"M","steam_id":76561199220785307,"connected_time":3113000000000,"state":"active","ping":158},{"user_id":111,"name":"Bucket","steam_id":76561198814907468,"connected_time":1799000000000,"state":"active","ping":42},{"user_id":71,"name":"FuneralDJ (semen demon)","steam_id":76561198105320071,"connected_time":4188000000000,"state":"active","ping":64},{"user_id":132,"name":"Egor Pomidor","steam_id":76561199175688390,"connected_time":32000000000,"state":"active","ping":89},{"user_id":115,"name":"HarMala","steam_id":76561198055298143,"connected_time":1623000000000,"state":"active","ping":60},{"user_id":118,"name":"pfear","steam_id":76561197999207328,"connected_time":1476000000000,"state":"active","ping":90},{"user_id":74,"name":"sloppy transgirl toppy","steam_id":76561198057092208,"connected_time":4038000000000,"state":"active","ping":64}]},{"server_id":22,"name":"Uncletopia | London | 6 | All Maps","name_short":"lon-6","host":"lon-1.uk.uncletopia.com","port":27065,"enabled":true,"region":"eu","cc":"gb","latitude":51.509865,"longitude":-0.118092,"reserved":0,"last_update":"0001-01-01T00:00:00Z","name_a2s":"Uncletopia | London | 6 | All Maps","protocol":17,"map":"cp_gorge","folder":"tf","game":"Team Fortress","app_id":440,"player_count":24,"max_players":24,"Bots":0,"server_type":"Dedicated","server_os":"Linux","password":true,"vac":true,"version":"7757534","steam_id":85568392924742830,"keywords":["cp","nocrits","nodmgspread","uncletopia"],"game_id":440,"stv_port":27066,"stv_name":"Uncletopia | London | 6 | All Maps | STV","players":[{"user_id":337,"name":"Abigor","steam_id":76561197969316578,"connected_time":2531000000000,"state":"active","ping":53},{"user_id":360,"name":"Tea guy","steam_id":76561198797847641,"connected_time":94000000000,"state":"spawning","ping":150},{"user_id":326,"name":"Slowbro","steam_id":76561198010779146,"connected_time":2722000000000,"state":"active","ping":89},{"user_id":295,"name":"Spajro","steam_id":76561198257383813,"connected_time":5055000000000,"state":"active","ping":55},{"user_id":340,"name":"Spectral Sloth","steam_id":76561198170083139,"connected_time":1684000000000,"state":"active","ping":89},{"user_id":348,"name":"JC Denton(fake)","steam_id":76561198989449047,"connected_time":981000000000,"state":"active","ping":130},{"user_id":355,"name":"mark the shot misser","steam_id":76561198309246388,"connected_time":689000000000,"state":"active","ping":56},{"user_id":342,"name":"nedilya","steam_id":76561198039692077,"connected_time":1536000000000,"state":"active","ping":62},{"user_id":361,"name":"Ablativus","steam_id":76561198025698470,"connected_time":11000000000,"state":"spawning","ping":78},{"user_id":356,"name":"Boardie","steam_id":76561198215700300,"connected_time":687000000000,"state":"active","ping":55},{"user_id":323,"name":"hokey","steam_id":76561198046921199,"connected_time":3141000000000,"state":"active","ping":66},{"user_id":349,"name":"yeldad","steam_id":76561198447264153,"connected_time":967000000000,"state":"active","ping":131},{"user_id":353,"name":"wicked","steam_id":76561198164376035,"connected_time":780000000000,"state":"active","ping":86},{"user_id":328,"name":"issues","steam_id":76561197994492154,"connected_time":2713000000000,"state":"active","ping":74},{"user_id":351,"name":"Hookiest Owler","steam_id":76561198872013525,"connected_time":946000000000,"state":"active","ping":148},{"user_id":317,"name":"H1SM43L","steam_id":76561198133168564,"connected_time":3848000000000,"state":"active","ping":65},{"user_id":357,"name":"Lyell","steam_id":76561198350329389,"connected_time":669000000000,"state":"active","ping":68},{"user_id":315,"name":"CAR DOOR","steam_id":76561198055283295,"connected_time":3947000000000,"state":"active","ping":59},{"user_id":341,"name":"Fancy","steam_id":76561198350658462,"connected_time":1682000000000,"state":"active","ping":91},{"user_id":347,"name":"---","steam_id":76561198027463207,"connected_time":1087000000000,"state":"active","ping":68},{"user_id":322,"name":"mike\"3loavesofbread\"jones","steam_id":76561198064342804,"connected_time":3155000000000,"state":"active","ping":77},{"user_id":345,"name":"alphawarrior999","steam_id":76561199001580062,"connected_time":1179000000000,"state":"active","ping":171},{"user_id":124,"name":"Wardruna96","steam_id":76561199057083828,"connected_time":17227000000000,"state":"active","ping":89},{"user_id":359,"name":"hud_saytext_time 0","steam_id":76561198010327228,"connected_time":506000000000,"state":"active","ping":63}]},{"server_id":40,"name":"Uncletopia | London | 7 | No Payload","name_short":"lon-7","host":"lon-1.uk.uncletopia.com","port":27075,"enabled":true,"region":"eu","cc":"gb","latitude":51.509865,"longitude":-0.118092,"reserved":0,"last_update":"0001-01-01T00:00:00Z","name_a2s":"Uncletopia | London | 7 | No Payload","protocol":17,"map":"plr_pipeline","folder":"tf","game":"Team Fortress","app_id":440,"player_count":0,"max_players":24,"Bots":0,"server_type":"Dedicated","server_os":"Linux","password":true,"vac":true,"version":"7757534","steam_id":85568392924964314,"keywords":["nocrits","nodmgspread","payload","uncletopia"],"game_id":440,"stv_port":27076,"stv_name":"Uncletopia | London | 7 | No Payload | STV","players":null},{"server_id":41,"name":"Uncletopia | London | 8 | Community","name_short":"lon-8","host":"lon-1.uk.uncletopia.com","port":27085,"enabled":true,"region":"eu","cc":"gb","latitude":51.509865,"longitude":-0.118092,"reserved":0,"last_update":"0001-01-01T00:00:00Z","name_a2s":"Uncletopia | London | 8 | Community","protocol":17,"map":"workshop/koth_kemptown_rc1.ugc767410655","folder":"tf","game":"Team Fortress","app_id":440,"player_count":0,"max_players":24,"Bots":0,"server_type":"Dedicated","server_os":"Linux","password":true,"vac":true,"version":"7757534","steam_id":85568392924964315,"keywords":["cp","nocrits","nodmgspread","uncletopia"],"game_id":440,"stv_port":27086,"stv_name":"Uncletopia | London | 8 | Community | STV","players":null},{"server_id":300,"name":"Uncletopia | Montr√©al | 1 | All Maps","name_short":"mtl-1","host":"mtl-1.ca.uncletopia.com","port":27015,"enabled":true,"region":"us-east","cc":"ca","latitude":45.50889,"longitude":-73.56167,"reserved":0,"last_update":"0001-01-01T00:00:00Z","name_a2s":"Uncletopia | Montr√©al | 1 | All Maps","protocol":17,"map":"pl_pier","folder":"tf","game":"Team Fortress","app_id":440,"player_count":0,"max_players":24,"Bots":0,"server_type":"Dedicated","server_os":"Linux","password":true,"vac":true,"version":"7757534","steam_id":85568392924500087,"keywords":["nocrits","nodmgspread","payload","uncletopia"],"game_id":440,"stv_port":27016,"stv_name":"Uncletopia | Montr√©al | 1 | All Maps | STV","players":null},{"server_id":301,"name":"Uncletopia | Montr√©al | 2 | All Maps","name_short":"mtl-2","host":"mtl-1.ca.uncletopia.com","port":27025,"enabled":true,"region":"us-east","cc":"ca","latitude":45.50889,"longitude":-73.56167,"reserved":0,"last_update":"0001-01-01T00:00:00Z","name_a2s":"Uncletopia | Montr√©al | 2 | All Maps","protocol":17,"map":"cp_sunshine","folder":"tf","game":"Team Fortress","app_id":440,"player_count":0,"max_players":24,"Bots":0,"server_type":"Dedicated","server_os":"Linux","password":true,"vac":true,"version":"7757534","steam_id":85568392924500088,"keywords":["cp","nocrits","nodmgspread","uncletopia"],"game_id":440,"stv_port":27026,"stv_name":"Uncletopia | Montr√©al | 2 | All Maps | STV","players":null},{"server_id":302,"name":"Uncletopia | Montr√©al | 3 | All Maps","name_short":"mtl-3","host":"mtl-1.ca.uncletopia.com","port":27035,"enabled":true,"region":"us-east","cc":"ca","latitude":45.50889,"longitude":-73.56167,"reserved":0,"last_update":"0001-01-01T00:00:00Z","name_a2s":"Uncletopia | Montr√©al | 3 | All Maps","protocol":17,"map":"pl_frontier_final","folder":"tf","game":"Team Fortress","app_id":440,"player_count":0,"max_players":24,"Bots":0,"server_type":"Dedicated","server_os":"Linux","password":true,"vac":true,"version":"7757534","steam_id":85568392924500089,"keywords":["nocrits","nodmgspread","payload","uncletopia"],"game_id":440,"stv_port":27036,"stv_name":"Uncletopia | Montr√©al | 3 | All Maps | STV","players":null},{"server_id":303,"name":"Uncletopia | Montr√©al | 4 | No Payload","name_short":"mtl-4","host":"mtl-1.ca.uncletopia.com","port":27045,"enabled":true,"region":"us-east","cc":"ca","latitude":45.50889,"longitude":-73.56167,"reserved":0,"last_update":"0001-01-01T00:00:00Z","name_a2s":"Uncletopia | Montr√©al | 4 | No Payload","protocol":17,"map":"cp_well","folder":"tf","game":"Team Fortress","app_id":440,"player_count":0,"max_players":24,"Bots":0,"server_type":"Dedicated","server_os":"Linux","password":true,"vac":true,"version":"7757534","steam_id":85568392924500090,"keywords":["cp","nocrits","nodmgspread","uncletopia"],"game_id":440,"stv_port":27046,"stv_name":"Uncletopia | Montr√©al | 4 | No Payload | STV","players":null},{"server_id":13,"name":"Uncletopia | New York City | 1 | All Maps","name_short":"nyc-1","host":"nyc-1.us.uncletopia.com","port":27015,"enabled":true,"region":"us-east","cc":"us","latitude":40.73061,"longitude":-73.93524,"reserved":0,"last_update":"0001-01-01T00:00:00Z","name_a2s":"Uncletopia | New York City | 1 | All Maps","protocol":17,"map":"pl_upward","folder":"tf","game":"Team Fortress","app_id":440,"player_count":24,"max_players":24,"Bots":0,"server_type":"Dedicated","server_os":"Linux","password":true,"vac":true,"version":"7757534","steam_id":85568392924469993,"keywords":["nocrits","nodmgspread","payload","uncletopia"],"game_id":440,"stv_port":27016,"stv_name":"Uncletopia | New York City | 1 | All Maps | STV","players":[{"user_id":49,"name":"Provocator","steam_id":76561197961830410,"connected_time":205000000000,"state":"active","ping":99},{"user_id":50,"name":"trapsis","steam_id":76561198069474149,"connected_time":202000000000,"state":"active","ping":40},{"user_id":30,"name":"Ajaxica","steam_id":76561198220666152,"connected_time":1288000000000,"state":"active","ping":85},{"user_id":14,"name":"2 team fortress","steam_id":76561198860068961,"connected_time":1879000000000,"state":"active","ping":56},{"user_id":42,"name":"Guil","steam_id":76561197993289176,"connected_time":889000000000,"state":"active","ping":68},{"user_id":31,"name":"Saul Goodman","steam_id":76561198968009574,"connected_time":1278000000000,"state":"active","ping":76},{"user_id":53,"name":"srac","steam_id":76561199046993811,"connected_time":72000000000,"state":"active","ping":122},{"user_id":18,"name":"Professional Zoo Tycoon Player","steam_id":76561198013026044,"connected_time":1663000000000,"state":"active","ping":72},{"user_id":47,"name":"Devoid","steam_id":76561198254039012,"connected_time":478000000000,"state":"active","ping":32},{"user_id":45,"name":"yaldabaoth","steam_id":76561198084606869,"connected_time":720000000000,"state":"active","ping":60},{"user_id":46,"name":"Pancreas Enjoyer","steam_id":76561199438598904,"connected_time":710000000000,"state":"active","ping":103},{"user_id":24,"name":"Cheese4Everyone","steam_id":76561198022333985,"connected_time":1573000000000,"state":"active","ping":60},{"user_id":27,"name":"CopperBox","steam_id":76561198068217248,"connected_time":1436000000000,"state":"active","ping":122},{"user_id":26,"name":"crabapples","steam_id":76561198075818655,"connected_time":1512000000000,"state":"active","ping":66},{"user_id":28,"name":"Tank_guy1498","steam_id":76561198103210665,"connected_time":1419000000000,"state":"active","ping":45},{"user_id":33,"name":"Voxany","steam_id":76561198081096335,"connected_time":1177000000000,"state":"active","ping":77},{"user_id":34,"name":"rad","steam_id":76561198413125750,"connected_time":1174000000000,"state":"active","ping":49},{"user_id":48,"name":"ClanCat","steam_id":76561199033616639,"connected_time":312000000000,"state":"active","ping":66},{"user_id":36,"name":"whitneyscience1","steam_id":76561199405650048,"connected_time":1144000000000,"state":"active","ping":146},{"user_id":41,"name":"Corbe","steam_id":76561198353893927,"connected_time":981000000000,"state":"active","ping":55},{"user_id":38,"name":"Dr. Enforcicle (real)","steam_id":76561198964471859,"connected_time":1122000000000,"state":"active","ping":66},{"user_id":39,"name":"Scab Collector","steam_id":76561198346425545,"connected_time":1122000000000,"state":"active","ping":69},{"user_id":40,"name":"LunarrD","steam_id":76561198811220107,"connected_time":1111000000000,"state":"active","ping":63},{"user_id":52,"name":"Right Wheel School Scooter","steam_id":76561198004233019,"connected_time":177000000000,"state":"active","ping":52}]},{"server_id":14,"name":"Uncletopia | New York City | 2 | All Maps","name_short":"nyc-2","host":"nyc-1.us.uncletopia.com","port":27025,"enabled":true,"region":"us-east","cc":"us","latitude":40.73061,"longitude":-73.93524,"reserved":0,"last_update":"0001-01-01T00:00:00Z","name_a2s":"Uncletopia | New York City | 2 | All Maps","protocol":17,"map":"pl_pier","folder":"tf","game":"Team Fortress","app_id":440,"player_count":0,"max_players":24,"Bots":0,"server_type":"Dedicated","server_os":"Linux","password":true,"vac":true,"version":"7757534","steam_id":85568392924469994,"keywords":["nocrits","nodmgspread","payload","uncletopia"],"game_id":440,"stv_port":27026,"stv_name":"Uncletopia | New York City | 2 | All Maps | STV","players":null},{"server_id":15,"name":"Uncletopia | New York City | 3 | Stopwatch Beta","name_short":"nyc-3","host":"nyc-1.us.uncletopia.com","port":27035,"enabled":true,"region":"us-east","cc":"us","latitude":40.73061,"longitude":-73.93524,"reserved":0,"last_update":"0001-01-01T00:00:00Z","name_a2s":"Uncletopia | New York City | 3 | Stopwatch Beta","protocol":17,"map":"koth_cascade","folder":"tf","game":"Team Fortress","app_id":440,"player_count":0,"max_players":24,"Bots":0,"server_type":"Dedicated","server_os":"Linux","password":true,"vac":true,"version":"7757534","steam_id":85568392924742820,"keywords":["cp","nocrits","nodmgspread","uncletopia"],"game_id":440,"stv_port":27036,"stv_name":"Uncletopia | New York City | 3 | Stopwatch Beta | STV","players":null},{"server_id":16,"name":"Uncletopia | New York City | 4 | Community","name_short":"nyc-4","host":"nyc-1.us.uncletopia.com","port":27045,"enabled":true,"region":"us-east","cc":"us","latitude":40.73061,"longitude":-73.93524,"reserved":0,"last_update":"0001-01-01T00:00:00Z","name_a2s":"Uncletopia | New York City | 4 | Community","protocol":17,"map":"pl_frontier_final","folder":"tf","game":"Team Fortress","app_id":440,"player_count":0,"max_players":24,"Bots":0,"server_type":"Dedicated","server_os":"Linux","password":true,"vac":true,"version":"7757534","steam_id":85568392924742821,"keywords":["nocrits","nodmgspread","payload","uncletopia"],"game_id":440,"stv_port":27046,"stv_name":"Uncletopia | New York City | 4 | Community | STV","players":null},{"server_id":142,"name":"Uncletopia | S√£o Paulo | 1 | All Maps","name_short":"sao-1","host":"sao-1.br.uncletopia.com","port":27015,"enabled":true,"region":"sa","cc":"br","latitude":-23.533773,"longitude":-46.62529,"reserved":0,"last_update":"0001-01-01T00:00:00Z","name_a2s":"Uncletopia | S√£o Paulo | 1 | All Maps","protocol":17,"map":"cp_altitude","folder":"tf","game":"Team Fortress","app_id":440,"player_count":0,"max_players":24,"Bots":0,"server_type":"Dedicated","server_os":"Linux","password":true,"vac":true,"version":"7757534","steam_id":85568392924469996,"keywords":["cp","nocrits","nodmgspread","uncletopia"],"game_id":440,"stv_port":27016,"stv_name":"Uncletopia | S√£o Paulo | 1 | All Maps | STV","players":null},{"server_id":143,"name":"Uncletopia | S√£o Paulo | 2 | All Maps","name_short":"sao-2","host":"sao-2.br.uncletopia.com","port":27015,"enabled":true,"region":"sa","cc":"br","latitude":-23.533773,"longitude":-46.62529,"reserved":0,"last_update":"0001-01-01T00:00:00Z","name_a2s":"Uncletopia | S√£o Paulo | 2 | All Maps","protocol":17,"map":"koth_viaduct","folder":"tf","game":"Team Fortress","app_id":440,"player_count":0,"max_players":24,"Bots":0,"server_type":"Dedicated","server_os":"Linux","password":true,"vac":true,"version":"7757534","steam_id":85568392924485349,"keywords":["cp","nocrits","nodmgspread","uncletopia"],"game_id":440,"stv_port":27016,"stv_name":"Uncletopia | S√£o Paulo | 2 | All Maps | STV","players":null},{"server_id":7,"name":"Uncletopia | Seattle | 1 | All Maps","name_short":"sea-1","host":"sea-1.us.uncletopia.com","port":27015,"enabled":true,"region":"us-west","cc":"us","latitude":47.608013,"longitude":-122.33517,"reserved":0,"last_update":"0001-01-01T00:00:00Z","name_a2s":"Uncletopia | Seattle | 1 | All Maps","protocol":17,"map":"pl_barnblitz","folder":"tf","game":"Team Fortress","app_id":440,"player_count":24,"max_players":24,"Bots":0,"server_type":"Dedicated","server_os":"Linux","password":true,"vac":true,"version":"7757534","steam_id":85568392924469997,"keywords":["nocrits","nodmgspread","payload","uncletopia"],"game_id":440,"stv_port":27016,"stv_name":"Uncletopia | Seattle | 1 | All Maps | STV","players":[{"user_id":111,"name":"Lord Paullus of Paulland","steam_id":76561198055507956,"connected_time":18000000000,"state":"spawning","ping":145},{"user_id":66,"name":"Natalie","steam_id":76561198048848289,"connected_time":4168000000000,"state":"active","ping":87},{"user_id":103,"name":"Eraser cat","steam_id":76561199045570463,"connected_time":1024000000000,"state":"active","ping":42},{"user_id":97,"name":"Tony Pizza","steam_id":76561198044331477,"connected_time":1974000000000,"state":"active","ping":120},{"user_id":7,"name":"Little Linguine","steam_id":76561198816986370,"connected_time":8121000000000,"state":"active","ping":54},{"user_id":85,"name":"Tibetan Pop Star","steam_id":76561198844903984,"connected_time":2992000000000,"state":"active","ping":82},{"user_id":102,"name":"Hayden Jacobs","steam_id":76561198082200738,"connected_time":1198000000000,"state":"active","ping":76},{"user_id":87,"name":"MonteJT","steam_id":76561198055409360,"connected_time":2818000000000,"state":"active","ping":36},{"user_id":94,"name":"0r161n4lj0k3","steam_id":76561198127328235,"connected_time":2113000000000,"state":"active","ping":100},{"user_id":62,"name":"robo gushy","steam_id":76561198060334743,"connected_time":4446000000000,"state":"active","ping":89},{"user_id":105,"name":"Furious George","steam_id":76561198405111646,"connected_time":917000000000,"state":"active","ping":55},{"user_id":112,"name":"HaphazardHazel","steam_id":76561198316812693,"connected_time":18000000000,"state":"spawning","ping":123},{"user_id":113,"name":"mounkay","steam_id":76561199271869948,"connected_time":1000000000,"state":"spawning","ping":68},{"user_id":106,"name":"merge without looking","steam_id":76561198056702628,"connected_time":790000000000,"state":"active","ping":87},{"user_id":72,"name":"mau","steam_id":76561198354473513,"connected_time":3694000000000,"state":"active","ping":99},{"user_id":89,"name":"mobe #zenmode","steam_id":76561198121633820,"connected_time":2700000000000,"state":"active","ping":72},{"user_id":64,"name":"Florida Man","steam_id":76561198418116040,"connected_time":4422000000000,"state":"active","ping":148},{"user_id":23,"name":"Also UbeR","steam_id":76561198166926843,"connected_time":7644000000000,"state":"active","ping":75},{"user_id":108,"name":"suns","steam_id":76561198079583278,"connected_time":687000000000,"state":"active","ping":90},{"user_id":70,"name":"amagicowl","steam_id":76561199060487814,"connected_time":3826000000000,"state":"active","ping":49},{"user_id":99,"name":"Dwight K. Schrute","steam_id":76561197997815897,"connected_time":1730000000000,"state":"active","ping":141},{"user_id":110,"name":"Monketron","steam_id":76561198014225523,"connected_time":403000000000,"state":"active","ping":75},{"user_id":84,"name":"mio","steam_id":76561198239286750,"connected_time":3076000000000,"state":"active","ping":122},{"user_id":92,"name":"Themasterman75","steam_id":76561199385573293,"connected_time":2310000000000,"state":"active","ping":71}]},{"server_id":119,"name":"Uncletopia | Seattle | 2 | All Maps","name_short":"sea-2","host":"sea-1.us.uncletopia.com","port":27025,"enabled":true,"region":"us-west","cc":"us","latitude":47.608013,"longitude":-122.33517,"reserved":0,"last_update":"0001-01-01T00:00:00Z","name_a2s":"Uncletopia | Seattle | 2 | All Maps","protocol":17,"map":"pl_barnblitz","folder":"tf","game":"Team Fortress","app_id":440,"player_count":1,"max_players":24,"Bots":0,"server_type":"Dedicated","server_os":"Linux","password":true,"vac":true,"version":"7757534","steam_id":85568392924469998,"keywords":["nocrits","nodmgspread","payload","uncletopia"],"game_id":440,"stv_port":27026,"stv_name":"Uncletopia | Seattle | 2 | All Maps | STV","players":[{"user_id":4,"name":"kodynotcody","steam_id":76561198340685758,"connected_time":17000000000,"state":"active","ping":57}]},{"server_id":406,"name":"Uncletopia | Seattle | 3 | Stopwatch Beta","name_short":"sea-3","host":"sea-1.us.uncletopia.com","port":27035,"enabled":true,"region":"us-west","cc":"us","latitude":47.608013,"longitude":-122.33517,"reserved":0,"last_update":"0001-01-01T00:00:00Z","name_a2s":"Uncletopia | Seattle | 3 | Stopwatch Beta","protocol":17,"map":"workshop/pl_barnblitz_pro7.ugc582280235","folder":"tf","game":"Team Fortress","app_id":440,"player_count":0,"max_players":24,"Bots":0,"server_type":"Dedicated","server_os":"Linux","password":true,"vac":true,"version":"7757534","steam_id":85568392924515217,"keywords":["nocrits","nodmgspread","payload","uncletopia"],"game_id":440,"stv_port":27036,"stv_name":"Uncletopia | Seattle | 3 | Stopwatch Beta | STV","players":null},{"server_id":17,"name":"Uncletopia | San Francisco | 1 | All Maps","name_short":"sfo-1","host":"sfo-1.us.uncletopia.com","port":27015,"enabled":true,"region":"us-west","cc":"us","latitude":37.77397,"longitude":-122.4313,"reserved":0,"last_update":"0001-01-01T00:00:00Z","name_a2s":"Uncletopia | San Francisco | 1 | All Maps","protocol":17,"map":"cp_dustbowl","folder":"tf","game":"Team Fortress","app_id":440,"player_count":0,"max_players":24,"Bots":0,"server_type":"Dedicated","server_os":"Linux","password":true,"vac":true,"version":"7757534","steam_id":85568392924469999,"keywords":["cp","nocrits","nodmgspread","uncletopia"],"game_id":440,"stv_port":27016,"stv_name":"Uncletopia | San Francisco | 1 | All Maps | STV","players":null},{"server_id":18,"name":"Uncletopia | San Francisco | 2 | All Maps","name_short":"sfo-2","host":"sfo-1.us.uncletopia.com","port":27025,"enabled":true,"region":"us-west","cc":"us","latitude":37.77397,"longitude":-122.4313,"reserved":0,"last_update":"0001-01-01T00:00:00Z","name_a2s":"Uncletopia | San Francisco | 2 | All Maps","protocol":17,"map":"koth_viaduct","folder":"tf","game":"Team Fortress","app_id":440,"player_count":0,"max_players":24,"Bots":0,"server_type":"Dedicated","server_os":"Linux","password":true,"vac":true,"version":"7757534","steam_id":85568392924470000,"keywords":["cp","nocrits","nodmgspread","uncletopia"],"game_id":440,"stv_port":27026,"stv_name":"Uncletopia | San Francisco | 2 | All Maps | STV","players":null},{"server_id":19,"name":"Uncletopia | San Francisco | 3 | Stopwatch Beta","name_short":"sfo-3","host":"sfo-1.us.uncletopia.com","port":27035,"enabled":true,"region":"us-west","cc":"us","latitude":37.77397,"longitude":-122.4313,"reserved":0,"last_update":"0001-01-01T00:00:00Z","name_a2s":"Uncletopia | San Francisco | 3 | Stopwatch Beta","protocol":17,"map":"cp_snakewater_final1","folder":"tf","game":"Team Fortress","app_id":440,"player_count":0,"max_players":24,"Bots":0,"server_type":"Dedicated","server_os":"Linux","password":true,"vac":true,"version":"7757534","steam_id":85568392924742824,"keywords":["cp","nocrits","nodmgspread","uncletopia"],"game_id":440,"stv_port":27036,"stv_name":"Uncletopia | San Francisco | 3 | Stopwatch Beta | STV","players":null},{"server_id":20,"name":"Uncletopia | San Francisco | 4 | Community","name_short":"sfo-4","host":"sfo-1.us.uncletopia.com","port":27045,"enabled":true,"region":"us-west","cc":"us","latitude":37.77397,"longitude":-122.4313,"reserved":0,"last_update":"0001-01-01T00:00:00Z","name_a2s":"Uncletopia | San Francisco | 4 | Community","protocol":17,"map":"workshop/pl_divulgence_b4b.ugc2884808746","folder":"tf","game":"Team Fortress","app_id":440,"player_count":0,"max_players":24,"Bots":0,"server_type":"Dedicated","server_os":"Linux","password":true,"vac":true,"version":"7757534","steam_id":85568392924742826,"keywords":["nocrits","nodmgspread","payload","uncletopia"],"game_id":440,"stv_port":27046,"stv_name":"Uncletopia | San Francisco | 4 | Community | STV","players":null},{"server_id":141,"name":"Uncletopia | Sydney | 1 | All Maps","name_short":"syd-1","host":"syd-1.au.uncletopia.com","port":27015,"enabled":true,"region":"au","cc":"au","latitude":-33.865143,"longitude":151.2099,"reserved":0,"last_update":"0001-01-01T00:00:00Z","name_a2s":"Uncletopia | Sydney | 1 | All Maps","protocol":17,"map":"pl_upward","folder":"tf","game":"Team Fortress","app_id":440,"player_count":1,"max_players":24,"Bots":0,"server_type":"Dedicated","server_os":"Linux","password":true,"vac":true,"version":"7757534","steam_id":85568392924470001,"keywords":["nocrits","nodmgspread","payload","uncletopia"],"game_id":440,"stv_port":27016,"stv_name":"Uncletopia | Sydney | 1 | All Maps | STV","players":[{"user_id":748,"name":"Suyarhys","steam_id":76561199400447537,"connected_time":662000000000,"state":"active","ping":152}]},{"server_id":123,"name":"Uncletopia | Sydney | 2 | All Maps","name_short":"syd-2","host":"syd-1.au.uncletopia.com","port":27025,"enabled":true,"region":"au","cc":"au","latitude":-33.865143,"longitude":151.2099,"reserved":0,"last_update":"0001-01-01T00:00:00Z","name_a2s":"Uncletopia | Sydney | 2 | All Maps","protocol":17,"map":"pl_badwater","folder":"tf","game":"Team Fortress","app_id":440,"player_count":0,"max_players":24,"Bots":0,"server_type":"Dedicated","server_os":"Linux","password":true,"vac":true,"version":"7757534","steam_id":85568392924470002,"keywords":["nocrits","nodmgspread","payload","uncletopia"],"game_id":440,"stv_port":27026,"stv_name":"Uncletopia | Sydney | 2 | All Maps | STV","players":null},{"server_id":395,"name":"Uncletopia | Sydney | 3 | All Maps","name_short":"syd-3","host":"syd-1.au.uncletopia.com","port":27035,"enabled":true,"region":"au","cc":"au","latitude":-33.865143,"longitude":151.2099,"reserved":0,"last_update":"0001-01-01T00:00:00Z","name_a2s":"Uncletopia | Sydney | 3 | All Maps","protocol":17,"map":"cp_mountainlab","folder":"tf","game":"Team Fortress","app_id":440,"player_count":0,"max_players":24,"Bots":0,"server_type":"Dedicated","server_os":"Linux","password":true,"vac":true,"version":"7757534","steam_id":85568392925194467,"keywords":["cp","nocrits","nodmgspread","uncletopia"],"game_id":440,"stv_port":27036,"stv_name":"Uncletopia | Sydney | 3 | All Maps | STV","players":null},{"server_id":396,"name":"Uncletopia | Sydney | 4 | All Maps","name_short":"syd-4","host":"syd-1.au.uncletopia.com","port":27045,"enabled":true,"region":"au","cc":"au","latitude":-33.865143,"longitude":151.2099,"reserved":0,"last_update":"0001-01-01T00:00:00Z","name_a2s":"Uncletopia | Sydney | 4 | All Maps","protocol":17,"map":"pl_swiftwater_final1","folder":"tf","game":"Team Fortress","app_id":440,"player_count":0,"max_players":24,"Bots":0,"server_type":"Dedicated","server_os":"Linux","password":true,"vac":true,"version":"7757534","steam_id":85568392925397958,"keywords":["nocrits","nodmgspread","payload","uncletopia"],"game_id":440,"stv_port":27046,"stv_name":"Uncletopia | Sydney | 4 | All Maps | STV","players":null},{"server_id":58,"name":"Uncletopia | Sydney | 5 | Stopwatch Beta","name_short":"syd-5","host":"syd-1.au.uncletopia.com","port":27055,"enabled":true,"region":"au","cc":"au","latitude":-33.865143,"longitude":151.2099,"reserved":0,"last_update":"0001-01-01T00:00:00Z","name_a2s":"Uncletopia | Sydney | 5 | Stopwatch Beta","protocol":17,"map":"workshop/koth_bagel_rc6.ugc2514036946","folder":"tf","game":"Team Fortress","app_id":440,"player_count":0,"max_players":24,"Bots":0,"server_type":"Dedicated","server_os":"Linux","password":true,"vac":true,"version":"7757534","steam_id":85568392925397959,"keywords":["cp","nocrits","nodmgspread","uncletopia"],"game_id":440,"stv_port":27056,"stv_name":"Uncletopia | Sydney | 5 | Stopwatch Beta | STV","players":null},{"server_id":59,"name":"Uncletopia | Sydney | 6 | Community","name_short":"syd-6","host":"syd-1.au.uncletopia.com","port":27065,"enabled":true,"region":"au","cc":"au","latitude":-33.865143,"longitude":151.2099,"reserved":0,"last_update":"0001-01-01T00:00:00Z","name_a2s":"Uncletopia | Sydney | 6 | Community","protocol":17,"map":"workshop/pl_divulgence_b4b.ugc2884808746","folder":"tf","game":"Team Fortress","app_id":440,"player_count":0,"max_players":24,"Bots":0,"server_type":"Dedicated","server_os":"Linux","password":true,"vac":true,"version":"7757534","steam_id":85568392925397960,"keywords":["nocrits","nodmgspread","payload","uncletopia"],"game_id":440,"stv_port":27066,"stv_name":"Uncletopia | Sydney | 6 | Community | STV","players":null},{"server_id":49,"name":"Uncletopia | Warsaw | 1 | All Maps","name_short":"waw-1","host":"waw-1.pl.uncletopia.com","port":27015,"enabled":true,"region":"eu","cc":"pl","latitude":52.2297,"longitude":21.017532,"reserved":0,"last_update":"0001-01-01T00:00:00Z","name_a2s":"","protocol":0,"map":"","folder":"","game":"","app_id":0,"player_count":0,"max_players":0,"Bots":0,"server_type":"","server_os":"","password":false,"vac":false,"version":"","steam_id":0,"keywords":null,"game_id":0,"stv_port":0,"stv_name":"","players":null},{"server_id":50,"name":"Uncletopia | Warsaw | 2 | All Maps","name_short":"waw-2","host":"waw-1.pl.uncletopia.com","port":27025,"enabled":true,"region":"eu","cc":"pl","latitude":52.2297,"longitude":21.017532,"reserved":0,"last_update":"0001-01-01T00:00:00Z","name_a2s":"Uncletopia | Warsaw | 2 | All Maps","protocol":17,"map":"koth_highpass","folder":"tf","game":"Team Fortress","app_id":440,"player_count":0,"max_players":24,"Bots":0,"server_type":"Dedicated","server_os":"Linux","password":true,"vac":true,"version":"7757534","steam_id":85568392925397851,"keywords":["cp","nocrits","nodmgspread","uncletopia"],"game_id":440,"stv_port":27026,"stv_name":"Uncletopia | Warsaw | 2 | All Maps | STV","players":null},{"server_id":51,"name":"Uncletopia | Warsaw | 3 | All Maps","name_short":"waw-3","host":"waw-1.pl.uncletopia.com","port":27035,"enabled":true,"region":"eu","cc":"pl","latitude":52.2297,"longitude":21.017532,"reserved":0,"last_update":"0001-01-01T00:00:00Z","name_a2s":"Uncletopia | Warsaw | 3 | All Maps","protocol":17,"map":"cp_mountainlab","folder":"tf","game":"Team Fortress","app_id":440,"player_count":0,"max_players":24,"Bots":0,"server_type":"Dedicated","server_os":"Linux","password":true,"vac":true,"version":"7757534","steam_id":85568392925397852,"keywords":["cp","nocrits","nodmgspread","uncletopia"],"game_id":440,"stv_port":27036,"stv_name":"Uncletopia | Warsaw | 3 | All Maps | STV","players":null},{"server_id":52,"name":"Uncletopia | Warsaw | 4 | All Maps","name_short":"waw-4","host":"waw-1.pl.uncletopia.com","port":27045,"enabled":true,"region":"eu","cc":"pl","latitude":52.2297,"longitude":21.017532,"reserved":0,"last_update":"0001-01-01T00:00:00Z","name_a2s":"Uncletopia | Warsaw | 4 | All Maps","protocol":17,"map":"cp_process_final","folder":"tf","game":"Team Fortress","app_id":440,"player_count":0,"max_players":24,"Bots":0,"server_type":"Dedicated","server_os":"Linux","password":true,"vac":true,"version":"7757534","steam_id":85568392925397853,"keywords":["cp","nocrits","nodmgspread","uncletopia"],"game_id":440,"stv_port":27046,"stv_name":"Uncletopia | Warsaw | 4 | All Maps | STV","players":null},{"server_id":53,"name":"Uncletopia | Warsaw | 5 | Stopwatch Beta","name_short":"waw-5","host":"waw-1.pl.uncletopia.com","port":27055,"enabled":true,"region":"eu","cc":"pl","latitude":52.2297,"longitude":21.017532,"reserved":0,"last_update":"0001-01-01T00:00:00Z","name_a2s":"Uncletopia | Warsaw | 5 | Stopwatch Beta","protocol":17,"map":"pl_pier","folder":"tf","game":"Team Fortress","app_id":440,"player_count":0,"max_players":24,"Bots":0,"server_type":"Dedicated","server_os":"Linux","password":true,"vac":true,"version":"7757534","steam_id":85568392925397854,"keywords":["nocrits","nodmgspread","payload","uncletopia"],"game_id":440,"stv_port":27056,"stv_name":"Uncletopia | Warsaw | 5 | Stopwatch Beta | STV","players":null},{"server_id":54,"name":"Uncletopia | Warsaw | 6 | Community","name_short":"waw-6","host":"waw-1.pl.uncletopia.com","port":27065,"enabled":true,"region":"eu","cc":"pl","latitude":52.2297,"longitude":21.017532,"reserved":0,"last_update":"0001-01-01T00:00:00Z","name_a2s":"Uncletopia | Warsaw | 6 | Community","protocol":17,"map":"koth_highpass","folder":"tf","game":"Team Fortress","app_id":440,"player_count":0,"max_players":24,"Bots":0,"server_type":"Dedicated","server_os":"Linux","password":true,"vac":true,"version":"7757534","steam_id":85568392925397856,"keywords":["cp","nocrits","nodmgspread","uncletopia"],"game_id":440,"stv_port":27066,"stv_name":"Uncletopia | Warsaw | 6 | Community | STV","players":null}]}