{"status":true,"message":"","result":[{"server_id":9,"name":"Uncletopia | Atlanta | 1 | All Maps","name_short":"atl-1","host":"atl-1.us.uncletopia.com","port":27015,"enabled":true,"region":"us-east","cc":"us","latitude":33.753746,"longitude":-84.38633,"reserved":0,"last_update":"0001-01-01T00:00:00Z","name_a2s":"Uncletopia | Atlanta | 1 | All Maps","protocol":17,"map":"pl_borneo","folder":"tf","game":"Team Fortress","app_id":440,"player_count":25,"max_players":24,"Bots":0,"server_type":"Dedicated","server_os":"Linux","password":true,"vac":true,"version":"7961495","steam_id":85568392924469982,"keywords":["nocrits","nodmgspread","payload","uncletopia"],"game_id":440,"stv_port":27016,"stv_name":"Uncletopia | Atlanta | 1 | All Maps | STV","players":[{"user_id":487,"name":"T√ñZI","steam_id":76561198045268695,"connected_time":3912000000000,"state":"active","ping":80},{"user_id":504,"name":"Albino Jellyfish","steam_id":76561198208561097,"connected_time":1841000000000,"state":"active","ping":50},{"user_id":507,"name":"Willly the WHALE","steam_id":76561198927517471,"connected_time":960000000000,"state":"active","ping":40},{"user_id":488,"name":"loot","steam_id":76561198069954956,"connected_time":3756000000000,"state":"active","ping":50},{"user_id":470,"name":"ATL1 | on my hunting trip","steam_id":76561198315341646,"connected_time":5528000000000,"state":"active","ping":63},{"user_id":465,"name":"Sinta","steam_id":76561198098398841,"connected_time":5922000000000,"state":"active","ping":57},{"user_id":477,"name":"lynt","steam_id":76561198988333976,"connected_time":4310000000000,"state":"active","ping":41},{"user_id":492,"name":"DeezNoodlez","steam_id":76561198246700372,"connected_time":3144000000000,"state":"active","ping":60},{"user_id":517,"name":"LOFILE","steam_id":76561198083798918,"connected_time":39000000000,"state":"active","ping":55},{"user_id":508,"name":"Here I Go Again!","steam_id":76561198188722751,"connected_time":852000000000,"state":"active","ping":91},{"user_id":254,"name":"Oxygen User","steam_id":76561199111975528,"connected_time":19295000000000,"state":"active","ping":55},{"user_id":496,"name":"Monkey Mode","steam_id":76561197961267543,"connected_time":3079000000000,"state":"active","ping":56},{"user_id":511,"name":"thomasdee725???","steam_id":76561199189526173,"connected_time":498000000000,"state":"active","ping":71},{"user_id":479,"name":"Night time Dan","steam_id":76561199022178492,"connected_time":4218000000000,"state":"active","ping":33},{"user_id":497,"name":"Wingm4n","steam_id":76561198064127012,"connected_time":2160000000000,"state":"active","ping":48},{"user_id":500,"name":"ATL1 | cola","steam_id":76561198374390458,"connected_time":1920000000000,"state":"active","ping":60},{"user_id":502,"name":"Ashes!","steam_id":76561197998475441,"connected_time":1905000000000,"state":"active","ping":61},{"user_id":510,"name":"Heathcliff","steam_id":76561198044288534,"connected_time":794000000000,"state":"active","ping":62},{"user_id":458,"name":"Onyx","steam_id":76561198275349640,"connected_time":6235000000000,"state":"active","ping":81},{"user_id":515,"name":"owlbortch","steam_id":76561198042849350,"connected_time":84000000000,"state":"active","ping":56},{"user_id":494,"name":"Le4n!!!","steam_id":76561198045522596,"connected_time":3136000000000,"state":"active","ping":72},{"user_id":495,"name":"joe","steam_id":76561198045781320,"connected_time":3135000000000,"state":"active","ping":59},{"user_id":464,"name":"lil hog","steam_id":76561199230929836,"connected_time":6061000000000,"state":"active","ping":90},{"user_id":516,"name":"Big Business","steam_id":76561198353366625,"connected_time":60000000000,"state":"connecting","ping":126},{"user_id":518,"name":"Dr.Inkmix(femboy)","steam_id":76561198854070384,"connected_time":25000000000,"state":"spawning","ping":318}]},{"server_id":104,"name":"Uncletopia | Atlanta | 2 | All Maps","name_short":"atl-2","host":"atl-1.us.uncletopia.com","port":27025,"enabled":true,"region":"us-east","cc":"us","latitude":33.753746,"longitude":-84.38633,"reserved":0,"last_update":"0001-01-01T00:00:00Z","name_a2s":"Uncletopia | Atlanta | 2 | All Maps","protocol":17,"map":"pl_barnblitz","folder":"tf","game":"Team Fortress","app_id":440,"player_count":22,"max_players":24,"Bots":0,"server_type":"Dedicated","server_os":"Linux","password":true,"vac":true,"version":"7961495","steam_id":85568392924469983,"keywords":["nocrits","nodmgspread","payload","uncletopia"],"game_id":440,"stv_port":27026,"stv_name":"Uncletopia | Atlanta | 2 | All Maps | STV","players":[{"user_id":435,"name":"KennytheHedgehog","steam_id":76561198094607721,"connected_time":752000000000,"state":"active","ping":66},{"user_id":439,"name":"Kiss Master","steam_id":76561198289572271,"connected_time":4000000000,"state":"spawning","ping":44},{"user_id":425,"name":"Lexitar369","steam_id":76561199089982129,"connected_time":1181000000000,"state":"active","ping":93},{"user_id":436,"name":"barbecuesteve","steam_id":76561198048819671,"connected_time":560000000000,"state":"active","ping":45},{"user_id":372,"name":"Grand Piano Tuna","steam_id":76561198135137213,"connected_time":5522000000000,"state":"active","ping":64},{"user_id":414,"name":"vastrobotmax","steam_id":76561198417110724,"connected_time":2400000000000,"state":"active","ping":73},{"user_id":332,"name":"LOVEDRAGON","steam_id":76561198089908485,"connected_time":7578000000000,"state":"active","ping":60},{"user_id":440,"name":"john trevolta","steam_id":76561197998867160,"connected_time":4000000000,"state":"spawning","ping":81},{"user_id":306,"name":"Temper","steam_id":76561199042184132,"connected_time":10089000000000,"state":"active","ping":57},{"user_id":421,"name":"Al Cabone","steam_id":76561198956823243,"connected_time":1882000000000,"state":"active","ping":44},{"user_id":432,"name":"Dance4gravy","steam_id":76561198007325113,"connected_time":1000000000000,"state":"active","ping":40},{"user_id":437,"name":"BlueMew","steam_id":76561198060454348,"connected_time":207000000000,"state":"active","ping":59},{"user_id":409,"name":"CheetoSmoke7","steam_id":76561198095217273,"connected_time":2631000000000,"state":"active","ping":58},{"user_id":419,"name":"have blue","steam_id":76561198054260599,"connected_time":1921000000000,"state":"active","ping":74},{"user_id":412,"name":"simply","steam_id":76561198215728721,"connected_time":2607000000000,"state":"active","ping":47},{"user_id":424,"name":"Explise 209803","steam_id":76561198044413891,"connected_time":1380000000000,"state":"active","ping":114},{"user_id":438,"name":"darkvoid","steam_id":76561198094512992,"connected_time":50000000000,"state":"active","ping":56},{"user_id":406,"name":"Mr. Squirt","steam_id":76561198174755679,"connected_time":3779000000000,"state":"active","ping":57},{"user_id":434,"name":"Trenbolone Acetate","steam_id":76561198353869378,"connected_time":856000000000,"state":"active","ping":48},{"user_id":397,"name":"chrisd149","steam_id":76561198018710480,"connected_time":4201000000000,"state":"active","ping":60},{"user_id":423,"name":"choi","steam_id":76561198053669887,"connected_time":1441000000000,"state":"active","ping":98},{"user_id":429,"name":"Steak-Pocketer","steam_id":76561198277651410,"connected_time":1073000000000,"state":"active","ping":45}]},{"server_id":400,"name":"Uncletopia | Atlanta | 3 | Stopwatch","name_short":"atl-3","host":"atl-1.us.uncletopia.com","port":27035,"enabled":true,"region":"us-east","cc":"us","latitude":33.753746,"longitude":-84.38633,"reserved":0,"last_update":"0001-01-01T00:00:00Z","name_a2s":"Uncletopia | Atlanta | 3 | Stopwatch","protocol":17,"map":"workshop/koth_product_final.ugc454272353","folder":"tf","game":"Team Fortress","app_id":440,"player_count":0,"max_players":24,"Bots":0,"server_type":"Dedicated","server_os":"Linux","password":true,"vac":true,"version":"7961495","steam_id":85568392924515187,"keywords":["cp","nocrits","nodmgspread","uncletopia"],"game_id":440,"stv_port":27036,"stv_name":"Uncletopia | Atlanta | 3 | Stopwatch | STV","players":null},{"server_id":401,"name":"Uncletopia | Atlanta | 4 | Community","name_short":"atl-4","host":"atl-1.us.uncletopia.com","port":27045,"enabled":true,"region":"us-east","cc":"us","latitude":33.753746,"longitude":-84.38633,"reserved":0,"last_update":"0001-01-01T00:00:00Z","name_a2s":"Uncletopia | Atlanta | 4 | Community","protocol":17,"map":"workshop/koth_ashville_final.ugc2130459942","folder":"tf","game":"Team Fortress","app_id":440,"player_count":0,"max_players":24,"Bots":0,"server_type":"Dedicated","server_os":"Linux","password":true,"vac":true,"version":"7961495","steam_id":85568392924515188,"keywords":["cp","nocrits","nodmgspread","uncletopia"],"game_id":440,"stv_port":27046,"stv_name":"Uncletopia | Atlanta | 4 | Community | STV","players":null},{"server_id":2,"name":"Uncletopia | Chicago | 1 | All Maps","name_short":"chi-1","host":"chi-1.us.uncletopia.com","port":27015,"enabled":true,"region":"us-central","cc":"us","latitude":41.881832,"longitude":-87.62318,"reserved":0,"last_update":"0001-01-01T00:00:00Z","name_a2s":"Uncletopia | Chicago | 1 | All Maps","protocol":17,"map":"pl_goldrush","folder":"tf","game":"Team Fortress","app_id":440,"player_count":24,"max_players":24,"Bots":0,"server_type":"Dedicated","server_os":"Linux","password":true,"vac":true,"version":"7961495","steam_id":85568392924469984,"keywords":["nocrits","nodmgspread","payload","uncletopia"],"game_id":440,"stv_port":27016,"stv_name":"Uncletopia | Chicago | 1 | All Maps | STV","players":[{"user_id":492,"name":"Word To Your Mothership","steam_id":76561198034329138,"connected_time":2297000000000,"state":"active","ping":92},{"user_id":515,"name":"Hankel Tom (The Hankeler)","steam_id":76561199446367874,"connected_time":391000000000,"state":"active","ping":42},{"user_id":504,"name":"Comradical","steam_id":76561197990808285,"connected_time":1309000000000,"state":"active","ping":60},{"user_id":481,"name":"roblox.god.2012","steam_id":76561198057553641,"connected_time":3582000000000,"state":"active","ping":60},{"user_id":436,"name":"mr.videogame","steam_id":76561198119558096,"connected_time":5430000000000,"state":"active","ping":60},{"user_id":472,"name":"gaming elliptical","steam_id":76561198013456569,"connected_time":3910000000000,"state":"active","ping":45},{"user_id":516,"name":"Jerk Tryhard (roleplay)","steam_id":76561199470538309,"connected_time":351000000000,"state":"active","ping":59},{"user_id":514,"name":"Siz","steam_id":76561198072962154,"connected_time":403000000000,"state":"active","ping":63},{"user_id":496,"name":"og biden pack cart","steam_id":76561198253731826,"connected_time":2242000000000,"state":"active","ping":61},{"user_id":517,"name":"nhbiker","steam_id":76561198081277675,"connected_time":348000000000,"state":"active","ping":59},{"user_id":491,"name":"Lia_Rein","steam_id":76561198151569597,"connected_time":2672000000000,"state":"active","ping":136},{"user_id":518,"name":"vinny","steam_id":76561198036267748,"connected_time":323000000000,"state":"active","ping":60},{"user_id":434,"name":"THORNFIELDGAMER","steam_id":76561199087167473,"connected_time":5484000000000,"state":"active","ping":75},{"user_id":522,"name":"Timmy The Tyrant","steam_id":76561199156409732,"connected_time":270000000000,"state":"active","ping":61},{"user_id":502,"name":"A Sun","steam_id":76561198142545364,"connected_time":1676000000000,"state":"active","ping":57},{"user_id":520,"name":"CoconutRice","steam_id":76561198114909164,"connected_time":310000000000,"state":"active","ping":52},{"user_id":469,"name":"qory","steam_id":76561198152064890,"connected_time":4243000000000,"state":"active","ping":55},{"user_id":523,"name":"Rukks","steam_id":76561197993918954,"connected_time":75000000000,"state":"active","ping":90},{"user_id":460,"name":"DuckKey","steam_id":76561198904477889,"connected_time":4525000000000,"state":"active","ping":59},{"user_id":505,"name":"Stacks63bs","steam_id":76561198067797130,"connected_time":1308000000000,"state":"active","ping":75},{"user_id":509,"name":"nav","steam_id":76561198872608266,"connected_time":1205000000000,"state":"active","ping":83},{"user_id":508,"name":"Anthid","steam_id":76561198074493797,"connected_time":1270000000000,"state":"active","ping":71},{"user_id":483,"name":"Snom","steam_id":76561198333827920,"connected_time":3453000000000,"state":"active","ping":116},{"user_id":512,"name":"neeK","steam_id":76561198106571410,"connected_time":526000000000,"state":"active","ping":80}]},{"server_id":106,"name":"Uncletopia | Chicago | 2 | All Maps","name_short":"chi-2","host":"chi-1.us.uncletopia.com","port":27025,"enabled":true,"region":"us-central","cc":"us","latitude":41.881832,"longitude":-87.62318,"reserved":0,"last_update":"0001-01-01T00:00:00Z","name_a2s":"Uncletopia | Chicago | 2 | All Maps","protocol":17,"map":"cp_dustbowl","folder":"tf","game":"Team Fortress","app_id":440,"player_count":24,"max_players":24,"Bots":0,"server_type":"Dedicated","server_os":"Linux","password":true,"vac":true,"version":"7961495","steam_id":85568392924469985,"keywords":["cp","nocrits","nodmgspread","uncletopia"],"game_id":440,"stv_port":27026,"stv_name":"Uncletopia | Chicago | 2 | All Maps | STV","players":[{"user_id":437,"name":"Clean Lines","steam_id":76561197960691518,"connected_time":1170000000000,"state":"active","ping":52},{"user_id":442,"name":"pelt","steam_id":76561197993593754,"connected_time":778000000000,"state":"active","ping":51},{"user_id":450,"name":"KazmirlYT","steam_id":76561198116008410,"connected_time":215000000000,"state":"active","ping":106},{"user_id":378,"name":"cali","steam_id":76561198326822403,"connected_time":5069000000000,"state":"active","ping":60},{"user_id":417,"name":"Nate D","steam_id":76561197967933772,"connected_time":2828000000000,"state":"active","ping":66},{"user_id":383,"name":"femgineer?","steam_id":76561198894533615,"connected_time":4957000000000,"state":"active","ping":54},{"user_id":363,"name":"beats (16:38)","steam_id":76561199245717718,"connected_time":6346000000000,"state":"active","ping":53},{"user_id":428,"name":"KrashBoomBang","steam_id":76561199002978777,"connected_time":2080000000000,"state":"active","ping":61},{"user_id":438,"name":"Boyyo","steam_id":76561198043375471,"connected_time":1071000000000,"state":"active","ping":102},{"user_id":425,"name":"No_Dictators","steam_id":76561199065777321,"connected_time":2110000000000,"state":"active","ping":64},{"user_id":422,"name":"Australian Sniper Man","steam_id":76561199010541953,"connected_time":2244000000000,"state":"active","ping":43},{"user_id":445,"name":"GUH","steam_id":76561199013202758,"connected_time":451000000000,"state":"active","ping":84},{"user_id":447,"name":"three goblins in a trench coat","steam_id":76561199384263683,"connected_time":435000000000,"state":"active","ping":76},{"user_id":367,"name":"Brandino!","steam_id":76561198000446932,"connected_time":6306000000000,"state":"active","ping":70},{"user_id":412,"name":"wew","steam_id":76561198062608696,"connected_time":3325000000000,"state":"active","ping":61},{"user_id":439,"name":"Average Pinkerton Enjoyer","steam_id":76561199376462977,"connected_time":1028000000000,"state":"active","ping":96},{"user_id":448,"name":"Negreta 777","steam_id":76561199006087169,"connected_time":435000000000,"state":"active","ping":123},{"user_id":427,"name":"The one who knocks","steam_id":76561198863619592,"connected_time":2093000000000,"state":"active","ping":53},{"user_id":449,"name":"ono","steam_id":76561198024377986,"connected_time":420000000000,"state":"active","ping":85},{"user_id":451,"name":"motherfucker 2.0","steam_id":76561198141189209,"connected_time":208000000000,"state":"active","ping":60},{"user_id":452,"name":"dystopiafan53","steam_id":76561198193802523,"connected_time":208000000000,"state":"active","ping":133},{"user_id":369,"name":"john dunce fifteen","steam_id":76561198165299077,"connected_time":6270000000000,"state":"active","ping":69},{"user_id":441,"name":"TofuCat","steam_id":76561198416746118,"connected_time":932000000000,"state":"active","ping":69},{"user_id":420,"name":"I'm bad I know (controller)","steam_id":76561198058840477,"connected_time":2577000000000,"state":"active","ping":103}]},{"server_id":402,"name":"Uncletopia | Chicago | 3 | All Maps","name_short":"chi-3","host":"chi-1.us.uncletopia.com","port":27035,"enabled":true,"region":"us-central","cc":"us","latitude":41.881832,"longitude":-87.62318,"reserved":0,"last_update":"0001-01-01T00:00:00Z","name_a2s":"Uncletopia | Chicago | 3 | All Maps","protocol":17,"map":"pl_borneo","folder":"tf","game":"Team Fortress","app_id":440,"player_count":24,"max_players":24,"Bots":0,"server_type":"Dedicated","server_os":"Linux","password":true,"vac":true,"version":"7961495","steam_id":85568392924515191,"keywords":["nocrits","nodmgspread","payload","uncletopia"],"game_id":440,"stv_port":27036,"stv_name":"Uncletopia | Chicago | 3 | All Maps | STV","players":[{"user_id":451,"name":"Fredrick","steam_id":76561197981419964,"connected_time":364000000000,"state":"active","ping":51},{"user_id":455,"name":"El Duderino","steam_id":76561198084404539,"connected_time":61000000000,"state":"active","ping":78},{"user_id":415,"name":"comet sooicidy","steam_id":76561198025173479,"connected_time":2010000000000,"state":"active","ping":78},{"user_id":446,"name":"BarrowBaron","steam_id":76561198013633236,"connected_time":788000000000,"state":"active","ping":58},{"user_id":414,"name":"Wukey","steam_id":76561197969001266,"connected_time":2091000000000,"state":"active","ping":57},{"user_id":378,"name":"delight","steam_id":76561197980280272,"connected_time":4382000000000,"state":"active","ping":93},{"user_id":426,"name":"the sneeze of 87","steam_id":76561198062451648,"connected_time":1366000000000,"state":"active","ping":69},{"user_id":438,"name":"chen","steam_id":76561198064872330,"connected_time":973000000000,"state":"active","ping":87},{"user_id":449,"name":"Gheeotine","steam_id":76561198010181698,"connected_time":566000000000,"state":"active","ping":81},{"user_id":454,"name":"rf","steam_id":76561198195359229,"connected_time":173000000000,"state":"active","ping":89},{"user_id":450,"name":"IPlayGamez","steam_id":76561198041387508,"connected_time":445000000000,"state":"active","ping":66},{"user_id":419,"name":"Chuina","steam_id":76561198056871257,"connected_time":1968000000000,"state":"active","ping":70},{"user_id":452,"name":"Chloe","steam_id":76561199009068757,"connected_time":310000000000,"state":"active","ping":81},{"user_id":428,"name":"TheSnipersHat","steam_id":76561198057684066,"connected_time":1362000000000,"state":"active","ping":60},{"user_id":448,"name":"H0wlr","steam_id":76561198012332824,"connected_time":612000000000,"state":"active","ping":60},{"user_id":444,"name":"gages","steam_id":76561198350747953,"connected_time":826000000000,"state":"active","ping":60},{"user_id":379,"name":"serendipity","steam_id":76561198095087127,"connected_time":4378000000000,"state":"active","ping":57},{"user_id":424,"name":"hyazz","steam_id":76561199100342013,"connected_time":1402000000000,"state":"active","ping":103},{"user_id":441,"name":"Dim","steam_id":76561198061411324,"connected_time":885000000000,"state":"active","ping":73},{"user_id":445,"name":"daemon","steam_id":76561198001541433,"connected_time":817000000000,"state":"active","ping":60},{"user_id":435,"name":"Godmode","steam_id":76561198076240365,"connected_time":998000000000,"state":"active","ping":67},{"user_id":447,"name":"frank","steam_id":76561198137777483,"connected_time":775000000000,"state":"active","ping":73},{"user_id":436,"name":"ya ya breathe","steam_id":76561198075858067,"connected_time":996000000000,"state":"active","ping":66},{"user_id":437,"name":"Kitt(eh)  ‚àë:3","steam_id":76561198110858518,"connected_time":988000000000,"state":"active","ping":60}]},{"server_id":403,"name":"Uncletopia | Chicago | 4 | All Maps","name_short":"chi-4","host":"chi-1.us.uncletopia.com","port":27045,"enabled":true,"region":"us-central","cc":"us","latitude":41.881832,"longitude":-87.62318,"reserved":0,"last_update":"0001-01-01T00:00:00Z","name_a2s":"Uncletopia | Chicago | 4 | All Maps","protocol":17,"map":"ctf_2fort","folder":"tf","game":"Team Fortress","app_id":440,"player_count":23,"max_players":24,"Bots":0,"server_type":"Dedicated","server_os":"Linux","password":true,"vac":true,"version":"7961495","steam_id":85568392924515193,"keywords":["ctf","nocrits","nodmgspread","uncletopia"],"game_id":440,"stv_port":27046,"stv_name":"Uncletopia | Chicago | 4 | All Maps | STV","players":[{"user_id":296,"name":"movement is a channel","steam_id":76561198086406706,"connected_time":593000000000,"state":"active","ping":44},{"user_id":313,"name":"Mediocre Gaming","steam_id":76561199230467980,"connected_time":145000000000,"state":"active","ping":49},{"user_id":298,"name":"The_atom_bomb","steam_id":76561198139944683,"connected_time":578000000000,"state":"active","ping":57},{"user_id":307,"name":"METH WIZARD","steam_id":76561198873016210,"connected_time":357000000000,"state":"active","ping":65},{"user_id":232,"name":"On The Bright Side...","steam_id":76561198168785883,"connected_time":4342000000000,"state":"active","ping":47},{"user_id":291,"name":"Farmer Ron","steam_id":76561198862902851,"connected_time":1037000000000,"state":"active","ping":83},{"user_id":308,"name":"FrostStorm","steam_id":76561198142685151,"connected_time":347000000000,"state":"active","ping":52},{"user_id":282,"name":"HollowMajin","steam_id":76561198122399227,"connected_time":1266000000000,"state":"active","ping":59},{"user_id":247,"name":"OldRavensFan","steam_id":76561198043919562,"connected_time":2773000000000,"state":"active","ping":60},{"user_id":283,"name":"Rx Auntie","steam_id":76561198051618393,"connected_time":1264000000000,"state":"active","ping":73},{"user_id":286,"name":"zephyr","steam_id":76561198436431109,"connected_time":1204000000000,"state":"active","ping":99},{"user_id":275,"name":"Toast","steam_id":76561198401995265,"connected_time":1503000000000,"state":"active","ping":57},{"user_id":293,"name":"Ginsai","steam_id":76561198107797443,"connected_time":827000000000,"state":"active","ping":66},{"user_id":315,"name":"Bagel","steam_id":76561198167747447,"connected_time":53000000000,"state":"active","ping":67},{"user_id":300,"name":"yeetyfreety","steam_id":76561198882735886,"connected_time":556000000000,"state":"active","ping":60},{"user_id":309,"name":"Rin","steam_id":76561198132096559,"connected_time":327000000000,"state":"active","ping":75},{"user_id":294,"name":"crazy german","steam_id":76561199046667189,"connected_time":804000000000,"state":"active","ping":57},{"user_id":306,"name":"Trimpin' Jimmy","steam_id":76561198004759689,"connected_time":408000000000,"state":"active","ping":60},{"user_id":287,"name":"Love Being an Owl","steam_id":76561198293422282,"connected_time":1165000000000,"state":"active","ping":81},{"user_id":302,"name":"Magik","steam_id":76561198099726660,"connected_time":541000000000,"state":"active","ping":100},{"user_id":289,"name":"The Guy","steam_id":76561198072026302,"connected_time":1098000000000,"state":"active","ping":60},{"user_id":303,"name":"IlikeChowMien","steam_id":76561199466131782,"connected_time":526000000000,"state":"active","ping":74},{"user_id":310,"name":"Goob Oy","steam_id":76561198889932456,"connected_time":304000000000,"state":"active","ping":58}]},{"server_id":36,"name":"Uncletopia | Chicago | 5 | All Maps","name_short":"chi-5","host":"chi-2.us.uncletopia.com","port":27015,"enabled":true,"region":"us-central","cc":"us","latitude":41.881832,"longitude":-87.62318,"reserved":0,"last_update":"0001-01-01T00:00:00Z","name_a2s":"Uncletopia | Chicago | 5 | All Maps","protocol":17,"map":"pl_borneo","folder":"tf","game":"Team Fortress","app_id":440,"player_count":24,"max_players":24,"Bots":0,"server_type":"Dedicated","server_os":"Linux","password":true,"vac":true,"version":"7961495","steam_id":85568392924866362,"keywords":["nocrits","nodmgspread","payload","uncletopia"],"game_id":440,"stv_port":27016,"stv_name":"Uncletopia | Chicago | 5 | All Maps | STV","players":[{"user_id":558,"name":"lil' Wayne","steam_id":76561198050136796,"connected_time":2464000000000,"state":"active","ping":77},{"user_id":559,"name":"ark","steam_id":76561198041066271,"connected_time":2457000000000,"state":"active","ping":90},{"user_id":594,"name":"Kasane","steam_id":76561198209006780,"connected_time":63000000000,"state":"active","ping":67},{"user_id":504,"name":"Master Of Whales","steam_id":76561198349104889,"connected_time":5074000000000,"state":"active","ping":104},{"user_id":583,"name":"Solreaper34","steam_id":76561198391271782,"connected_time":717000000000,"state":"active","ping":96},{"user_id":574,"name":"Mentally Ill Woman","steam_id":76561198072030567,"connected_time":1415000000000,"state":"active","ping":46},{"user_id":592,"name":"wise","steam_id":76561198030066204,"connected_time":361000000000,"state":"active","ping":59},{"user_id":588,"name":"Vegerot","steam_id":76561197997843710,"connected_time":555000000000,"state":"active","ping":61},{"user_id":593,"name":"Reiner","steam_id":76561199201762178,"connected_time":81000000000,"state":"active","ping":61},{"user_id":507,"name":"TheHumanTaco119","steam_id":76561198996107520,"connected_time":5012000000000,"state":"active","ping":105},{"user_id":589,"name":"-W3E- grim10465","steam_id":76561198045698581,"connected_time":548000000000,"state":"active","ping":49},{"user_id":565,"name":"canakblasteran","steam_id":76561199472518822,"connected_time":2368000000000,"state":"active","ping":98},{"user_id":562,"name":"ultrapuffs","steam_id":76561198023463293,"connected_time":2392000000000,"state":"active","ping":48},{"user_id":590,"name":"Spy","steam_id":76561199498988144,"connected_time":491000000000,"state":"active","ping":81},{"user_id":591,"name":"SicknTired","steam_id":76561198038829714,"connected_time":487000000000,"state":"active","ping":92},{"user_id":499,"name":"HollyBlocky","steam_id":76561198030156100,"connected_time":5433000000000,"state":"active","ping":75},{"user_id":551,"name":"DUKE","steam_id":76561199058944087,"connected_time":3233000000000,"state":"active","ping":104},{"user_id":586,"name":"Dirtbike rider","steam_id":76561198030457066,"connected_time":637000000000,"state":"active","ping":76},{"user_id":582,"name":"Orb","steam_id":76561198353963523,"connected_time":896000000000,"state":"active","ping":77},{"user_id":587,"name":"Frontier Psychiatrist","steam_id":76561198038689088,"connected_time":623000000000,"state":"active","ping":77},{"user_id":553,"name":"The Soup","steam_id":76561198156746320,"connected_time":3067000000000,"state":"active","ping":49},{"user_id":555,"name":"Juanelo","steam_id":76561199096390505,"connected_time":3062000000000,"state":"active","ping":80},{"user_id":577,"name":"Mint Jelly","steam_id":76561197991286751,"connected_time":1398000000000,"state":"active","ping":50},{"user_id":550,"name":"KRUSHER","steam_id":76561198072157019,"connected_time":3261000000000,"state":"active","ping":88}]},{"server_id":37,"name":"Uncletopia | Chicago | 6 | All Maps","name_short":"chi-6","host":"chi-2.us.uncletopia.com","port":27025,"enabled":true,"region":"us-central","cc":"us","latitude":41.881832,"longitude":-87.62318,"reserved":0,"last_update":"0001-01-01T00:00:00Z","name_a2s":"Uncletopia | Chicago | 6 | All Maps","protocol":17,"map":"pl_upward","folder":"tf","game":"Team Fortress","app_id":440,"player_count":24,"max_players":24,"Bots":0,"server_type":"Dedicated","server_os":"Linux","password":true,"vac":true,"version":"7961495","steam_id":85568392924866363,"keywords":["nocrits","nodmgspread","payload","uncletopia"],"game_id":440,"stv_port":27026,"stv_name":"Uncletopia | Chicago | 6 | All Maps | STV","players":[{"user_id":669,"name":"fusioN","steam_id":76561198079179612,"connected_time":3269000000000,"state":"active","ping":60},{"user_id":714,"name":"gnome zone","steam_id":76561198883349445,"connected_time":275000000000,"state":"active","ping":103},{"user_id":658,"name":"Lunchboxx","steam_id":76561198079735916,"connected_time":4289000000000,"state":"active","ping":51},{"user_id":703,"name":"Gotta Move That Gear Up","steam_id":76561197993467034,"connected_time":875000000000,"state":"active","ping":56},{"user_id":719,"name":"wheresgeorge","steam_id":76561198986281248,"connected_time":22000000000,"state":"active","ping":246},{"user_id":702,"name":"FastestPizzaNA","steam_id":76561198050008896,"connected_time":955000000000,"state":"active","ping":71},{"user_id":694,"name":"peyton","steam_id":76561198219815228,"connected_time":1303000000000,"state":"active","ping":60},{"user_id":689,"name":"LocaKola","steam_id":76561198173435430,"connected_time":1609000000000,"state":"active","ping":65},{"user_id":704,"name":"leumas","steam_id":76561198240408540,"connected_time":744000000000,"state":"active","ping":82},{"user_id":708,"name":"D(b) Hell","steam_id":76561198067869016,"connected_time":549000000000,"state":"active","ping":45},{"user_id":710,"name":"Novu","steam_id":76561198886997024,"connected_time":473000000000,"state":"active","ping":81},{"user_id":716,"name":"Max_Attack","steam_id":76561198944028607,"connected_time":237000000000,"state":"active","ping":58},{"user_id":706,"name":"rynz500","steam_id":76561198043872361,"connected_time":668000000000,"state":"active","ping":80},{"user_id":697,"name":"PageBoiSkull","steam_id":76561198237353578,"connected_time":1216000000000,"state":"active","ping":107},{"user_id":715,"name":"(√î)√î)Wandering Singer(√î(√î)","steam_id":76561198126477141,"connected_time":272000000000,"state":"active","ping":65},{"user_id":605,"name":"Emerald_Knight","steam_id":76561198067372868,"connected_time":7863000000000,"state":"active","ping":48},{"user_id":700,"name":"Schizoid Despot","steam_id":76561198141902905,"connected_time":1154000000000,"state":"active","ping":52},{"user_id":682,"name":"exa*‚ú©‚Äß‚ÇäÀö","steam_id":76561198044511912,"connected_time":2434000000000,"state":"active","ping":96},{"user_id":707,"name":"Onion My Ate Dog My","steam_id":76561198155848925,"connected_time":627000000000,"state":"active","ping":67},{"user_id":670,"name":"Smartchicken","steam_id":76561198037744517,"connected_time":3033000000000,"state":"active","ping":73},{"user_id":717,"name":"deadpixel","steam_id":76561198150249843,"connected_time":144000000000,"state":"active","ping":60},{"user_id":698,"name":"woof","steam_id":76561198016562343,"connected_time":1209000000000,"state":"active","ping":61},{"user_id":718,"name":"Gliglamesh","steam_id":76561198058221449,"connected_time":124000000000,"state":"active","ping":64},{"user_id":709,"name":"Tony Slark","steam_id":76561198151256410,"connected_time":476000000000,"state":"active","ping":143}]},{"server_id":38,"name":"Uncletopia | Chicago | 7 | Stopwatch","name_short":"chi-7","host":"chi-2.us.uncletopia.com","port":27035,"enabled":true,"region":"us-central","cc":"us","latitude":41.881832,"longitude":-87.62318,"reserved":0,"last_update":"0001-01-01T00:00:00Z","name_a2s":"Uncletopia | Chicago | 7 | Stopwatch","protocol":17,"map":"workshop/koth_bagel_rc6.ugc2514036946","folder":"tf","game":"Team Fortress","app_id":440,"player_count":0,"max_players":24,"Bots":0,"server_type":"Dedicated","server_os":"Linux","password":true,"vac":true,"version":"7961495","steam_id":85568392924866364,"keywords":["cp","nocrits","nodmgspread","uncletopia"],"game_id":440,"stv_port":27036,"stv_name":"Uncletopia | Chicago | 7 | Stopwatch | STV","players":null},{"server_id":39,"name":"Uncletopia | Chicago | 8 | Community","name_short":"chi-8","host":"chi-2.us.uncletopia.com","port":27045,"enabled":true,"region":"us-central","cc":"us","latitude":41.881832,"longitude":-87.62318,"reserved":0,"last_update":"0001-01-01T00:00:00Z","name_a2s":"Uncletopia | Chicago | 8 | Community","protocol":17,"map":"workshop/cp_overgrown_rc8.ugc503939302","folder":"tf","game":"Team Fortress","app_id":440,"player_count":6,"max_players":24,"Bots":0,"server_type":"Dedicated","server_os":"Linux","password":true,"vac":true,"version":"7961495","steam_id":85568392924866365,"keywords":["cp","nocrits","nodmgspread","uncletopia"],"game_id":440,"stv_port":27046,"stv_name":"Uncletopia | Chicago | 8 | Community | STV","players":[{"user_id":151,"name":"Waos","steam_id":76561198329179651,"connected_time":1520000000000,"state":"active","ping":103},{"user_id":163,"name":"Lane","steam_id":76561197965828506,"connected_time":103000000000,"state":"active","ping":33},{"user_id":124,"name":"MrPeanutBetter","steam_id":76561199149697526,"connected_time":2564000000000,"state":"active","ping":90},{"user_id":142,"name":"crimmson","steam_id":76561198416325300,"connected_time":1658000000000,"state":"active","ping":88},{"user_id":139,"name":"El Bondin","steam_id":76561198820792434,"connected_time":1793000000000,"state":"active","ping":96},{"user_id":20,"name":"bin atlas from atlas","steam_id":76561198075089009,"connected_time":10781000000000,"state":"active","ping":109}]},{"server_id":8,"name":"Uncletopia | Dallas | 1 | All Maps","name_short":"dal-1","host":"dal-1.us.uncletopia.com","port":27015,"enabled":true,"region":"us-central","cc":"us","latitude":32.779167,"longitude":-96.80889,"reserved":0,"last_update":"0001-01-01T00:00:00Z","name_a2s":"Uncletopia | Dallas | 1 | All Maps","protocol":17,"map":"pl_frontier_final","folder":"tf","game":"Team Fortress","app_id":440,"player_count":24,"max_players":24,"Bots":0,"server_type":"Dedicated","server_os":"Linux","password":true,"vac":true,"version":"7961495","steam_id":85568392924469986,"keywords":["nocrits","nodmgspread","payload","uncletopia"],"game_id":440,"stv_port":27016,"stv_name":"Uncletopia | Dallas | 1 | All Maps | STV","players":[{"user_id":298,"name":"SkadooshPlayz","steam_id":76561198310986662,"connected_time":2445000000000,"state":"active","ping":97},{"user_id":322,"name":"bcizzo","steam_id":76561197994399953,"connected_time":426000000000,"state":"active","ping":87},{"user_id":277,"name":"I AM A STURGEON üêüüêüüêü","steam_id":76561198119536224,"connected_time":4113000000000,"state":"active","ping":83},{"user_id":281,"name":"CeLeb144","steam_id":76561199089907740,"connected_time":3937000000000,"state":"active","ping":54},{"user_id":318,"name":"An Engineer","steam_id":76561198110381643,"connected_time":510000000000,"state":"active","ping":46},{"user_id":240,"name":"plink","steam_id":76561198057829889,"connected_time":6149000000000,"state":"active","ping":61},{"user_id":315,"name":"sprite in the bong","steam_id":76561198233984300,"connected_time":724000000000,"state":"active","ping":75},{"user_id":282,"name":"Amish Robot","steam_id":76561198041156065,"connected_time":3931000000000,"state":"active","ping":52},{"user_id":310,"name":"samsoeder","steam_id":76561198293741183,"connected_time":1943000000000,"state":"active","ping":110},{"user_id":317,"name":"FanaticSalt","steam_id":76561199380123059,"connected_time":567000000000,"state":"active","ping":36},{"user_id":289,"name":"Larry Gooseman","steam_id":76561198018696922,"connected_time":3301000000000,"state":"active","ping":80},{"user_id":323,"name":"Doctor What?","steam_id":76561198300147761,"connected_time":304000000000,"state":"active","ping":56},{"user_id":271,"name":"trainmarine -bt","steam_id":76561198341784551,"connected_time":4476000000000,"state":"active","ping":60},{"user_id":288,"name":"Monte","steam_id":76561198097499917,"connected_time":3551000000000,"state":"active","ping":75},{"user_id":316,"name":"Pearez","steam_id":76561198158141878,"connected_time":723000000000,"state":"active","ping":71},{"user_id":320,"name":"Lulee","steam_id":76561198044410549,"connected_time":478000000000,"state":"active","ping":66},{"user_id":324,"name":"Sir Jangle","steam_id":76561198038142389,"connected_time":208000000000,"state":"active","ping":55},{"user_id":313,"name":"jg125","steam_id":76561198824953530,"connected_time":1711000000000,"state":"active","ping":178},{"user_id":286,"name":"Derblitz","steam_id":76561198040953176,"connected_time":3889000000000,"state":"active","ping":80},{"user_id":301,"name":"magnoly","steam_id":76561199228865188,"connected_time":2038000000000,"state":"active","ping":51},{"user_id":292,"name":"otwtomarsoffdabars(spacecore)","steam_id":76561199085974120,"connected_time":3042000000000,"state":"active","ping":95},{"user_id":306,"name":"BB Lorexav","steam_id":76561198207565988,"connected_time":1984000000000,"state":"active","ping":81},{"user_id":295,"name":"PhaserLazer","steam_id":76561198407341298,"connected_time":2611000000000,"state":"active","ping":45},{"user_id":308,"name":"Bheem","steam_id":76561198170453459,"connected_time":1962000000000,"state":"active","ping":103}]},{"server_id":108,"name":"Uncletopia | Dallas | 2 | All Maps","name_short":"dal-2","host":"dal-1.us.uncletopia.com","port":27025,"enabled":true,"region":"us-central","cc":"us","latitude":32.779167,"longitude":-96.80889,"reserved":0,"last_update":"0001-01-01T00:00:00Z","name_a2s":"Uncletopia | Dallas | 2 | All Maps","protocol":17,"map":"cp_mountainlab","folder":"tf","game":"Team Fortress","app_id":440,"player_count":24,"max_players":24,"Bots":0,"server_type":"Dedicated","server_os":"Linux","password":true,"vac":true,"version":"7961495","steam_id":85568392924469988,"keywords":["cp","nocrits","nodmgspread","uncletopia"],"game_id":440,"stv_port":27026,"stv_name":"Uncletopia | Dallas | 2 | All Maps | STV","players":[{"user_id":420,"name":"Cxxrupt","steam_id":76561198343510062,"connected_time":284000000000,"state":"active","ping":126},{"user_id":344,"name":"MenInHatz","steam_id":76561198825094263,"connected_time":5228000000000,"state":"active","ping":67},{"user_id":414,"name":"rhsiegetank","steam_id":76561198359829118,"connected_time":737000000000,"state":"active","ping":88},{"user_id":409,"name":"IHateThisMap","steam_id":76561197980597646,"connected_time":1052000000000,"state":"active","ping":73},{"user_id":398,"name":"Bowl of Cereal Gaming","steam_id":76561199042252292,"connected_time":2028000000000,"state":"active","ping":74},{"user_id":395,"name":"Bullwinkle J. Moose","steam_id":76561198075977196,"connected_time":2444000000000,"state":"active","ping":100},{"user_id":408,"name":"Zetta","steam_id":76561198045710113,"connected_time":1186000000000,"state":"active","ping":89},{"user_id":376,"name":"The Notorious RBG","steam_id":76561198014275148,"connected_time":3719000000000,"state":"active","ping":89},{"user_id":421,"name":"local tetanus dealer","steam_id":76561198159585474,"connected_time":216000000000,"state":"active","ping":90},{"user_id":410,"name":"meursault","steam_id":76561198151071386,"connected_time":1035000000000,"state":"active","ping":91},{"user_id":415,"name":"DeColdest ToEvaDoit Crawford","steam_id":76561198205346760,"connected_time":710000000000,"state":"active","ping":73},{"user_id":416,"name":"Laurbler","steam_id":76561198132094572,"connected_time":642000000000,"state":"active","ping":46},{"user_id":337,"name":"Thunder","steam_id":76561198097721532,"connected_time":5545000000000,"state":"active","ping":85},{"user_id":393,"name":"radicalPolio","steam_id":76561197961561855,"connected_time":2711000000000,"state":"active","ping":45},{"user_id":391,"name":"Smug","steam_id":76561198448205229,"connected_time":3037000000000,"state":"active","ping":62},{"user_id":402,"name":"mkl","steam_id":76561197986401685,"connected_time":1890000000000,"state":"active","ping":60},{"user_id":379,"name":"Average GHOST (Vocaloid) Listen","steam_id":76561199471951160,"connected_time":3653000000000,"state":"active","ping":52},{"user_id":401,"name":"kyrgyzstan3","steam_id":76561198207940136,"connected_time":1994000000000,"state":"active","ping":57},{"user_id":390,"name":"shinon","steam_id":76561198373626848,"connected_time":3071000000000,"state":"active","ping":89},{"user_id":406,"name":"JustAnotherHuman","steam_id":76561199018122924,"connected_time":1752000000000,"state":"active","ping":116},{"user_id":413,"name":"oncologist","steam_id":76561197997321386,"connected_time":802000000000,"state":"active","ping":58},{"user_id":412,"name":"Tea Leaf","steam_id":76561198123549027,"connected_time":958000000000,"state":"active","ping":63},{"user_id":418,"name":"cavelife","steam_id":76561198091369097,"connected_time":580000000000,"state":"active","ping":89},{"user_id":392,"name":"Broadsword #LGM","steam_id":76561198011160411,"connected_time":3011000000000,"state":"active","ping":89}]},{"server_id":404,"name":"Uncletopia | Dallas | 3 | All Maps","name_short":"dal-3","host":"dal-1.us.uncletopia.com","port":27035,"enabled":true,"region":"us-central","cc":"us","latitude":32.779167,"longitude":-96.80889,"reserved":0,"last_update":"0001-01-01T00:00:00Z","name_a2s":"Uncletopia | Dallas | 3 | All Maps","protocol":17,"map":"koth_highpass","folder":"tf","game":"Team Fortress","app_id":440,"player_count":0,"max_players":24,"Bots":0,"server_type":"Dedicated","server_os":"Linux","password":true,"vac":true,"version":"7961495","steam_id":85568392924515219,"keywords":["cp","nocrits","nodmgspread","uncletopia"],"game_id":440,"stv_port":27036,"stv_name":"Uncletopia | Dallas | 3 | All Maps | STV","players":null},{"server_id":405,"name":"Uncletopia | Dallas | 4 | Community","name_short":"dal-4","host":"dal-1.us.uncletopia.com","port":27045,"enabled":true,"region":"us-central","cc":"us","latitude":32.779167,"longitude":-96.80889,"reserved":0,"last_update":"0001-01-01T00:00:00Z","name_a2s":"Uncletopia | Dallas | 4 | Community","protocol":17,"map":"workshop/koth_synthetic_rc6a.ugc1549817316","folder":"tf","game":"Team Fortress","app_id":440,"player_count":0,"max_players":24,"Bots":0,"server_type":"Dedicated","server_os":"Linux","password":true,"vac":true,"version":"7961495","steam_id":85568392924515220,"keywords":["cp","nocrits","nodmgspread","uncletopia"],"game_id":440,"stv_port":27046,"stv_name":"Uncletopia | Dallas | 4 | Community | STV","players":null},{"server_id":5,"name":"Uncletopia | Frankfurt | 1 | All Maps","name_short":"frk-1","host":"frk-1.de.uncletopia.com","port":27015,"enabled":true,"region":"eu","cc":"de","latitude":50.110924,"longitude":8.682127,"reserved":0,"last_update":"0001-01-01T00:00:00Z","name_a2s":"Uncletopia | Frankfurt | 1 | All Maps","protocol":17,"map":"pl_borneo","folder":"tf","game":"Team Fortress","app_id":440,"player_count":0,"max_players":24,"Bots":0,"server_type":"Dedicated","server_os":"Linux","password":true,"vac":true,"version":"7961495","steam_id":85568392924469989,"keywords":["nocrits","nodmgspread","payload","uncletopia"],"game_id":440,"stv_port":27016,"stv_name":"Uncletopia | Frankfurt | 1 | All Maps | STV","players":null},{"server_id":110,"name":"Uncletopia | Frankfurt | 2 | All Maps","name_short":"frk-2","host":"frk-1.de.uncletopia.com","port":27025,"enabled":true,"region":"eu","cc":"de","latitude":50.110924,"longitude":8.682127,"reserved":0,"last_update":"0001-01-01T00:00:00Z","name_a2s":"Uncletopia | Frankfurt | 2 | All Maps","protocol":17,"map":"koth_viaduct","folder":"tf","game":"Team Fortress","app_id":440,"player_count":0,"max_players":24,"Bots":0,"server_type":"Dedicated","server_os":"Linux","password":true,"vac":true,"version":"7961495","steam_id":85568392924469990,"keywords":["cp","nocrits","nodmgspread","uncletopia"],"game_id":440,"stv_port":27026,"stv_name":"Uncletopia | Frankfurt | 2 | All Maps | STV","players":null},{"server_id":308,"name":"Uncletopia | Frankfurt | 3 | All Maps","name_short":"frk-3","host":"frk-1.de.uncletopia.com","port":27035,"enabled":true,"region":"eu","cc":"de","latitude":50.110924,"longitude":8.682127,"reserved":0,"last_update":"0001-01-01T00:00:00Z","name_a2s":"Uncletopia | Frankfurt | 3 | All Maps","protocol":17,"map":"koth_cascade","folder":"tf","game":"Team Fortress","app_id":440,"player_count":0,"max_players":24,"Bots":0,"server_type":"Dedicated","server_os":"Linux","password":true,"vac":true,"version":"7961495","steam_id":85568392924504274,"keywords":["cp","nocrits","nodmgspread","uncletopia"],"game_id":440,"stv_port":27036,"stv_name":"Uncletopia | Frankfurt | 3 | All Maps | STV","players":null},{"server_id":309,"name":"Uncletopia | Frankfurt | 4 | All Maps","name_short":"frk-4","host":"frk-1.de.uncletopia.com","port":27045,"enabled":true,"region":"eu","cc":"de","latitude":50.110924,"longitude":8.682127,"reserved":0,"last_update":"0001-01-01T00:00:00Z","name_a2s":"Uncletopia | Frankfurt | 4 | All Maps","protocol":17,"map":"cp_sunshine","folder":"tf","game":"Team Fortress","app_id":440,"player_count":0,"max_players":24,"Bots":0,"server_type":"Dedicated","server_os":"Linux","password":true,"vac":true,"version":"7961495","steam_id":85568392924504275,"keywords":["cp","nocrits","nodmgspread","uncletopia"],"game_id":440,"stv_port":27046,"stv_name":"Uncletopia | Frankfurt | 4 | All Maps | STV","players":null},{"server_id":310,"name":"Uncletopia | Frankfurt | 5 | All Maps","name_short":"frk-5","host":"frk-1.de.uncletopia.com","port":27055,"enabled":true,"region":"eu","cc":"de","latitude":50.110924,"longitude":8.682127,"reserved":0,"last_update":"0001-01-01T00:00:00Z","name_a2s":"Uncletopia | Frankfurt | 5 | All Maps","protocol":17,"map":"koth_cascade","folder":"tf","game":"Team Fortress","app_id":440,"player_count":0,"max_players":24,"Bots":0,"server_type":"Dedicated","server_os":"Linux","password":true,"vac":true,"version":"7961495","steam_id":85568392924504277,"keywords":["cp","nocrits","nodmgspread","uncletopia"],"game_id":440,"stv_port":27056,"stv_name":"Uncletopia | Frankfurt | 5 | All Maps | STV","players":null},{"server_id":311,"name":"Uncletopia | Frankfurt | 6 | All Maps","name_short":"frk-6","host":"frk-1.de.uncletopia.com","port":27065,"enabled":true,"region":"eu","cc":"de","latitude":50.110924,"longitude":8.682127,"reserved":0,"last_update":"0001-01-01T00:00:00Z","name_a2s":"Uncletopia | Frankfurt | 6 | All Maps","protocol":17,"map":"pl_swiftwater_final1","folder":"tf","game":"Team Fortress","app_id":440,"player_count":24,"max_players":24,"Bots":0,"server_type":"Dedicated","server_os":"Linux","password":true,"vac":true,"version":"7961495","steam_id":85568392924504278,"keywords":["nocrits","nodmgspread","payload","uncletopia"],"game_id":440,"stv_port":27066,"stv_name":"Uncletopia | Frankfurt | 6 | All Maps | STV","players":[{"user_id":441,"name":"bryophyta","steam_id":76561197968945306,"connected_time":1321000000000,"state":"active","ping":75},{"user_id":458,"name":"George W Bush","steam_id":76561198846784757,"connected_time":185000000000,"state":"active","ping":55},{"user_id":463,"name":"WEEP","steam_id":76561199499933159,"connected_time":158000000000,"state":"active","ping":85},{"user_id":438,"name":"heuji","steam_id":76561197971067828,"connected_time":1370000000000,"state":"active","ping":64},{"user_id":436,"name":"tealoverr.190","steam_id":76561199028497703,"connected_time":1692000000000,"state":"active","ping":102},{"user_id":459,"name":"Springfield Crack","steam_id":76561198044818161,"connected_time":185000000000,"state":"active","ping":91},{"user_id":455,"name":"Doctor Rudy G. Numpad","steam_id":76561198440881106,"connected_time":469000000000,"state":"active","ping":56},{"user_id":451,"name":"ŒìŒ±œÑŒØ","steam_id":76561198347020945,"connected_time":1013000000000,"state":"active","ping":82},{"user_id":440,"name":"Krefa12","steam_id":76561198268375393,"connected_time":1349000000000,"state":"active","ping":79},{"user_id":387,"name":"CumbustiblePunda","steam_id":76561197974274677,"connected_time":5528000000000,"state":"active","ping":50},{"user_id":409,"name":"meriones","steam_id":76561198034234373,"connected_time":4298000000000,"state":"active","ping":54},{"user_id":444,"name":"Ephix","steam_id":76561197977164055,"connected_time":1246000000000,"state":"active","ping":45},{"user_id":445,"name":"habibi69","steam_id":76561198141989573,"connected_time":1237000000000,"state":"active","ping":68},{"user_id":465,"name":"Aivan-Heller","steam_id":76561198974568787,"connected_time":51000000000,"state":"active","ping":99},{"user_id":453,"name":"tomydjoh","steam_id":76561198077421906,"connected_time":987000000000,"state":"active","ping":50},{"user_id":464,"name":"compact disc","steam_id":76561198154677956,"connected_time":139000000000,"state":"active","ping":56},{"user_id":446,"name":"Anzu","steam_id":76561198043953503,"connected_time":1214000000000,"state":"active","ping":71},{"user_id":431,"name":"Junkrat simp","steam_id":76561198134378108,"connected_time":2294000000000,"state":"active","ping":65},{"user_id":457,"name":"Furious_Coder cashingout Qs!","steam_id":76561198146046621,"connected_time":198000000000,"state":"active","ping":104},{"user_id":404,"name":"Snowmotion","steam_id":76561198075022454,"connected_time":4539000000000,"state":"active","ping":40},{"user_id":448,"name":"Skaza","steam_id":76561198010292540,"connected_time":1159000000000,"state":"active","ping":64},{"user_id":449,"name":"Przemomalin","steam_id":76561197987528170,"connected_time":1137000000000,"state":"active","ping":68},{"user_id":460,"name":"Ó∫†","steam_id":76561198028275091,"connected_time":184000000000,"state":"active","ping":67},{"user_id":411,"name":"Oaky Leaf","steam_id":76561198162821920,"connected_time":4252000000000,"state":"active","ping":80}]},{"server_id":23,"name":"Uncletopia | Frankfurt | 7 | Stopwatch","name_short":"frk-7","host":"frk-1.de.uncletopia.com","port":27075,"enabled":true,"region":"eu","cc":"de","latitude":50.110924,"longitude":8.682127,"reserved":0,"last_update":"0001-01-01T00:00:00Z","name_a2s":"Uncletopia | Frankfurt | 7 | Stopwatch","protocol":17,"map":"cp_metalworks","folder":"tf","game":"Team Fortress","app_id":440,"player_count":0,"max_players":24,"Bots":0,"server_type":"Dedicated","server_os":"Linux","password":true,"vac":true,"version":"7961495","steam_id":85568392924742827,"keywords":["cp","nocrits","nodmgspread","uncletopia"],"game_id":440,"stv_port":27076,"stv_name":"Uncletopia | Frankfurt | 7 | Stopwatch | STV","players":null},{"server_id":24,"name":"Uncletopia | Frankfurt | 8 | Community","name_short":"frk-8","host":"frk-1.de.uncletopia.com","port":27085,"enabled":true,"region":"eu","cc":"de","latitude":50.110924,"longitude":8.682127,"reserved":0,"last_update":"0001-01-01T00:00:00Z","name_a2s":"Uncletopia | Frankfurt | 8 | Community","protocol":17,"map":"workshop/koth_synthetic_rc6a.ugc1549817316","folder":"tf","game":"Team Fortress","app_id":440,"player_count":0,"max_players":24,"Bots":0,"server_type":"Dedicated","server_os":"Linux","password":true,"vac":true,"version":"7961495","steam_id":85568392924742828,"keywords":["cp","nocrits","nodmgspread","uncletopia"],"game_id":440,"stv_port":27086,"stv_name":"Uncletopia | Frankfurt | 8 | Community | STV","players":null},{"server_id":202,"name":"Uncletopia | Hong Kong | 1 | All Maps","name_short":"hgk-1","host":"hgk-1.hk.uncletopia.com","port":27015,"enabled":true,"region":"asia","cc":"hk","latitude":22.302711,"longitude":114.177216,"reserved":0,"last_update":"0001-01-01T00:00:00Z","name_a2s":"Uncletopia | Hong Kong | 1 | All Maps","protocol":17,"map":"pl_upward","folder":"tf","game":"Team Fortress","app_id":440,"player_count":0,"max_players":24,"Bots":0,"server_type":"Dedicated","server_os":"Linux","password":true,"vac":true,"version":"7961495","steam_id":85568392924494504,"keywords":["nocrits","nodmgspread","payload","uncletopia"],"game_id":440,"stv_port":27016,"stv_name":"Uncletopia | Hong Kong | 1 | All Maps | STV","players":null},{"server_id":1,"name":"Uncletopia | Los Angeles | 1 | All Maps","name_short":"lax-1","host":"lax-1.us.uncletopia.com","port":27015,"enabled":true,"region":"us-west","cc":"us","latitude":33.94279,"longitude":-118.41004,"reserved":0,"last_update":"0001-01-01T00:00:00Z","name_a2s":"Uncletopia | Los Angeles | 1 | All Maps","protocol":17,"map":"cp_altitude","folder":"tf","game":"Team Fortress","app_id":440,"player_count":0,"max_players":24,"Bots":0,"server_type":"Dedicated","server_os":"Linux","password":true,"vac":true,"version":"7961495","steam_id":85568392924469991,"keywords":["cp","nocrits","nodmgspread","uncletopia"],"game_id":440,"stv_port":27016,"stv_name":"Uncletopia | Los Angeles | 1 | All Maps | STV","players":null},{"server_id":112,"name":"Uncletopia | Los Angeles | 2 | All Maps","name_short":"lax-2","host":"lax-1.us.uncletopia.com","port":27025,"enabled":true,"region":"us-west","cc":"us","latitude":33.94279,"longitude":-118.41004,"reserved":0,"last_update":"0001-01-01T00:00:00Z","name_a2s":"Uncletopia | Los Angeles | 2 | All Maps","protocol":17,"map":"cp_gorge","folder":"tf","game":"Team Fortress","app_id":440,"player_count":4,"max_players":24,"Bots":0,"server_type":"Dedicated","server_os":"Linux","password":true,"vac":true,"version":"7961495","steam_id":85568392924469992,"keywords":["cp","nocrits","nodmgspread","uncletopia"],"game_id":440,"stv_port":27026,"stv_name":"Uncletopia | Los Angeles | 2 | All Maps | STV","players":[{"user_id":4,"name":"Prestoneon003","steam_id":76561198348279581,"connected_time":1706000000000,"state":"active","ping":82},{"user_id":5,"name":"punkin2k7","steam_id":76561198036018652,"connected_time":1705000000000,"state":"active","ping":77},{"user_id":7,"name":"Sizgil","steam_id":76561198834673943,"connected_time":396000000000,"state":"active","ping":73},{"user_id":8,"name":"pafijohn","steam_id":76561198002535190,"connected_time":106000000000,"state":"active","ping":36}]},{"server_id":324,"name":"Uncletopia | Los Angeles | 3 | All Maps","name_short":"lax-3","host":"lax-1.us.uncletopia.com","port":27035,"enabled":true,"region":"us-west","cc":"us","latitude":33.94279,"longitude":-118.41004,"reserved":0,"last_update":"0001-01-01T00:00:00Z","name_a2s":"Uncletopia | Los Angeles | 3 | All Maps","protocol":17,"map":"pl_frontier_final","folder":"tf","game":"Team Fortress","app_id":440,"player_count":24,"max_players":24,"Bots":0,"server_type":"Dedicated","server_os":"Linux","password":true,"vac":true,"version":"7961495","steam_id":85568392924510198,"keywords":["nocrits","nodmgspread","payload","uncletopia"],"game_id":440,"stv_port":27036,"stv_name":"Uncletopia | Los Angeles | 3 | All Maps | STV","players":[{"user_id":124,"name":"vanillain","steam_id":76561198058617608,"connected_time":1588000000000,"state":"active","ping":56},{"user_id":77,"name":"Colossal Falafel","steam_id":76561198108086245,"connected_time":4591000000000,"state":"active","ping":96},{"user_id":91,"name":"Chafn","steam_id":76561197969386702,"connected_time":3500000000000,"state":"active","ping":62},{"user_id":125,"name":"Ralph Kramden (Slim Charles)","steam_id":76561197981687895,"connected_time":1586000000000,"state":"active","ping":39},{"user_id":126,"name":"Seanvich","steam_id":76561198065805500,"connected_time":1560000000000,"state":"active","ping":101},{"user_id":101,"name":"fish","steam_id":76561198054070811,"connected_time":2917000000000,"state":"active","ping":45},{"user_id":102,"name":"Gun","steam_id":76561199264073138,"connected_time":2900000000000,"state":"active","ping":40},{"user_id":121,"name":"Clear Sights","steam_id":76561198006215683,"connected_time":1791000000000,"state":"active","ping":117},{"user_id":132,"name":"epsilon","steam_id":76561198025337276,"connected_time":1158000000000,"state":"active","ping":49},{"user_id":93,"name":"Chad MorningWood","steam_id":76561198139832291,"connected_time":3490000000000,"state":"active","ping":49},{"user_id":98,"name":"Soda","steam_id":76561198219209367,"connected_time":2989000000000,"state":"active","ping":58},{"user_id":146,"name":"fudo myoo","steam_id":76561198456258164,"connected_time":119000000000,"state":"active","ping":104},{"user_id":143,"name":"Eden","steam_id":76561198081284664,"connected_time":174000000000,"state":"active","ping":59},{"user_id":122,"name":"Secret Tunnel","steam_id":76561198272403112,"connected_time":1758000000000,"state":"active","ping":55},{"user_id":144,"name":"Alkimia","steam_id":76561198385763137,"connected_time":147000000000,"state":"active","ping":92},{"user_id":115,"name":"Droidder","steam_id":76561198119484250,"connected_time":2344000000000,"state":"active","ping":56},{"user_id":64,"name":"rat","steam_id":76561198130412963,"connected_time":5994000000000,"state":"active","ping":86},{"user_id":30,"name":"nanoboosts","steam_id":76561199500861337,"connected_time":6796000000000,"state":"active","ping":52},{"user_id":79,"name":"Username","steam_id":76561198198918781,"connected_time":4529000000000,"state":"active","ping":62},{"user_id":114,"name":"ATLS1 | Strange Festive","steam_id":76561198050385093,"connected_time":2376000000000,"state":"active","ping":120},{"user_id":134,"name":"An00bis","steam_id":76561198044084508,"connected_time":779000000000,"state":"active","ping":56},{"user_id":128,"name":"Pah-Wraith Gul Dukat","steam_id":76561198033918106,"connected_time":1531000000000,"state":"active","ping":46},{"user_id":133,"name":"WillieMakit","steam_id":76561197985391684,"connected_time":1082000000000,"state":"active","ping":55},{"user_id":147,"name":"Jerry","steam_id":76561198044717045,"connected_time":119000000000,"state":"active","ping":43}]},{"server_id":25,"name":"Uncletopia | Los Angeles | 4 | Stopwatch","name_short":"lax-4","host":"lax-1.us.uncletopia.com","port":27045,"enabled":true,"region":"us-west","cc":"us","latitude":33.94279,"longitude":-118.41004,"reserved":0,"last_update":"0001-01-01T00:00:00Z","name_a2s":"Uncletopia | Los Angeles | 4 | Stopwatch","protocol":17,"map":"koth_highpass","folder":"tf","game":"Team Fortress","app_id":440,"player_count":0,"max_players":24,"Bots":0,"server_type":"Dedicated","server_os":"Linux","password":true,"vac":true,"version":"7961495","steam_id":85568392924510199,"keywords":["cp","nocrits","nodmgspread","uncletopia"],"game_id":440,"stv_port":27046,"stv_name":"Uncletopia | Los Angeles | 4 | Stopwatch | STV","players":null},{"server_id":11,"name":"Uncletopia | London | 1 | All Maps","name_short":"lon-1","host":"lon-1.uk.uncletopia.com","port":27015,"enabled":true,"region":"eu","cc":"gb","latitude":51.509865,"longitude":-0.118092,"reserved":0,"last_update":"0001-01-01T00:00:00Z","name_a2s":"Uncletopia | London | 1 | All Maps","protocol":17,"map":"pl_pier","folder":"tf","game":"Team Fortress","app_id":440,"player_count":24,"max_players":24,"Bots":0,"server_type":"Dedicated","server_os":"Linux","password":true,"vac":true,"version":"7961495","steam_id":85568392924367362,"keywords":["nocrits","nodmgspread","payload","uncletopia"],"game_id":440,"stv_port":27016,"stv_name":"Uncletopia | London | 1 | All Maps | STV","players":[{"user_id":747,"name":"GIRLBITER alice","steam_id":76561198180361759,"connected_time":3840000000000,"state":"active","ping":37},{"user_id":787,"name":"Mads Mikkelsen","steam_id":76561198083482001,"connected_time":46000000000,"state":"active","ping":74},{"user_id":772,"name":"biohazard (#1 beebo fan)","steam_id":76561198162873354,"connected_time":1052000000000,"state":"active","ping":93},{"user_id":776,"name":"Daan77","steam_id":76561198129940468,"connected_time":1021000000000,"state":"active","ping":51},{"user_id":779,"name":"suicidal","steam_id":76561199383437138,"connected_time":862000000000,"state":"active","ping":114},{"user_id":757,"name":"xTheDarkLight","steam_id":76561198239128298,"connected_time":2091000000000,"state":"active","ping":62},{"user_id":754,"name":"Emilio Juarez","steam_id":76561198179693110,"connected_time":2903000000000,"state":"active","ping":50},{"user_id":755,"name":"Alice","steam_id":76561198052410860,"connected_time":2259000000000,"state":"active","ping":149},{"user_id":785,"name":"LeonCactus","steam_id":76561198102360825,"connected_time":140000000000,"state":"active","ping":52},{"user_id":773,"name":"Gry","steam_id":76561198053961616,"connected_time":1048000000000,"state":"active","ping":53},{"user_id":652,"name":"Sandshee","steam_id":76561198088574666,"connected_time":12556000000000,"state":"active","ping":45},{"user_id":752,"name":"ashley","steam_id":76561198448551449,"connected_time":3556000000000,"state":"active","ping":33},{"user_id":780,"name":"doctor sex","steam_id":76561198343097164,"connected_time":631000000000,"state":"active","ping":76},{"user_id":746,"name":"Laru","steam_id":76561197998838438,"connected_time":3918000000000,"state":"active","ping":76},{"user_id":704,"name":"gnarly business","steam_id":76561198832688767,"connected_time":11157000000000,"state":"active","ping":49},{"user_id":782,"name":"Urtaras","steam_id":76561198085604412,"connected_time":412000000000,"state":"active","ping":35},{"user_id":784,"name":"BreadBubbles","steam_id":76561198174332826,"connected_time":287000000000,"state":"active","ping":60},{"user_id":741,"name":"beebo","steam_id":76561199120277007,"connected_time":4980000000000,"state":"active","ping":45},{"user_id":750,"name":"SENSITIVITY OVERDRIVE!!!!","steam_id":76561198163615254,"connected_time":3630000000000,"state":"active","ping":63},{"user_id":774,"name":"Don Draper","steam_id":76561198148359093,"connected_time":1048000000000,"state":"active","ping":42},{"user_id":770,"name":"√áodar","steam_id":76561198235518444,"connected_time":1125000000000,"state":"active","ping":40},{"user_id":678,"name":"Speed-Dial","steam_id":76561198012428315,"connected_time":12114000000000,"state":"active","ping":46},{"user_id":413,"name":"‚ößaura‚öß","steam_id":76561198066258544,"connected_time":21015000000000,"state":"active","ping":62},{"user_id":737,"name":"sora (live)","steam_id":76561198096547662,"connected_time":6060000000000,"state":"active","ping":54}]},{"server_id":114,"name":"Uncletopia | London | 2 | All Maps","name_short":"lon-2","host":"lon-1.uk.uncletopia.com","port":27025,"enabled":true,"region":"eu","cc":"gb","latitude":51.509865,"longitude":-0.118092,"reserved":0,"last_update":"0001-01-01T00:00:00Z","name_a2s":"Uncletopia | London | 2 | All Maps","protocol":17,"map":"cp_snakewater_final1","folder":"tf","game":"Team Fortress","app_id":440,"player_count":1,"max_players":24,"Bots":0,"server_type":"Dedicated","server_os":"Linux","password":true,"vac":true,"version":"7961495","steam_id":85568392924470941,"keywords":["cp","nocrits","nodmgspread","uncletopia"],"game_id":440,"stv_port":27026,"stv_name":"Uncletopia | London | 2 | All Maps | STV","players":[{"user_id":835,"name":"Œ∂(s)","steam_id":76561198043868994,"connected_time":6000000000,"state":"spawning","ping":41}]},{"server_id":320,"name":"Uncletopia | London | 3 | All Maps","name_short":"lon-3","host":"lon-1.uk.uncletopia.com","port":27035,"enabled":true,"region":"eu","cc":"gb","latitude":51.509865,"longitude":-0.118092,"reserved":0,"last_update":"0001-01-01T00:00:00Z","name_a2s":"Uncletopia | London | 3 | All Maps","protocol":17,"map":"koth_highpass","folder":"tf","game":"Team Fortress","app_id":440,"player_count":0,"max_players":24,"Bots":0,"server_type":"Dedicated","server_os":"Linux","password":true,"vac":true,"version":"7961495","steam_id":85568392924510192,"keywords":["cp","nocrits","nodmgspread","uncletopia"],"game_id":440,"stv_port":27036,"stv_name":"Uncletopia | London | 3 | All Maps | STV","players":null},{"server_id":321,"name":"Uncletopia | London | 4 | All Maps","name_short":"lon-4","host":"lon-1.uk.uncletopia.com","port":27045,"enabled":true,"region":"eu","cc":"gb","latitude":51.509865,"longitude":-0.118092,"reserved":0,"last_update":"0001-01-01T00:00:00Z","name_a2s":"Uncletopia | London | 4 | All Maps","protocol":17,"map":"cp_sunshine","folder":"tf","game":"Team Fortress","app_id":440,"player_count":24,"max_players":24,"Bots":0,"server_type":"Dedicated","server_os":"Linux","password":true,"vac":true,"version":"7961495","steam_id":85568392924510193,"keywords":["cp","nocrits","nodmgspread","uncletopia"],"game_id":440,"stv_port":27046,"stv_name":"Uncletopia | London | 4 | All Maps | STV","players":[{"user_id":914,"name":"Venwood","steam_id":76561198126973175,"connected_time":1790000000000,"state":"active","ping":45},{"user_id":902,"name":"Houlles","steam_id":76561198095277383,"connected_time":2566000000000,"state":"active","ping":52},{"user_id":923,"name":"Ostara","steam_id":76561198200054489,"connected_time":417000000000,"state":"active","ping":37},{"user_id":875,"name":"Cosmetic brain","steam_id":76561198055936410,"connected_time":4318000000000,"state":"active","ping":75},{"user_id":866,"name":"Bajas","steam_id":76561198179339326,"connected_time":4691000000000,"state":"active","ping":89},{"user_id":909,"name":"Cranbury","steam_id":76561198079170457,"connected_time":2174000000000,"state":"active","ping":45},{"user_id":899,"name":"perfectemu","steam_id":76561199147866624,"connected_time":2719000000000,"state":"active","ping":148},{"user_id":908,"name":"monsterISfun","steam_id":76561198121734867,"connected_time":2240000000000,"state":"active","ping":70},{"user_id":880,"name":"chillrend_morphs_high_lod6","steam_id":76561198452963141,"connected_time":4154000000000,"state":"active","ping":92},{"user_id":881,"name":"Nomakh","steam_id":76561198096414653,"connected_time":4139000000000,"state":"active","ping":90},{"user_id":921,"name":"Munchkin","steam_id":76561198119528210,"connected_time":573000000000,"state":"active","ping":44},{"user_id":911,"name":"Ryan Gosling (Literally me)","steam_id":76561198438150893,"connected_time":2088000000000,"state":"active","ping":107},{"user_id":919,"name":"fernandobmwm355555","steam_id":76561198086609447,"connected_time":671000000000,"state":"active","ping":61},{"user_id":894,"name":"Live Ruby Reaction","steam_id":76561198304902462,"connected_time":3079000000000,"state":"active","ping":30},{"user_id":884,"name":"Vershal Smershal","steam_id":76561198116223995,"connected_time":4032000000000,"state":"active","ping":56},{"user_id":922,"name":"PSQS","steam_id":76561198185321557,"connected_time":481000000000,"state":"active","ping":47},{"user_id":915,"name":"one bad day off","steam_id":76561198201648919,"connected_time":1446000000000,"state":"active","ping":114},{"user_id":897,"name":"tr4ce","steam_id":76561198085296732,"connected_time":2758000000000,"state":"active","ping":34},{"user_id":883,"name":"PistolShrimp","steam_id":76561199171648755,"connected_time":4051000000000,"state":"active","ping":44},{"user_id":918,"name":"elijah","steam_id":76561198093936708,"connected_time":1012000000000,"state":"active","ping":51},{"user_id":905,"name":"etc","steam_id":76561197998394797,"connected_time":2470000000000,"state":"active","ping":53},{"user_id":924,"name":"Hank J Wimbleton","steam_id":76561198408623293,"connected_time":61000000000,"state":"spawning","ping":45},{"user_id":913,"name":"Cooldude95","steam_id":76561198881847928,"connected_time":2010000000000,"state":"active","ping":122},{"user_id":822,"name":"Marcel","steam_id":76561198348686648,"connected_time":8041000000000,"state":"active","ping":45}]},{"server_id":21,"name":"Uncletopia | London | 5 | All Maps","name_short":"lon-5","host":"lon-1.uk.uncletopia.com","port":27055,"enabled":true,"region":"eu","cc":"gb","latitude":51.509865,"longitude":-0.118092,"reserved":0,"last_update":"0001-01-01T00:00:00Z","name_a2s":"Uncletopia | London | 5 | All Maps","protocol":17,"map":"pl_snowycoast","folder":"tf","game":"Team Fortress","app_id":440,"player_count":24,"max_players":24,"Bots":0,"server_type":"Dedicated","server_os":"Linux","password":true,"vac":true,"version":"7961495","steam_id":85568392924742829,"keywords":["nocrits","nodmgspread","payload","uncletopia"],"game_id":440,"stv_port":27056,"stv_name":"Uncletopia | London | 5 | All Maps | STV","players":[{"user_id":480,"name":"Lyncurion","steam_id":76561199260022725,"connected_time":696000000000,"state":"active","ping":74},{"user_id":483,"name":"Proto-arc","steam_id":76561198012776747,"connected_time":548000000000,"state":"active","ping":46},{"user_id":449,"name":"Smartest Person In the Universe","steam_id":76561199444636848,"connected_time":3390000000000,"state":"active","ping":45},{"user_id":492,"name":"BuzzBees ‚ù§","steam_id":76561198101502273,"connected_time":181000000000,"state":"active","ping":45},{"user_id":476,"name":"Valfezant","steam_id":76561199063983797,"connected_time":1418000000000,"state":"active","ping":69},{"user_id":494,"name":"Siegmeyer","steam_id":76561198328543549,"connected_time":118000000000,"state":"active","ping":106},{"user_id":452,"name":"Ruvik","steam_id":76561198031040533,"connected_time":3221000000000,"state":"active","ping":49},{"user_id":482,"name":"bruh","steam_id":76561198109262927,"connected_time":591000000000,"state":"active","ping":76},{"user_id":485,"name":"Piellino","steam_id":76561198156873276,"connected_time":542000000000,"state":"active","ping":103},{"user_id":379,"name":"Unreliable, funny and dangerous","steam_id":76561198050709790,"connected_time":7569000000000,"state":"active","ping":88},{"user_id":481,"name":"blurry","steam_id":76561198884908952,"connected_time":619000000000,"state":"active","ping":56},{"user_id":486,"name":"Shadoxa","steam_id":76561198000421236,"connected_time":535000000000,"state":"active","ping":52},{"user_id":437,"name":"rummy","steam_id":76561197997573379,"connected_time":4168000000000,"state":"active","ping":41},{"user_id":487,"name":"Chatis","steam_id":76561198042781257,"connected_time":529000000000,"state":"active","ping":75},{"user_id":479,"name":"Dei Genetrix","steam_id":76561198305678122,"connected_time":1302000000000,"state":"active","ping":45},{"user_id":475,"name":"Rapha√´l Ambrosius Costeau","steam_id":76561198142478237,"connected_time":1500000000000,"state":"active","ping":47},{"user_id":477,"name":"stepbro","steam_id":76561198119607160,"connected_time":1395000000000,"state":"active","ping":89},{"user_id":417,"name":"Maximilian1359","steam_id":76561198152439608,"connected_time":5772000000000,"state":"active","ping":52},{"user_id":491,"name":"i pity the drool.","steam_id":76561199330937686,"connected_time":331000000000,"state":"active","ping":65},{"user_id":466,"name":"Scuffed katana+9 PvP stones+4","steam_id":76561199375170916,"connected_time":2249000000000,"state":"active","ping":108},{"user_id":489,"name":"Skelet","steam_id":76561198051685232,"connected_time":519000000000,"state":"active","ping":45},{"user_id":456,"name":"Onions","steam_id":76561198150195195,"connected_time":2602000000000,"state":"active","ping":58},{"user_id":490,"name":"KittyKate ‚ù§","steam_id":76561198116340817,"connected_time":516000000000,"state":"active","ping":60},{"user_id":474,"name":"travis","steam_id":76561198138119811,"connected_time":1649000000000,"state":"active","ping":45}]},{"server_id":22,"name":"Uncletopia | London | 6 | All Maps","name_short":"lon-6","host":"lon-1.uk.uncletopia.com","port":27065,"enabled":true,"region":"eu","cc":"gb","latitude":51.509865,"longitude":-0.118092,"reserved":0,"last_update":"0001-01-01T00:00:00Z","name_a2s":"Uncletopia | London | 6 | All Maps","protocol":17,"map":"koth_viaduct","folder":"tf","game":"Team Fortress","app_id":440,"player_count":0,"max_players":24,"Bots":0,"server_type":"Dedicated","server_os":"Linux","password":true,"vac":true,"version":"7961495","steam_id":85568392924742830,"keywords":["cp","nocrits","nodmgspread","uncletopia"],"game_id":440,"stv_port":27066,"stv_name":"Uncletopia | London | 6 | All Maps | STV","players":null},{"server_id":40,"name":"Uncletopia | London | 7 | Stopwatch","name_short":"lon-7","host":"lon-1.uk.uncletopia.com","port":27075,"enabled":true,"region":"eu","cc":"gb","latitude":51.509865,"longitude":-0.118092,"reserved":0,"last_update":"0001-01-01T00:00:00Z","name_a2s":"Uncletopia | London | 7 | Stopwatch","protocol":17,"map":"cp_snakewater_final1","folder":"tf","game":"Team Fortress","app_id":440,"player_count":0,"max_players":24,"Bots":0,"server_type":"Dedicated","server_os":"Linux","password":true,"vac":true,"version":"7961495","steam_id":85568392924964314,"keywords":["cp","nocrits","nodmgspread","uncletopia"],"game_id":440,"stv_port":27076,"stv_name":"Uncletopia | London | 7 | Stopwatch | STV","players":null},{"server_id":41,"name":"Uncletopia | London | 8 | Community","name_short":"lon-8","host":"lon-1.uk.uncletopia.com","port":27085,"enabled":true,"region":"eu","cc":"gb","latitude":51.509865,"longitude":-0.118092,"reserved":0,"last_update":"0001-01-01T00:00:00Z","name_a2s":"Uncletopia | London | 8 | Community","protocol":17,"map":"workshop/cp_villa_b19.ugc2113052569","folder":"tf","game":"Team Fortress","app_id":440,"player_count":0,"max_players":24,"Bots":0,"server_type":"Dedicated","server_os":"Linux","password":true,"vac":true,"version":"7961495","steam_id":85568392924964315,"keywords":["cp","nocrits","nodmgspread","uncletopia"],"game_id":440,"stv_port":27086,"stv_name":"Uncletopia | London | 8 | Community | STV","players":null},{"server_id":300,"name":"Uncletopia | Montr√©al | 1 | One Thousand Uncles","name_short":"mtl-1","host":"mtl-1.ca.uncletopia.com","port":27015,"enabled":true,"region":"us-east","cc":"ca","latitude":45.50889,"longitude":-73.56167,"reserved":0,"last_update":"0001-01-01T00:00:00Z","name_a2s":"Uncletopia | Montr√©al | 1 | One Thousand Uncles","protocol":17,"map":"pl_badwater","folder":"tf","game":"Team Fortress","app_id":440,"player_count":27,"max_players":32,"Bots":16,"server_type":"Dedicated","server_os":"Linux","password":true,"vac":true,"version":"7961495","steam_id":85568392924500087,"keywords":["alltalk","bots","danepve","increased_maxplayers","norespawntime","payload","uncletopia"],"game_id":440,"stv_port":0,"stv_name":"","players":[{"user_id":361,"name":"CCTV CAMERA","steam_id":76561198079973828,"connected_time":4303000000000,"state":"active","ping":86},{"user_id":380,"name":"Wooper","steam_id":76561198047491931,"connected_time":1912000000000,"state":"active","ping":45},{"user_id":382,"name":"okay","steam_id":76561198024973008,"connected_time":1448000000000,"state":"active","ping":62},{"user_id":378,"name":"Berlioz","steam_id":76561198040532757,"connected_time":2836000000000,"state":"active","ping":75},{"user_id":350,"name":"HI_THERE","steam_id":76561198436389409,"connected_time":5086000000000,"state":"active","ping":60},{"user_id":399,"name":"Why not Zoidberg?","steam_id":76561197982207556,"connected_time":1099000000000,"state":"active","ping":77},{"user_id":379,"name":"Grand Wizard","steam_id":76561199382783363,"connected_time":2497000000000,"state":"active","ping":121},{"user_id":400,"name":"giant_dork","steam_id":76561199105606956,"connected_time":1072000000000,"state":"active","ping":66},{"user_id":401,"name":"CuSO4","steam_id":76561199278147589,"connected_time":901000000000,"state":"active","ping":58},{"user_id":402,"name":"Prosecutor Edgeworth","steam_id":76561198108612294,"connected_time":633000000000,"state":"active","ping":77},{"user_id":403,"name":"Robert Nutbar","steam_id":76561198062334757,"connected_time":540000000000,"state":"active","ping":68}]},{"server_id":301,"name":"Uncletopia | Montr√©al | 2 | One Thousand Uncles","name_short":"mtl-2","host":"mtl-1.ca.uncletopia.com","port":27025,"enabled":true,"region":"us-east","cc":"ca","latitude":45.50889,"longitude":-73.56167,"reserved":0,"last_update":"0001-01-01T00:00:00Z","name_a2s":"Uncletopia | Montr√©al | 2 | One Thousand Uncles","protocol":17,"map":"pl_chilly","folder":"tf","game":"Team Fortress","app_id":440,"player_count":0,"max_players":32,"Bots":0,"server_type":"Dedicated","server_os":"Linux","password":true,"vac":true,"version":"7961495","steam_id":85568392924500088,"keywords":["alltalk","danepve","increased_maxplayers","norespawntime","payload","uncletopia"],"game_id":440,"stv_port":0,"stv_name":"","players":null},{"server_id":302,"name":"Uncletopia | Montr√©al | 3 | One Thousand Uncles","name_short":"mtl-3","host":"mtl-1.ca.uncletopia.com","port":27035,"enabled":true,"region":"us-east","cc":"ca","latitude":45.50889,"longitude":-73.56167,"reserved":0,"last_update":"0001-01-01T00:00:00Z","name_a2s":"Uncletopia | Montr√©al | 3 | One Thousand Uncles","protocol":17,"map":"pl_pier","folder":"tf","game":"Team Fortress","app_id":440,"player_count":0,"max_players":32,"Bots":0,"server_type":"Dedicated","server_os":"Linux","password":true,"vac":true,"version":"7961495","steam_id":85568392924500089,"keywords":["alltalk","danepve","increased_maxplayers","norespawntime","payload","uncletopia"],"game_id":440,"stv_port":0,"stv_name":"","players":null},{"server_id":13,"name":"Uncletopia | New York City | 1 | All Maps","name_short":"nyc-1","host":"nyc-1.us.uncletopia.com","port":27015,"enabled":true,"region":"us-east","cc":"us","latitude":40.73061,"longitude":-73.93524,"reserved":0,"last_update":"0001-01-01T00:00:00Z","name_a2s":"Uncletopia | New York City | 1 | All Maps","protocol":17,"map":"pl_upward","folder":"tf","game":"Team Fortress","app_id":440,"player_count":25,"max_players":24,"Bots":0,"server_type":"Dedicated","server_os":"Linux","password":true,"vac":true,"version":"7961495","steam_id":85568392924469993,"keywords":["nocrits","nodmgspread","payload","uncletopia"],"game_id":440,"stv_port":27016,"stv_name":"Uncletopia | New York City | 1 | All Maps | STV","players":[{"user_id":517,"name":"Lafayette","steam_id":76561198335555638,"connected_time":727000000000,"state":"active","ping":41},{"user_id":497,"name":"Samercam","steam_id":76561198189403190,"connected_time":2401000000000,"state":"active","ping":74},{"user_id":529,"name":"‚ô©Karmism‚ô©","steam_id":76561199453410299,"connected_time":202000000000,"state":"active","ping":77},{"user_id":513,"name":"Whisk #GOOD GAMER","steam_id":76561198272318229,"connected_time":1093000000000,"state":"active","ping":63},{"user_id":528,"name":"CRAZY engineer","steam_id":76561198887937902,"connected_time":501000000000,"state":"active","ping":66},{"user_id":518,"name":"Average JoJo Fan","steam_id":76561198863432523,"connected_time":723000000000,"state":"active","ping":122},{"user_id":498,"name":"Boot Mcstink","steam_id":76561199226873917,"connected_time":2388000000000,"state":"active","ping":87},{"user_id":425,"name":"whatever","steam_id":76561197994759007,"connected_time":6433000000000,"state":"active","ping":75},{"user_id":506,"name":"Mr.Bady","steam_id":76561199094651706,"connected_time":1716000000000,"state":"active","ping":45},{"user_id":519,"name":"deity main","steam_id":76561199251639888,"connected_time":708000000000,"state":"active","ping":82},{"user_id":521,"name":"emotional suppport e-cigarette","steam_id":76561198172120615,"connected_time":650000000000,"state":"active","ping":43},{"user_id":514,"name":"Chernov","steam_id":76561198014463424,"connected_time":1078000000000,"state":"active","ping":45},{"user_id":505,"name":"Bush Jesus","steam_id":76561199258176303,"connected_time":1745000000000,"state":"active","ping":52},{"user_id":507,"name":"yedno glov ye mam","steam_id":76561198143826450,"connected_time":1569000000000,"state":"active","ping":75},{"user_id":447,"name":"Satan's Salad","steam_id":76561198043965827,"connected_time":5214000000000,"state":"active","ping":60},{"user_id":530,"name":"Beep Berokee Beux Bille","steam_id":76561198362044261,"connected_time":200000000000,"state":"active","ping":57},{"user_id":527,"name":"Chadmander","steam_id":76561197974136337,"connected_time":502000000000,"state":"active","ping":60},{"user_id":522,"name":"Bee","steam_id":76561198074681324,"connected_time":614000000000,"state":"active","ping":52},{"user_id":531,"name":"Unfortunate Son","steam_id":76561199123285878,"connected_time":5000000000,"state":"spawning","ping":60},{"user_id":532,"name":"THE SYSTEM!","steam_id":76561198138723795,"connected_time":4000000000,"state":"spawning","ping":46},{"user_id":533,"name":"Berb","steam_id":76561198193911899,"connected_time":3000000000,"state":"spawning","ping":64},{"user_id":503,"name":"Popmaster","steam_id":76561198060807197,"connected_time":2159000000000,"state":"active","ping":68},{"user_id":525,"name":"Scarecrow","steam_id":76561198045870511,"connected_time":607000000000,"state":"active","ping":62},{"user_id":468,"name":"zpalmtree","steam_id":76561198134307620,"connected_time":4300000000000,"state":"active","ping":75},{"user_id":526,"name":"spaint","steam_id":76561198014662930,"connected_time":607000000000,"state":"active","ping":50}]},{"server_id":14,"name":"Uncletopia | New York City | 2 | All Maps","name_short":"nyc-2","host":"nyc-1.us.uncletopia.com","port":27025,"enabled":true,"region":"us-east","cc":"us","latitude":40.73061,"longitude":-73.93524,"reserved":0,"last_update":"0001-01-01T00:00:00Z","name_a2s":"Uncletopia | New York City | 2 | All Maps","protocol":17,"map":"cp_well","folder":"tf","game":"Team Fortress","app_id":440,"player_count":24,"max_players":24,"Bots":0,"server_type":"Dedicated","server_os":"Linux","password":true,"vac":true,"version":"7961495","steam_id":85568392924469994,"keywords":["cp","nocrits","nodmgspread","uncletopia"],"game_id":440,"stv_port":27026,"stv_name":"Uncletopia | New York City | 2 | All Maps | STV","players":[{"user_id":602,"name":"KrazyKid","steam_id":76561199074429644,"connected_time":3583000000000,"state":"active","ping":72},{"user_id":650,"name":"Nerrrd_","steam_id":76561198870129960,"connected_time":1093000000000,"state":"active","ping":42},{"user_id":667,"name":"Inevitable","steam_id":76561198210050169,"connected_time":306000000000,"state":"active","ping":45},{"user_id":605,"name":"bobbymcbobington","steam_id":76561199089411172,"connected_time":3544000000000,"state":"active","ping":126},{"user_id":659,"name":"Orange Triangle","steam_id":76561198320498182,"connected_time":639000000000,"state":"active","ping":73},{"user_id":664,"name":"Fancy Clown Sultan","steam_id":76561198447852406,"connected_time":522000000000,"state":"active","ping":66},{"user_id":671,"name":"YummerBummer","steam_id":76561198094773987,"connected_time":216000000000,"state":"active","ping":53},{"user_id":648,"name":"Rated_C","steam_id":76561199226478414,"connected_time":1161000000000,"state":"active","ping":69},{"user_id":599,"name":"rstrom","steam_id":76561197961225022,"connected_time":3691000000000,"state":"active","ping":60},{"user_id":651,"name":"Pasta La Vista","steam_id":76561198129450033,"connected_time":1082000000000,"state":"active","ping":39},{"user_id":665,"name":"Just washed","steam_id":76561199030160932,"connected_time":479000000000,"state":"active","ping":81},{"user_id":670,"name":"caberknight tf2  (f2p-ish)","steam_id":76561199273882768,"connected_time":227000000000,"state":"active","ping":51},{"user_id":663,"name":"non professional nouns.","steam_id":76561198294013916,"connected_time":600000000000,"state":"active","ping":45},{"user_id":672,"name":"lonely fortnite gamer girl","steam_id":76561198272948471,"connected_time":106000000000,"state":"active","ping":113},{"user_id":630,"name":"Windows 7 Ultimate","steam_id":76561198337692867,"connected_time":2146000000000,"state":"active","ping":70},{"user_id":646,"name":"sanxi's cave","steam_id":76561199034371191,"connected_time":1352000000000,"state":"active","ping":189},{"user_id":669,"name":"Motorol¬™","steam_id":76561198358119669,"connected_time":281000000000,"state":"active","ping":129},{"user_id":666,"name":"Exhiet","steam_id":76561198218111020,"connected_time":350000000000,"state":"active","ping":67},{"user_id":640,"name":"Hot Cheese Sundae","steam_id":76561198061189527,"connected_time":1562000000000,"state":"active","ping":76},{"user_id":632,"name":"MintHaggis","steam_id":76561198006674825,"connected_time":2064000000000,"state":"active","ping":80},{"user_id":655,"name":"your very own pocket medic","steam_id":76561199489320369,"connected_time":1030000000000,"state":"active","ping":52},{"user_id":627,"name":"DrMania82","steam_id":76561198113086878,"connected_time":2479000000000,"state":"active","ping":75},{"user_id":656,"name":"Coke Himmy","steam_id":76561198397459211,"connected_time":1027000000000,"state":"active","ping":56},{"user_id":639,"name":"mazikin","steam_id":76561198018523154,"connected_time":1703000000000,"state":"active","ping":62}]},{"server_id":15,"name":"Uncletopia | New York City | 3 | Stopwatch","name_short":"nyc-3","host":"nyc-1.us.uncletopia.com","port":27035,"enabled":true,"region":"us-east","cc":"us","latitude":40.73061,"longitude":-73.93524,"reserved":0,"last_update":"0001-01-01T00:00:00Z","name_a2s":"Uncletopia | New York City | 3 | Stopwatch","protocol":17,"map":"workshop/koth_ashville_final.ugc2130459942","folder":"tf","game":"Team Fortress","app_id":440,"player_count":0,"max_players":24,"Bots":0,"server_type":"Dedicated","server_os":"Linux","password":true,"vac":true,"version":"7961495","steam_id":85568392924742820,"keywords":["cp","nocrits","nodmgspread","uncletopia"],"game_id":440,"stv_port":27036,"stv_name":"Uncletopia | New York City | 3 | Stopwatch | STV","players":null},{"server_id":16,"name":"Uncletopia | New York City | 4 | Community","name_short":"nyc-4","host":"nyc-1.us.uncletopia.com","port":27045,"enabled":true,"region":"us-east","cc":"us","latitude":40.73061,"longitude":-73.93524,"reserved":0,"last_update":"0001-01-01T00:00:00Z","name_a2s":"Uncletopia | New York City | 4 | Community","protocol":17,"map":"workshop/pl_cashworks_final1.ugc2904065412","folder":"tf","game":"Team Fortress","app_id":440,"player_count":0,"max_players":24,"Bots":0,"server_type":"Dedicated","server_os":"Linux","password":true,"vac":true,"version":"7961495","steam_id":85568392924742821,"keywords":["nocrits","nodmgspread","payload","uncletopia"],"game_id":440,"stv_port":27046,"stv_name":"Uncletopia | New York City | 4 | Community | STV","players":null},{"server_id":142,"name":"Uncletopia | S√£o Paulo | 1 | All Maps","name_short":"sao-1","host":"sao-1.br.uncletopia.com","port":27015,"enabled":true,"region":"sa","cc":"br","latitude":-23.533773,"longitude":-46.62529,"reserved":0,"last_update":"0001-01-01T00:00:00Z","name_a2s":"Uncletopia | S√£o Paulo | 1 | All Maps","protocol":17,"map":"pl_badwater","folder":"tf","game":"Team Fortress","app_id":440,"player_count":8,"max_players":24,"Bots":0,"server_type":"Dedicated","server_os":"Linux","password":true,"vac":true,"version":"7961495","steam_id":85568392924469996,"keywords":["nocrits","nodmgspread","payload","uncletopia"],"game_id":440,"stv_port":27016,"stv_name":"Uncletopia | S√£o Paulo | 1 | All Maps | STV","players":[{"user_id":43,"name":"Shaunymon","steam_id":76561198089311104,"connected_time":885000000000,"state":"active","ping":241},{"user_id":33,"name":"randomuserxd69","steam_id":76561199434896929,"connected_time":2647000000000,"state":"spawning","ping":91},{"user_id":34,"name":"eles pegaram minha maconha","steam_id":76561199359501901,"connected_time":2393000000000,"state":"spawning","ping":40},{"user_id":38,"name":"Moonstar (Rt30)","steam_id":76561198041960690,"connected_time":1377000000000,"state":"active","ping":79},{"user_id":44,"name":"Kisari15","steam_id":76561198204362701,"connected_time":840000000000,"state":"spawning","ping":289},{"user_id":47,"name":"XxLIBRAL_DESTROYAxX","steam_id":76561198995575441,"connected_time":266000000000,"state":"active","ping":84},{"user_id":45,"name":"AY|General_Iroh57","steam_id":76561199385824684,"connected_time":733000000000,"state":"spawning","ping":82},{"user_id":42,"name":"Cara da Old Spice(Old Spice Guy","steam_id":76561198081925177,"connected_time":980000000000,"state":"spawning","ping":63}]},{"server_id":143,"name":"Uncletopia | S√£o Paulo | 2 | Community","name_short":"sao-2","host":"sao-2.br.uncletopia.com","port":27015,"enabled":true,"region":"sa","cc":"br","latitude":-23.533773,"longitude":-46.62529,"reserved":0,"last_update":"0001-01-01T00:00:00Z","name_a2s":"Uncletopia | S√£o Paulo | 2 | Community","protocol":17,"map":"workshop/koth_kemptown_rc1.ugc767410655","folder":"tf","game":"Team Fortress","app_id":440,"player_count":0,"max_players":24,"Bots":0,"server_type":"Dedicated","server_os":"Linux","password":true,"vac":true,"version":"7961495","steam_id":85568392924485349,"keywords":["cp","nocrits","nodmgspread","uncletopia"],"game_id":440,"stv_port":27016,"stv_name":"Uncletopia | S√£o Paulo | 2 | Community | STV","players":null},{"server_id":7,"name":"Uncletopia | Seattle | 1 | All Maps","name_short":"sea-1","host":"sea-1.us.uncletopia.com","port":27015,"enabled":true,"region":"us-west","cc":"us","latitude":47.608013,"longitude":-122.33517,"reserved":0,"last_update":"0001-01-01T00:00:00Z","name_a2s":"Uncletopia | Seattle | 1 | All Maps","protocol":17,"map":"koth_harvest_final","folder":"tf","game":"Team Fortress","app_id":440,"player_count":20,"max_players":24,"Bots":0,"server_type":"Dedicated","server_os":"Linux","password":true,"vac":true,"version":"7961495","steam_id":85568392924469997,"keywords":["cp","nocrits","nodmgspread","uncletopia"],"game_id":440,"stv_port":27016,"stv_name":"Uncletopia | Seattle | 1 | All Maps | STV","players":[{"user_id":411,"name":"Soap Man","steam_id":76561198000490235,"connected_time":5367000000000,"state":"spawning","ping":176},{"user_id":532,"name":"Dova","steam_id":76561198079481047,"connected_time":540000000000,"state":"active","ping":67},{"user_id":334,"name":"Nom Skirrett","steam_id":76561198014600788,"connected_time":8792000000000,"state":"active","ping":68},{"user_id":523,"name":"dearender the burger fan","steam_id":76561199427644498,"connected_time":834000000000,"state":"active","ping":49},{"user_id":412,"name":"Inspecteur Spie","steam_id":76561198082825407,"connected_time":5355000000000,"state":"active","ping":60},{"user_id":543,"name":"Walter White","steam_id":76561199102963294,"connected_time":22000000000,"state":"connecting","ping":59},{"user_id":489,"name":"Fh","steam_id":76561198000903511,"connected_time":3596000000000,"state":"active","ping":140},{"user_id":524,"name":"Battle Bug","steam_id":76561198005793034,"connected_time":803000000000,"state":"active","ping":31},{"user_id":541,"name":"Kzjytsugn","steam_id":76561198130241974,"connected_time":152000000000,"state":"active","ping":31},{"user_id":542,"name":"Mocha Josie","steam_id":76561198066452726,"connected_time":112000000000,"state":"active","ping":66},{"user_id":540,"name":"Skoad","steam_id":76561198104650528,"connected_time":165000000000,"state":"active","ping":64},{"user_id":539,"name":"jumpyjumpjumpjumps","steam_id":76561199176218871,"connected_time":168000000000,"state":"active","ping":45},{"user_id":516,"name":"Arsonist Goose","steam_id":76561198147441830,"connected_time":1234000000000,"state":"active","ping":71},{"user_id":521,"name":"too many fives","steam_id":76561198128465482,"connected_time":950000000000,"state":"active","ping":100},{"user_id":526,"name":"Misterwipeout","steam_id":76561198068900320,"connected_time":748000000000,"state":"active","ping":42},{"user_id":496,"name":"Amateur Glaswegian","steam_id":76561198030851956,"connected_time":3422000000000,"state":"active","ping":46},{"user_id":510,"name":"MaDeuce","steam_id":76561198110732835,"connected_time":1969000000000,"state":"active","ping":59},{"user_id":533,"name":"Caramel_Chalice","steam_id":76561198307609692,"connected_time":472000000000,"state":"active","ping":39},{"user_id":383,"name":"\u003c blank \u003e","steam_id":76561198097188001,"connected_time":6401000000000,"state":"active","ping":37},{"user_id":535,"name":"Wolviren","steam_id":76561198088276375,"connected_time":435000000000,"state":"active","ping":77}]},{"server_id":119,"name":"Uncletopia | Seattle | 2 | All Maps","name_short":"sea-2","host":"sea-1.us.uncletopia.com","port":27025,"enabled":true,"region":"us-west","cc":"us","latitude":47.608013,"longitude":-122.33517,"reserved":0,"last_update":"0001-01-01T00:00:00Z","name_a2s":"Uncletopia | Seattle | 2 | All Maps","protocol":17,"map":"cp_snakewater_final1","folder":"tf","game":"Team Fortress","app_id":440,"player_count":0,"max_players":24,"Bots":0,"server_type":"Dedicated","server_os":"Linux","password":true,"vac":true,"version":"7961495","steam_id":85568392924469998,"keywords":["cp","nocrits","nodmgspread","uncletopia"],"game_id":440,"stv_port":27026,"stv_name":"Uncletopia | Seattle | 2 | All Maps | STV","players":null},{"server_id":406,"name":"Uncletopia | Seattle | 3 | Stopwatch","name_short":"sea-3","host":"sea-1.us.uncletopia.com","port":27035,"enabled":true,"region":"us-west","cc":"us","latitude":47.608013,"longitude":-122.33517,"reserved":0,"last_update":"0001-01-01T00:00:00Z","name_a2s":"Uncletopia | Seattle | 3 | Stopwatch","protocol":17,"map":"workshop/koth_product_final.ugc454272353","folder":"tf","game":"Team Fortress","app_id":440,"player_count":0,"max_players":24,"Bots":0,"server_type":"Dedicated","server_os":"Linux","password":true,"vac":true,"version":"7961495","steam_id":85568392924515217,"keywords":["cp","nocrits","nodmgspread","uncletopia"],"game_id":440,"stv_port":27036,"stv_name":"Uncletopia | Seattle | 3 | Stopwatch | STV","players":null},{"server_id":17,"name":"Uncletopia | San Francisco | 1 | All Maps","name_short":"sfo-1","host":"sfo-1.us.uncletopia.com","port":27015,"enabled":true,"region":"us-west","cc":"us","latitude":37.77397,"longitude":-122.4313,"reserved":0,"last_update":"0001-01-01T00:00:00Z","name_a2s":"Uncletopia | San Francisco | 1 | All Maps","protocol":17,"map":"cp_process_final","folder":"tf","game":"Team Fortress","app_id":440,"player_count":24,"max_players":24,"Bots":0,"server_type":"Dedicated","server_os":"Linux","password":true,"vac":true,"version":"7961495","steam_id":85568392924469999,"keywords":["cp","nocrits","nodmgspread","uncletopia"],"game_id":440,"stv_port":27016,"stv_name":"Uncletopia | San Francisco | 1 | All Maps | STV","players":[{"user_id":36,"name":"asm_ghost","steam_id":76561199205363547,"connected_time":1970000000000,"state":"active","ping":61},{"user_id":32,"name":"ohnocringe","steam_id":76561199381232082,"connected_time":2743000000000,"state":"active","ping":88},{"user_id":30,"name":"The Lord of Bread","steam_id":76561199203901420,"connected_time":3374000000000,"state":"active","ping":44},{"user_id":33,"name":"Antking14","steam_id":76561198188971771,"connected_time":2447000000000,"state":"active","ping":69},{"user_id":34,"name":"[Industrial] A_HUMBLEBUMBLED","steam_id":76561198064771878,"connected_time":2201000000000,"state":"active","ping":53},{"user_id":35,"name":"Taco+Taco=Burrito","steam_id":76561198063128663,"connected_time":2146000000000,"state":"active","ping":49},{"user_id":46,"name":"ninety9dragonfly","steam_id":76561198363406983,"connected_time":1225000000000,"state":"active","ping":57},{"user_id":38,"name":"Lard","steam_id":76561198290315229,"connected_time":1737000000000,"state":"active","ping":60},{"user_id":42,"name":"Evarrel","steam_id":76561199508242414,"connected_time":1323000000000,"state":"active","ping":79},{"user_id":40,"name":"The_Cow.mp4","steam_id":76561198398709316,"connected_time":1725000000000,"state":"active","ping":58},{"user_id":45,"name":"PlasticPepsiCan","steam_id":76561199226783116,"connected_time":1289000000000,"state":"active","ping":53},{"user_id":48,"name":"\u003c3","steam_id":76561198287590881,"connected_time":1150000000000,"state":"active","ping":122},{"user_id":49,"name":"HOG RIDER","steam_id":76561198298589502,"connected_time":1139000000000,"state":"active","ping":56},{"user_id":55,"name":"thats crazy","steam_id":76561198095480838,"connected_time":842000000000,"state":"active","ping":64},{"user_id":52,"name":"celestia ludenberg","steam_id":76561199196437823,"connected_time":962000000000,"state":"active","ping":67},{"user_id":62,"name":"puffer","steam_id":76561199049164456,"connected_time":623000000000,"state":"active","ping":58},{"user_id":54,"name":"Dragonsalt","steam_id":76561198141927559,"connected_time":916000000000,"state":"active","ping":65},{"user_id":56,"name":"Starfruit66","steam_id":76561198069917277,"connected_time":800000000000,"state":"active","ping":57},{"user_id":57,"name":"golebdoo","steam_id":76561198237496978,"connected_time":784000000000,"state":"active","ping":60},{"user_id":58,"name":"what're ya buyin","steam_id":76561199277633460,"connected_time":746000000000,"state":"active","ping":55},{"user_id":59,"name":"Capitalism","steam_id":76561198068677316,"connected_time":739000000000,"state":"active","ping":71},{"user_id":60,"name":"Truce","steam_id":76561198044334346,"connected_time":729000000000,"state":"active","ping":74},{"user_id":61,"name":"poole party","steam_id":76561198099234665,"connected_time":708000000000,"state":"active","ping":47},{"user_id":63,"name":"IMPROBABLE FLIPPING","steam_id":76561198045964573,"connected_time":450000000000,"state":"active","ping":60}]},{"server_id":18,"name":"Uncletopia | San Francisco | 2 | All Maps","name_short":"sfo-2","host":"sfo-1.us.uncletopia.com","port":27025,"enabled":true,"region":"us-west","cc":"us","latitude":37.77397,"longitude":-122.4313,"reserved":0,"last_update":"0001-01-01T00:00:00Z","name_a2s":"Uncletopia | San Francisco | 2 | All Maps","protocol":17,"map":"pl_thundermountain","folder":"tf","game":"Team Fortress","app_id":440,"player_count":24,"max_players":24,"Bots":0,"server_type":"Dedicated","server_os":"Linux","password":true,"vac":true,"version":"7961495","steam_id":85568392924470000,"keywords":["nocrits","nodmgspread","payload","uncletopia"],"game_id":440,"stv_port":27026,"stv_name":"Uncletopia | San Francisco | 2 | All Maps | STV","players":[{"user_id":176,"name":"RainboomCrash","steam_id":76561198065612273,"connected_time":3306000000000,"state":"active","ping":67},{"user_id":185,"name":"HanakoToast","steam_id":76561198045233131,"connected_time":2554000000000,"state":"active","ping":68},{"user_id":194,"name":"SmallErection","steam_id":76561198071770147,"connected_time":1652000000000,"state":"active","ping":87},{"user_id":183,"name":"Sylvain","steam_id":76561198113385271,"connected_time":2773000000000,"state":"active","ping":114},{"user_id":202,"name":"Pixelated Pussy","steam_id":76561198002511088,"connected_time":125000000000,"state":"active","ping":60},{"user_id":196,"name":"gulch","steam_id":76561199227946025,"connected_time":1632000000000,"state":"active","ping":82},{"user_id":189,"name":"OGBobbyJohns","steam_id":76561197964339077,"connected_time":2166000000000,"state":"active","ping":62},{"user_id":200,"name":"[TGP] T-Virus","steam_id":76561198001963208,"connected_time":788000000000,"state":"active","ping":57},{"user_id":172,"name":"Sivolt#2314","steam_id":76561199103106232,"connected_time":3355000000000,"state":"active","ping":51},{"user_id":159,"name":"Igrium","steam_id":76561198119549811,"connected_time":3873000000000,"state":"active","ping":48},{"user_id":197,"name":"Mirce","steam_id":76561198100889621,"connected_time":1627000000000,"state":"active","ping":106},{"user_id":188,"name":"Keamy","steam_id":76561199471434875,"connected_time":2237000000000,"state":"active","ping":60},{"user_id":190,"name":"Urban","steam_id":76561198840725170,"connected_time":2158000000000,"state":"active","ping":70},{"user_id":201,"name":"Cacophony","steam_id":76561198047474050,"connected_time":651000000000,"state":"active","ping":53},{"user_id":184,"name":"Seriously Bruh","steam_id":76561198070408485,"connected_time":2762000000000,"state":"active","ping":81},{"user_id":187,"name":"Kilian","steam_id":76561197964374101,"connected_time":2498000000000,"state":"active","ping":60},{"user_id":181,"name":"GreenBlah","steam_id":76561198009178916,"connected_time":2978000000000,"state":"active","ping":63},{"user_id":203,"name":"ForAPessimistImPrettyOptimistic","steam_id":76561198170128009,"connected_time":108000000000,"state":"active","ping":57},{"user_id":177,"name":"Civokat","steam_id":76561198389885427,"connected_time":3240000000000,"state":"active","ping":60},{"user_id":178,"name":"some nerd","steam_id":76561198297272878,"connected_time":3219000000000,"state":"active","ping":56},{"user_id":153,"name":"noceof","steam_id":76561198043656816,"connected_time":4283000000000,"state":"active","ping":155},{"user_id":179,"name":"Dr. Juvenal","steam_id":76561198114553453,"connected_time":3187000000000,"state":"active","ping":70},{"user_id":199,"name":"Viewie","steam_id":76561198280108853,"connected_time":1575000000000,"state":"active","ping":125},{"user_id":157,"name":"foofydafoofer","steam_id":76561199395830278,"connected_time":4188000000000,"state":"active","ping":67}]},{"server_id":19,"name":"Uncletopia | San Francisco | 3 | Stopwatch","name_short":"sfo-3","host":"sfo-1.us.uncletopia.com","port":27035,"enabled":true,"region":"us-west","cc":"us","latitude":37.77397,"longitude":-122.4313,"reserved":0,"last_update":"0001-01-01T00:00:00Z","name_a2s":"Uncletopia | San Francisco | 3 | Stopwatch","protocol":17,"map":"workshop/koth_product_final.ugc454272353","folder":"tf","game":"Team Fortress","app_id":440,"player_count":0,"max_players":24,"Bots":0,"server_type":"Dedicated","server_os":"Linux","password":true,"vac":true,"version":"7961495","steam_id":85568392924742824,"keywords":["cp","nocrits","nodmgspread","uncletopia"],"game_id":440,"stv_port":27036,"stv_name":"Uncletopia | San Francisco | 3 | Stopwatch | STV","players":null},{"server_id":20,"name":"Uncletopia | San Francisco | 4 | Community","name_short":"sfo-4","host":"sfo-1.us.uncletopia.com","port":27045,"enabled":true,"region":"us-west","cc":"us","latitude":37.77397,"longitude":-122.4313,"reserved":0,"last_update":"0001-01-01T00:00:00Z","name_a2s":"Uncletopia | San Francisco | 4 | Community","protocol":17,"map":"workshop/cp_alloy_rc3.ugc592805587","folder":"tf","game":"Team Fortress","app_id":440,"player_count":0,"max_players":24,"Bots":0,"server_type":"Dedicated","server_os":"Linux","password":true,"vac":true,"version":"7961495","steam_id":85568392924742826,"keywords":["cp","nocrits","nodmgspread","uncletopia"],"game_id":440,"stv_port":27046,"stv_name":"Uncletopia | San Francisco | 4 | Community | STV","players":null},{"server_id":141,"name":"Uncletopia | Sydney | 1 | All Maps","name_short":"syd-1","host":"syd-1.au.uncletopia.com","port":27015,"enabled":true,"region":"au","cc":"au","latitude":-33.865143,"longitude":151.2099,"reserved":0,"last_update":"0001-01-01T00:00:00Z","name_a2s":"Uncletopia | Sydney | 1 | All Maps","protocol":17,"map":"koth_nucleus","folder":"tf","game":"Team Fortress","app_id":440,"player_count":0,"max_players":24,"Bots":0,"server_type":"Dedicated","server_os":"Linux","password":true,"vac":true,"version":"7961495","steam_id":85568392924470001,"keywords":["cp","nocrits","nodmgspread","uncletopia"],"game_id":440,"stv_port":27016,"stv_name":"Uncletopia | Sydney | 1 | All Maps | STV","players":null},{"server_id":123,"name":"Uncletopia | Sydney | 2 | All Maps","name_short":"syd-2","host":"syd-1.au.uncletopia.com","port":27025,"enabled":true,"region":"au","cc":"au","latitude":-33.865143,"longitude":151.2099,"reserved":0,"last_update":"0001-01-01T00:00:00Z","name_a2s":"Uncletopia | Sydney | 2 | All Maps","protocol":17,"map":"cp_fastlane","folder":"tf","game":"Team Fortress","app_id":440,"player_count":0,"max_players":24,"Bots":0,"server_type":"Dedicated","server_os":"Linux","password":true,"vac":true,"version":"7961495","steam_id":85568392924470002,"keywords":["cp","nocrits","nodmgspread","uncletopia"],"game_id":440,"stv_port":27026,"stv_name":"Uncletopia | Sydney | 2 | All Maps | STV","players":null},{"server_id":395,"name":"Uncletopia | Sydney | 3 | All Maps","name_short":"syd-3","host":"syd-1.au.uncletopia.com","port":27035,"enabled":true,"region":"au","cc":"au","latitude":-33.865143,"longitude":151.2099,"reserved":0,"last_update":"0001-01-01T00:00:00Z","name_a2s":"Uncletopia | Sydney | 3 | All Maps","protocol":17,"map":"cp_metalworks","folder":"tf","game":"Team Fortress","app_id":440,"player_count":0,"max_players":24,"Bots":0,"server_type":"Dedicated","server_os":"Linux","password":true,"vac":true,"version":"7961495","steam_id":85568392925194467,"keywords":["cp","nocrits","nodmgspread","uncletopia"],"game_id":440,"stv_port":27036,"stv_name":"Uncletopia | Sydney | 3 | All Maps | STV","players":null},{"server_id":396,"name":"Uncletopia | Sydney | 4 | All Maps","name_short":"syd-4","host":"syd-1.au.uncletopia.com","port":27045,"enabled":true,"region":"au","cc":"au","latitude":-33.865143,"longitude":151.2099,"reserved":0,"last_update":"0001-01-01T00:00:00Z","name_a2s":"Uncletopia | Sydney | 4 | All Maps","protocol":17,"map":"koth_cascade","folder":"tf","game":"Team Fortress","app_id":440,"player_count":0,"max_players":24,"Bots":0,"server_type":"Dedicated","server_os":"Linux","password":true,"vac":true,"version":"7961495","steam_id":85568392925397958,"keywords":["cp","nocrits","nodmgspread","uncletopia"],"game_id":440,"stv_port":27046,"stv_name":"Uncletopia | Sydney | 4 | All Maps | STV","players":null},{"server_id":58,"name":"Uncletopia | Sydney | 5 | Stopwatch","name_short":"syd-5","host":"syd-1.au.uncletopia.com","port":27055,"enabled":true,"region":"au","cc":"au","latitude":-33.865143,"longitude":151.2099,"reserved":0,"last_update":"0001-01-01T00:00:00Z","name_a2s":"Uncletopia | Sydney | 5 | Stopwatch","protocol":17,"map":"workshop/koth_product_final.ugc454272353","folder":"tf","game":"Team Fortress","app_id":440,"player_count":0,"max_players":24,"Bots":0,"server_type":"Dedicated","server_os":"Linux","password":true,"vac":true,"version":"7961495","steam_id":85568392925397959,"keywords":["cp","nocrits","nodmgspread","uncletopia"],"game_id":440,"stv_port":27056,"stv_name":"Uncletopia | Sydney | 5 | Stopwatch | STV","players":null},{"server_id":59,"name":"Uncletopia | Sydney | 6 | Community","name_short":"syd-6","host":"syd-1.au.uncletopia.com","port":27065,"enabled":true,"region":"au","cc":"au","latitude":-33.865143,"longitude":151.2099,"reserved":0,"last_update":"0001-01-01T00:00:00Z","name_a2s":"Uncletopia | Sydney | 6 | Community","protocol":17,"map":"workshop/koth_trenchfoot_ab1.ugc731436616","folder":"tf","game":"Team Fortress","app_id":440,"player_count":0,"max_players":24,"Bots":0,"server_type":"Dedicated","server_os":"Linux","password":true,"vac":true,"version":"7961495","steam_id":85568392925397960,"keywords":["cp","nocrits","nodmgspread","uncletopia"],"game_id":440,"stv_port":27066,"stv_name":"Uncletopia | Sydney | 6 | Community | STV","players":null},{"server_id":49,"name":"Uncletopia | Warsaw | 1 | One Thousand Uncles","name_short":"waw-1","host":"waw-1.pl.uncletopia.com","port":27015,"enabled":true,"region":"eu","cc":"pl","latitude":52.2297,"longitude":21.017532,"reserved":0,"last_update":"0001-01-01T00:00:00Z","name_a2s":"Uncletopia | Warsaw | 1 | One Thousand Uncles","protocol":17,"map":"cp_mercenarypark","folder":"tf","game":"Team Fortress","app_id":440,"player_count":0,"max_players":32,"Bots":0,"server_type":"Dedicated","server_os":"Linux","password":true,"vac":true,"version":"7961495","steam_id":85568392925397850,"keywords":["alltalk","cp","danepve","increased_maxplayers","norespawntime","uncletopia"],"game_id":440,"stv_port":0,"stv_name":"","players":null},{"server_id":50,"name":"Uncletopia | Warsaw | 2 | One Thousand Uncles","name_short":"waw-2","host":"waw-1.pl.uncletopia.com","port":27025,"enabled":true,"region":"eu","cc":"pl","latitude":52.2297,"longitude":21.017532,"reserved":0,"last_update":"0001-01-01T00:00:00Z","name_a2s":"Uncletopia | Warsaw | 2 | One Thousand Uncles","protocol":17,"map":"pl_thundermountain","folder":"tf","game":"Team Fortress","app_id":440,"player_count":27,"max_players":32,"Bots":16,"server_type":"Dedicated","server_os":"Linux","password":true,"vac":true,"version":"7961495","steam_id":85568392925397851,"keywords":["alltalk","bots","danepve","increased_maxplayers","norespawntime","payload","uncletopia"],"game_id":440,"stv_port":0,"stv_name":"","players":[{"user_id":824,"name":"Tx_madmash","steam_id":76561198924656512,"connected_time":426000000000,"state":"active","ping":121},{"user_id":746,"name":"Damin","steam_id":76561198204500297,"connected_time":7178000000000,"state":"active","ping":63},{"user_id":821,"name":"Sir Lancelot","steam_id":76561198049709392,"connected_time":754000000000,"state":"active","ping":90},{"user_id":788,"name":"Cheshireycat","steam_id":76561198067204908,"connected_time":4569000000000,"state":"active","ping":90},{"user_id":822,"name":"Dapper Pan Man","steam_id":76561197981874399,"connected_time":612000000000,"state":"active","ping":59},{"user_id":817,"name":"Voks_","steam_id":76561198159687785,"connected_time":1246000000000,"state":"active","ping":72},{"user_id":814,"name":"Cr1spy","steam_id":76561198352080718,"connected_time":1584000000000,"state":"active","ping":188},{"user_id":823,"name":"Mr_Pulse_","steam_id":76561198095001602,"connected_time":601000000000,"state":"active","ping":102},{"user_id":825,"name":"Vamp_Moira_TTV","steam_id":76561198206111420,"connected_time":93000000000,"state":"active","ping":43},{"user_id":826,"name":"OutOfDucks","steam_id":76561198166376227,"connected_time":61000000000,"state":"active","ping":77},{"user_id":577,"name":"Phisor","steam_id":76561198233450952,"connected_time":22831000000000,"state":"active","ping":66}]},{"server_id":51,"name":"Uncletopia | Warsaw | 3 | All Maps","name_short":"waw-3","host":"waw-1.pl.uncletopia.com","port":27035,"enabled":true,"region":"eu","cc":"pl","latitude":52.2297,"longitude":21.017532,"reserved":0,"last_update":"0001-01-01T00:00:00Z","name_a2s":"Uncletopia | Warsaw | 3 | All Maps","protocol":17,"map":"koth_highpass","folder":"tf","game":"Team Fortress","app_id":440,"player_count":0,"max_players":24,"Bots":0,"server_type":"Dedicated","server_os":"Linux","password":true,"vac":true,"version":"7961495","steam_id":85568392925397852,"keywords":["cp","nocrits","nodmgspread","uncletopia"],"game_id":440,"stv_port":27036,"stv_name":"Uncletopia | Warsaw | 3 | All Maps | STV","players":null},{"server_id":52,"name":"Uncletopia | Warsaw | 4 | All Maps","name_short":"waw-4","host":"waw-1.pl.uncletopia.com","port":27045,"enabled":true,"region":"eu","cc":"pl","latitude":52.2297,"longitude":21.017532,"reserved":0,"last_update":"0001-01-01T00:00:00Z","name_a2s":"Uncletopia | Warsaw | 4 | All Maps","protocol":17,"map":"koth_highpass","folder":"tf","game":"Team Fortress","app_id":440,"player_count":0,"max_players":24,"Bots":0,"server_type":"Dedicated","server_os":"Linux","password":true,"vac":true,"version":"7961495","steam_id":85568392925397853,"keywords":["cp","nocrits","nodmgspread","uncletopia"],"game_id":440,"stv_port":27046,"stv_name":"Uncletopia | Warsaw | 4 | All Maps | STV","players":null},{"server_id":53,"name":"Uncletopia | Warsaw | 5 | Stopwatch","name_short":"waw-5","host":"waw-1.pl.uncletopia.com","port":27055,"enabled":true,"region":"eu","cc":"pl","latitude":52.2297,"longitude":21.017532,"reserved":0,"last_update":"0001-01-01T00:00:00Z","name_a2s":"Uncletopia | Warsaw | 5 | Stopwatch","protocol":17,"map":"workshop/koth_clearcut_b15.ugc2107050255","folder":"tf","game":"Team Fortress","app_id":440,"player_count":0,"max_players":24,"Bots":0,"server_type":"Dedicated","server_os":"Linux","password":true,"vac":true,"version":"7961495","steam_id":85568392925397854,"keywords":["cp","nocrits","nodmgspread","uncletopia"],"game_id":440,"stv_port":27056,"stv_name":"Uncletopia | Warsaw | 5 | Stopwatch | STV","players":null},{"server_id":54,"name":"Uncletopia | Warsaw | 6 | Community","name_short":"waw-6","host":"waw-1.pl.uncletopia.com","port":27065,"enabled":true,"region":"eu","cc":"pl","latitude":52.2297,"longitude":21.017532,"reserved":0,"last_update":"0001-01-01T00:00:00Z","name_a2s":"Uncletopia | Warsaw | 6 | Community","protocol":17,"map":"workshop/cp_coilblaze_rc7.ugc1272700588","folder":"tf","game":"Team Fortress","app_id":440,"player_count":0,"max_players":24,"Bots":0,"server_type":"Dedicated","server_os":"Linux","password":true,"vac":true,"version":"7961495","steam_id":85568392925397856,"keywords":["cp","nocrits","nodmgspread","uncletopia"],"game_id":440,"stv_port":27066,"stv_name":"Uncletopia | Warsaw | 6 | Community | STV","players":null}]}