{"status":true,"message":"","result":[{"server_id":9,"name":"Uncletopia | Atlanta | 1 | All Maps","name_short":"atl-1","host":"atl-1.us.uncletopia.com","port":27015,"enabled":true,"region":"us-east","cc":"us","latitude":33.753746,"longitude":-84.38633,"reserved":0,"last_update":"0001-01-01T00:00:00Z","name_a2s":"Uncletopia | Atlanta | 1 | All Maps","protocol":17,"map":"pl_chilly","folder":"tf","game":"Team Fortress","app_id":440,"player_count":24,"max_players":24,"Bots":0,"server_type":"Dedicated","server_os":"Linux","password":true,"vac":true,"version":"7708610","steam_id":85568392924469982,"keywords":["nocrits","nodmgspread","payload","uncletopia"],"game_id":440,"stv_port":27016,"stv_name":"Uncletopia | Atlanta | 1 | All Maps | STV","players":[{"user_id":163,"name":"NotoriousLERG","steam_id":76561199097749930,"connected_time":1649000000000,"state":"active","ping":88},{"user_id":169,"name":"ATL1 | a very merry ma0re","steam_id":76561199231971506,"connected_time":1302000000000,"state":"active","ping":64},{"user_id":128,"name":"「SK8TR」","steam_id":76561199389089862,"connected_time":6992000000000,"state":"active","ping":160},{"user_id":177,"name":"AtlasWarMachine","steam_id":76561198309487226,"connected_time":454000000000,"state":"active","ping":100},{"user_id":144,"name":"Jin","steam_id":76561198119873148,"connected_time":5349000000000,"state":"active","ping":71},{"user_id":155,"name":"Quiggles","steam_id":76561199177247655,"connected_time":3264000000000,"state":"active","ping":56},{"user_id":156,"name":"The Squid Gamer™","steam_id":76561198340621517,"connected_time":3263000000000,"state":"active","ping":109},{"user_id":178,"name":"TRHD_Pharaxer™","steam_id":76561198051236069,"connected_time":401000000000,"state":"active","ping":159},{"user_id":167,"name":"littlecatking","steam_id":76561199041359755,"connected_time":1323000000000,"state":"active","ping":82},{"user_id":151,"name":"Royal","steam_id":76561198319509387,"connected_time":3819000000000,"state":"active","ping":62},{"user_id":157,"name":"SnowStorm","steam_id":76561198095817025,"connected_time":3203000000000,"state":"active","ping":41},{"user_id":181,"name":"com lag","steam_id":76561198019019392,"connected_time":93000000000,"state":"active","ping":68},{"user_id":159,"name":"lu","steam_id":76561198080731872,"connected_time":1803000000000,"state":"active","ping":74},{"user_id":101,"name":"I'm Only 4 Inches","steam_id":76561198055542546,"connected_time":9963000000000,"state":"active","ping":61},{"user_id":176,"name":"Stampdawg","steam_id":76561198050500060,"connected_time":533000000000,"state":"active","ping":78},{"user_id":179,"name":"Vanya","steam_id":76561198042631561,"connected_time":264000000000,"state":"active","ping":79},{"user_id":174,"name":"Dreszerg","steam_id":76561198838757422,"connected_time":699000000000,"state":"active","ping":76},{"user_id":127,"name":"FancyBones","steam_id":76561198180198885,"connected_time":7096000000000,"state":"active","ping":69},{"user_id":136,"name":"Medic","steam_id":76561198067869016,"connected_time":6137000000000,"state":"active","ping":73},{"user_id":126,"name":"xyt0nix","steam_id":76561199437938235,"connected_time":7112000000000,"state":"active","ping":57},{"user_id":118,"name":"Bunt","steam_id":76561198124477567,"connected_time":8103000000000,"state":"active","ping":41},{"user_id":137,"name":"BotchyAlarm8","steam_id":76561198092682129,"connected_time":6082000000000,"state":"active","ping":62},{"user_id":152,"name":"ATL1 | Dec the halls","steam_id":76561199045608372,"connected_time":3294000000000,"state":"active","ping":75},{"user_id":153,"name":"ATL0 Dedi Le4n!!!","steam_id":76561198045522596,"connected_time":3293000000000,"state":"active","ping":70}]},{"server_id":400,"name":"Uncletopia | Atlanta | 3 | All Maps","name_short":"atl-3","host":"atl-1.us.uncletopia.com","port":27035,"enabled":true,"region":"us-east","cc":"us","latitude":33.753746,"longitude":-84.38633,"reserved":0,"last_update":"0001-01-01T00:00:00Z","name_a2s":"Uncletopia | Atlanta | 3 | All Maps","protocol":17,"map":"pl_borneo","folder":"tf","game":"Team Fortress","app_id":440,"player_count":24,"max_players":24,"Bots":0,"server_type":"Dedicated","server_os":"Linux","password":true,"vac":true,"version":"7708610","steam_id":85568392924515187,"keywords":["nocrits","nodmgspread","payload","uncletopia"],"game_id":440,"stv_port":27036,"stv_name":"Uncletopia | Atlanta | 3 | All Maps | STV","players":[{"user_id":172,"name":"Serenue","steam_id":76561199040361250,"connected_time":796000000000,"state":"active","ping":84},{"user_id":176,"name":"jose.ramirez2007","steam_id":76561198060477131,"connected_time":495000000000,"state":"active","ping":70},{"user_id":63,"name":"Zoawsome","steam_id":76561198018758753,"connected_time":8989000000000,"state":"active","ping":70},{"user_id":157,"name":"BEAswacks93 (she/her)","steam_id":76561199222250828,"connected_time":1205000000000,"state":"active","ping":94},{"user_id":158,"name":"Wolfwu - BUFF THE SPEED","steam_id":76561198864421290,"connected_time":1180000000000,"state":"active","ping":44},{"user_id":165,"name":"OmniXVII","steam_id":76561198027183394,"connected_time":994000000000,"state":"active","ping":94},{"user_id":139,"name":"ZaneTree","steam_id":76561198304661367,"connected_time":2763000000000,"state":"active","ping":60},{"user_id":160,"name":"soup","steam_id":76561198099977572,"connected_time":1076000000000,"state":"active","ping":76},{"user_id":177,"name":"Grape Juice","steam_id":76561198380337568,"connected_time":449000000000,"state":"active","ping":64},{"user_id":129,"name":"♥","steam_id":76561198401455467,"connected_time":3051000000000,"state":"active","ping":104},{"user_id":161,"name":"Sidro","steam_id":76561198027214362,"connected_time":1061000000000,"state":"active","ping":79},{"user_id":162,"name":"Renrir","steam_id":76561198059109570,"connected_time":1052000000000,"state":"active","ping":83},{"user_id":163,"name":"Remy the rat","steam_id":76561198080519558,"connected_time":1012000000000,"state":"active","ping":63},{"user_id":179,"name":"Fight Milk","steam_id":76561198046189668,"connected_time":90000000000,"state":"active","ping":73},{"user_id":153,"name":"HALO 3","steam_id":76561198020825795,"connected_time":2009000000000,"state":"active","ping":61},{"user_id":166,"name":"Huge eevee fan","steam_id":76561198128057732,"connected_time":991000000000,"state":"active","ping":110},{"user_id":171,"name":"trilobita","steam_id":76561198428215606,"connected_time":865000000000,"state":"active","ping":70},{"user_id":168,"name":"Onyx","steam_id":76561198275349640,"connected_time":989000000000,"state":"active","ping":82},{"user_id":87,"name":"wolf_71","steam_id":76561198963570945,"connected_time":7540000000000,"state":"active","ping":62},{"user_id":175,"name":"onion","steam_id":76561198242311084,"connected_time":552000000000,"state":"active","ping":44},{"user_id":178,"name":"Red","steam_id":76561197998285162,"connected_time":445000000000,"state":"active","ping":83},{"user_id":142,"name":"peachy","steam_id":76561198026664629,"connected_time":2749000000000,"state":"active","ping":62},{"user_id":170,"name":"dorcelessness","steam_id":76561198097427947,"connected_time":985000000000,"state":"active","ping":151},{"user_id":145,"name":"MajorSwags","steam_id":76561199013011235,"connected_time":2587000000000,"state":"active","ping":90}]},{"server_id":401,"name":"Uncletopia | Atlanta | 4 | No Payload","name_short":"atl-4","host":"atl-1.us.uncletopia.com","port":27045,"enabled":true,"region":"us-east","cc":"us","latitude":33.753746,"longitude":-84.38633,"reserved":0,"last_update":"0001-01-01T00:00:00Z","name_a2s":"Uncletopia | Atlanta | 4 | No Payload","protocol":17,"map":"cp_freight_final1","folder":"tf","game":"Team Fortress","app_id":440,"player_count":17,"max_players":24,"Bots":0,"server_type":"Dedicated","server_os":"Linux","password":true,"vac":true,"version":"7708610","steam_id":85568392924515188,"keywords":["cp","nocrits","nodmgspread","uncletopia"],"game_id":440,"stv_port":27046,"stv_name":"Uncletopia | Atlanta | 4 | No Payload | STV","players":[{"user_id":78,"name":"Jeffenthropus","steam_id":76561198134204248,"connected_time":477000000000,"state":"active","ping":68},{"user_id":69,"name":"Jolt","steam_id":76561198168669087,"connected_time":897000000000,"state":"active","ping":60},{"user_id":5,"name":"P-4rio","steam_id":76561198003593070,"connected_time":4791000000000,"state":"active","ping":75},{"user_id":6,"name":"boydicicco","steam_id":76561197980329684,"connected_time":4625000000000,"state":"active","ping":70},{"user_id":83,"name":"Moth","steam_id":76561198240217310,"connected_time":156000000000,"state":"active","ping":94},{"user_id":84,"name":"♥ Femboy♥Ventily ♥","steam_id":76561198157260335,"connected_time":33000000000,"state":"active","ping":109},{"user_id":70,"name":"Lost","steam_id":76561198025933206,"connected_time":856000000000,"state":"active","ping":66},{"user_id":79,"name":"Funne Monke","steam_id":76561198147868601,"connected_time":430000000000,"state":"active","ping":111},{"user_id":80,"name":"Drilly22","steam_id":76561198068838338,"connected_time":348000000000,"state":"active","ping":92},{"user_id":75,"name":"Float","steam_id":76561197990405845,"connected_time":677000000000,"state":"active","ping":110},{"user_id":20,"name":"PyroTechno","steam_id":76561198060929872,"connected_time":3845000000000,"state":"active","ping":63},{"user_id":50,"name":"oberhausmatt","steam_id":76561198377673739,"connected_time":2535000000000,"state":"active","ping":93},{"user_id":67,"name":"Pan Gaming","steam_id":76561198364372609,"connected_time":1193000000000,"state":"active","ping":118},{"user_id":81,"name":"dipinpreet","steam_id":76561198329035044,"connected_time":336000000000,"state":"active","ping":73},{"user_id":77,"name":"freeyman81","steam_id":76561199104215632,"connected_time":636000000000,"state":"active","ping":70},{"user_id":57,"name":"unoriginal","steam_id":76561198205397801,"connected_time":2082000000000,"state":"active","ping":46},{"user_id":72,"name":"neeIs","steam_id":76561198152459871,"connected_time":844000000000,"state":"active","ping":52}]},{"server_id":2,"name":"Uncletopia | Chicago | 1 | All Maps","name_short":"chi-1","host":"chi-1.us.uncletopia.com","port":27015,"enabled":true,"region":"us-central","cc":"us","latitude":41.881832,"longitude":-87.62318,"reserved":0,"last_update":"0001-01-01T00:00:00Z","name_a2s":"Uncletopia | Chicago | 1 | All Maps","protocol":17,"map":"pl_barnblitz","folder":"tf","game":"Team Fortress","app_id":440,"player_count":24,"max_players":24,"Bots":0,"server_type":"Dedicated","server_os":"Linux","password":true,"vac":true,"version":"7708610","steam_id":85568392924469984,"keywords":["nocrits","nodmgspread","payload","uncletopia"],"game_id":440,"stv_port":27016,"stv_name":"Uncletopia | Chicago | 1 | All Maps | STV","players":[{"user_id":429,"name":"Pan Piotr","steam_id":76561198140016126,"connected_time":587000000000,"state":"active","ping":165},{"user_id":359,"name":"John Darksoul","steam_id":76561198031675881,"connected_time":5365000000000,"state":"active","ping":45},{"user_id":434,"name":"garf","steam_id":76561198088228311,"connected_time":107000000000,"state":"active","ping":62},{"user_id":368,"name":"stop","steam_id":76561198268686419,"connected_time":4322000000000,"state":"active","ping":49},{"user_id":402,"name":"TheMeatlyShaymin","steam_id":76561199078945620,"connected_time":2121000000000,"state":"active","ping":56},{"user_id":398,"name":"robert","steam_id":76561198001196512,"connected_time":2192000000000,"state":"active","ping":57},{"user_id":426,"name":"john Bloodborne","steam_id":76561199002452936,"connected_time":667000000000,"state":"active","ping":54},{"user_id":433,"name":"what","steam_id":76561198082336619,"connected_time":307000000000,"state":"active","ping":73},{"user_id":404,"name":"DJ hypersonic","steam_id":76561198819861623,"connected_time":2115000000000,"state":"active","ping":106},{"user_id":428,"name":"women fish me","steam_id":76561198153245906,"connected_time":650000000000,"state":"active","ping":64},{"user_id":409,"name":"{[F.H]} Hydroida","steam_id":76561197999797274,"connected_time":1720000000000,"state":"active","ping":54},{"user_id":427,"name":"anonpain","steam_id":76561198081317092,"connected_time":659000000000,"state":"active","ping":53},{"user_id":390,"name":"Federico","steam_id":76561198411873065,"connected_time":2772000000000,"state":"active","ping":120},{"user_id":414,"name":"Potato","steam_id":76561198989551964,"connected_time":1357000000000,"state":"active","ping":47},{"user_id":237,"name":"Potato-Protein-Pancake","steam_id":76561198027198306,"connected_time":14799000000000,"state":"active","ping":57},{"user_id":418,"name":"JaegerB4","steam_id":76561199225138429,"connected_time":1049000000000,"state":"active","ping":68},{"user_id":430,"name":"Glitchy","steam_id":76561198037920420,"connected_time":579000000000,"state":"active","ping":120},{"user_id":367,"name":"Floattube","steam_id":76561198005720144,"connected_time":4428000000000,"state":"active","ping":60},{"user_id":389,"name":"Gordan Timlothle","steam_id":76561198272013678,"connected_time":2874000000000,"state":"active","ping":66},{"user_id":431,"name":"BIG LION","steam_id":76561198091880358,"connected_time":539000000000,"state":"active","ping":45},{"user_id":408,"name":"Lemony Lilly (She/Her)","steam_id":76561198042479066,"connected_time":1819000000000,"state":"active","ping":77},{"user_id":425,"name":"asbestos","steam_id":76561198079178866,"connected_time":680000000000,"state":"active","ping":74},{"user_id":377,"name":"Kaluka","steam_id":76561198036861445,"connected_time":4132000000000,"state":"active","ping":81},{"user_id":424,"name":"BillButtLicker69","steam_id":76561198070119268,"connected_time":684000000000,"state":"active","ping":110}]},{"server_id":106,"name":"Uncletopia | Chicago | 2 | All Maps","name_short":"chi-2","host":"chi-1.us.uncletopia.com","port":27025,"enabled":true,"region":"us-central","cc":"us","latitude":41.881832,"longitude":-87.62318,"reserved":0,"last_update":"0001-01-01T00:00:00Z","name_a2s":"Uncletopia | Chicago | 2 | All Maps","protocol":17,"map":"pl_upward","folder":"tf","game":"Team Fortress","app_id":440,"player_count":24,"max_players":24,"Bots":0,"server_type":"Dedicated","server_os":"Linux","password":true,"vac":true,"version":"7708610","steam_id":85568392924469985,"keywords":["nocrits","nodmgspread","payload","uncletopia"],"game_id":440,"stv_port":27026,"stv_name":"Uncletopia | Chicago | 2 | All Maps | STV","players":[{"user_id":250,"name":"lola","steam_id":76561198133971971,"connected_time":2398000000000,"state":"active","ping":65},{"user_id":267,"name":"Dog Goggles","steam_id":76561197995233692,"connected_time":700000000000,"state":"active","ping":81},{"user_id":268,"name":"theActualPest","steam_id":76561198055327695,"connected_time":627000000000,"state":"active","ping":62},{"user_id":251,"name":"Brown_Dream","steam_id":76561198975766145,"connected_time":2137000000000,"state":"active","ping":74},{"user_id":275,"name":"Liquid Metal Slime from DQ9","steam_id":76561198061621275,"connected_time":500000000000,"state":"active","ping":75},{"user_id":278,"name":"Kohbold","steam_id":76561198996480140,"connected_time":221000000000,"state":"active","ping":73},{"user_id":246,"name":"Lv4 Gnoll Magus","steam_id":76561198042068995,"connected_time":2998000000000,"state":"active","ping":96},{"user_id":281,"name":"Candy Sparkles","steam_id":76561198126871264,"connected_time":9000000000,"state":"spawning","ping":93},{"user_id":280,"name":"Tuffy","steam_id":76561198044179049,"connected_time":17000000000,"state":"active","ping":61},{"user_id":266,"name":"Person","steam_id":76561198073885832,"connected_time":731000000000,"state":"active","ping":107},{"user_id":270,"name":"McNuggy","steam_id":76561199026751663,"connected_time":563000000000,"state":"active","ping":70},{"user_id":271,"name":"kibsta","steam_id":76561198991982630,"connected_time":557000000000,"state":"active","ping":80},{"user_id":272,"name":"Ros","steam_id":76561199055963822,"connected_time":554000000000,"state":"active","ping":85},{"user_id":264,"name":"Pills","steam_id":76561198799440163,"connected_time":819000000000,"state":"active","ping":102},{"user_id":181,"name":"Oomitch","steam_id":76561198071702759,"connected_time":8192000000000,"state":"active","ping":94},{"user_id":247,"name":"Catboy Potemkin","steam_id":76561198078474420,"connected_time":2882000000000,"state":"active","ping":65},{"user_id":165,"name":"gordon freeman christmas","steam_id":76561198367735460,"connected_time":9500000000000,"state":"active","ping":77},{"user_id":277,"name":"TheSublimePinaLover","steam_id":76561198052402618,"connected_time":483000000000,"state":"active","ping":91},{"user_id":274,"name":"ok","steam_id":76561198843092402,"connected_time":537000000000,"state":"active","ping":77},{"user_id":276,"name":"no","steam_id":76561198248853140,"connected_time":492000000000,"state":"active","ping":85},{"user_id":241,"name":"Nate","steam_id":76561198068225765,"connected_time":3634000000000,"state":"active","ping":62},{"user_id":200,"name":"porz","steam_id":76561198195711453,"connected_time":7079000000000,"state":"active","ping":62},{"user_id":253,"name":"Brandino!","steam_id":76561198000446932,"connected_time":1632000000000,"state":"active","ping":75},{"user_id":224,"name":"superbad","steam_id":76561198065913973,"connected_time":4181000000000,"state":"active","ping":105}]},{"server_id":402,"name":"Uncletopia | Chicago | 3 | All Maps","name_short":"chi-3","host":"chi-1.us.uncletopia.com","port":27035,"enabled":true,"region":"us-central","cc":"us","latitude":41.881832,"longitude":-87.62318,"reserved":0,"last_update":"0001-01-01T00:00:00Z","name_a2s":"Uncletopia | Chicago | 3 | All Maps","protocol":17,"map":"cp_sunshine","folder":"tf","game":"Team Fortress","app_id":440,"player_count":24,"max_players":24,"Bots":0,"server_type":"Dedicated","server_os":"Linux","password":true,"vac":true,"version":"7708610","steam_id":85568392924515191,"keywords":["cp","nocrits","nodmgspread","uncletopia"],"game_id":440,"stv_port":27036,"stv_name":"Uncletopia | Chicago | 3 | All Maps | STV","players":[{"user_id":84,"name":"vieodmsgea","steam_id":76561198025295263,"connected_time":554000000000,"state":"active","ping":75},{"user_id":60,"name":"leonardo doujinshi","steam_id":76561198025810326,"connected_time":1239000000000,"state":"active","ping":60},{"user_id":96,"name":"tofu yum yum","steam_id":76561198026589960,"connected_time":366000000000,"state":"active","ping":59},{"user_id":58,"name":"Asanez3","steam_id":76561198037381436,"connected_time":1433000000000,"state":"active","ping":69},{"user_id":25,"name":"bane","steam_id":76561198196769297,"connected_time":2468000000000,"state":"active","ping":58},{"user_id":65,"name":"Lil_Ghost","steam_id":76561198141892875,"connected_time":1031000000000,"state":"active","ping":73},{"user_id":62,"name":"FrostyFrontier","steam_id":76561198370530394,"connected_time":1098000000000,"state":"active","ping":59},{"user_id":28,"name":"merry math #playoffsmode","steam_id":76561198053967778,"connected_time":2348000000000,"state":"active","ping":59},{"user_id":97,"name":"ZodiacThundaga","steam_id":76561199025117814,"connected_time":248000000000,"state":"active","ping":66},{"user_id":63,"name":"really hot pocket","steam_id":76561198239297686,"connected_time":1058000000000,"state":"active","ping":61},{"user_id":64,"name":"fiesta de guerra","steam_id":76561198114603745,"connected_time":1050000000000,"state":"active","ping":97},{"user_id":66,"name":"keffers | Chrimbus Time","steam_id":76561198202338796,"connected_time":1023000000000,"state":"active","ping":71},{"user_id":67,"name":"SmissmasGamer","steam_id":76561198144049265,"connected_time":985000000000,"state":"active","ping":55},{"user_id":68,"name":"SomeMarker","steam_id":76561199129771792,"connected_time":973000000000,"state":"active","ping":67},{"user_id":33,"name":"scarybroccoli","steam_id":76561198296440084,"connected_time":2252000000000,"state":"active","ping":74},{"user_id":69,"name":"frid","steam_id":76561198005806915,"connected_time":965000000000,"state":"active","ping":61},{"user_id":98,"name":"Bobby","steam_id":76561198164004939,"connected_time":193000000000,"state":"active","ping":111},{"user_id":53,"name":"toastman","steam_id":76561198207073088,"connected_time":1729000000000,"state":"active","ping":65},{"user_id":79,"name":"Kuyumiester","steam_id":76561198126835302,"connected_time":702000000000,"state":"active","ping":68},{"user_id":89,"name":"MR.Badatgames","steam_id":76561198820423721,"connected_time":493000000000,"state":"active","ping":53},{"user_id":73,"name":"Kzjytsugn","steam_id":76561198130241974,"connected_time":928000000000,"state":"active","ping":90},{"user_id":91,"name":"hop","steam_id":76561199024529738,"connected_time":474000000000,"state":"active","ping":100},{"user_id":92,"name":"he suckin on my rick til i mort","steam_id":76561198310711692,"connected_time":464000000000,"state":"active","ping":170},{"user_id":78,"name":"neet","steam_id":76561197968115168,"connected_time":864000000000,"state":"active","ping":59}]},{"server_id":403,"name":"Uncletopia | Chicago | 4 | All Maps","name_short":"chi-4","host":"chi-1.us.uncletopia.com","port":27045,"enabled":true,"region":"us-central","cc":"us","latitude":41.881832,"longitude":-87.62318,"reserved":0,"last_update":"0001-01-01T00:00:00Z","name_a2s":"Uncletopia | Chicago | 4 | All Maps","protocol":17,"map":"koth_cascade","folder":"tf","game":"Team Fortress","app_id":440,"player_count":24,"max_players":24,"Bots":0,"server_type":"Dedicated","server_os":"Linux","password":true,"vac":true,"version":"7708610","steam_id":85568392924515193,"keywords":["cp","nocrits","nodmgspread","uncletopia"],"game_id":440,"stv_port":27046,"stv_name":"Uncletopia | Chicago | 4 | All Maps | STV","players":[{"user_id":254,"name":"Pescado","steam_id":76561198122437426,"connected_time":124000000000,"state":"active","ping":87},{"user_id":204,"name":"Nobody","steam_id":76561198286486517,"connected_time":2006000000000,"state":"active","ping":61},{"user_id":241,"name":"Generic Steλm User","steam_id":76561198324993923,"connected_time":515000000000,"state":"active","ping":150},{"user_id":208,"name":"StarLy","steam_id":76561198174428289,"connected_time":1692000000000,"state":"active","ping":80},{"user_id":226,"name":"mah dood","steam_id":76561198970102360,"connected_time":1120000000000,"state":"active","ping":112},{"user_id":242,"name":"girl.","steam_id":76561198314897603,"connected_time":496000000000,"state":"active","ping":54},{"user_id":209,"name":"John16Mark","steam_id":76561198119445407,"connected_time":1684000000000,"state":"active","ping":86},{"user_id":210,"name":"Sylvaris","steam_id":76561198156678773,"connected_time":1655000000000,"state":"active","ping":72},{"user_id":219,"name":"McNamJam","steam_id":76561198028128686,"connected_time":1423000000000,"state":"active","ping":93},{"user_id":246,"name":"stuporvillian","steam_id":76561198083796225,"connected_time":402000000000,"state":"active","ping":58},{"user_id":244,"name":"valake","steam_id":76561198058015552,"connected_time":474000000000,"state":"active","ping":105},{"user_id":205,"name":"Reversed","steam_id":76561198136433466,"connected_time":1994000000000,"state":"active","ping":51},{"user_id":238,"name":"Camfour","steam_id":76561198083090140,"connected_time":642000000000,"state":"active","ping":93},{"user_id":248,"name":"Randy \"the Man\" Johnson","steam_id":76561198039124445,"connected_time":363000000000,"state":"active","ping":88},{"user_id":253,"name":"frank","steam_id":76561198045436159,"connected_time":207000000000,"state":"active","ping":70},{"user_id":249,"name":"Nic0","steam_id":76561198305690218,"connected_time":350000000000,"state":"active","ping":70},{"user_id":255,"name":"YUNG QUIMBIS","steam_id":76561198882485028,"connected_time":112000000000,"state":"active","ping":45},{"user_id":229,"name":"Marie","steam_id":76561198056104899,"connected_time":913000000000,"state":"active","ping":82},{"user_id":227,"name":"Zaibar","steam_id":76561199038467562,"connected_time":954000000000,"state":"active","ping":119},{"user_id":250,"name":"Hobocop","steam_id":76561198076321907,"connected_time":331000000000,"state":"active","ping":81},{"user_id":230,"name":"toq","steam_id":76561198400316620,"connected_time":870000000000,"state":"active","ping":89},{"user_id":239,"name":"Rein","steam_id":76561198300340427,"connected_time":635000000000,"state":"active","ping":63},{"user_id":251,"name":"dirty dank","steam_id":76561198360904432,"connected_time":321000000000,"state":"active","ping":67},{"user_id":138,"name":"Van","steam_id":76561198073518712,"connected_time":8206000000000,"state":"active","ping":66}]},{"server_id":36,"name":"Uncletopia | Chicago | 5 | All Maps","name_short":"chi-5","host":"chi-2.us.uncletopia.com","port":27015,"enabled":true,"region":"us-central","cc":"us","latitude":41.881832,"longitude":-87.62318,"reserved":0,"last_update":"0001-01-01T00:00:00Z","name_a2s":"Uncletopia | Chicago | 5 | All Maps","protocol":17,"map":"koth_lakeside_final","folder":"tf","game":"Team Fortress","app_id":440,"player_count":0,"max_players":24,"Bots":0,"server_type":"Dedicated","server_os":"Linux","password":true,"vac":true,"version":"7708610","steam_id":85568392924866362,"keywords":["cp","nocrits","nodmgspread","uncletopia"],"game_id":440,"stv_port":27016,"stv_name":"Uncletopia | Chicago | 5 | All Maps | STV","players":null},{"server_id":37,"name":"Uncletopia | Chicago | 6 | All Maps","name_short":"chi-6","host":"chi-2.us.uncletopia.com","port":27025,"enabled":true,"region":"us-central","cc":"us","latitude":41.881832,"longitude":-87.62318,"reserved":0,"last_update":"0001-01-01T00:00:00Z","name_a2s":"Uncletopia | Chicago | 6 | All Maps","protocol":17,"map":"cp_sunshine","folder":"tf","game":"Team Fortress","app_id":440,"player_count":0,"max_players":24,"Bots":0,"server_type":"Dedicated","server_os":"Linux","password":true,"vac":true,"version":"7708610","steam_id":85568392924866363,"keywords":["cp","nocrits","nodmgspread","uncletopia"],"game_id":440,"stv_port":27026,"stv_name":"Uncletopia | Chicago | 6 | All Maps | STV","players":null},{"server_id":38,"name":"Uncletopia | Chicago | 7 | No Payload","name_short":"chi-7","host":"chi-2.us.uncletopia.com","port":27035,"enabled":true,"region":"us-central","cc":"us","latitude":41.881832,"longitude":-87.62318,"reserved":0,"last_update":"0001-01-01T00:00:00Z","name_a2s":"Uncletopia | Chicago | 7 | No Payload","protocol":17,"map":"cp_dustbowl","folder":"tf","game":"Team Fortress","app_id":440,"player_count":0,"max_players":24,"Bots":0,"server_type":"Dedicated","server_os":"Linux","password":true,"vac":true,"version":"7708610","steam_id":85568392924866364,"keywords":["cp","nocrits","nodmgspread","uncletopia"],"game_id":440,"stv_port":27036,"stv_name":"Uncletopia | Chicago | 7 | No Payload | STV","players":null},{"server_id":39,"name":"Uncletopia | Chicago | 8 | Community","name_short":"chi-8","host":"chi-2.us.uncletopia.com","port":27045,"enabled":true,"region":"us-central","cc":"us","latitude":41.881832,"longitude":-87.62318,"reserved":0,"last_update":"0001-01-01T00:00:00Z","name_a2s":"Uncletopia | Chicago | 8 | Community","protocol":17,"map":"workshop/cp_caldera_rc2.ugc2834196889","folder":"tf","game":"Team Fortress","app_id":440,"player_count":0,"max_players":24,"Bots":0,"server_type":"Dedicated","server_os":"Linux","password":true,"vac":true,"version":"7708610","steam_id":85568392924866365,"keywords":["cp","nocrits","nodmgspread","uncletopia"],"game_id":440,"stv_port":27046,"stv_name":"Uncletopia | Chicago | 8 | Community | STV","players":null},{"server_id":8,"name":"Uncletopia | Dallas | 1 | All Maps","name_short":"dal-1","host":"dal-1.us.uncletopia.com","port":27015,"enabled":true,"region":"us-central","cc":"us","latitude":32.779167,"longitude":-96.80889,"reserved":0,"last_update":"0001-01-01T00:00:00Z","name_a2s":"Uncletopia | Dallas | 1 | All Maps","protocol":17,"map":"pl_borneo","folder":"tf","game":"Team Fortress","app_id":440,"player_count":1,"max_players":24,"Bots":0,"server_type":"Dedicated","server_os":"Linux","password":true,"vac":true,"version":"7708610","steam_id":85568392924469986,"keywords":["nocrits","nodmgspread","payload","uncletopia"],"game_id":440,"stv_port":27016,"stv_name":"Uncletopia | Dallas | 1 | All Maps | STV","players":[{"user_id":19,"name":"Fishstall","steam_id":76561198038126034,"connected_time":257000000000,"state":"active","ping":54}]},{"server_id":108,"name":"Uncletopia | Dallas | 2 | All Maps","name_short":"dal-2","host":"dal-1.us.uncletopia.com","port":27025,"enabled":true,"region":"us-central","cc":"us","latitude":32.779167,"longitude":-96.80889,"reserved":0,"last_update":"0001-01-01T00:00:00Z","name_a2s":"Uncletopia | Dallas | 2 | All Maps","protocol":17,"map":"koth_highpass","folder":"tf","game":"Team Fortress","app_id":440,"player_count":0,"max_players":24,"Bots":0,"server_type":"Dedicated","server_os":"Linux","password":true,"vac":true,"version":"7708610","steam_id":85568392924469988,"keywords":["cp","nocrits","nodmgspread","uncletopia"],"game_id":440,"stv_port":27026,"stv_name":"Uncletopia | Dallas | 2 | All Maps | STV","players":null},{"server_id":5,"name":"Uncletopia | Frankfurt | 1 | All Maps","name_short":"frk-1","host":"frk-1.de.uncletopia.com","port":27015,"enabled":true,"region":"eu","cc":"de","latitude":50.110924,"longitude":8.682127,"reserved":0,"last_update":"0001-01-01T00:00:00Z","name_a2s":"Uncletopia | Frankfurt | 1 | All Maps","protocol":17,"map":"cp_mountainlab","folder":"tf","game":"Team Fortress","app_id":440,"player_count":24,"max_players":24,"Bots":0,"server_type":"Dedicated","server_os":"Linux","password":true,"vac":true,"version":"7708610","steam_id":85568392924469989,"keywords":["cp","nocrits","nodmgspread","uncletopia"],"game_id":440,"stv_port":27016,"stv_name":"Uncletopia | Frankfurt | 1 | All Maps | STV","players":[{"user_id":724,"name":"Løbbeh","steam_id":76561198071861251,"connected_time":221000000000,"state":"active","ping":84},{"user_id":692,"name":"glyphoglossus molossus","steam_id":76561198191291749,"connected_time":4638000000000,"state":"active","ping":63},{"user_id":725,"name":"Fales","steam_id":76561198126124929,"connected_time":219000000000,"state":"active","ping":62},{"user_id":710,"name":"Gnarville","steam_id":76561198006373329,"connected_time":1889000000000,"state":"active","ping":60},{"user_id":631,"name":"Serton♝","steam_id":76561198011061126,"connected_time":8873000000000,"state":"active","ping":90},{"user_id":728,"name":"DM_Tiz","steam_id":76561198061478257,"connected_time":118000000000,"state":"active","ping":45},{"user_id":705,"name":"fogings","steam_id":76561198044165284,"connected_time":2776000000000,"state":"active","ping":34},{"user_id":731,"name":"NOTHING TO IT","steam_id":76561198104896547,"connected_time":82000000000,"state":"active","ping":75},{"user_id":709,"name":"=OKB= P4NTH3R","steam_id":76561197999204603,"connected_time":2235000000000,"state":"active","ping":53},{"user_id":686,"name":"giclure :;","steam_id":76561197986362828,"connected_time":4762000000000,"state":"active","ping":55},{"user_id":716,"name":"Kevin","steam_id":76561198035625423,"connected_time":1239000000000,"state":"active","ping":69},{"user_id":729,"name":"puck","steam_id":76561198121260981,"connected_time":97000000000,"state":"active","ping":57},{"user_id":616,"name":"Festdoktor","steam_id":76561198058159271,"connected_time":9808000000000,"state":"active","ping":62},{"user_id":730,"name":"KillerPotato!","steam_id":76561198071283721,"connected_time":89000000000,"state":"active","ping":75},{"user_id":732,"name":"(1)kevin","steam_id":76561198363842731,"connected_time":82000000000,"state":"active","ping":60},{"user_id":718,"name":"HeroldBaum","steam_id":76561198063420715,"connected_time":560000000000,"state":"active","ping":45},{"user_id":703,"name":"tone","steam_id":76561197975301462,"connected_time":2787000000000,"state":"active","ping":69},{"user_id":617,"name":"LarsInABox","steam_id":76561198028329262,"connected_time":9788000000000,"state":"active","ping":73},{"user_id":733,"name":"Meuki","steam_id":76561197967295793,"connected_time":69000000000,"state":"active","ping":45},{"user_id":715,"name":"TaroPlant","steam_id":76561198122927374,"connected_time":1378000000000,"state":"active","ping":117},{"user_id":720,"name":"Kanny","steam_id":76561198058810184,"connected_time":413000000000,"state":"active","ping":62},{"user_id":708,"name":"ΩvetabolΩ","steam_id":76561199015064558,"connected_time":2556000000000,"state":"active","ping":106},{"user_id":734,"name":"Domex","steam_id":76561198091313278,"connected_time":25000000000,"state":"active","ping":179},{"user_id":721,"name":"sol316","steam_id":76561198242607954,"connected_time":388000000000,"state":"active","ping":50}]},{"server_id":110,"name":"Uncletopia | Frankfurt | 2 | All Maps","name_short":"frk-2","host":"frk-1.de.uncletopia.com","port":27025,"enabled":true,"region":"eu","cc":"de","latitude":50.110924,"longitude":8.682127,"reserved":0,"last_update":"0001-01-01T00:00:00Z","name_a2s":"Uncletopia | Frankfurt | 2 | All Maps","protocol":17,"map":"cp_sunshine","folder":"tf","game":"Team Fortress","app_id":440,"player_count":0,"max_players":24,"Bots":0,"server_type":"Dedicated","server_os":"Linux","password":true,"vac":true,"version":"7708610","steam_id":85568392924469990,"keywords":["cp","nocrits","nodmgspread","uncletopia"],"game_id":440,"stv_port":27026,"stv_name":"Uncletopia | Frankfurt | 2 | All Maps | STV","players":null},{"server_id":308,"name":"Uncletopia | Frankfurt | 3 | All Maps","name_short":"frk-3","host":"frk-1.de.uncletopia.com","port":27035,"enabled":true,"region":"eu","cc":"de","latitude":50.110924,"longitude":8.682127,"reserved":0,"last_update":"0001-01-01T00:00:00Z","name_a2s":"Uncletopia | Frankfurt | 3 | All Maps","protocol":17,"map":"pl_badwater","folder":"tf","game":"Team Fortress","app_id":440,"player_count":24,"max_players":24,"Bots":0,"server_type":"Dedicated","server_os":"Linux","password":true,"vac":true,"version":"7708610","steam_id":85568392924504274,"keywords":["nocrits","nodmgspread","payload","uncletopia"],"game_id":440,"stv_port":27036,"stv_name":"Uncletopia | Frankfurt | 3 | All Maps | STV","players":[{"user_id":480,"name":"Fox","steam_id":76561198052541711,"connected_time":5868000000000,"state":"active","ping":61},{"user_id":538,"name":"petepeter65","steam_id":76561198084174868,"connected_time":2241000000000,"state":"active","ping":58},{"user_id":539,"name":"Stirmir","steam_id":76561198129826009,"connected_time":2228000000000,"state":"active","ping":86},{"user_id":559,"name":"Tort","steam_id":76561198329646769,"connected_time":24000000000,"state":"active","ping":58},{"user_id":556,"name":"fiyahstorm","steam_id":76561197992574261,"connected_time":338000000000,"state":"active","ping":54},{"user_id":547,"name":"nynon","steam_id":76561197998432126,"connected_time":1319000000000,"state":"active","ping":86},{"user_id":541,"name":"QuantumSleeper","steam_id":76561198082347638,"connected_time":1889000000000,"state":"active","ping":67},{"user_id":548,"name":"Dr.Livesey","steam_id":76561198423099559,"connected_time":1312000000000,"state":"active","ping":69},{"user_id":549,"name":"sv_opor 13123","steam_id":76561198002229612,"connected_time":1312000000000,"state":"active","ping":68},{"user_id":523,"name":"Mex","steam_id":76561198108279631,"connected_time":2899000000000,"state":"active","ping":73},{"user_id":555,"name":"ODanial","steam_id":76561198034854402,"connected_time":986000000000,"state":"active","ping":85},{"user_id":455,"name":"Luke SpyWalker","steam_id":76561198008643276,"connected_time":7222000000000,"state":"active","ping":60},{"user_id":557,"name":"Sylbar","steam_id":76561198065379590,"connected_time":324000000000,"state":"active","ping":56},{"user_id":479,"name":"zoinks!","steam_id":76561198068645362,"connected_time":5927000000000,"state":"active","ping":59},{"user_id":542,"name":"Apox","steam_id":76561198008005377,"connected_time":1884000000000,"state":"active","ping":58},{"user_id":550,"name":"Average Enjoyer","steam_id":76561198889819695,"connected_time":1307000000000,"state":"active","ping":70},{"user_id":551,"name":"mishka.*","steam_id":76561198040003628,"connected_time":1294000000000,"state":"active","ping":76},{"user_id":483,"name":"Clitorina","steam_id":76561198077570815,"connected_time":5790000000000,"state":"active","ping":55},{"user_id":552,"name":"pardner","steam_id":76561198451471161,"connected_time":1276000000000,"state":"active","ping":68},{"user_id":532,"name":"bepis","steam_id":76561198060355012,"connected_time":2507000000000,"state":"active","ping":62},{"user_id":533,"name":"Kwan","steam_id":76561198116003936,"connected_time":2503000000000,"state":"active","ping":69},{"user_id":545,"name":"Listerine Larry","steam_id":76561198093229786,"connected_time":1615000000000,"state":"active","ping":66},{"user_id":554,"name":"ProfessorCrack","steam_id":76561199035475627,"connected_time":1066000000000,"state":"active","ping":82},{"user_id":558,"name":"Umbro","steam_id":76561198087930438,"connected_time":170000000000,"state":"active","ping":76}]},{"server_id":309,"name":"Uncletopia | Frankfurt | 4 | All Maps","name_short":"frk-4","host":"frk-1.de.uncletopia.com","port":27045,"enabled":true,"region":"eu","cc":"de","latitude":50.110924,"longitude":8.682127,"reserved":0,"last_update":"0001-01-01T00:00:00Z","name_a2s":"Uncletopia | Frankfurt | 4 | All Maps","protocol":17,"map":"pl_badwater","folder":"tf","game":"Team Fortress","app_id":440,"player_count":24,"max_players":24,"Bots":0,"server_type":"Dedicated","server_os":"Linux","password":true,"vac":true,"version":"7708610","steam_id":85568392924504275,"keywords":["nocrits","nodmgspread","payload","uncletopia"],"game_id":440,"stv_port":27046,"stv_name":"Uncletopia | Frankfurt | 4 | All Maps | STV","players":[{"user_id":408,"name":"steven","steam_id":76561198028240570,"connected_time":1091000000000,"state":"active","ping":56},{"user_id":391,"name":"glyph","steam_id":76561197980736364,"connected_time":2340000000000,"state":"active","ping":77},{"user_id":396,"name":"Spread Eagle","steam_id":76561198027738546,"connected_time":1750000000000,"state":"active","ping":74},{"user_id":394,"name":"Bumblebee","steam_id":76561198033551105,"connected_time":1810000000000,"state":"active","ping":56},{"user_id":407,"name":"Vince","steam_id":76561199103000131,"connected_time":1135000000000,"state":"active","ping":58},{"user_id":403,"name":"GregerUlander","steam_id":76561198152375055,"connected_time":1528000000000,"state":"active","ping":69},{"user_id":363,"name":"Tonne","steam_id":76561197970856766,"connected_time":3691000000000,"state":"active","ping":54},{"user_id":420,"name":"jotz","steam_id":76561199122329099,"connected_time":147000000000,"state":"active","ping":67},{"user_id":215,"name":"Proto-arc","steam_id":76561198012776747,"connected_time":13792000000000,"state":"active","ping":61},{"user_id":413,"name":"calum92","steam_id":76561197992188760,"connected_time":752000000000,"state":"active","ping":78},{"user_id":409,"name":"sugardeaddy","steam_id":76561198119469172,"connected_time":1075000000000,"state":"active","ping":88},{"user_id":374,"name":"Human Rights","steam_id":76561198102420849,"connected_time":3272000000000,"state":"active","ping":59},{"user_id":373,"name":"jones","steam_id":76561198044434971,"connected_time":3283000000000,"state":"active","ping":67},{"user_id":399,"name":"Halal Goku","steam_id":76561198161822358,"connected_time":1717000000000,"state":"active","ping":71},{"user_id":414,"name":"Plastic","steam_id":76561198026307715,"connected_time":739000000000,"state":"active","ping":55},{"user_id":400,"name":"saus","steam_id":76561198114729364,"connected_time":1684000000000,"state":"active","ping":61},{"user_id":415,"name":"Koli","steam_id":76561197992428783,"connected_time":709000000000,"state":"active","ping":45},{"user_id":417,"name":"braincell firmware update","steam_id":76561198129828715,"connected_time":310000000000,"state":"active","ping":73},{"user_id":416,"name":"Arnold Schwarzloch","steam_id":76561198804609222,"connected_time":636000000000,"state":"active","ping":57},{"user_id":301,"name":"nedilya","steam_id":76561198039692077,"connected_time":9174000000000,"state":"active","ping":60},{"user_id":412,"name":"Flex Finster","steam_id":76561198061632224,"connected_time":1000000000000,"state":"active","ping":50},{"user_id":384,"name":"Toad | Mario Kart Double Dash","steam_id":76561198374881425,"connected_time":2764000000000,"state":"active","ping":73},{"user_id":406,"name":"nobody","steam_id":76561198180637374,"connected_time":1275000000000,"state":"active","ping":88},{"user_id":419,"name":"i n n o","steam_id":76561199230689289,"connected_time":288000000000,"state":"active","ping":76}]},{"server_id":310,"name":"Uncletopia | Frankfurt | 5 | All Maps","name_short":"frk-5","host":"frk-1.de.uncletopia.com","port":27055,"enabled":true,"region":"eu","cc":"de","latitude":50.110924,"longitude":8.682127,"reserved":0,"last_update":"0001-01-01T00:00:00Z","name_a2s":"Uncletopia | Frankfurt | 5 | All Maps","protocol":17,"map":"pl_badwater","folder":"tf","game":"Team Fortress","app_id":440,"player_count":23,"max_players":24,"Bots":0,"server_type":"Dedicated","server_os":"Linux","password":true,"vac":true,"version":"7708610","steam_id":85568392924504277,"keywords":["nocrits","nodmgspread","payload","uncletopia"],"game_id":440,"stv_port":27056,"stv_name":"Uncletopia | Frankfurt | 5 | All Maps | STV","players":[{"user_id":633,"name":"SINUS SINUS COSINUS","steam_id":76561198060816677,"connected_time":999000000000,"state":"active","ping":54},{"user_id":638,"name":".EXE","steam_id":76561198197246753,"connected_time":929000000000,"state":"active","ping":79},{"user_id":641,"name":"Dolphin2011","steam_id":76561197997323419,"connected_time":753000000000,"state":"active","ping":89},{"user_id":550,"name":"Wyremingo","steam_id":76561198314337596,"connected_time":5770000000000,"state":"active","ping":81},{"user_id":647,"name":"Ocelot9610","steam_id":76561199227216384,"connected_time":480000000000,"state":"active","ping":71},{"user_id":619,"name":"pablo.gonzalez.2005","steam_id":76561198971389390,"connected_time":1605000000000,"state":"active","ping":62},{"user_id":644,"name":"Not A Fake Uncletopia Server","steam_id":76561198152871288,"connected_time":606000000000,"state":"active","ping":65},{"user_id":649,"name":"AND HIT IT!","steam_id":76561198030956814,"connected_time":255000000000,"state":"active","ping":80},{"user_id":645,"name":"Tonal","steam_id":76561198174285723,"connected_time":494000000000,"state":"active","ping":70},{"user_id":575,"name":"Badrock 1","steam_id":76561198368513115,"connected_time":3945000000000,"state":"active","ping":117},{"user_id":620,"name":"tf2 enjoyer","steam_id":76561199043416615,"connected_time":1596000000000,"state":"active","ping":48},{"user_id":626,"name":"Котлета Бога","steam_id":76561198014808352,"connected_time":1169000000000,"state":"active","ping":78},{"user_id":650,"name":"Toxicò","steam_id":76561199031920676,"connected_time":9000000000,"state":"spawning","ping":99},{"user_id":646,"name":"Dewotter","steam_id":76561198007653168,"connected_time":487000000000,"state":"active","ping":73},{"user_id":629,"name":"ash","steam_id":76561198004728744,"connected_time":1108000000000,"state":"active","ping":48},{"user_id":636,"name":"Jeg","steam_id":76561198405291408,"connected_time":970000000000,"state":"active","ping":60},{"user_id":637,"name":"Sergeant_Static","steam_id":76561198138983856,"connected_time":950000000000,"state":"active","ping":165},{"user_id":603,"name":"C++","steam_id":76561198214855155,"connected_time":2502000000000,"state":"active","ping":71},{"user_id":648,"name":"omnibombulator","steam_id":76561198025858897,"connected_time":475000000000,"state":"active","ping":62},{"user_id":623,"name":"Scotty","steam_id":76561197991276547,"connected_time":1526000000000,"state":"active","ping":49},{"user_id":639,"name":"sawsent","steam_id":76561198798526983,"connected_time":927000000000,"state":"active","ping":77},{"user_id":585,"name":"Check Messenger","steam_id":76561198043868408,"connected_time":3765000000000,"state":"active","ping":90},{"user_id":597,"name":"zeta307","steam_id":76561198010891875,"connected_time":2838000000000,"state":"active","ping":72}]},{"server_id":311,"name":"Uncletopia | Frankfurt | 6 | All Maps","name_short":"frk-6","host":"frk-1.de.uncletopia.com","port":27065,"enabled":true,"region":"eu","cc":"de","latitude":50.110924,"longitude":8.682127,"reserved":0,"last_update":"0001-01-01T00:00:00Z","name_a2s":"Uncletopia | Frankfurt | 6 | All Maps","protocol":17,"map":"pl_badwater","folder":"tf","game":"Team Fortress","app_id":440,"player_count":0,"max_players":24,"Bots":0,"server_type":"Dedicated","server_os":"Linux","password":true,"vac":true,"version":"7708610","steam_id":85568392924504278,"keywords":["nocrits","nodmgspread","payload","uncletopia"],"game_id":440,"stv_port":27066,"stv_name":"Uncletopia | Frankfurt | 6 | All Maps | STV","players":null},{"server_id":23,"name":"Uncletopia | Frankfurt | 7 | No Payload","name_short":"frk-7","host":"frk-1.de.uncletopia.com","port":27075,"enabled":true,"region":"eu","cc":"de","latitude":50.110924,"longitude":8.682127,"reserved":0,"last_update":"0001-01-01T00:00:00Z","name_a2s":"Uncletopia | Frankfurt | 7 | No Payload","protocol":17,"map":"plr_hightower","folder":"tf","game":"Team Fortress","app_id":440,"player_count":0,"max_players":24,"Bots":0,"server_type":"Dedicated","server_os":"Linux","password":true,"vac":true,"version":"7708610","steam_id":85568392924742827,"keywords":["nocrits","nodmgspread","payload","uncletopia"],"game_id":440,"stv_port":27076,"stv_name":"Uncletopia | Frankfurt | 7 | No Payload | STV","players":null},{"server_id":24,"name":"Uncletopia | Frankfurt | 8 | Community","name_short":"frk-8","host":"frk-1.de.uncletopia.com","port":27085,"enabled":true,"region":"eu","cc":"de","latitude":50.110924,"longitude":8.682127,"reserved":0,"last_update":"0001-01-01T00:00:00Z","name_a2s":"Uncletopia | Frankfurt | 8 | Community","protocol":17,"map":"workshop/koth_slaughter_rc1.ugc1712845210","folder":"tf","game":"Team Fortress","app_id":440,"player_count":0,"max_players":24,"Bots":0,"server_type":"Dedicated","server_os":"Linux","password":true,"vac":true,"version":"7708610","steam_id":85568392924742828,"keywords":["cp","nocrits","nodmgspread","uncletopia"],"game_id":440,"stv_port":27086,"stv_name":"Uncletopia | Frankfurt | 8 | Community | STV","players":null},{"server_id":202,"name":"Uncletopia | Hong Kong | 1 | All Maps","name_short":"hgk-1","host":"hgk-1.hk.uncletopia.com","port":27015,"enabled":true,"region":"asia","cc":"hk","latitude":22.302711,"longitude":114.177216,"reserved":0,"last_update":"0001-01-01T00:00:00Z","name_a2s":"Uncletopia | Hong Kong | 1 | All Maps","protocol":17,"map":"cp_mountainlab","folder":"tf","game":"Team Fortress","app_id":440,"player_count":0,"max_players":24,"Bots":0,"server_type":"Dedicated","server_os":"Linux","password":true,"vac":true,"version":"7708610","steam_id":85568392924494504,"keywords":["cp","nocrits","nodmgspread","uncletopia"],"game_id":440,"stv_port":27016,"stv_name":"Uncletopia | Hong Kong | 1 | All Maps | STV","players":null},{"server_id":1,"name":"Uncletopia | Los Angeles | 1 | All Maps","name_short":"lax-1","host":"lax-1.us.uncletopia.com","port":27015,"enabled":true,"region":"us-west","cc":"us","latitude":33.94279,"longitude":-118.41004,"reserved":0,"last_update":"0001-01-01T00:00:00Z","name_a2s":"Uncletopia | Los Angeles | 1 | All Maps","protocol":17,"map":"pl_pier","folder":"tf","game":"Team Fortress","app_id":440,"player_count":0,"max_players":24,"Bots":0,"server_type":"Dedicated","server_os":"Linux","password":true,"vac":true,"version":"7708610","steam_id":85568392924469991,"keywords":["nocrits","nodmgspread","payload","uncletopia"],"game_id":440,"stv_port":27016,"stv_name":"Uncletopia | Los Angeles | 1 | All Maps | STV","players":null},{"server_id":112,"name":"Uncletopia | Los Angeles | 2 | All Maps","name_short":"lax-2","host":"lax-1.us.uncletopia.com","port":27025,"enabled":true,"region":"us-west","cc":"us","latitude":33.94279,"longitude":-118.41004,"reserved":0,"last_update":"0001-01-01T00:00:00Z","name_a2s":"Uncletopia | Los Angeles | 2 | All Maps","protocol":17,"map":"pl_snowycoast","folder":"tf","game":"Team Fortress","app_id":440,"player_count":3,"max_players":24,"Bots":0,"server_type":"Dedicated","server_os":"Linux","password":true,"vac":true,"version":"7708610","steam_id":85568392924469992,"keywords":["nocrits","nodmgspread","payload","uncletopia"],"game_id":440,"stv_port":27026,"stv_name":"Uncletopia | Los Angeles | 2 | All Maps | STV","players":[{"user_id":5,"name":"Stimpry","steam_id":76561199055662248,"connected_time":1162000000000,"state":"active","ping":71},{"user_id":6,"name":"ZAWZARK","steam_id":76561199137607070,"connected_time":1145000000000,"state":"active","ping":107},{"user_id":8,"name":"TangenT","steam_id":76561198211278067,"connected_time":84000000000,"state":"active","ping":87}]},{"server_id":324,"name":"Uncletopia | Los Angeles | 3 | All Maps","name_short":"lax-3","host":"lax-1.us.uncletopia.com","port":27035,"enabled":true,"region":"us-west","cc":"us","latitude":33.94279,"longitude":-118.41004,"reserved":0,"last_update":"0001-01-01T00:00:00Z","name_a2s":"Uncletopia | Los Angeles | 3 | All Maps","protocol":17,"map":"pl_badwater","folder":"tf","game":"Team Fortress","app_id":440,"player_count":24,"max_players":24,"Bots":0,"server_type":"Dedicated","server_os":"Linux","password":true,"vac":true,"version":"7708610","steam_id":85568392924510198,"keywords":["nocrits","nodmgspread","payload","uncletopia"],"game_id":440,"stv_port":27036,"stv_name":"Uncletopia | Los Angeles | 3 | All Maps | STV","players":[{"user_id":457,"name":"sox","steam_id":76561198058474525,"connected_time":1120000000000,"state":"active","ping":92},{"user_id":472,"name":"Juanelo","steam_id":76561199096390505,"connected_time":148000000000,"state":"active","ping":82},{"user_id":426,"name":"An Old Lady","steam_id":76561198047480318,"connected_time":3835000000000,"state":"active","ping":65},{"user_id":466,"name":"Avid Anime Enjoyer","steam_id":76561198914146671,"connected_time":354000000000,"state":"active","ping":50},{"user_id":447,"name":"s0so ;)","steam_id":76561198339017271,"connected_time":1822000000000,"state":"active","ping":45},{"user_id":458,"name":"zinnk","steam_id":76561198092081825,"connected_time":1006000000000,"state":"active","ping":66},{"user_id":428,"name":"BrightOrangeMango","steam_id":76561198023144607,"connected_time":3464000000000,"state":"active","ping":56},{"user_id":444,"name":"Fermenting Kiwi","steam_id":76561198253303497,"connected_time":1918000000000,"state":"active","ping":86},{"user_id":462,"name":"LawlenMcVallen","steam_id":76561198049315303,"connected_time":672000000000,"state":"active","ping":70},{"user_id":441,"name":"net rough","steam_id":76561198131458027,"connected_time":2218000000000,"state":"active","ping":117},{"user_id":405,"name":"Tmiracle","steam_id":76561198052375275,"connected_time":5625000000000,"state":"active","ping":42},{"user_id":468,"name":"Wilhelmktx","steam_id":76561198158102295,"connected_time":278000000000,"state":"active","ping":95},{"user_id":469,"name":"🐺-Iwky-🦊","steam_id":76561198185616311,"connected_time":274000000000,"state":"active","ping":74},{"user_id":473,"name":"SLiPpeRyJoe.nosound","steam_id":76561197977206359,"connected_time":87000000000,"state":"active","ping":110},{"user_id":463,"name":"Volichristo","steam_id":76561198148924612,"connected_time":547000000000,"state":"active","ping":96},{"user_id":470,"name":"YellowAmarillo","steam_id":76561198331379703,"connected_time":267000000000,"state":"active","ping":123},{"user_id":377,"name":"Soap Man","steam_id":76561198000490235,"connected_time":7398000000000,"state":"active","ping":94},{"user_id":461,"name":"big sweaty","steam_id":76561197994594452,"connected_time":726000000000,"state":"active","ping":42},{"user_id":403,"name":"Altruisticailuridae","steam_id":76561198335295596,"connected_time":5776000000000,"state":"active","ping":49},{"user_id":471,"name":"Zell Da Sheepy","steam_id":76561198978753666,"connected_time":181000000000,"state":"active","ping":63},{"user_id":440,"name":"spot","steam_id":76561198151135298,"connected_time":2252000000000,"state":"active","ping":39},{"user_id":445,"name":"Mr. Yoshida","steam_id":76561198263829831,"connected_time":1861000000000,"state":"active","ping":72},{"user_id":465,"name":"GROOVYROOM","steam_id":76561199153684166,"connected_time":500000000000,"state":"active","ping":61},{"user_id":459,"name":"dewey","steam_id":76561198132791511,"connected_time":921000000000,"state":"active","ping":47}]},{"server_id":25,"name":"Uncletopia | Los Angeles | 4 | No Payload","name_short":"lax-4","host":"lax-1.us.uncletopia.com","port":27045,"enabled":true,"region":"us-west","cc":"us","latitude":33.94279,"longitude":-118.41004,"reserved":0,"last_update":"0001-01-01T00:00:00Z","name_a2s":"Uncletopia | Los Angeles | 4 | No Payload","protocol":17,"map":"cp_well","folder":"tf","game":"Team Fortress","app_id":440,"player_count":0,"max_players":24,"Bots":0,"server_type":"Dedicated","server_os":"Linux","password":true,"vac":true,"version":"7708610","steam_id":85568392924510199,"keywords":["cp","nocrits","nodmgspread","uncletopia"],"game_id":440,"stv_port":27046,"stv_name":"Uncletopia | Los Angeles | 4 | No Payload | STV","players":null},{"server_id":11,"name":"Uncletopia | London | 1 | All Maps","name_short":"lon-1","host":"lon-1.uk.uncletopia.com","port":27015,"enabled":true,"region":"eu","cc":"gb","latitude":51.509865,"longitude":-0.118092,"reserved":0,"last_update":"0001-01-01T00:00:00Z","name_a2s":"Uncletopia | London | 1 | All Maps","protocol":17,"map":"pl_badwater","folder":"tf","game":"Team Fortress","app_id":440,"player_count":12,"max_players":24,"Bots":0,"server_type":"Dedicated","server_os":"Linux","password":true,"vac":true,"version":"7708610","steam_id":85568392924367362,"keywords":["nocrits","nodmgspread","payload","uncletopia"],"game_id":440,"stv_port":27016,"stv_name":"Uncletopia | London | 1 | All Maps | STV","players":[{"user_id":464,"name":"festive jones","steam_id":76561198073975078,"connected_time":3615000000000,"state":"active","ping":42},{"user_id":498,"name":"Mango","steam_id":76561198139555709,"connected_time":918000000000,"state":"active","ping":46},{"user_id":495,"name":"OutOfDucks","steam_id":76561198166376227,"connected_time":1104000000000,"state":"active","ping":49},{"user_id":496,"name":"ERBLIN011","steam_id":76561198302006065,"connected_time":1101000000000,"state":"active","ping":91},{"user_id":497,"name":"Sonnakai","steam_id":76561198051688749,"connected_time":954000000000,"state":"active","ping":37},{"user_id":505,"name":"Gass","steam_id":76561198014284846,"connected_time":150000000000,"state":"active","ping":82},{"user_id":506,"name":"kivinen jumala","steam_id":76561198443632133,"connected_time":145000000000,"state":"active","ping":103},{"user_id":508,"name":"Gator GF","steam_id":76561198134378108,"connected_time":95000000000,"state":"active","ping":63},{"user_id":509,"name":"DODDLET","steam_id":76561199121736709,"connected_time":54000000000,"state":"active","ping":42},{"user_id":510,"name":"henry61016","steam_id":76561198986368469,"connected_time":40000000000,"state":"spawning","ping":68},{"user_id":511,"name":"Almonds","steam_id":76561199411891752,"connected_time":30000000000,"state":"spawning","ping":86},{"user_id":493,"name":"Nathan","steam_id":76561198040069336,"connected_time":1967000000000,"state":"active","ping":93}]},{"server_id":114,"name":"Uncletopia | London | 2 | All Maps","name_short":"lon-2","host":"lon-1.uk.uncletopia.com","port":27025,"enabled":true,"region":"eu","cc":"gb","latitude":51.509865,"longitude":-0.118092,"reserved":0,"last_update":"0001-01-01T00:00:00Z","name_a2s":"Uncletopia | London | 2 | All Maps","protocol":17,"map":"pl_swiftwater_final1","folder":"tf","game":"Team Fortress","app_id":440,"player_count":23,"max_players":24,"Bots":0,"server_type":"Dedicated","server_os":"Linux","password":true,"vac":true,"version":"7708610","steam_id":85568392924470941,"keywords":["nocrits","nodmgspread","payload","uncletopia"],"game_id":440,"stv_port":27026,"stv_name":"Uncletopia | London | 2 | All Maps | STV","players":[{"user_id":390,"name":"ghostie","steam_id":76561199097303487,"connected_time":1016000000000,"state":"active","ping":54},{"user_id":399,"name":"clumpofblankets","steam_id":76561199223085255,"connected_time":2000000000,"state":"spawning","ping":127},{"user_id":372,"name":"AoA Charger","steam_id":76561198838291029,"connected_time":1752000000000,"state":"active","ping":54},{"user_id":340,"name":"washed up","steam_id":76561198275742101,"connected_time":4948000000000,"state":"active","ping":69},{"user_id":379,"name":"a Sin","steam_id":76561198114382011,"connected_time":1578000000000,"state":"active","ping":103},{"user_id":395,"name":"The Walker","steam_id":76561199085024540,"connected_time":555000000000,"state":"active","ping":49},{"user_id":362,"name":"team fortress 2","steam_id":76561198029771708,"connected_time":3106000000000,"state":"active","ping":71},{"user_id":369,"name":"Труп Володя","steam_id":76561198035718457,"connected_time":2192000000000,"state":"active","ping":77},{"user_id":386,"name":"MagusCubed","steam_id":76561198083973944,"connected_time":1214000000000,"state":"active","ping":36},{"user_id":375,"name":"Lizardly","steam_id":76561198176750238,"connected_time":1699000000000,"state":"active","ping":71},{"user_id":397,"name":".Aq","steam_id":76561198043376092,"connected_time":59000000000,"state":"spawning","ping":107},{"user_id":393,"name":"Jampine","steam_id":76561198040419080,"connected_time":679000000000,"state":"active","ping":57},{"user_id":368,"name":"gatherer","steam_id":76561198378235611,"connected_time":2424000000000,"state":"active","ping":75},{"user_id":337,"name":"LemonLeCitron","steam_id":76561198215545267,"connected_time":5143000000000,"state":"active","ping":58},{"user_id":394,"name":"Kurage","steam_id":76561198021221288,"connected_time":672000000000,"state":"active","ping":71},{"user_id":391,"name":"WHUSSKEY","steam_id":76561198137827441,"connected_time":913000000000,"state":"active","ping":70},{"user_id":371,"name":"GigglingGibbon","steam_id":76561198389058247,"connected_time":2023000000000,"state":"active","ping":76},{"user_id":329,"name":"Sgreff","steam_id":76561198036304365,"connected_time":5572000000000,"state":"active","ping":44},{"user_id":338,"name":"Breizbuc","steam_id":76561198118220633,"connected_time":5122000000000,"state":"active","ping":54},{"user_id":383,"name":"BELADIT","steam_id":76561198011911501,"connected_time":1410000000000,"state":"active","ping":89},{"user_id":396,"name":"name","steam_id":76561198152620745,"connected_time":548000000000,"state":"active","ping":54},{"user_id":387,"name":"Aaron","steam_id":76561197990046953,"connected_time":1203000000000,"state":"active","ping":53},{"user_id":398,"name":"_Starlight_","steam_id":76561197993885738,"connected_time":34000000000,"state":"spawning","ping":116}]},{"server_id":320,"name":"Uncletopia | London | 3 | All Maps","name_short":"lon-3","host":"lon-1.uk.uncletopia.com","port":27035,"enabled":true,"region":"eu","cc":"gb","latitude":51.509865,"longitude":-0.118092,"reserved":0,"last_update":"0001-01-01T00:00:00Z","name_a2s":"Uncletopia | London | 3 | All Maps","protocol":17,"map":"cp_sunshine","folder":"tf","game":"Team Fortress","app_id":440,"player_count":23,"max_players":24,"Bots":0,"server_type":"Dedicated","server_os":"Linux","password":true,"vac":true,"version":"7708610","steam_id":85568392924510192,"keywords":["cp","nocrits","nodmgspread","uncletopia"],"game_id":440,"stv_port":27036,"stv_name":"Uncletopia | London | 3 | All Maps | STV","players":[{"user_id":373,"name":"Fleck15","steam_id":76561198187945410,"connected_time":432000000000,"state":"active","ping":68},{"user_id":386,"name":"☩ Knightz ☩","steam_id":76561198040936414,"connected_time":20000000000,"state":"spawning","ping":108},{"user_id":374,"name":"ArikMor","steam_id":76561199124472513,"connected_time":410000000000,"state":"active","ping":123},{"user_id":375,"name":"gamer man","steam_id":76561198436817109,"connected_time":358000000000,"state":"active","ping":47},{"user_id":344,"name":"TheMangoHunter","steam_id":76561199245608039,"connected_time":2298000000000,"state":"active","ping":126},{"user_id":359,"name":"UltimateSlayer","steam_id":76561198384109309,"connected_time":1624000000000,"state":"active","ping":60},{"user_id":385,"name":"dn4k","steam_id":76561199221755690,"connected_time":85000000000,"state":"active","ping":91},{"user_id":367,"name":"EmberedStar","steam_id":76561198328715224,"connected_time":1184000000000,"state":"active","ping":51},{"user_id":384,"name":"Sora","steam_id":76561197999023952,"connected_time":155000000000,"state":"active","ping":49},{"user_id":348,"name":"C0d3s","steam_id":76561198093907544,"connected_time":1838000000000,"state":"active","ping":96},{"user_id":377,"name":"big dick gaming","steam_id":76561198019065232,"connected_time":353000000000,"state":"active","ping":41},{"user_id":371,"name":"Mr_Pulse_","steam_id":76561198095001602,"connected_time":527000000000,"state":"active","ping":94},{"user_id":378,"name":"poop gaming","steam_id":76561198042268174,"connected_time":346000000000,"state":"active","ping":42},{"user_id":362,"name":"Spy","steam_id":76561198122074582,"connected_time":1430000000000,"state":"active","ping":97},{"user_id":363,"name":"xX_GamingGilf_Xx","steam_id":76561199118876157,"connected_time":1403000000000,"state":"active","ping":63},{"user_id":379,"name":"gorg","steam_id":76561198160285627,"connected_time":325000000000,"state":"active","ping":42},{"user_id":380,"name":"D'JoeLaDeprime","steam_id":76561198375894043,"connected_time":325000000000,"state":"active","ping":66},{"user_id":381,"name":"rummy","steam_id":76561197997573379,"connected_time":273000000000,"state":"active","ping":41},{"user_id":328,"name":"Joseph Stalin LFT","steam_id":76561198033199746,"connected_time":3432000000000,"state":"active","ping":51},{"user_id":382,"name":"Bluns","steam_id":76561198155231597,"connected_time":261000000000,"state":"active","ping":72},{"user_id":366,"name":"mordecai.nmc","steam_id":76561197997223851,"connected_time":1302000000000,"state":"active","ping":58},{"user_id":354,"name":"Tryrn","steam_id":76561198075487436,"connected_time":1763000000000,"state":"active","ping":104},{"user_id":383,"name":"PhantomBoy","steam_id":76561199195113687,"connected_time":220000000000,"state":"active","ping":130}]},{"server_id":321,"name":"Uncletopia | London | 4 | All Maps","name_short":"lon-4","host":"lon-1.uk.uncletopia.com","port":27045,"enabled":true,"region":"eu","cc":"gb","latitude":51.509865,"longitude":-0.118092,"reserved":0,"last_update":"0001-01-01T00:00:00Z","name_a2s":"Uncletopia | London | 4 | All Maps","protocol":17,"map":"pl_pier","folder":"tf","game":"Team Fortress","app_id":440,"player_count":6,"max_players":24,"Bots":0,"server_type":"Dedicated","server_os":"Linux","password":true,"vac":true,"version":"7708610","steam_id":85568392924510193,"keywords":["nocrits","nodmgspread","payload","uncletopia"],"game_id":440,"stv_port":27046,"stv_name":"Uncletopia | London | 4 | All Maps | STV","players":[{"user_id":421,"name":"WiiSportKing","steam_id":76561198114139081,"connected_time":1025000000000,"state":"active","ping":46},{"user_id":422,"name":"Frank","steam_id":76561198086672774,"connected_time":972000000000,"state":"active","ping":40},{"user_id":423,"name":"stupidugly","steam_id":76561198914610283,"connected_time":925000000000,"state":"active","ping":74},{"user_id":360,"name":"Wee Hoose Rice","steam_id":76561198423902979,"connected_time":6334000000000,"state":"active","ping":46},{"user_id":425,"name":"party 3","steam_id":76561198108020471,"connected_time":580000000000,"state":"active","ping":44},{"user_id":357,"name":"Thornton Aardvark","steam_id":76561198259668029,"connected_time":6659000000000,"state":"active","ping":43}]},{"server_id":21,"name":"Uncletopia | London | 5 | All Maps","name_short":"lon-5","host":"lon-1.uk.uncletopia.com","port":27055,"enabled":true,"region":"eu","cc":"gb","latitude":51.509865,"longitude":-0.118092,"reserved":0,"last_update":"0001-01-01T00:00:00Z","name_a2s":"Uncletopia | London | 5 | All Maps","protocol":17,"map":"pl_wutville_event","folder":"tf","game":"Team Fortress","app_id":440,"player_count":24,"max_players":24,"Bots":0,"server_type":"Dedicated","server_os":"Linux","password":true,"vac":true,"version":"7708610","steam_id":85568392924742829,"keywords":["nocrits","nodmgspread","payload","uncletopia"],"game_id":440,"stv_port":27056,"stv_name":"Uncletopia | London | 5 | All Maps | STV","players":[{"user_id":237,"name":"fancy chef","steam_id":76561198993641831,"connected_time":1041000000000,"state":"active","ping":106},{"user_id":223,"name":"Criterion","steam_id":76561198128829201,"connected_time":2046000000000,"state":"active","ping":52},{"user_id":166,"name":"Bob_Tostas","steam_id":76561198249006560,"connected_time":5457000000000,"state":"active","ping":70},{"user_id":222,"name":"Horo","steam_id":76561198009504508,"connected_time":2125000000000,"state":"active","ping":53},{"user_id":213,"name":"RayenIDK","steam_id":76561198426022186,"connected_time":2758000000000,"state":"active","ping":90},{"user_id":238,"name":"Phalcon","steam_id":76561197987051394,"connected_time":848000000000,"state":"active","ping":79},{"user_id":230,"name":"Scipionemiliano","steam_id":76561198027646559,"connected_time":1542000000000,"state":"active","ping":125},{"user_id":205,"name":"Bombad General Ged","steam_id":76561198079288943,"connected_time":3239000000000,"state":"active","ping":129},{"user_id":239,"name":"DarthMurloc","steam_id":76561198075577711,"connected_time":839000000000,"state":"active","ping":86},{"user_id":197,"name":"Baron","steam_id":76561198021901783,"connected_time":3694000000000,"state":"active","ping":50},{"user_id":224,"name":"Angelo254","steam_id":76561198327226011,"connected_time":1801000000000,"state":"active","ping":74},{"user_id":199,"name":"Teecho","steam_id":76561197995269610,"connected_time":3433000000000,"state":"active","ping":51},{"user_id":240,"name":"Yagos24","steam_id":76561198409379998,"connected_time":792000000000,"state":"active","ping":89},{"user_id":241,"name":"d!eing pigs Wh3n?","steam_id":76561198963410515,"connected_time":750000000000,"state":"active","ping":111},{"user_id":231,"name":"Thors","steam_id":76561197968739075,"connected_time":1528000000000,"state":"active","ping":44},{"user_id":242,"name":"Dangerousbros","steam_id":76561198088952519,"connected_time":713000000000,"state":"active","ping":34},{"user_id":151,"name":"Archie","steam_id":76561199061232100,"connected_time":6053000000000,"state":"active","ping":69},{"user_id":216,"name":"flange","steam_id":76561198040182692,"connected_time":2586000000000,"state":"active","ping":37},{"user_id":217,"name":"torn","steam_id":76561198223003236,"connected_time":2546000000000,"state":"active","ping":38},{"user_id":185,"name":"waffle toaster","steam_id":76561198799089628,"connected_time":4148000000000,"state":"active","ping":45},{"user_id":243,"name":"The Power","steam_id":76561198060566884,"connected_time":529000000000,"state":"active","ping":46},{"user_id":236,"name":"Snowmotion","steam_id":76561198075022454,"connected_time":1230000000000,"state":"active","ping":65},{"user_id":244,"name":"penis haver","steam_id":76561198230735156,"connected_time":522000000000,"state":"active","ping":42},{"user_id":209,"name":"Jimmy","steam_id":76561197999039252,"connected_time":3172000000000,"state":"active","ping":43}]},{"server_id":22,"name":"Uncletopia | London | 6 | All Maps","name_short":"lon-6","host":"lon-1.uk.uncletopia.com","port":27065,"enabled":true,"region":"eu","cc":"gb","latitude":51.509865,"longitude":-0.118092,"reserved":0,"last_update":"0001-01-01T00:00:00Z","name_a2s":"Uncletopia | London | 6 | All Maps","protocol":17,"map":"koth_highpass","folder":"tf","game":"Team Fortress","app_id":440,"player_count":0,"max_players":24,"Bots":0,"server_type":"Dedicated","server_os":"Linux","password":true,"vac":true,"version":"7708610","steam_id":85568392924742830,"keywords":["cp","nocrits","nodmgspread","uncletopia"],"game_id":440,"stv_port":27066,"stv_name":"Uncletopia | London | 6 | All Maps | STV","players":null},{"server_id":40,"name":"Uncletopia | London | 7 | No Payload","name_short":"lon-7","host":"lon-1.uk.uncletopia.com","port":27075,"enabled":true,"region":"eu","cc":"gb","latitude":51.509865,"longitude":-0.118092,"reserved":0,"last_update":"0001-01-01T00:00:00Z","name_a2s":"Uncletopia | London | 7 | No Payload","protocol":17,"map":"koth_highpass","folder":"tf","game":"Team Fortress","app_id":440,"player_count":0,"max_players":24,"Bots":0,"server_type":"Dedicated","server_os":"Linux","password":true,"vac":true,"version":"7708610","steam_id":85568392924964314,"keywords":["cp","nocrits","nodmgspread","uncletopia"],"game_id":440,"stv_port":27076,"stv_name":"Uncletopia | London | 7 | No Payload | STV","players":null},{"server_id":41,"name":"Uncletopia | London | 8 | Community","name_short":"lon-8","host":"lon-1.uk.uncletopia.com","port":27085,"enabled":true,"region":"eu","cc":"gb","latitude":51.509865,"longitude":-0.118092,"reserved":0,"last_update":"0001-01-01T00:00:00Z","name_a2s":"Uncletopia | London | 8 | Community","protocol":17,"map":"workshop/koth_synthetic_rc6a.ugc1549817316","folder":"tf","game":"Team Fortress","app_id":440,"player_count":0,"max_players":24,"Bots":0,"server_type":"Dedicated","server_os":"Linux","password":true,"vac":true,"version":"7708610","steam_id":85568392924964315,"keywords":["cp","nocrits","nodmgspread","uncletopia"],"game_id":440,"stv_port":27086,"stv_name":"Uncletopia | London | 8 | Community | STV","players":null},{"server_id":300,"name":"Uncletopia | Montréal | 1 | All Maps","name_short":"mtl-1","host":"mtl-1.ca.uncletopia.com","port":27015,"enabled":true,"region":"us-east","cc":"ca","latitude":45.50889,"longitude":-73.56167,"reserved":0,"last_update":"0001-01-01T00:00:00Z","name_a2s":"Uncletopia | Montréal | 1 | All Maps","protocol":17,"map":"pl_borneo","folder":"tf","game":"Team Fortress","app_id":440,"player_count":0,"max_players":24,"Bots":0,"server_type":"Dedicated","server_os":"Linux","password":true,"vac":true,"version":"7708610","steam_id":85568392924500087,"keywords":["nocrits","nodmgspread","payload","uncletopia"],"game_id":440,"stv_port":27016,"stv_name":"Uncletopia | Montréal | 1 | All Maps | STV","players":null},{"server_id":301,"name":"Uncletopia | Montréal | 2 | All Maps","name_short":"mtl-2","host":"mtl-1.ca.uncletopia.com","port":27025,"enabled":true,"region":"us-east","cc":"ca","latitude":45.50889,"longitude":-73.56167,"reserved":0,"last_update":"0001-01-01T00:00:00Z","name_a2s":"Uncletopia | Montréal | 2 | All Maps","protocol":17,"map":"pl_swiftwater_final1","folder":"tf","game":"Team Fortress","app_id":440,"player_count":0,"max_players":24,"Bots":0,"server_type":"Dedicated","server_os":"Linux","password":true,"vac":true,"version":"7708610","steam_id":85568392924500088,"keywords":["nocrits","nodmgspread","payload","uncletopia"],"game_id":440,"stv_port":27026,"stv_name":"Uncletopia | Montréal | 2 | All Maps | STV","players":null},{"server_id":302,"name":"Uncletopia | Montréal | 3 | All Maps","name_short":"mtl-3","host":"mtl-1.ca.uncletopia.com","port":27035,"enabled":true,"region":"us-east","cc":"ca","latitude":45.50889,"longitude":-73.56167,"reserved":0,"last_update":"0001-01-01T00:00:00Z","name_a2s":"Uncletopia | Montréal | 3 | All Maps","protocol":17,"map":"cp_mountainlab","folder":"tf","game":"Team Fortress","app_id":440,"player_count":0,"max_players":24,"Bots":0,"server_type":"Dedicated","server_os":"Linux","password":true,"vac":true,"version":"7708610","steam_id":85568392924500089,"keywords":["cp","nocrits","nodmgspread","uncletopia"],"game_id":440,"stv_port":27036,"stv_name":"Uncletopia | Montréal | 3 | All Maps | STV","players":null},{"server_id":303,"name":"Uncletopia | Montréal | 4 | No Payload","name_short":"mtl-4","host":"mtl-1.ca.uncletopia.com","port":27045,"enabled":true,"region":"us-east","cc":"ca","latitude":45.50889,"longitude":-73.56167,"reserved":0,"last_update":"0001-01-01T00:00:00Z","name_a2s":"Uncletopia | Montréal | 4 | No Payload","protocol":17,"map":"cp_snakewater_final1","folder":"tf","game":"Team Fortress","app_id":440,"player_count":0,"max_players":24,"Bots":0,"server_type":"Dedicated","server_os":"Linux","password":true,"vac":true,"version":"7708610","steam_id":85568392924500090,"keywords":["cp","nocrits","nodmgspread","uncletopia"],"game_id":440,"stv_port":27046,"stv_name":"Uncletopia | Montréal | 4 | No Payload | STV","players":null},{"server_id":13,"name":"Uncletopia | New York City | 1 | All Maps","name_short":"nyc-1","host":"nyc-1.us.uncletopia.com","port":27015,"enabled":true,"region":"us-east","cc":"us","latitude":40.73061,"longitude":-73.93524,"reserved":0,"last_update":"0001-01-01T00:00:00Z","name_a2s":"Uncletopia | New York City | 1 | All Maps","protocol":17,"map":"koth_lakeside_final","folder":"tf","game":"Team Fortress","app_id":440,"player_count":0,"max_players":24,"Bots":0,"server_type":"Dedicated","server_os":"Linux","password":true,"vac":true,"version":"7708610","steam_id":85568392924469993,"keywords":["cp","nocrits","nodmgspread","uncletopia"],"game_id":440,"stv_port":27016,"stv_name":"Uncletopia | New York City | 1 | All Maps | STV","players":null},{"server_id":14,"name":"Uncletopia | New York City | 2 | All Maps","name_short":"nyc-2","host":"nyc-1.us.uncletopia.com","port":27025,"enabled":true,"region":"us-east","cc":"us","latitude":40.73061,"longitude":-73.93524,"reserved":0,"last_update":"0001-01-01T00:00:00Z","name_a2s":"Uncletopia | New York City | 2 | All Maps","protocol":17,"map":"pl_badwater","folder":"tf","game":"Team Fortress","app_id":440,"player_count":24,"max_players":24,"Bots":0,"server_type":"Dedicated","server_os":"Linux","password":true,"vac":true,"version":"7708610","steam_id":85568392924469994,"keywords":["nocrits","nodmgspread","payload","uncletopia"],"game_id":440,"stv_port":27026,"stv_name":"Uncletopia | New York City | 2 | All Maps | STV","players":[{"user_id":5,"name":"piflle","steam_id":76561199283873577,"connected_time":6702000000000,"state":"active","ping":66},{"user_id":6,"name":"Eliza (They/She)","steam_id":76561198108938752,"connected_time":6645000000000,"state":"active","ping":79},{"user_id":95,"name":"Ghtf","steam_id":76561198237521982,"connected_time":668000000000,"state":"active","ping":105},{"user_id":10,"name":"MeKaso TropStar","steam_id":76561199109895840,"connected_time":5914000000000,"state":"active","ping":47},{"user_id":81,"name":"marrimae","steam_id":76561198077579990,"connected_time":1559000000000,"state":"active","ping":143},{"user_id":93,"name":"Corbe","steam_id":76561198353893927,"connected_time":1071000000000,"state":"active","ping":60},{"user_id":82,"name":"Swagboi429","steam_id":76561199220307602,"connected_time":1496000000000,"state":"active","ping":63},{"user_id":44,"name":"BeerPowder","steam_id":76561198058129400,"connected_time":4481000000000,"state":"active","ping":43},{"user_id":83,"name":"Jaunty","steam_id":76561198074916706,"connected_time":1413000000000,"state":"active","ping":85},{"user_id":78,"name":"Stormartilleripjas fm/43","steam_id":76561198408982577,"connected_time":2031000000000,"state":"active","ping":54},{"user_id":84,"name":"VOID","steam_id":76561198107501413,"connected_time":1402000000000,"state":"active","ping":62},{"user_id":39,"name":"PrinceGrotle","steam_id":76561198206131603,"connected_time":4765000000000,"state":"active","ping":56},{"user_id":98,"name":"Vaporeon","steam_id":76561198107058140,"connected_time":244000000000,"state":"active","ping":51},{"user_id":63,"name":"catgirl","steam_id":76561198020736672,"connected_time":2944000000000,"state":"active","ping":56},{"user_id":80,"name":"Bother","steam_id":76561198336750909,"connected_time":1575000000000,"state":"active","ping":40},{"user_id":77,"name":"ShinyOrion (She/Her)","steam_id":76561198408378321,"connected_time":2057000000000,"state":"active","ping":57},{"user_id":99,"name":"CANDICE","steam_id":76561198208496036,"connected_time":27000000000,"state":"active","ping":61},{"user_id":85,"name":"Phocae (she/her)","steam_id":76561199317584594,"connected_time":1397000000000,"state":"active","ping":57},{"user_id":86,"name":"Sanic_Bum","steam_id":76561198094179822,"connected_time":1394000000000,"state":"active","ping":45},{"user_id":96,"name":"Barbeque Baby","steam_id":76561199056293439,"connected_time":666000000000,"state":"active","ping":61},{"user_id":94,"name":"The Land Admiral","steam_id":76561198159356609,"connected_time":840000000000,"state":"active","ping":51},{"user_id":97,"name":"Piper0007","steam_id":76561199056222868,"connected_time":595000000000,"state":"active","ping":59},{"user_id":88,"name":"churumusco","steam_id":76561199084254755,"connected_time":1352000000000,"state":"active","ping":59},{"user_id":92,"name":"Rooster Miami Man","steam_id":76561199001393067,"connected_time":1145000000000,"state":"active","ping":120}]},{"server_id":15,"name":"Uncletopia | New York City | 3 | All Maps","name_short":"nyc-3","host":"nyc-1.us.uncletopia.com","port":27035,"enabled":true,"region":"us-east","cc":"us","latitude":40.73061,"longitude":-73.93524,"reserved":0,"last_update":"0001-01-01T00:00:00Z","name_a2s":"Uncletopia | New York City | 3 | All Maps","protocol":17,"map":"pl_pier","folder":"tf","game":"Team Fortress","app_id":440,"player_count":24,"max_players":24,"Bots":0,"server_type":"Dedicated","server_os":"Linux","password":true,"vac":true,"version":"7708610","steam_id":85568392924742820,"keywords":["nocrits","nodmgspread","payload","uncletopia"],"game_id":440,"stv_port":27036,"stv_name":"Uncletopia | New York City | 3 | All Maps | STV","players":[{"user_id":130,"name":"Convict Police Officers","steam_id":76561197993527275,"connected_time":1031000000000,"state":"active","ping":70},{"user_id":71,"name":"Spirit","steam_id":76561199069322627,"connected_time":6152000000000,"state":"active","ping":66},{"user_id":136,"name":"Sheppy","steam_id":76561198295126940,"connected_time":80000000000,"state":"active","ping":65},{"user_id":133,"name":"Do Moose go Moo?","steam_id":76561198073550620,"connected_time":582000000000,"state":"active","ping":60},{"user_id":138,"name":"WATCHOUT!","steam_id":76561198850428601,"connected_time":41000000000,"state":"active","ping":64},{"user_id":132,"name":"avengedsevenfold.fan_2012","steam_id":76561198210364561,"connected_time":669000000000,"state":"active","ping":52},{"user_id":119,"name":"aimee","steam_id":76561198834309212,"connected_time":2671000000000,"state":"active","ping":55},{"user_id":128,"name":"ToeSniffer1992","steam_id":76561199134895220,"connected_time":1640000000000,"state":"active","ping":52},{"user_id":93,"name":"Ripley","steam_id":76561198080766916,"connected_time":4583000000000,"state":"active","ping":50},{"user_id":135,"name":"Bashirider","steam_id":76561198260522253,"connected_time":147000000000,"state":"active","ping":40},{"user_id":76,"name":"Communist Killing Candy Cactus\ufffd","steam_id":76561198074980635,"connected_time":6026000000000,"state":"active","ping":129},{"user_id":126,"name":"JPSS","steam_id":76561199239530493,"connected_time":1654000000000,"state":"active","ping":86},{"user_id":129,"name":"Festivized Diplomat","steam_id":76561198428191920,"connected_time":1340000000000,"state":"active","ping":50},{"user_id":107,"name":"coffee bagel","steam_id":76561198141198352,"connected_time":3475000000000,"state":"active","ping":65},{"user_id":120,"name":"Shagbark","steam_id":76561198173447342,"connected_time":2603000000000,"state":"active","ping":92},{"user_id":121,"name":":3","steam_id":76561198120772700,"connected_time":2594000000000,"state":"active","ping":76},{"user_id":101,"name":"ck_rene","steam_id":76561199079260488,"connected_time":3893000000000,"state":"active","ping":60},{"user_id":67,"name":"Dilly Pickles","steam_id":76561198312068499,"connected_time":6512000000000,"state":"active","ping":65},{"user_id":123,"name":"bikerkid207","steam_id":76561198390782783,"connected_time":2184000000000,"state":"active","ping":52},{"user_id":103,"name":"NovaSc6ut","steam_id":76561198277163301,"connected_time":3856000000000,"state":"active","ping":87},{"user_id":36,"name":"ItzFluffyex","steam_id":76561198289521685,"connected_time":8484000000000,"state":"active","ping":62},{"user_id":137,"name":"Gunter","steam_id":76561198073506034,"connected_time":63000000000,"state":"active","ping":43},{"user_id":63,"name":"Noisyjerman1","steam_id":76561198155915478,"connected_time":6750000000000,"state":"active","ping":43},{"user_id":139,"name":"Normalux","steam_id":76561198293891426,"connected_time":22000000000,"state":"spawning","ping":117}]},{"server_id":16,"name":"Uncletopia | New York City | 4 | Community","name_short":"nyc-4","host":"nyc-1.us.uncletopia.com","port":27045,"enabled":true,"region":"us-east","cc":"us","latitude":40.73061,"longitude":-73.93524,"reserved":0,"last_update":"0001-01-01T00:00:00Z","name_a2s":"Uncletopia | New York City | 4 | Community","protocol":17,"map":"workshop/koth_product_final.ugc454272353","folder":"tf","game":"Team Fortress","app_id":440,"player_count":0,"max_players":24,"Bots":0,"server_type":"Dedicated","server_os":"Linux","password":true,"vac":true,"version":"7708610","steam_id":85568392924742821,"keywords":["cp","nocrits","nodmgspread","uncletopia"],"game_id":440,"stv_port":27046,"stv_name":"Uncletopia | New York City | 4 | Community | STV","players":null},{"server_id":142,"name":"Uncletopia | São Paulo | 1 | All Maps","name_short":"sao-1","host":"sao-1.br.uncletopia.com","port":27015,"enabled":true,"region":"sa","cc":"br","latitude":-23.533773,"longitude":-46.62529,"reserved":0,"last_update":"0001-01-01T00:00:00Z","name_a2s":"Uncletopia | São Paulo | 1 | All Maps","protocol":17,"map":"cp_5gorge","folder":"tf","game":"Team Fortress","app_id":440,"player_count":24,"max_players":24,"Bots":0,"server_type":"Dedicated","server_os":"Linux","password":true,"vac":true,"version":"7708610","steam_id":85568392924469996,"keywords":["cp","nocrits","nodmgspread","uncletopia"],"game_id":440,"stv_port":27016,"stv_name":"Uncletopia | São Paulo | 1 | All Maps | STV","players":[{"user_id":82,"name":"bichhh","steam_id":76561198147879192,"connected_time":683000000000,"state":"active","ping":53},{"user_id":49,"name":"ShinGojira[BR]","steam_id":76561199199037141,"connected_time":4326000000000,"state":"active","ping":94},{"user_id":62,"name":"Gabrielやるき","steam_id":76561198332577325,"connected_time":1761000000000,"state":"active","ping":45},{"user_id":90,"name":"PHIKILL","steam_id":76561198261514412,"connected_time":465000000000,"state":"active","ping":58},{"user_id":55,"name":"leks","steam_id":76561198809532051,"connected_time":3188000000000,"state":"active","ping":94},{"user_id":56,"name":"Bellesi","steam_id":76561198056750369,"connected_time":3160000000000,"state":"active","ping":63},{"user_id":70,"name":"colvara","steam_id":76561198096847607,"connected_time":1244000000000,"state":"active","ping":60},{"user_id":59,"name":"whereismybread","steam_id":76561197995625136,"connected_time":2262000000000,"state":"active","ping":39},{"user_id":83,"name":"Gustavocoste","steam_id":76561198233692404,"connected_time":652000000000,"state":"active","ping":42},{"user_id":86,"name":"Ice Whallow Come","steam_id":76561198063668057,"connected_time":585000000000,"state":"active","ping":54},{"user_id":69,"name":"Raffa moreira com lean","steam_id":76561198367024554,"connected_time":1287000000000,"state":"active","ping":56},{"user_id":71,"name":"Derretimento Geral 2017","steam_id":76561198194300069,"connected_time":1183000000000,"state":"active","ping":114},{"user_id":66,"name":"robotfeliz7876","steam_id":76561198988497229,"connected_time":1603000000000,"state":"active","ping":120},{"user_id":75,"name":"G7kk","steam_id":76561198797842294,"connected_time":938000000000,"state":"active","ping":71},{"user_id":85,"name":"jao","steam_id":76561198408082822,"connected_time":618000000000,"state":"active","ping":50},{"user_id":87,"name":"Larry","steam_id":76561198401275135,"connected_time":545000000000,"state":"active","ping":71},{"user_id":77,"name":"SammyROCK","steam_id":76561197989570833,"connected_time":913000000000,"state":"active","ping":44},{"user_id":94,"name":"MayTCowboy","steam_id":76561198350339174,"connected_time":78000000000,"state":"spawning","ping":65},{"user_id":91,"name":"zero.^","steam_id":76561198171128038,"connected_time":333000000000,"state":"active","ping":45},{"user_id":80,"name":"Puppeter","steam_id":76561198351249482,"connected_time":798000000000,"state":"active","ping":74},{"user_id":88,"name":"Jumpman","steam_id":76561198069655588,"connected_time":535000000000,"state":"active","ping":106},{"user_id":89,"name":". . .","steam_id":76561198107853088,"connected_time":494000000000,"state":"active","ping":71},{"user_id":92,"name":"Xenny femmy","steam_id":76561198299269074,"connected_time":312000000000,"state":"active","ping":180},{"user_id":93,"name":"RHD BRAZIL [\u003c O \u003e]","steam_id":76561198028190080,"connected_time":167000000000,"state":"active","ping":45}]},{"server_id":143,"name":"Uncletopia | São Paulo | 2 | All Maps","name_short":"sao-2","host":"sao-2.br.uncletopia.com","port":27015,"enabled":true,"region":"sa","cc":"br","latitude":-23.533773,"longitude":-46.62529,"reserved":0,"last_update":"0001-01-01T00:00:00Z","name_a2s":"Uncletopia | São Paulo | 2 | All Maps","protocol":17,"map":"pl_snowycoast","folder":"tf","game":"Team Fortress","app_id":440,"player_count":0,"max_players":24,"Bots":0,"server_type":"Dedicated","server_os":"Linux","password":true,"vac":true,"version":"7708610","steam_id":85568392924485349,"keywords":["nocrits","nodmgspread","payload","uncletopia"],"game_id":440,"stv_port":27016,"stv_name":"Uncletopia | São Paulo | 2 | All Maps | STV","players":null},{"server_id":7,"name":"Uncletopia | Seattle | 1 | All Maps","name_short":"sea-1","host":"sea-1.us.uncletopia.com","port":27015,"enabled":true,"region":"us-west","cc":"us","latitude":47.608013,"longitude":-122.33517,"reserved":0,"last_update":"0001-01-01T00:00:00Z","name_a2s":"Uncletopia | Seattle | 1 | All Maps","protocol":17,"map":"pl_pier","folder":"tf","game":"Team Fortress","app_id":440,"player_count":22,"max_players":24,"Bots":0,"server_type":"Dedicated","server_os":"Linux","password":true,"vac":true,"version":"7708610","steam_id":85568392924469997,"keywords":["nocrits","nodmgspread","payload","uncletopia"],"game_id":440,"stv_port":27016,"stv_name":"Uncletopia | Seattle | 1 | All Maps | STV","players":[{"user_id":14,"name":"Skeleton Bones Ghoulie","steam_id":76561199138772722,"connected_time":3739000000000,"state":"active","ping":72},{"user_id":56,"name":"Foyboy™","steam_id":76561198072305817,"connected_time":784000000000,"state":"active","ping":95},{"user_id":30,"name":"LogicalFurret","steam_id":76561198350604657,"connected_time":1984000000000,"state":"active","ping":90},{"user_id":66,"name":"The Great Eagle Scourge of 1822","steam_id":76561198325086209,"connected_time":500000000000,"state":"active","ping":85},{"user_id":61,"name":"works cited","steam_id":76561198853297459,"connected_time":601000000000,"state":"active","ping":38},{"user_id":35,"name":"ArchmageF","steam_id":76561197992246851,"connected_time":1675000000000,"state":"active","ping":57},{"user_id":25,"name":"[TrC] Dackstrus","steam_id":76561197973518509,"connected_time":2254000000000,"state":"active","ping":55},{"user_id":54,"name":"yesno","steam_id":76561198067156972,"connected_time":959000000000,"state":"active","ping":123},{"user_id":67,"name":"......","steam_id":76561198067612741,"connected_time":438000000000,"state":"active","ping":44},{"user_id":26,"name":"BORNEO MARY","steam_id":76561198088778979,"connected_time":2232000000000,"state":"active","ping":50},{"user_id":69,"name":"Gachalover","steam_id":76561199231552074,"connected_time":196000000000,"state":"active","ping":113},{"user_id":68,"name":"Rowdy Riot","steam_id":76561198037734418,"connected_time":345000000000,"state":"active","ping":80},{"user_id":41,"name":"Attacus","steam_id":76561198810129648,"connected_time":1385000000000,"state":"active","ping":81},{"user_id":57,"name":"LalitoTV","steam_id":76561198334302951,"connected_time":769000000000,"state":"active","ping":124},{"user_id":58,"name":"MxProf","steam_id":76561198044519572,"connected_time":719000000000,"state":"active","ping":60},{"user_id":44,"name":"peas","steam_id":76561198074402752,"connected_time":1325000000000,"state":"active","ping":83},{"user_id":45,"name":"Mike Hawk","steam_id":76561198045053326,"connected_time":1301000000000,"state":"active","ping":48},{"user_id":50,"name":"PatientMist","steam_id":76561198801759853,"connected_time":1083000000000,"state":"active","ping":54},{"user_id":53,"name":"oil","steam_id":76561198099980149,"connected_time":1036000000000,"state":"active","ping":77},{"user_id":59,"name":"sniffy","steam_id":76561198184933255,"connected_time":717000000000,"state":"active","ping":81},{"user_id":60,"name":"Shark Sandwich","steam_id":76561198025007938,"connected_time":716000000000,"state":"active","ping":88},{"user_id":65,"name":"Nolan","steam_id":76561198169648081,"connected_time":548000000000,"state":"active","ping":94}]},{"server_id":119,"name":"Uncletopia | Seattle | 2 | All Maps","name_short":"sea-2","host":"sea-1.us.uncletopia.com","port":27025,"enabled":true,"region":"us-west","cc":"us","latitude":47.608013,"longitude":-122.33517,"reserved":0,"last_update":"0001-01-01T00:00:00Z","name_a2s":"Uncletopia | Seattle | 2 | All Maps","protocol":17,"map":"koth_cascade","folder":"tf","game":"Team Fortress","app_id":440,"player_count":0,"max_players":24,"Bots":0,"server_type":"Dedicated","server_os":"Linux","password":true,"vac":true,"version":"7708610","steam_id":85568392924469998,"keywords":["cp","nocrits","nodmgspread","uncletopia"],"game_id":440,"stv_port":27026,"stv_name":"Uncletopia | Seattle | 2 | All Maps | STV","players":null},{"server_id":17,"name":"Uncletopia | San Francisco | 1 | All Maps","name_short":"sfo-1","host":"sfo-1.us.uncletopia.com","port":27015,"enabled":true,"region":"us-west","cc":"us","latitude":37.77397,"longitude":-122.4313,"reserved":0,"last_update":"0001-01-01T00:00:00Z","name_a2s":"Uncletopia | San Francisco | 1 | All Maps","protocol":17,"map":"cp_process_final","folder":"tf","game":"Team Fortress","app_id":440,"player_count":0,"max_players":24,"Bots":0,"server_type":"Dedicated","server_os":"Linux","password":true,"vac":true,"version":"7708610","steam_id":85568392924469999,"keywords":["cp","nocrits","nodmgspread","uncletopia"],"game_id":440,"stv_port":27016,"stv_name":"Uncletopia | San Francisco | 1 | All Maps | STV","players":null},{"server_id":18,"name":"Uncletopia | San Francisco | 2 | All Maps","name_short":"sfo-2","host":"sfo-1.us.uncletopia.com","port":27025,"enabled":true,"region":"us-west","cc":"us","latitude":37.77397,"longitude":-122.4313,"reserved":0,"last_update":"0001-01-01T00:00:00Z","name_a2s":"Uncletopia | San Francisco | 2 | All Maps","protocol":17,"map":"cp_sunshine","folder":"tf","game":"Team Fortress","app_id":440,"player_count":0,"max_players":24,"Bots":0,"server_type":"Dedicated","server_os":"Linux","password":true,"vac":true,"version":"7708610","steam_id":85568392924470000,"keywords":["cp","nocrits","nodmgspread","uncletopia"],"game_id":440,"stv_port":27026,"stv_name":"Uncletopia | San Francisco | 2 | All Maps | STV","players":null},{"server_id":19,"name":"Uncletopia | San Francisco | 3 | No Payload","name_short":"sfo-3","host":"sfo-1.us.uncletopia.com","port":27035,"enabled":true,"region":"us-west","cc":"us","latitude":37.77397,"longitude":-122.4313,"reserved":0,"last_update":"0001-01-01T00:00:00Z","name_a2s":"Uncletopia | San Francisco | 3 | No Payload","protocol":17,"map":"cp_altitude","folder":"tf","game":"Team Fortress","app_id":440,"player_count":0,"max_players":24,"Bots":0,"server_type":"Dedicated","server_os":"Linux","password":true,"vac":true,"version":"7708610","steam_id":85568392924742824,"keywords":["cp","nocrits","nodmgspread","uncletopia"],"game_id":440,"stv_port":27036,"stv_name":"Uncletopia | San Francisco | 3 | No Payload | STV","players":null},{"server_id":20,"name":"Uncletopia | San Francisco | 4 | Community","name_short":"sfo-4","host":"sfo-1.us.uncletopia.com","port":27045,"enabled":true,"region":"us-west","cc":"us","latitude":37.77397,"longitude":-122.4313,"reserved":0,"last_update":"0001-01-01T00:00:00Z","name_a2s":"Uncletopia | San Francisco | 4 | Community","protocol":17,"map":"pl_frontier_final","folder":"tf","game":"Team Fortress","app_id":440,"player_count":0,"max_players":24,"Bots":0,"server_type":"Dedicated","server_os":"Linux","password":true,"vac":true,"version":"7708610","steam_id":85568392924742826,"keywords":["nocrits","nodmgspread","payload","uncletopia"],"game_id":440,"stv_port":27046,"stv_name":"Uncletopia | San Francisco | 4 | Community | STV","players":null},{"server_id":141,"name":"Uncletopia | Sydney | 1 | All Maps","name_short":"syd-1","host":"syd-1.au.uncletopia.com","port":27015,"enabled":true,"region":"au","cc":"au","latitude":-33.865143,"longitude":151.2099,"reserved":0,"last_update":"0001-01-01T00:00:00Z","name_a2s":"Uncletopia | Sydney | 1 | All Maps","protocol":17,"map":"cp_snakewater_final1","folder":"tf","game":"Team Fortress","app_id":440,"player_count":0,"max_players":24,"Bots":0,"server_type":"Dedicated","server_os":"Linux","password":true,"vac":true,"version":"7708610","steam_id":85568392924470001,"keywords":["cp","nocrits","nodmgspread","uncletopia"],"game_id":440,"stv_port":27016,"stv_name":"Uncletopia | Sydney | 1 | All Maps | STV","players":null},{"server_id":123,"name":"Uncletopia | Sydney | 2 | All Maps","name_short":"syd-2","host":"syd-1.au.uncletopia.com","port":27025,"enabled":true,"region":"au","cc":"au","latitude":-33.865143,"longitude":151.2099,"reserved":0,"last_update":"0001-01-01T00:00:00Z","name_a2s":"Uncletopia | Sydney | 2 | All Maps","protocol":17,"map":"pl_barnblitz","folder":"tf","game":"Team Fortress","app_id":440,"player_count":0,"max_players":24,"Bots":0,"server_type":"Dedicated","server_os":"Linux","password":true,"vac":true,"version":"7708610","steam_id":85568392924470002,"keywords":["nocrits","nodmgspread","payload","uncletopia"],"game_id":440,"stv_port":27026,"stv_name":"Uncletopia | Sydney | 2 | All Maps | STV","players":null},{"server_id":395,"name":"Uncletopia | Sydney | 3 | All Maps","name_short":"syd-3","host":"syd-1.au.uncletopia.com","port":27035,"enabled":true,"region":"au","cc":"au","latitude":-33.865143,"longitude":151.2099,"reserved":0,"last_update":"0001-01-01T00:00:00Z","name_a2s":"Uncletopia | Sydney | 3 | All Maps","protocol":17,"map":"koth_viaduct","folder":"tf","game":"Team Fortress","app_id":440,"player_count":0,"max_players":24,"Bots":0,"server_type":"Dedicated","server_os":"Linux","password":true,"vac":true,"version":"7708610","steam_id":85568392925194467,"keywords":["cp","nocrits","nodmgspread","uncletopia"],"game_id":440,"stv_port":27036,"stv_name":"Uncletopia | Sydney | 3 | All Maps | STV","players":null},{"server_id":396,"name":"Uncletopia | Sydney | 4 | All Maps","name_short":"syd-4","host":"syd-1.au.uncletopia.com","port":27045,"enabled":true,"region":"au","cc":"au","latitude":-33.865143,"longitude":151.2099,"reserved":0,"last_update":"0001-01-01T00:00:00Z","name_a2s":"Uncletopia | Sydney | 4 | All Maps","protocol":17,"map":"pl_frontier_final","folder":"tf","game":"Team Fortress","app_id":440,"player_count":0,"max_players":24,"Bots":0,"server_type":"Dedicated","server_os":"Linux","password":true,"vac":true,"version":"7708610","steam_id":85568392925397958,"keywords":["nocrits","nodmgspread","payload","uncletopia"],"game_id":440,"stv_port":27046,"stv_name":"Uncletopia | Sydney | 4 | All Maps | STV","players":null},{"server_id":58,"name":"Uncletopia | Sydney | 5 | No Payload","name_short":"syd-5","host":"syd-1.au.uncletopia.com","port":27055,"enabled":true,"region":"au","cc":"au","latitude":-33.865143,"longitude":151.2099,"reserved":0,"last_update":"0001-01-01T00:00:00Z","name_a2s":"Uncletopia | Sydney | 5 | No Payload","protocol":17,"map":"pl_pier","folder":"tf","game":"Team Fortress","app_id":440,"player_count":0,"max_players":24,"Bots":0,"server_type":"Dedicated","server_os":"Linux","password":true,"vac":true,"version":"7708610","steam_id":85568392925397959,"keywords":["nocrits","nodmgspread","payload","uncletopia"],"game_id":440,"stv_port":27056,"stv_name":"Uncletopia | Sydney | 5 | No Payload | STV","players":null},{"server_id":59,"name":"Uncletopia | Sydney | 6 | Community","name_short":"syd-6","host":"syd-1.au.uncletopia.com","port":27065,"enabled":true,"region":"au","cc":"au","latitude":-33.865143,"longitude":151.2099,"reserved":0,"last_update":"0001-01-01T00:00:00Z","name_a2s":"Uncletopia | Sydney | 6 | Community","protocol":17,"map":"workshop/pl_eruption_b8c.ugc2865677281","folder":"tf","game":"Team Fortress","app_id":440,"player_count":0,"max_players":24,"Bots":0,"server_type":"Dedicated","server_os":"Linux","password":true,"vac":true,"version":"7708610","steam_id":85568392925397960,"keywords":["nocrits","nodmgspread","payload","uncletopia"],"game_id":440,"stv_port":27066,"stv_name":"Uncletopia | Sydney | 6 | Community | STV","players":null},{"server_id":49,"name":"Uncletopia | Warsaw | 1 | All Maps","name_short":"waw-1","host":"waw-1.pl.uncletopia.com","port":27015,"enabled":true,"region":"eu","cc":"pl","latitude":52.2297,"longitude":21.017532,"reserved":0,"last_update":"0001-01-01T00:00:00Z","name_a2s":"Uncletopia | Warsaw | 1 | All Maps","protocol":17,"map":"koth_cascade","folder":"tf","game":"Team Fortress","app_id":440,"player_count":0,"max_players":24,"Bots":0,"server_type":"Dedicated","server_os":"Linux","password":true,"vac":true,"version":"7708610","steam_id":85568392925397850,"keywords":["cp","nocrits","nodmgspread","uncletopia"],"game_id":440,"stv_port":27016,"stv_name":"Uncletopia | Warsaw | 1 | All Maps | STV","players":null},{"server_id":50,"name":"Uncletopia | Warsaw | 2 | All Maps","name_short":"waw-2","host":"waw-1.pl.uncletopia.com","port":27025,"enabled":true,"region":"eu","cc":"pl","latitude":52.2297,"longitude":21.017532,"reserved":0,"last_update":"0001-01-01T00:00:00Z","name_a2s":"Uncletopia | Warsaw | 2 | All Maps","protocol":17,"map":"koth_lakeside_final","folder":"tf","game":"Team Fortress","app_id":440,"player_count":0,"max_players":24,"Bots":0,"server_type":"Dedicated","server_os":"Linux","password":true,"vac":true,"version":"7708610","steam_id":85568392925397851,"keywords":["cp","nocrits","nodmgspread","uncletopia"],"game_id":440,"stv_port":27026,"stv_name":"Uncletopia | Warsaw | 2 | All Maps | STV","players":null},{"server_id":51,"name":"Uncletopia | Warsaw | 3 | All Maps","name_short":"waw-3","host":"waw-1.pl.uncletopia.com","port":27035,"enabled":true,"region":"eu","cc":"pl","latitude":52.2297,"longitude":21.017532,"reserved":0,"last_update":"0001-01-01T00:00:00Z","name_a2s":"Uncletopia | Warsaw | 3 | All Maps","protocol":17,"map":"pl_borneo","folder":"tf","game":"Team Fortress","app_id":440,"player_count":0,"max_players":24,"Bots":0,"server_type":"Dedicated","server_os":"Linux","password":true,"vac":true,"version":"7708610","steam_id":85568392925397852,"keywords":["nocrits","nodmgspread","payload","uncletopia"],"game_id":440,"stv_port":27036,"stv_name":"Uncletopia | Warsaw | 3 | All Maps | STV","players":null},{"server_id":52,"name":"Uncletopia | Warsaw | 4 | All Maps","name_short":"waw-4","host":"waw-1.pl.uncletopia.com","port":27045,"enabled":true,"region":"eu","cc":"pl","latitude":52.2297,"longitude":21.017532,"reserved":0,"last_update":"0001-01-01T00:00:00Z","name_a2s":"Uncletopia | Warsaw | 4 | All Maps","protocol":17,"map":"pl_pier","folder":"tf","game":"Team Fortress","app_id":440,"player_count":0,"max_players":24,"Bots":0,"server_type":"Dedicated","server_os":"Linux","password":true,"vac":true,"version":"7708610","steam_id":85568392925397853,"keywords":["nocrits","nodmgspread","payload","uncletopia"],"game_id":440,"stv_port":27046,"stv_name":"Uncletopia | Warsaw | 4 | All Maps | STV","players":null},{"server_id":53,"name":"Uncletopia | Warsaw | 5 | No Payload","name_short":"waw-5","host":"waw-1.pl.uncletopia.com","port":27055,"enabled":true,"region":"eu","cc":"pl","latitude":52.2297,"longitude":21.017532,"reserved":0,"last_update":"0001-01-01T00:00:00Z","name_a2s":"Uncletopia | Warsaw | 5 | No Payload","protocol":17,"map":"cp_yukon_final","folder":"tf","game":"Team Fortress","app_id":440,"player_count":0,"max_players":24,"Bots":0,"server_type":"Dedicated","server_os":"Linux","password":true,"vac":true,"version":"7708610","steam_id":85568392925397854,"keywords":["cp","nocrits","nodmgspread","uncletopia"],"game_id":440,"stv_port":27056,"stv_name":"Uncletopia | Warsaw | 5 | No Payload | STV","players":null},{"server_id":54,"name":"Uncletopia | Warsaw | 6 | Community","name_short":"waw-6","host":"waw-1.pl.uncletopia.com","port":27065,"enabled":true,"region":"eu","cc":"pl","latitude":52.2297,"longitude":21.017532,"reserved":0,"last_update":"0001-01-01T00:00:00Z","name_a2s":"Uncletopia | Warsaw | 6 | Community","protocol":17,"map":"workshop/cp_villa_b19.ugc2113052569","folder":"tf","game":"Team Fortress","app_id":440,"player_count":0,"max_players":24,"Bots":0,"server_type":"Dedicated","server_os":"Linux","password":true,"vac":true,"version":"7708610","steam_id":85568392925397856,"keywords":["cp","nocrits","nodmgspread","uncletopia"],"game_id":440,"stv_port":27066,"stv_name":"Uncletopia | Warsaw | 6 | Community | STV","players":null}]}