{"status":true,"message":"","result":[{"server_id":9,"name":"Uncletopia | Atlanta | 1 | All Maps","name_short":"atl-1","host":"atl-1.us.uncletopia.com","port":27015,"enabled":true,"region":"us-east","cc":"us","latitude":33.753746,"longitude":-84.38633,"reserved":0,"last_update":"0001-01-01T00:00:00Z","name_a2s":"Uncletopia | Atlanta | 1 | All Maps","protocol":17,"map":"pl_upward","folder":"tf","game":"Team Fortress","app_id":440,"player_count":24,"max_players":24,"Bots":0,"server_type":"Dedicated","server_os":"Linux","password":true,"vac":true,"version":"7961495","steam_id":85568392924469982,"keywords":["nocrits","nodmgspread","payload","uncletopia"],"game_id":440,"stv_port":27016,"stv_name":"Uncletopia | Atlanta | 1 | All Maps | STV","players":[{"user_id":149,"name":"chrisd149","steam_id":76561198018710480,"connected_time":3365000000000,"state":"spawning","ping":86},{"user_id":80,"name":"t.tv/ibbKitty  ∑:3","steam_id":76561198110858518,"connected_time":10010000000000,"state":"spawning","ping":85},{"user_id":177,"name":"Prsm","steam_id":76561198053344995,"connected_time":703000000000,"state":"spawning","ping":74},{"user_id":158,"name":"Neptune˖⁺｡˚⋆˙♥","steam_id":76561199054203198,"connected_time":1928000000000,"state":"spawning","ping":81},{"user_id":171,"name":"confield","steam_id":76561198004322265,"connected_time":1049000000000,"state":"spawning","ping":94},{"user_id":172,"name":"Night time Dan","steam_id":76561199022178492,"connected_time":944000000000,"state":"spawning","ping":71},{"user_id":178,"name":"kat","steam_id":76561198329367716,"connected_time":257000000000,"state":"spawning","ping":170},{"user_id":165,"name":"John Dorie","steam_id":76561198119634726,"connected_time":1599000000000,"state":"connecting","ping":282},{"user_id":161,"name":"Daisy Le Nerd","steam_id":76561198149350087,"connected_time":1881000000000,"state":"spawning","ping":219},{"user_id":150,"name":"Bo-dee (she/they)","steam_id":76561198103230995,"connected_time":3360000000000,"state":"spawning","ping":104},{"user_id":180,"name":"harry","steam_id":76561198365118514,"connected_time":93000000000,"state":"spawning","ping":116},{"user_id":173,"name":"Heathcliff","steam_id":76561198044288534,"connected_time":884000000000,"state":"spawning","ping":95},{"user_id":167,"name":"Bond","steam_id":76561198089262776,"connected_time":1437000000000,"state":"spawning","ping":83},{"user_id":139,"name":"LOVEDRAGON","steam_id":76561198089908485,"connected_time":3902000000000,"state":"spawning","ping":106},{"user_id":124,"name":"*‧˚kitsu ʚ♥ɞ","steam_id":76561198091741658,"connected_time":5046000000000,"state":"spawning","ping":126},{"user_id":181,"name":"Chromatic Bliss","steam_id":76561198252604816,"connected_time":2000000000,"state":"spawning","ping":62},{"user_id":174,"name":"MjrMovnTARGET","steam_id":76561199125908849,"connected_time":883000000000,"state":"spawning","ping":96},{"user_id":125,"name":"com lag","steam_id":76561198019019392,"connected_time":5046000000000,"state":"spawning","ping":92},{"user_id":155,"name":"why","steam_id":76561199059732212,"connected_time":1933000000000,"state":"spawning","ping":80},{"user_id":141,"name":"rat","steam_id":76561198272622003,"connected_time":3622000000000,"state":"spawning","ping":87},{"user_id":164,"name":"Stacks63bs","steam_id":76561198067797130,"connected_time":1748000000000,"state":"spawning","ping":84},{"user_id":176,"name":"Le4n!!!","steam_id":76561198045522596,"connected_time":798000000000,"state":"spawning","ping":108},{"user_id":148,"name":"trianamarco780","steam_id":76561199084319677,"connected_time":3484000000000,"state":"spawning","ping":126},{"user_id":157,"name":"Kc","steam_id":76561198210734407,"connected_time":1930000000000,"state":"spawning","ping":73}]},{"server_id":104,"name":"Uncletopia | Atlanta | 2 | All Maps","name_short":"atl-2","host":"atl-1.us.uncletopia.com","port":27025,"enabled":true,"region":"us-east","cc":"us","latitude":33.753746,"longitude":-84.38633,"reserved":0,"last_update":"0001-01-01T00:00:00Z","name_a2s":"Uncletopia | Atlanta | 2 | All Maps","protocol":17,"map":"koth_viaduct","folder":"tf","game":"Team Fortress","app_id":440,"player_count":24,"max_players":24,"Bots":0,"server_type":"Dedicated","server_os":"Linux","password":true,"vac":true,"version":"7961495","steam_id":85568392924469983,"keywords":["cp","nocrits","nodmgspread","uncletopia"],"game_id":440,"stv_port":27026,"stv_name":"Uncletopia | Atlanta | 2 | All Maps | STV","players":[{"user_id":18,"name":"MARIOPARTYDSFAN","steam_id":76561198872122117,"connected_time":4765000000000,"state":"active","ping":82},{"user_id":52,"name":"Pickle","steam_id":76561198020078429,"connected_time":1128000000000,"state":"active","ping":54},{"user_id":61,"name":"Cottoneyes","steam_id":76561197994730627,"connected_time":530000000000,"state":"active","ping":52},{"user_id":65,"name":"Vroooooooooooooooom","steam_id":76561198139913628,"connected_time":207000000000,"state":"active","ping":74},{"user_id":62,"name":"Pancakedestroyer","steam_id":76561199188609622,"connected_time":474000000000,"state":"active","ping":74},{"user_id":27,"name":"CatGirlPipe","steam_id":76561198042485924,"connected_time":2599000000000,"state":"active","ping":99},{"user_id":29,"name":"El Topadora","steam_id":76561198068683174,"connected_time":2477000000000,"state":"active","ping":153},{"user_id":30,"name":"ballspider","steam_id":76561198084578847,"connected_time":2468000000000,"state":"active","ping":81},{"user_id":37,"name":"UNIT 220","steam_id":76561198042243497,"connected_time":1933000000000,"state":"active","ping":75},{"user_id":57,"name":"BEEEEEEEEEEEEEEEES","steam_id":76561199431280503,"connected_time":681000000000,"state":"active","ping":73},{"user_id":38,"name":"AXELORDX","steam_id":76561198136639581,"connected_time":1818000000000,"state":"active","ping":60},{"user_id":64,"name":"Rex","steam_id":76561198138365053,"connected_time":287000000000,"state":"active","ping":120},{"user_id":60,"name":"Always Here for You","steam_id":76561198219252313,"connected_time":558000000000,"state":"active","ping":79},{"user_id":66,"name":"Tactically A Coward","steam_id":76561199274044215,"connected_time":21000000000,"state":"active","ping":84},{"user_id":40,"name":"oopsboom24","steam_id":76561199105248648,"connected_time":1698000000000,"state":"active","ping":68},{"user_id":54,"name":"GuyGoom","steam_id":76561198254522178,"connected_time":921000000000,"state":"active","ping":80},{"user_id":42,"name":"Lavendeer","steam_id":76561198142770666,"connected_time":1632000000000,"state":"active","ping":64},{"user_id":45,"name":"jek","steam_id":76561198097816136,"connected_time":1383000000000,"state":"active","ping":47},{"user_id":47,"name":"crunchy obama","steam_id":76561198044485217,"connected_time":1229000000000,"state":"active","ping":116},{"user_id":55,"name":"ded","steam_id":76561198128780622,"connected_time":899000000000,"state":"active","ping":136},{"user_id":49,"name":"Fatpoob","steam_id":76561198056730096,"connected_time":1185000000000,"state":"active","ping":74},{"user_id":50,"name":"Novu","steam_id":76561198886997024,"connected_time":1150000000000,"state":"active","ping":102},{"user_id":56,"name":"Zombieslayer","steam_id":76561198407877826,"connected_time":701000000000,"state":"active","ping":73},{"user_id":53,"name":"Sharkinian","steam_id":76561199131996465,"connected_time":1116000000000,"state":"active","ping":88}]},{"server_id":400,"name":"Uncletopia | Atlanta | 3 | Stopwatch","name_short":"atl-3","host":"atl-1.us.uncletopia.com","port":27035,"enabled":true,"region":"us-east","cc":"us","latitude":33.753746,"longitude":-84.38633,"reserved":0,"last_update":"0001-01-01T00:00:00Z","name_a2s":"Uncletopia | Atlanta | 3 | Stopwatch","protocol":17,"map":"pl_swiftwater_final1","folder":"tf","game":"Team Fortress","app_id":440,"player_count":24,"max_players":24,"Bots":0,"server_type":"Dedicated","server_os":"Linux","password":true,"vac":true,"version":"7961495","steam_id":85568392924515187,"keywords":["nocrits","nodmgspread","payload","uncletopia"],"game_id":440,"stv_port":27036,"stv_name":"Uncletopia | Atlanta | 3 | Stopwatch | STV","players":[{"user_id":278,"name":"Nainnain [FR]","steam_id":76561197983988642,"connected_time":790000000000,"state":"active","ping":161},{"user_id":280,"name":"KrageSpawn","steam_id":76561199214730628,"connected_time":768000000000,"state":"active","ping":115},{"user_id":269,"name":"explosives anonymous","steam_id":76561198141862936,"connected_time":1548000000000,"state":"active","ping":99},{"user_id":270,"name":"Jesus Burgess","steam_id":76561199343316814,"connected_time":1296000000000,"state":"active","ping":48},{"user_id":299,"name":"lego star wars on the psp","steam_id":76561198148014773,"connected_time":53000000000,"state":"active","ping":82},{"user_id":276,"name":"Tritium","steam_id":76561198043305626,"connected_time":864000000000,"state":"active","ping":111},{"user_id":277,"name":"Jrock","steam_id":76561198045715996,"connected_time":853000000000,"state":"active","ping":75},{"user_id":281,"name":"yung hoisin","steam_id":76561199122537902,"connected_time":763000000000,"state":"active","ping":93},{"user_id":272,"name":"homsar","steam_id":76561199031742838,"connected_time":1077000000000,"state":"active","ping":62},{"user_id":262,"name":"Anarchy","steam_id":76561198036739647,"connected_time":2031000000000,"state":"active","ping":73},{"user_id":286,"name":"custodian","steam_id":76561198058793778,"connected_time":706000000000,"state":"active","ping":84},{"user_id":282,"name":"|-HyperCube-|","steam_id":76561198167133597,"connected_time":749000000000,"state":"active","ping":82},{"user_id":283,"name":"solo cranker","steam_id":76561198246181902,"connected_time":723000000000,"state":"active","ping":77},{"user_id":289,"name":"Peluche Marisa","steam_id":76561199011452659,"connected_time":516000000000,"state":"active","ping":97},{"user_id":285,"name":"Mia","steam_id":76561198989809483,"connected_time":719000000000,"state":"active","ping":150},{"user_id":300,"name":"bby_kyss","steam_id":76561198045781230,"connected_time":22000000000,"state":"active","ping":61},{"user_id":288,"name":"(TPT) Ghost","steam_id":76561198123262873,"connected_time":565000000000,"state":"active","ping":128},{"user_id":301,"name":"DUNKADOBALLZ","steam_id":76561198397500752,"connected_time":18000000000,"state":"active","ping":66},{"user_id":291,"name":"Bread","steam_id":76561199078444770,"connected_time":466000000000,"state":"active","ping":67},{"user_id":292,"name":"Gnaash","steam_id":76561198940657194,"connected_time":450000000000,"state":"active","ping":66},{"user_id":293,"name":"Crayfry","steam_id":76561198146525237,"connected_time":446000000000,"state":"active","ping":61},{"user_id":295,"name":"bogus","steam_id":76561198377555279,"connected_time":380000000000,"state":"active","ping":71},{"user_id":296,"name":"Fart Real","steam_id":76561199141771835,"connected_time":357000000000,"state":"active","ping":83},{"user_id":297,"name":"JGatsby","steam_id":76561198023307584,"connected_time":340000000000,"state":"active","ping":75}]},{"server_id":401,"name":"Uncletopia | Atlanta | 4 | Community","name_short":"atl-4","host":"atl-1.us.uncletopia.com","port":27045,"enabled":true,"region":"us-east","cc":"us","latitude":33.753746,"longitude":-84.38633,"reserved":0,"last_update":"0001-01-01T00:00:00Z","name_a2s":"Uncletopia | Atlanta | 4 | Community","protocol":17,"map":"workshop/pl_phoenix_b4a.ugc2969509359","folder":"tf","game":"Team Fortress","app_id":440,"player_count":0,"max_players":24,"Bots":0,"server_type":"Dedicated","server_os":"Linux","password":true,"vac":true,"version":"7961495","steam_id":85568392924515188,"keywords":["nocrits","nodmgspread","payload","uncletopia"],"game_id":440,"stv_port":27046,"stv_name":"Uncletopia | Atlanta | 4 | Community | STV","players":null},{"server_id":2,"name":"Uncletopia | Chicago | 1 | All Maps","name_short":"chi-1","host":"chi-1.us.uncletopia.com","port":27015,"enabled":true,"region":"us-central","cc":"us","latitude":41.881832,"longitude":-87.62318,"reserved":0,"last_update":"0001-01-01T00:00:00Z","name_a2s":"Uncletopia | Chicago | 1 | All Maps","protocol":17,"map":"cp_mercenarypark","folder":"tf","game":"Team Fortress","app_id":440,"player_count":24,"max_players":24,"Bots":0,"server_type":"Dedicated","server_os":"Linux","password":true,"vac":true,"version":"7961495","steam_id":85568392924469984,"keywords":["cp","nocrits","nodmgspread","uncletopia"],"game_id":440,"stv_port":27016,"stv_name":"Uncletopia | Chicago | 1 | All Maps | STV","players":[{"user_id":81,"name":"biden cart 15 dollars","steam_id":76561198253731826,"connected_time":3078000000000,"state":"active","ping":51},{"user_id":108,"name":"Jimbo","steam_id":76561198136560547,"connected_time":771000000000,"state":"active","ping":61},{"user_id":115,"name":"feenman","steam_id":76561199383834799,"connected_time":364000000000,"state":"active","ping":95},{"user_id":105,"name":"Morgster","steam_id":76561198131697761,"connected_time":834000000000,"state":"active","ping":72},{"user_id":116,"name":"otter","steam_id":76561198217769961,"connected_time":278000000000,"state":"active","ping":57},{"user_id":82,"name":"Tommy Pickles (Very ____)","steam_id":76561198391261463,"connected_time":3075000000000,"state":"active","ping":67},{"user_id":123,"name":"Chanddy","steam_id":76561198058949058,"connected_time":36000000000,"state":"active","ping":62},{"user_id":96,"name":"euLA Skuba","steam_id":76561198157499812,"connected_time":1528000000000,"state":"active","ping":68},{"user_id":110,"name":"sheep","steam_id":76561199220109827,"connected_time":622000000000,"state":"active","ping":158},{"user_id":118,"name":"Amauri","steam_id":76561198130809137,"connected_time":258000000000,"state":"active","ping":86},{"user_id":25,"name":"NUt","steam_id":76561198031007966,"connected_time":5937000000000,"state":"active","ping":87},{"user_id":119,"name":"Cellus","steam_id":76561198067204847,"connected_time":250000000000,"state":"active","ping":73},{"user_id":100,"name":"Retro","steam_id":76561198414744723,"connected_time":1198000000000,"state":"active","ping":62},{"user_id":102,"name":"The Idiot","steam_id":76561198049837377,"connected_time":1034000000000,"state":"active","ping":49},{"user_id":80,"name":"Kitty","steam_id":76561198123758854,"connected_time":3220000000000,"state":"active","ping":88},{"user_id":103,"name":"ol' musty","steam_id":76561198081075865,"connected_time":989000000000,"state":"active","ping":71},{"user_id":113,"name":"Slauvy","steam_id":76561198001479663,"connected_time":573000000000,"state":"active","ping":75},{"user_id":112,"name":"shut the fuck up and listen","steam_id":76561198018093835,"connected_time":584000000000,"state":"active","ping":75},{"user_id":106,"name":"Phos","steam_id":76561198122339506,"connected_time":831000000000,"state":"active","ping":76},{"user_id":120,"name":"AlonelyBard","steam_id":76561198333764079,"connected_time":226000000000,"state":"active","ping":62},{"user_id":98,"name":"Milkmur","steam_id":76561198210043821,"connected_time":1476000000000,"state":"active","ping":63},{"user_id":47,"name":"Disqrace","steam_id":76561198147436653,"connected_time":5261000000000,"state":"active","ping":145},{"user_id":42,"name":"soup","steam_id":76561198309226058,"connected_time":5530000000000,"state":"active","ping":178},{"user_id":48,"name":"dictator putski","steam_id":76561198118821862,"connected_time":5261000000000,"state":"active","ping":147}]},{"server_id":106,"name":"Uncletopia | Chicago | 2 | All Maps","name_short":"chi-2","host":"chi-1.us.uncletopia.com","port":27025,"enabled":true,"region":"us-central","cc":"us","latitude":41.881832,"longitude":-87.62318,"reserved":0,"last_update":"0001-01-01T00:00:00Z","name_a2s":"Uncletopia | Chicago | 2 | All Maps","protocol":17,"map":"pl_upward","folder":"tf","game":"Team Fortress","app_id":440,"player_count":24,"max_players":24,"Bots":0,"server_type":"Dedicated","server_os":"Linux","password":true,"vac":true,"version":"7961495","steam_id":85568392924469985,"keywords":["nocrits","nodmgspread","payload","uncletopia"],"game_id":440,"stv_port":27026,"stv_name":"Uncletopia | Chicago | 2 | All Maps | STV","players":[{"user_id":379,"name":"tydogzilla","steam_id":76561198054254518,"connected_time":1665000000000,"state":"active","ping":61},{"user_id":367,"name":"Prinz","steam_id":76561198175476071,"connected_time":2574000000000,"state":"active","ping":91},{"user_id":381,"name":"I Wish I Could Unsee That","steam_id":76561198353316299,"connected_time":1457000000000,"state":"active","ping":66},{"user_id":376,"name":"Maverick","steam_id":76561199160592961,"connected_time":1792000000000,"state":"active","ping":70},{"user_id":353,"name":"Rornir","steam_id":76561198081829615,"connected_time":4210000000000,"state":"active","ping":41},{"user_id":382,"name":"Tommy Provolone","steam_id":76561198170062377,"connected_time":1377000000000,"state":"active","ping":72},{"user_id":384,"name":"Xx_gam3rberg_xX","steam_id":76561199035781025,"connected_time":1357000000000,"state":"active","ping":89},{"user_id":366,"name":"iCarly Lore Expert","steam_id":76561198111902910,"connected_time":2599000000000,"state":"active","ping":74},{"user_id":374,"name":"mrpineapple070","steam_id":76561199088278757,"connected_time":1857000000000,"state":"active","ping":101},{"user_id":396,"name":"Daksuki","steam_id":76561198084127751,"connected_time":176000000000,"state":"active","ping":75},{"user_id":368,"name":"Mr. Tickle","steam_id":76561198126684647,"connected_time":2379000000000,"state":"active","ping":83},{"user_id":377,"name":"bee","steam_id":76561198037826370,"connected_time":1746000000000,"state":"active","ping":66},{"user_id":378,"name":"MackDaddy69","steam_id":76561198060121935,"connected_time":1731000000000,"state":"active","ping":60},{"user_id":371,"name":"Swedish Crowbar","steam_id":76561199105488936,"connected_time":2120000000000,"state":"active","ping":155},{"user_id":392,"name":"lebronjames","steam_id":76561199508981381,"connected_time":1053000000000,"state":"active","ping":95},{"user_id":355,"name":"Chadmander","steam_id":76561197974136337,"connected_time":3882000000000,"state":"active","ping":44},{"user_id":386,"name":"WOOOOWAHOOOOWAWOOOO","steam_id":76561198146727359,"connected_time":1321000000000,"state":"active","ping":57},{"user_id":341,"name":"The Washer of Dishes","steam_id":76561198028157625,"connected_time":5481000000000,"state":"active","ping":99},{"user_id":387,"name":"chiswola","steam_id":76561198046920142,"connected_time":1291000000000,"state":"active","ping":70},{"user_id":388,"name":"Me llamo pablo","steam_id":76561198125947844,"connected_time":1249000000000,"state":"active","ping":98},{"user_id":395,"name":"the lightbringer","steam_id":76561199507898185,"connected_time":362000000000,"state":"active","ping":116},{"user_id":394,"name":"Fast and Bulbous","steam_id":76561198153295874,"connected_time":369000000000,"state":"active","ping":114},{"user_id":360,"name":"cognitiveAfflatus","steam_id":76561198295181426,"connected_time":3457000000000,"state":"active","ping":68}]},{"server_id":402,"name":"Uncletopia | Chicago | 3 | All Maps","name_short":"chi-3","host":"chi-1.us.uncletopia.com","port":27035,"enabled":true,"region":"us-central","cc":"us","latitude":41.881832,"longitude":-87.62318,"reserved":0,"last_update":"0001-01-01T00:00:00Z","name_a2s":"Uncletopia | Chicago | 3 | All Maps","protocol":17,"map":"pl_borneo","folder":"tf","game":"Team Fortress","app_id":440,"player_count":0,"max_players":24,"Bots":0,"server_type":"Dedicated","server_os":"Linux","password":true,"vac":true,"version":"7961495","steam_id":85568392924515191,"keywords":["nocrits","nodmgspread","payload","uncletopia"],"game_id":440,"stv_port":27036,"stv_name":"Uncletopia | Chicago | 3 | All Maps | STV","players":null},{"server_id":403,"name":"Uncletopia | Chicago | 4 | All Maps","name_short":"chi-4","host":"chi-1.us.uncletopia.com","port":27045,"enabled":true,"region":"us-central","cc":"us","latitude":41.881832,"longitude":-87.62318,"reserved":0,"last_update":"0001-01-01T00:00:00Z","name_a2s":"Uncletopia | Chicago | 4 | All Maps","protocol":17,"map":"koth_viaduct","folder":"tf","game":"Team Fortress","app_id":440,"player_count":0,"max_players":24,"Bots":0,"server_type":"Dedicated","server_os":"Linux","password":true,"vac":true,"version":"7961495","steam_id":85568392924515193,"keywords":["cp","nocrits","nodmgspread","uncletopia"],"game_id":440,"stv_port":27046,"stv_name":"Uncletopia | Chicago | 4 | All Maps | STV","players":null},{"server_id":36,"name":"Uncletopia | Chicago | 5 | All Maps","name_short":"chi-5","host":"chi-2.us.uncletopia.com","port":27015,"enabled":true,"region":"us-central","cc":"us","latitude":41.881832,"longitude":-87.62318,"reserved":0,"last_update":"0001-01-01T00:00:00Z","name_a2s":"Uncletopia | Chicago | 5 | All Maps","protocol":17,"map":"cp_mercenarypark","folder":"tf","game":"Team Fortress","app_id":440,"player_count":0,"max_players":24,"Bots":0,"server_type":"Dedicated","server_os":"Linux","password":true,"vac":true,"version":"7961495","steam_id":85568392924866362,"keywords":["cp","nocrits","nodmgspread","uncletopia"],"game_id":440,"stv_port":27016,"stv_name":"Uncletopia | Chicago | 5 | All Maps | STV","players":null},{"server_id":37,"name":"Uncletopia | Chicago | 6 | All Maps","name_short":"chi-6","host":"chi-2.us.uncletopia.com","port":27025,"enabled":true,"region":"us-central","cc":"us","latitude":41.881832,"longitude":-87.62318,"reserved":0,"last_update":"0001-01-01T00:00:00Z","name_a2s":"Uncletopia | Chicago | 6 | All Maps","protocol":17,"map":"cp_sunshine","folder":"tf","game":"Team Fortress","app_id":440,"player_count":1,"max_players":24,"Bots":0,"server_type":"Dedicated","server_os":"Linux","password":true,"vac":true,"version":"7961495","steam_id":85568392924866363,"keywords":["cp","nocrits","nodmgspread","uncletopia"],"game_id":440,"stv_port":27026,"stv_name":"Uncletopia | Chicago | 6 | All Maps | STV","players":[{"user_id":10,"name":"minecraft_2.0","steam_id":76561198391819120,"connected_time":23000000000,"state":"spawning","ping":88}]},{"server_id":38,"name":"Uncletopia | Chicago | 7 | Stopwatch","name_short":"chi-7","host":"chi-2.us.uncletopia.com","port":27035,"enabled":true,"region":"us-central","cc":"us","latitude":41.881832,"longitude":-87.62318,"reserved":0,"last_update":"0001-01-01T00:00:00Z","name_a2s":"Uncletopia | Chicago | 7 | Stopwatch","protocol":17,"map":"cp_granary","folder":"tf","game":"Team Fortress","app_id":440,"player_count":0,"max_players":24,"Bots":0,"server_type":"Dedicated","server_os":"Linux","password":true,"vac":true,"version":"7961495","steam_id":85568392924866364,"keywords":["cp","nocrits","nodmgspread","uncletopia"],"game_id":440,"stv_port":27036,"stv_name":"Uncletopia | Chicago | 7 | Stopwatch | STV","players":null},{"server_id":39,"name":"Uncletopia | Chicago | 8 | Community","name_short":"chi-8","host":"chi-2.us.uncletopia.com","port":27045,"enabled":true,"region":"us-central","cc":"us","latitude":41.881832,"longitude":-87.62318,"reserved":0,"last_update":"0001-01-01T00:00:00Z","name_a2s":"Uncletopia | Chicago | 8 | Community","protocol":17,"map":"workshop/cp_caldera_rc3.ugc2834196889","folder":"tf","game":"Team Fortress","app_id":440,"player_count":0,"max_players":24,"Bots":0,"server_type":"Dedicated","server_os":"Linux","password":true,"vac":true,"version":"7961495","steam_id":85568392924866365,"keywords":["cp","nocrits","nodmgspread","uncletopia"],"game_id":440,"stv_port":27046,"stv_name":"Uncletopia | Chicago | 8 | Community | STV","players":null},{"server_id":8,"name":"Uncletopia | Dallas | 1 | All Maps","name_short":"dal-1","host":"dal-1.us.uncletopia.com","port":27015,"enabled":true,"region":"us-central","cc":"us","latitude":32.779167,"longitude":-96.80889,"reserved":0,"last_update":"0001-01-01T00:00:00Z","name_a2s":"Uncletopia | Dallas | 1 | All Maps","protocol":17,"map":"pl_frontier_final","folder":"tf","game":"Team Fortress","app_id":440,"player_count":22,"max_players":24,"Bots":0,"server_type":"Dedicated","server_os":"Linux","password":true,"vac":true,"version":"7961495","steam_id":85568392924469986,"keywords":["nocrits","nodmgspread","payload","uncletopia"],"game_id":440,"stv_port":27016,"stv_name":"Uncletopia | Dallas | 1 | All Maps | STV","players":[{"user_id":9,"name":"StarlightEngineer","steam_id":76561198379333720,"connected_time":2561000000000,"state":"active","ping":62},{"user_id":10,"name":"KisaNeve","steam_id":76561198420368779,"connected_time":2537000000000,"state":"active","ping":59},{"user_id":37,"name":"Hamfist","steam_id":76561197994333530,"connected_time":1540000000000,"state":"active","ping":70},{"user_id":12,"name":"Jack Wilson","steam_id":76561199075624650,"connected_time":2503000000000,"state":"active","ping":65},{"user_id":38,"name":"will","steam_id":76561198170080245,"connected_time":1527000000000,"state":"active","ping":53},{"user_id":47,"name":"VixianUwU","steam_id":76561198948815060,"connected_time":1268000000000,"state":"active","ping":74},{"user_id":55,"name":"floppy muppet","steam_id":76561198003076261,"connected_time":781000000000,"state":"active","ping":91},{"user_id":39,"name":"Singularity","steam_id":76561198199217834,"connected_time":1520000000000,"state":"active","ping":89},{"user_id":62,"name":"Grease Monkey","steam_id":76561199073112578,"connected_time":47000000000,"state":"active","ping":142},{"user_id":50,"name":"Frost Paraselene","steam_id":76561198007332517,"connected_time":1007000000000,"state":"active","ping":65},{"user_id":51,"name":"Nostic","steam_id":76561199508767541,"connected_time":988000000000,"state":"active","ping":51},{"user_id":63,"name":"mkl","steam_id":76561197986401685,"connected_time":43000000000,"state":"active","ping":54},{"user_id":22,"name":"Pumper","steam_id":76561198800459538,"connected_time":2016000000000,"state":"active","ping":57},{"user_id":56,"name":"Reckless Klondike","steam_id":76561198060904416,"connected_time":241000000000,"state":"active","ping":97},{"user_id":61,"name":"Mellou","steam_id":76561198212048740,"connected_time":65000000000,"state":"spawning","ping":51},{"user_id":32,"name":"scarecr0wzz","steam_id":76561198416218389,"connected_time":1691000000000,"state":"active","ping":92},{"user_id":57,"name":"Fortune","steam_id":76561198346118738,"connected_time":182000000000,"state":"active","ping":63},{"user_id":40,"name":"DMM","steam_id":76561198065426171,"connected_time":1489000000000,"state":"active","ping":55},{"user_id":41,"name":"TheAilingSword","steam_id":76561198250350844,"connected_time":1475000000000,"state":"active","ping":57},{"user_id":52,"name":"Nestor","steam_id":76561198070782619,"connected_time":986000000000,"state":"active","ping":85},{"user_id":44,"name":"Legal Helpy","steam_id":76561198399334453,"connected_time":1400000000000,"state":"active","ping":67},{"user_id":53,"name":"Scrux","steam_id":76561198129763115,"connected_time":927000000000,"state":"active","ping":82}]},{"server_id":108,"name":"Uncletopia | Dallas | 2 | All Maps","name_short":"dal-2","host":"dal-1.us.uncletopia.com","port":27025,"enabled":true,"region":"us-central","cc":"us","latitude":32.779167,"longitude":-96.80889,"reserved":0,"last_update":"0001-01-01T00:00:00Z","name_a2s":"Uncletopia | Dallas | 2 | All Maps","protocol":17,"map":"pl_frontier_final","folder":"tf","game":"Team Fortress","app_id":440,"player_count":0,"max_players":24,"Bots":0,"server_type":"Dedicated","server_os":"Linux","password":true,"vac":true,"version":"7961495","steam_id":85568392924469988,"keywords":["nocrits","nodmgspread","payload","uncletopia"],"game_id":440,"stv_port":27026,"stv_name":"Uncletopia | Dallas | 2 | All Maps | STV","players":null},{"server_id":404,"name":"Uncletopia | Dallas | 3 | All Maps","name_short":"dal-3","host":"dal-1.us.uncletopia.com","port":27035,"enabled":true,"region":"us-central","cc":"us","latitude":32.779167,"longitude":-96.80889,"reserved":0,"last_update":"0001-01-01T00:00:00Z","name_a2s":"Uncletopia | Dallas | 3 | All Maps","protocol":17,"map":"cp_gorge","folder":"tf","game":"Team Fortress","app_id":440,"player_count":0,"max_players":24,"Bots":0,"server_type":"Dedicated","server_os":"Linux","password":true,"vac":true,"version":"7961495","steam_id":85568392924515219,"keywords":["cp","nocrits","nodmgspread","uncletopia"],"game_id":440,"stv_port":27036,"stv_name":"Uncletopia | Dallas | 3 | All Maps | STV","players":null},{"server_id":405,"name":"Uncletopia | Dallas | 4 | Community","name_short":"dal-4","host":"dal-1.us.uncletopia.com","port":27045,"enabled":true,"region":"us-central","cc":"us","latitude":32.779167,"longitude":-96.80889,"reserved":0,"last_update":"0001-01-01T00:00:00Z","name_a2s":"Uncletopia | Dallas | 4 | Community","protocol":17,"map":"workshop/pl_cactuscanyon_redux_final2.ugc2579644293","folder":"tf","game":"Team Fortress","app_id":440,"player_count":20,"max_players":24,"Bots":0,"server_type":"Dedicated","server_os":"Linux","password":true,"vac":true,"version":"7961495","steam_id":85568392924515220,"keywords":["nocrits","nodmgspread","payload","uncletopia"],"game_id":440,"stv_port":27046,"stv_name":"Uncletopia | Dallas | 4 | Community | STV","players":[{"user_id":216,"name":"r0biN","steam_id":76561198097861434,"connected_time":2151000000000,"state":"active","ping":91},{"user_id":187,"name":"techdeck","steam_id":76561199022751661,"connected_time":4078000000000,"state":"active","ping":50},{"user_id":227,"name":"God's Drunkest Driver","steam_id":76561199174579733,"connected_time":1549000000000,"state":"active","ping":85},{"user_id":232,"name":"pablo","steam_id":76561199182194253,"connected_time":674000000000,"state":"active","ping":124},{"user_id":233,"name":"e doctor","steam_id":76561198081851446,"connected_time":649000000000,"state":"active","ping":63},{"user_id":197,"name":"SPF420","steam_id":76561198083991705,"connected_time":3591000000000,"state":"active","ping":79},{"user_id":195,"name":"ATL1 | LOFILE","steam_id":76561198083798918,"connected_time":3672000000000,"state":"active","ping":87},{"user_id":218,"name":"SonnyMarsh","steam_id":76561198188103746,"connected_time":2081000000000,"state":"active","ping":88},{"user_id":231,"name":"☼Barracuda☼","steam_id":76561198013022083,"connected_time":884000000000,"state":"active","ping":49},{"user_id":219,"name":"pyrachi","steam_id":76561197962515135,"connected_time":2042000000000,"state":"active","ping":92},{"user_id":211,"name":"CJspellsfish","steam_id":76561198277342368,"connected_time":2432000000000,"state":"active","ping":63},{"user_id":225,"name":"SamtheToaster (She/Her)","steam_id":76561198076818163,"connected_time":1589000000000,"state":"active","ping":64},{"user_id":186,"name":"no vc no c","steam_id":76561197989503095,"connected_time":4427000000000,"state":"active","ping":165},{"user_id":234,"name":"Lord Scrubling","steam_id":76561198263744445,"connected_time":617000000000,"state":"active","ping":48},{"user_id":235,"name":"pupper","steam_id":76561198145921847,"connected_time":615000000000,"state":"active","ping":64},{"user_id":236,"name":"Moai","steam_id":76561198388449229,"connected_time":596000000000,"state":"active","ping":81},{"user_id":229,"name":"commander Doc","steam_id":76561199389114520,"connected_time":1460000000000,"state":"active","ping":99},{"user_id":221,"name":"Mommy","steam_id":76561199132719974,"connected_time":2021000000000,"state":"active","ping":64},{"user_id":199,"name":"dweamy","steam_id":76561198119181880,"connected_time":3556000000000,"state":"active","ping":76},{"user_id":230,"name":"Byan","steam_id":76561198319090131,"connected_time":968000000000,"state":"active","ping":60}]},{"server_id":5,"name":"Uncletopia | Frankfurt | 1 | All Maps","name_short":"frk-1","host":"frk-1.de.uncletopia.com","port":27015,"enabled":true,"region":"eu","cc":"de","latitude":50.110924,"longitude":8.682127,"reserved":0,"last_update":"0001-01-01T00:00:00Z","name_a2s":"Uncletopia | Frankfurt | 1 | All Maps","protocol":17,"map":"pl_borneo","folder":"tf","game":"Team Fortress","app_id":440,"player_count":2,"max_players":24,"Bots":0,"server_type":"Dedicated","server_os":"Linux","password":true,"vac":true,"version":"7961495","steam_id":85568392924469989,"keywords":["nocrits","nodmgspread","payload","uncletopia"],"game_id":440,"stv_port":27016,"stv_name":"Uncletopia | Frankfurt | 1 | All Maps | STV","players":[{"user_id":491,"name":"Oma Fez","steam_id":76561198860099659,"connected_time":376000000000,"state":"active","ping":66},{"user_id":487,"name":"bucket of souls","steam_id":76561198872688899,"connected_time":992000000000,"state":"active","ping":155}]},{"server_id":110,"name":"Uncletopia | Frankfurt | 2 | All Maps","name_short":"frk-2","host":"frk-1.de.uncletopia.com","port":27025,"enabled":true,"region":"eu","cc":"de","latitude":50.110924,"longitude":8.682127,"reserved":0,"last_update":"0001-01-01T00:00:00Z","name_a2s":"Uncletopia | Frankfurt | 2 | All Maps","protocol":17,"map":"koth_highpass","folder":"tf","game":"Team Fortress","app_id":440,"player_count":22,"max_players":24,"Bots":0,"server_type":"Dedicated","server_os":"Linux","password":true,"vac":true,"version":"7961495","steam_id":85568392924469990,"keywords":["cp","nocrits","nodmgspread","uncletopia"],"game_id":440,"stv_port":27026,"stv_name":"Uncletopia | Frankfurt | 2 | All Maps | STV","players":[{"user_id":265,"name":"camperboy","steam_id":76561198138410890,"connected_time":2765000000000,"state":"active","ping":55},{"user_id":320,"name":"10 Years in the joint","steam_id":76561198371280938,"connected_time":89000000000,"state":"active","ping":58},{"user_id":304,"name":"Sebab","steam_id":76561198122706821,"connected_time":368000000000,"state":"active","ping":46},{"user_id":296,"name":"Doctor Lalve","steam_id":76561198011897357,"connected_time":1049000000000,"state":"active","ping":61},{"user_id":297,"name":"Nightdawg","steam_id":76561198046176023,"connected_time":1035000000000,"state":"active","ping":60},{"user_id":319,"name":"Arc","steam_id":76561198805049375,"connected_time":100000000000,"state":"active","ping":56},{"user_id":235,"name":"CV70","steam_id":76561198122440175,"connected_time":4245000000000,"state":"active","ping":67},{"user_id":315,"name":"blank","steam_id":76561198805181599,"connected_time":133000000000,"state":"active","ping":61},{"user_id":306,"name":"That hamster has been dead for ","steam_id":76561198346638308,"connected_time":351000000000,"state":"active","ping":53},{"user_id":280,"name":"✦ Xayira ✦","steam_id":76561198079566786,"connected_time":2053000000000,"state":"active","ping":51},{"user_id":307,"name":"BurningJoke","steam_id":76561199014358707,"connected_time":291000000000,"state":"active","ping":50},{"user_id":308,"name":"ThellanM","steam_id":76561199014222387,"connected_time":281000000000,"state":"active","ping":68},{"user_id":310,"name":"moss","steam_id":76561198970737500,"connected_time":201000000000,"state":"active","ping":60},{"user_id":318,"name":"OMG! i am one damaje off lethal","steam_id":76561198104896547,"connected_time":106000000000,"state":"active","ping":63},{"user_id":311,"name":"Shirley Serious","steam_id":76561199244998281,"connected_time":190000000000,"state":"active","ping":162},{"user_id":312,"name":"Fearex08","steam_id":76561199504317885,"connected_time":169000000000,"state":"active","ping":63},{"user_id":314,"name":"Kami","steam_id":76561199438250403,"connected_time":166000000000,"state":"active","ping":74},{"user_id":295,"name":"I have no duck and I must quack","steam_id":76561198061920656,"connected_time":1137000000000,"state":"active","ping":75},{"user_id":316,"name":"Patrik","steam_id":76561198089510248,"connected_time":131000000000,"state":"active","ping":68},{"user_id":317,"name":"Lag","steam_id":76561198159360376,"connected_time":125000000000,"state":"active","ping":59},{"user_id":321,"name":"Yrjö Koskinen Yrjö-Koskinen","steam_id":76561198368181145,"connected_time":45000000000,"state":"active","ping":76},{"user_id":301,"name":"veltek","steam_id":76561198112681438,"connected_time":639000000000,"state":"active","ping":73}]},{"server_id":308,"name":"Uncletopia | Frankfurt | 3 | All Maps","name_short":"frk-3","host":"frk-1.de.uncletopia.com","port":27035,"enabled":true,"region":"eu","cc":"de","latitude":50.110924,"longitude":8.682127,"reserved":0,"last_update":"0001-01-01T00:00:00Z","name_a2s":"Uncletopia | Frankfurt | 3 | All Maps","protocol":17,"map":"pl_swiftwater_final1","folder":"tf","game":"Team Fortress","app_id":440,"player_count":24,"max_players":24,"Bots":0,"server_type":"Dedicated","server_os":"Linux","password":true,"vac":true,"version":"7961495","steam_id":85568392924504274,"keywords":["nocrits","nodmgspread","payload","uncletopia"],"game_id":440,"stv_port":27036,"stv_name":"Uncletopia | Frankfurt | 3 | All Maps | STV","players":[{"user_id":255,"name":"gunter_funnyman","steam_id":76561198298432099,"connected_time":4555000000000,"state":"active","ping":80},{"user_id":297,"name":"Heisenberg","steam_id":76561199447222229,"connected_time":906000000000,"state":"active","ping":82},{"user_id":210,"name":"breadbear \u003c3","steam_id":76561198036895007,"connected_time":9052000000000,"state":"active","ping":84},{"user_id":279,"name":"Krefa12","steam_id":76561198268375393,"connected_time":2106000000000,"state":"active","ping":80},{"user_id":299,"name":"Diurnal Urinal","steam_id":76561198991005732,"connected_time":821000000000,"state":"active","ping":72},{"user_id":305,"name":"TylowStar","steam_id":76561198357107806,"connected_time":688000000000,"state":"active","ping":73},{"user_id":306,"name":"Mega Man Legends 3","steam_id":76561198014110199,"connected_time":651000000000,"state":"active","ping":54},{"user_id":307,"name":"ultim8","steam_id":76561198201501691,"connected_time":453000000000,"state":"active","ping":46},{"user_id":293,"name":"KrAk3rs","steam_id":76561198298179344,"connected_time":1083000000000,"state":"active","ping":67},{"user_id":283,"name":"Miosong","steam_id":76561198070755151,"connected_time":2039000000000,"state":"active","ping":75},{"user_id":292,"name":"tort","steam_id":76561198147246166,"connected_time":1206000000000,"state":"active","ping":75},{"user_id":308,"name":"manure merchant","steam_id":76561198010109316,"connected_time":159000000000,"state":"active","ping":56},{"user_id":285,"name":"BELADIT","steam_id":76561198011911501,"connected_time":2004000000000,"state":"active","ping":70},{"user_id":208,"name":"MHE_HOPM","steam_id":76561199073846518,"connected_time":9320000000000,"state":"active","ping":98},{"user_id":301,"name":"cirrem","steam_id":76561198265192382,"connected_time":704000000000,"state":"active","ping":60},{"user_id":254,"name":"Powki #TF2Center","steam_id":76561198974462268,"connected_time":4564000000000,"state":"active","ping":90},{"user_id":309,"name":"ХАН ЗАМАЙ","steam_id":76561198992528373,"connected_time":37000000000,"state":"spawning","ping":77},{"user_id":286,"name":"MeBandae","steam_id":76561198910770432,"connected_time":2000000000000,"state":"active","ping":69},{"user_id":241,"name":"Windows Vista Cruiser","steam_id":76561198064102233,"connected_time":5755000000000,"state":"active","ping":60},{"user_id":273,"name":"luma","steam_id":76561198081649669,"connected_time":3049000000000,"state":"active","ping":61},{"user_id":302,"name":"waluigi","steam_id":76561198215809251,"connected_time":704000000000,"state":"active","ping":52},{"user_id":264,"name":"тукку ирма","steam_id":76561197998715016,"connected_time":4127000000000,"state":"active","ping":61},{"user_id":260,"name":"Pabs :D","steam_id":76561198000016962,"connected_time":4300000000000,"state":"active","ping":55},{"user_id":304,"name":"Denialman (Muted)","steam_id":76561198309182092,"connected_time":698000000000,"state":"active","ping":50}]},{"server_id":309,"name":"Uncletopia | Frankfurt | 4 | All Maps","name_short":"frk-4","host":"frk-1.de.uncletopia.com","port":27045,"enabled":true,"region":"eu","cc":"de","latitude":50.110924,"longitude":8.682127,"reserved":0,"last_update":"0001-01-01T00:00:00Z","name_a2s":"Uncletopia | Frankfurt | 4 | All Maps","protocol":17,"map":"pl_borneo","folder":"tf","game":"Team Fortress","app_id":440,"player_count":24,"max_players":24,"Bots":0,"server_type":"Dedicated","server_os":"Linux","password":true,"vac":true,"version":"7961495","steam_id":85568392924504275,"keywords":["nocrits","nodmgspread","payload","uncletopia"],"game_id":440,"stv_port":27046,"stv_name":"Uncletopia | Frankfurt | 4 | All Maps | STV","players":[{"user_id":151,"name":"Jedunahoru","steam_id":76561199508744635,"connected_time":850000000000,"state":"active","ping":98},{"user_id":127,"name":"LOBZIK","steam_id":76561198114830120,"connected_time":2213000000000,"state":"active","ping":75},{"user_id":144,"name":"Happy Wolf","steam_id":76561197993525766,"connected_time":1021000000000,"state":"active","ping":80},{"user_id":38,"name":"Zoro (Hun)","steam_id":76561199367182571,"connected_time":5393000000000,"state":"active","ping":59},{"user_id":90,"name":"mago","steam_id":76561199473122342,"connected_time":3434000000000,"state":"active","ping":70},{"user_id":160,"name":"_Starlight_","steam_id":76561197993885738,"connected_time":335000000000,"state":"active","ping":70},{"user_id":141,"name":"blurst of times","steam_id":76561197972325640,"connected_time":1042000000000,"state":"active","ping":51},{"user_id":162,"name":"wuh","steam_id":76561198348396493,"connected_time":236000000000,"state":"active","ping":60},{"user_id":96,"name":"rabbit","steam_id":76561199466718294,"connected_time":3191000000000,"state":"active","ping":68},{"user_id":165,"name":"LEGEND FUMO.","steam_id":76561198061033903,"connected_time":136000000000,"state":"active","ping":46},{"user_id":154,"name":"UJAGaming","steam_id":76561198147959101,"connected_time":731000000000,"state":"active","ping":112},{"user_id":157,"name":"Sex Man TF2","steam_id":76561198798657045,"connected_time":499000000000,"state":"active","ping":74},{"user_id":100,"name":"Vlad","steam_id":76561198048605526,"connected_time":3045000000000,"state":"active","ping":82},{"user_id":131,"name":"NALA","steam_id":76561198039806469,"connected_time":1814000000000,"state":"active","ping":69},{"user_id":145,"name":"LargeMollusk83","steam_id":76561198388993200,"connected_time":1012000000000,"state":"active","ping":96},{"user_id":158,"name":"NULLYUKI","steam_id":76561198057477397,"connected_time":499000000000,"state":"active","ping":47},{"user_id":148,"name":"Nikich Hot ♡","steam_id":76561199172735895,"connected_time":901000000000,"state":"active","ping":101},{"user_id":167,"name":"justpixels","steam_id":76561198143717568,"connected_time":58000000000,"state":"spawning","ping":105},{"user_id":169,"name":"PaperPlay","steam_id":76561198046838964,"connected_time":49000000000,"state":"active","ping":112},{"user_id":108,"name":"Marabosha","steam_id":76561198137599173,"connected_time":2877000000000,"state":"active","ping":104},{"user_id":146,"name":"Purple Soup :D","steam_id":76561198985100366,"connected_time":1005000000000,"state":"active","ping":89},{"user_id":112,"name":"Subterranean","steam_id":76561198106684566,"connected_time":2836000000000,"state":"active","ping":76},{"user_id":138,"name":"9A6","steam_id":76561199192434258,"connected_time":1227000000000,"state":"active","ping":82},{"user_id":150,"name":"Flashback","steam_id":76561197973978552,"connected_time":868000000000,"state":"active","ping":86}]},{"server_id":310,"name":"Uncletopia | Frankfurt | 5 | All Maps","name_short":"frk-5","host":"frk-1.de.uncletopia.com","port":27055,"enabled":true,"region":"eu","cc":"de","latitude":50.110924,"longitude":8.682127,"reserved":0,"last_update":"0001-01-01T00:00:00Z","name_a2s":"Uncletopia | Frankfurt | 5 | All Maps","protocol":17,"map":"cp_altitude","folder":"tf","game":"Team Fortress","app_id":440,"player_count":23,"max_players":24,"Bots":0,"server_type":"Dedicated","server_os":"Linux","password":true,"vac":true,"version":"7961495","steam_id":85568392924504277,"keywords":["cp","nocrits","nodmgspread","uncletopia"],"game_id":440,"stv_port":27056,"stv_name":"Uncletopia | Frankfurt | 5 | All Maps | STV","players":[{"user_id":775,"name":"Onneli","steam_id":76561198073569522,"connected_time":112000000000,"state":"active","ping":100},{"user_id":745,"name":"The Juice On The Loose","steam_id":76561199509057909,"connected_time":2015000000000,"state":"active","ping":105},{"user_id":689,"name":"Sunduchek","steam_id":76561198067934157,"connected_time":6315000000000,"state":"active","ping":119},{"user_id":770,"name":"Spotmonkey","steam_id":76561198003994092,"connected_time":265000000000,"state":"active","ping":73},{"user_id":776,"name":"Lewylow","steam_id":76561198005425686,"connected_time":71000000000,"state":"active","ping":60},{"user_id":690,"name":"KALACH","steam_id":76561198028664460,"connected_time":6314000000000,"state":"active","ping":75},{"user_id":781,"name":"Cepakas","steam_id":76561198878369698,"connected_time":3000000000,"state":"spawning","ping":75},{"user_id":747,"name":"misterwondo","steam_id":76561198187934110,"connected_time":1966000000000,"state":"active","ping":61},{"user_id":767,"name":"Agame23","steam_id":76561198181992838,"connected_time":779000000000,"state":"active","ping":81},{"user_id":748,"name":"glue gunner","steam_id":76561198330025106,"connected_time":1919000000000,"state":"active","ping":51},{"user_id":752,"name":"Xi Bingchilling","steam_id":76561198154310301,"connected_time":1757000000000,"state":"active","ping":87},{"user_id":753,"name":"Hóňa","steam_id":76561198096006081,"connected_time":1741000000000,"state":"active","ping":60},{"user_id":739,"name":"Carry Krypl","steam_id":76561198136938121,"connected_time":2867000000000,"state":"active","ping":54},{"user_id":778,"name":"kingdead4","steam_id":76561198079576655,"connected_time":33000000000,"state":"active","ping":61},{"user_id":763,"name":"Stinky Whizzleteats","steam_id":76561197968945306,"connected_time":909000000000,"state":"active","ping":75},{"user_id":772,"name":"Keroz1n","steam_id":76561197998681491,"connected_time":222000000000,"state":"active","ping":68},{"user_id":779,"name":"void monad","steam_id":76561198117012334,"connected_time":25000000000,"state":"spawning","ping":82},{"user_id":771,"name":"$t@lker_Tim","steam_id":76561198963658042,"connected_time":239000000000,"state":"active","ping":102},{"user_id":769,"name":"Stellar Fox","steam_id":76561198236985244,"connected_time":312000000000,"state":"active","ping":63},{"user_id":780,"name":"alik","steam_id":76561198278359208,"connected_time":22000000000,"state":"spawning","ping":123},{"user_id":765,"name":"Marty™","steam_id":76561198060073673,"connected_time":832000000000,"state":"active","ping":60},{"user_id":766,"name":"ananas_fin","steam_id":76561198173810773,"connected_time":823000000000,"state":"active","ping":61},{"user_id":760,"name":"HayLeX","steam_id":76561198130997343,"connected_time":1107000000000,"state":"active","ping":91}]},{"server_id":311,"name":"Uncletopia | Frankfurt | 6 | All Maps","name_short":"frk-6","host":"frk-1.de.uncletopia.com","port":27065,"enabled":true,"region":"eu","cc":"de","latitude":50.110924,"longitude":8.682127,"reserved":0,"last_update":"0001-01-01T00:00:00Z","name_a2s":"Uncletopia | Frankfurt | 6 | All Maps","protocol":17,"map":"ctf_doublecross","folder":"tf","game":"Team Fortress","app_id":440,"player_count":24,"max_players":24,"Bots":0,"server_type":"Dedicated","server_os":"Linux","password":true,"vac":true,"version":"7961495","steam_id":85568392924504278,"keywords":["ctf","nocrits","nodmgspread","uncletopia"],"game_id":440,"stv_port":27066,"stv_name":"Uncletopia | Frankfurt | 6 | All Maps | STV","players":[{"user_id":91,"name":"pyrofightermag","steam_id":76561198089228732,"connected_time":443000000000,"state":"active","ping":60},{"user_id":85,"name":"shoras","steam_id":76561198019680159,"connected_time":540000000000,"state":"active","ping":89},{"user_id":41,"name":"Goatmilk_Enjoyer","steam_id":76561198285410318,"connected_time":2971000000000,"state":"active","ping":67},{"user_id":58,"name":"may0NESY","steam_id":76561198976727244,"connected_time":2085000000000,"state":"active","ping":69},{"user_id":82,"name":"Reihenhausbewohner","steam_id":76561198049820307,"connected_time":673000000000,"state":"active","ping":60},{"user_id":53,"name":"Omni","steam_id":76561197964320557,"connected_time":2383000000000,"state":"active","ping":50},{"user_id":78,"name":"DoKo_O","steam_id":76561198028025069,"connected_time":852000000000,"state":"active","ping":56},{"user_id":40,"name":"Corn Readyx","steam_id":76561198192185825,"connected_time":3047000000000,"state":"active","ping":60},{"user_id":39,"name":"Archiem","steam_id":76561199466437586,"connected_time":3118000000000,"state":"active","ping":70},{"user_id":52,"name":"PAN MAN","steam_id":76561199086525293,"connected_time":2489000000000,"state":"active","ping":67},{"user_id":95,"name":"Jerky man","steam_id":76561198348966560,"connected_time":74000000000,"state":"active","ping":186},{"user_id":94,"name":"The Creator Of Sex","steam_id":76561198385989487,"connected_time":263000000000,"state":"active","ping":59},{"user_id":46,"name":"Amon Gus","steam_id":76561199094540960,"connected_time":2710000000000,"state":"active","ping":49},{"user_id":89,"name":"T#astbr#T","steam_id":76561198010260619,"connected_time":515000000000,"state":"active","ping":53},{"user_id":55,"name":"heavy sings (real)","steam_id":76561199023804405,"connected_time":2329000000000,"state":"active","ping":68},{"user_id":92,"name":"hoho","steam_id":76561198237378014,"connected_time":339000000000,"state":"active","ping":62},{"user_id":77,"name":"SeaKane","steam_id":76561198165453318,"connected_time":891000000000,"state":"active","ping":56},{"user_id":60,"name":"pomdter","steam_id":76561198827362076,"connected_time":1806000000000,"state":"active","ping":91},{"user_id":70,"name":"Hacker Studios","steam_id":76561199209653826,"connected_time":1352000000000,"state":"active","ping":63},{"user_id":90,"name":"U_dog","steam_id":76561199196033761,"connected_time":494000000000,"state":"active","ping":55},{"user_id":74,"name":"duckington duck","steam_id":76561199157117063,"connected_time":1087000000000,"state":"active","ping":53},{"user_id":64,"name":"Michael","steam_id":76561198003146906,"connected_time":1611000000000,"state":"active","ping":57},{"user_id":67,"name":"PENGUN","steam_id":76561199015156956,"connected_time":1565000000000,"state":"active","ping":98},{"user_id":80,"name":"BABY","steam_id":76561199199063212,"connected_time":705000000000,"state":"active","ping":97}]},{"server_id":23,"name":"Uncletopia | Frankfurt | 7 | Stopwatch","name_short":"frk-7","host":"frk-1.de.uncletopia.com","port":27075,"enabled":true,"region":"eu","cc":"de","latitude":50.110924,"longitude":8.682127,"reserved":0,"last_update":"0001-01-01T00:00:00Z","name_a2s":"Uncletopia | Frankfurt | 7 | Stopwatch","protocol":17,"map":"workshop/pl_vigil_rc10.ugc1266210012","folder":"tf","game":"Team Fortress","app_id":440,"player_count":0,"max_players":24,"Bots":0,"server_type":"Dedicated","server_os":"Linux","password":true,"vac":true,"version":"7961495","steam_id":85568392924742827,"keywords":["nocrits","nodmgspread","payload","uncletopia"],"game_id":440,"stv_port":27076,"stv_name":"Uncletopia | Frankfurt | 7 | Stopwatch | STV","players":null},{"server_id":24,"name":"Uncletopia | Frankfurt | 8 | Community","name_short":"frk-8","host":"frk-1.de.uncletopia.com","port":27085,"enabled":true,"region":"eu","cc":"de","latitude":50.110924,"longitude":8.682127,"reserved":0,"last_update":"0001-01-01T00:00:00Z","name_a2s":"Uncletopia | Frankfurt | 8 | Community","protocol":17,"map":"workshop/koth_relic_rc3.ugc2965301326","folder":"tf","game":"Team Fortress","app_id":440,"player_count":0,"max_players":24,"Bots":0,"server_type":"Dedicated","server_os":"Linux","password":true,"vac":true,"version":"7961495","steam_id":85568392924742828,"keywords":["cp","nocrits","nodmgspread","uncletopia"],"game_id":440,"stv_port":27086,"stv_name":"Uncletopia | Frankfurt | 8 | Community | STV","players":null},{"server_id":202,"name":"Uncletopia | Hong Kong | 1 | All Maps","name_short":"hgk-1","host":"hgk-1.hk.uncletopia.com","port":27015,"enabled":true,"region":"asia","cc":"hk","latitude":22.302711,"longitude":114.177216,"reserved":0,"last_update":"0001-01-01T00:00:00Z","name_a2s":"Uncletopia | Hong Kong | 1 | All Maps","protocol":17,"map":"cp_sunshine","folder":"tf","game":"Team Fortress","app_id":440,"player_count":0,"max_players":24,"Bots":0,"server_type":"Dedicated","server_os":"Linux","password":true,"vac":true,"version":"7961495","steam_id":85568392924494504,"keywords":["cp","nocrits","nodmgspread","uncletopia"],"game_id":440,"stv_port":27016,"stv_name":"Uncletopia | Hong Kong | 1 | All Maps | STV","players":null},{"server_id":1,"name":"Uncletopia | Los Angeles | 1 | All Maps","name_short":"lax-1","host":"lax-1.us.uncletopia.com","port":27015,"enabled":true,"region":"us-west","cc":"us","latitude":33.94279,"longitude":-118.41004,"reserved":0,"last_update":"0001-01-01T00:00:00Z","name_a2s":"Uncletopia | Los Angeles | 1 | All Maps","protocol":17,"map":"koth_lakeside_final","folder":"tf","game":"Team Fortress","app_id":440,"player_count":0,"max_players":24,"Bots":0,"server_type":"Dedicated","server_os":"Linux","password":true,"vac":true,"version":"7961495","steam_id":85568392924469991,"keywords":["cp","nocrits","nodmgspread","uncletopia"],"game_id":440,"stv_port":27016,"stv_name":"Uncletopia | Los Angeles | 1 | All Maps | STV","players":null},{"server_id":112,"name":"Uncletopia | Los Angeles | 2 | All Maps","name_short":"lax-2","host":"lax-1.us.uncletopia.com","port":27025,"enabled":true,"region":"us-west","cc":"us","latitude":33.94279,"longitude":-118.41004,"reserved":0,"last_update":"0001-01-01T00:00:00Z","name_a2s":"Uncletopia | Los Angeles | 2 | All Maps","protocol":17,"map":"koth_lazarus","folder":"tf","game":"Team Fortress","app_id":440,"player_count":0,"max_players":24,"Bots":0,"server_type":"Dedicated","server_os":"Linux","password":true,"vac":true,"version":"7961495","steam_id":85568392924469992,"keywords":["cp","nocrits","nodmgspread","uncletopia"],"game_id":440,"stv_port":27026,"stv_name":"Uncletopia | Los Angeles | 2 | All Maps | STV","players":null},{"server_id":324,"name":"Uncletopia | Los Angeles | 3 | All Maps","name_short":"lax-3","host":"lax-1.us.uncletopia.com","port":27035,"enabled":true,"region":"us-west","cc":"us","latitude":33.94279,"longitude":-118.41004,"reserved":0,"last_update":"0001-01-01T00:00:00Z","name_a2s":"Uncletopia | Los Angeles | 3 | All Maps","protocol":17,"map":"cp_dustbowl","folder":"tf","game":"Team Fortress","app_id":440,"player_count":0,"max_players":24,"Bots":0,"server_type":"Dedicated","server_os":"Linux","password":true,"vac":true,"version":"7961495","steam_id":85568392924510198,"keywords":["cp","nocrits","nodmgspread","uncletopia"],"game_id":440,"stv_port":27036,"stv_name":"Uncletopia | Los Angeles | 3 | All Maps | STV","players":null},{"server_id":25,"name":"Uncletopia | Los Angeles | 4 | Stopwatch","name_short":"lax-4","host":"lax-1.us.uncletopia.com","port":27045,"enabled":true,"region":"us-west","cc":"us","latitude":33.94279,"longitude":-118.41004,"reserved":0,"last_update":"0001-01-01T00:00:00Z","name_a2s":"Uncletopia | Los Angeles | 4 | Stopwatch","protocol":17,"map":"pl_upward","folder":"tf","game":"Team Fortress","app_id":440,"player_count":0,"max_players":24,"Bots":0,"server_type":"Dedicated","server_os":"Linux","password":true,"vac":true,"version":"7961495","steam_id":85568392924510199,"keywords":["nocrits","nodmgspread","payload","uncletopia"],"game_id":440,"stv_port":27046,"stv_name":"Uncletopia | Los Angeles | 4 | Stopwatch | STV","players":null},{"server_id":11,"name":"Uncletopia | London | 1 | All Maps","name_short":"lon-1","host":"lon-1.uk.uncletopia.com","port":27015,"enabled":true,"region":"eu","cc":"gb","latitude":51.509865,"longitude":-0.118092,"reserved":0,"last_update":"0001-01-01T00:00:00Z","name_a2s":"Uncletopia | London | 1 | All Maps","protocol":17,"map":"pl_barnblitz","folder":"tf","game":"Team Fortress","app_id":440,"player_count":24,"max_players":24,"Bots":0,"server_type":"Dedicated","server_os":"Linux","password":true,"vac":true,"version":"7961495","steam_id":85568392924367362,"keywords":["nocrits","nodmgspread","payload","uncletopia"],"game_id":440,"stv_port":27016,"stv_name":"Uncletopia | London | 1 | All Maps | STV","players":[{"user_id":515,"name":"Woman (Real)","steam_id":76561199151823932,"connected_time":1510000000000,"state":"active","ping":85},{"user_id":516,"name":"housing crisis#savetf2","steam_id":76561198119984382,"connected_time":1507000000000,"state":"active","ping":54},{"user_id":500,"name":"hitbox criminal","steam_id":76561198079277466,"connected_time":2668000000000,"state":"active","ping":69},{"user_id":520,"name":"medium rare chicken enjoyer","steam_id":76561198050214002,"connected_time":771000000000,"state":"active","ping":60},{"user_id":510,"name":"Healix","steam_id":76561198130270161,"connected_time":1700000000000,"state":"active","ping":60},{"user_id":370,"name":"Watch The Matrix 1999 HD online","steam_id":76561198168207306,"connected_time":13670000000000,"state":"active","ping":99},{"user_id":508,"name":"Snake-chan","steam_id":76561199044755854,"connected_time":1769000000000,"state":"active","ping":89},{"user_id":488,"name":"Edsuedi","steam_id":76561198074722832,"connected_time":4279000000000,"state":"active","ping":60},{"user_id":519,"name":"Salad Bar's medic","steam_id":76561199006455750,"connected_time":781000000000,"state":"active","ping":33},{"user_id":525,"name":"Anus01","steam_id":76561198101884780,"connected_time":98000000000,"state":"active","ping":75},{"user_id":479,"name":"wk ohw","steam_id":76561198106049954,"connected_time":5591000000000,"state":"active","ping":79},{"user_id":486,"name":"Umme","steam_id":76561198053809566,"connected_time":4412000000000,"state":"active","ping":88},{"user_id":482,"name":"Minimi","steam_id":76561198873850443,"connected_time":4927000000000,"state":"active","ping":44},{"user_id":507,"name":"CLEANUH! alice","steam_id":76561198180361759,"connected_time":1822000000000,"state":"active","ping":45},{"user_id":512,"name":"Gorgeous George","steam_id":76561198144256544,"connected_time":1668000000000,"state":"active","ping":48},{"user_id":493,"name":"medick","steam_id":76561199380849468,"connected_time":4005000000000,"state":"active","ping":74},{"user_id":262,"name":"Pride moth","steam_id":76561198799133372,"connected_time":23028000000000,"state":"active","ping":94},{"user_id":498,"name":"tWIn","steam_id":76561197989544103,"connected_time":2753000000000,"state":"active","ping":62},{"user_id":427,"name":"Venwood","steam_id":76561198126973175,"connected_time":7944000000000,"state":"active","ping":39},{"user_id":524,"name":"Sandshee","steam_id":76561198088574666,"connected_time":537000000000,"state":"active","ping":46},{"user_id":513,"name":"Adam","steam_id":76561198083655265,"connected_time":1665000000000,"state":"active","ping":61},{"user_id":484,"name":"breakfast burrito","steam_id":76561198148606969,"connected_time":4634000000000,"state":"active","ping":83},{"user_id":518,"name":"Croy","steam_id":76561197972552579,"connected_time":1020000000000,"state":"active","ping":45},{"user_id":523,"name":"Beni 🦧🍌","steam_id":76561198011340227,"connected_time":752000000000,"state":"active","ping":61}]},{"server_id":114,"name":"Uncletopia | London | 2 | All Maps","name_short":"lon-2","host":"lon-1.uk.uncletopia.com","port":27025,"enabled":true,"region":"eu","cc":"gb","latitude":51.509865,"longitude":-0.118092,"reserved":0,"last_update":"0001-01-01T00:00:00Z","name_a2s":"Uncletopia | London | 2 | All Maps","protocol":17,"map":"cp_snakewater_final1","folder":"tf","game":"Team Fortress","app_id":440,"player_count":15,"max_players":24,"Bots":0,"server_type":"Dedicated","server_os":"Linux","password":true,"vac":true,"version":"7961495","steam_id":85568392924470941,"keywords":["cp","nocrits","nodmgspread","uncletopia"],"game_id":440,"stv_port":27026,"stv_name":"Uncletopia | London | 2 | All Maps | STV","players":[{"user_id":163,"name":"pakku","steam_id":76561198121260981,"connected_time":82000000000,"state":"active","ping":31},{"user_id":153,"name":"Dispenser(Dispenser)","steam_id":76561199211831658,"connected_time":1319000000000,"state":"active","ping":59},{"user_id":123,"name":"cisgender clown","steam_id":76561199469909295,"connected_time":2591000000000,"state":"active","ping":62},{"user_id":165,"name":"WHUSSKEY","steam_id":76561198137827441,"connected_time":53000000000,"state":"active","ping":65},{"user_id":125,"name":"Warrior555MainsGanon","steam_id":76561198388627786,"connected_time":2423000000000,"state":"active","ping":51},{"user_id":157,"name":"Qwertuss","steam_id":76561198026305366,"connected_time":897000000000,"state":"active","ping":56},{"user_id":141,"name":"Katnor","steam_id":76561199141290973,"connected_time":1857000000000,"state":"active","ping":83},{"user_id":161,"name":"Luxotrics","steam_id":76561198053455161,"connected_time":299000000000,"state":"active","ping":77},{"user_id":116,"name":"ABSOLUTE UNIT","steam_id":76561197972287320,"connected_time":3211000000000,"state":"active","ping":71},{"user_id":155,"name":"Bond7o6","steam_id":76561198155718787,"connected_time":922000000000,"state":"active","ping":46},{"user_id":160,"name":"kilo","steam_id":76561198015641339,"connected_time":454000000000,"state":"active","ping":74},{"user_id":147,"name":"Ammo","steam_id":76561199365904488,"connected_time":1697000000000,"state":"active","ping":135},{"user_id":151,"name":"CONAH","steam_id":76561198227685876,"connected_time":1410000000000,"state":"active","ping":45},{"user_id":162,"name":"Hyppy ja liipasin pohjaan :D","steam_id":76561198080669698,"connected_time":264000000000,"state":"active","ping":97},{"user_id":142,"name":"Koroshy","steam_id":76561198104002221,"connected_time":1851000000000,"state":"active","ping":56}]},{"server_id":320,"name":"Uncletopia | London | 3 | All Maps","name_short":"lon-3","host":"lon-1.uk.uncletopia.com","port":27035,"enabled":true,"region":"eu","cc":"gb","latitude":51.509865,"longitude":-0.118092,"reserved":0,"last_update":"0001-01-01T00:00:00Z","name_a2s":"Uncletopia | London | 3 | All Maps","protocol":17,"map":"cp_foundry","folder":"tf","game":"Team Fortress","app_id":440,"player_count":22,"max_players":24,"Bots":0,"server_type":"Dedicated","server_os":"Linux","password":true,"vac":true,"version":"7961495","steam_id":85568392924510192,"keywords":["cp","nocrits","nodmgspread","uncletopia"],"game_id":440,"stv_port":27036,"stv_name":"Uncletopia | London | 3 | All Maps | STV","players":[{"user_id":442,"name":"mt","steam_id":76561197961319303,"connected_time":576000000000,"state":"active","ping":58},{"user_id":338,"name":"marvi444","steam_id":76561198431534139,"connected_time":7681000000000,"state":"active","ping":60},{"user_id":414,"name":"JayKey","steam_id":76561198008847925,"connected_time":1616000000000,"state":"active","ping":62},{"user_id":409,"name":"Supercoxylac","steam_id":76561198376300138,"connected_time":1686000000000,"state":"active","ping":54},{"user_id":449,"name":"Hank J Wimbleton","steam_id":76561198408623293,"connected_time":237000000000,"state":"active","ping":58},{"user_id":428,"name":"13","steam_id":76561198394345037,"connected_time":1142000000000,"state":"active","ping":106},{"user_id":411,"name":"ᴎɒmɿɘmɘᗡ","steam_id":76561198826005248,"connected_time":1679000000000,"state":"active","ping":81},{"user_id":446,"name":"hasky","steam_id":76561197986052798,"connected_time":330000000000,"state":"active","ping":74},{"user_id":450,"name":"Icetanker","steam_id":76561198094189764,"connected_time":39000000000,"state":"active","ping":40},{"user_id":444,"name":"Thomas Sowell","steam_id":76561198027738546,"connected_time":502000000000,"state":"active","ping":43},{"user_id":451,"name":"electrician apprentice","steam_id":76561199102698561,"connected_time":4000000000,"state":"spawning","ping":54},{"user_id":430,"name":"practicing","steam_id":76561198176202865,"connected_time":1135000000000,"state":"active","ping":104},{"user_id":425,"name":"NorthPolar","steam_id":76561198438741909,"connected_time":1217000000000,"state":"active","ping":87},{"user_id":423,"name":"Nova","steam_id":76561198108601005,"connected_time":1300000000000,"state":"active","ping":73},{"user_id":440,"name":"Lubi Animal","steam_id":76561199041620433,"connected_time":658000000000,"state":"active","ping":60},{"user_id":424,"name":"krafno-lomac2006","steam_id":76561198808332971,"connected_time":1285000000000,"state":"active","ping":67},{"user_id":431,"name":"pradabloodclot","steam_id":76561199211933195,"connected_time":1127000000000,"state":"active","ping":57},{"user_id":432,"name":"Some bub","steam_id":76561199077211138,"connected_time":1117000000000,"state":"active","ping":28},{"user_id":441,"name":"Sunshine Moon","steam_id":76561198022604491,"connected_time":653000000000,"state":"active","ping":48},{"user_id":434,"name":"Vibrátor (418 122 locomotive)","steam_id":76561198097789669,"connected_time":1088000000000,"state":"active","ping":68},{"user_id":448,"name":"Doloro :3","steam_id":76561198309713613,"connected_time":259000000000,"state":"active","ping":43},{"user_id":408,"name":"Sang","steam_id":76561198008510868,"connected_time":1821000000000,"state":"active","ping":75}]},{"server_id":321,"name":"Uncletopia | London | 4 | All Maps","name_short":"lon-4","host":"lon-1.uk.uncletopia.com","port":27045,"enabled":true,"region":"eu","cc":"gb","latitude":51.509865,"longitude":-0.118092,"reserved":0,"last_update":"0001-01-01T00:00:00Z","name_a2s":"Uncletopia | London | 4 | All Maps","protocol":17,"map":"pl_frontier_final","folder":"tf","game":"Team Fortress","app_id":440,"player_count":24,"max_players":24,"Bots":0,"server_type":"Dedicated","server_os":"Linux","password":true,"vac":true,"version":"7961495","steam_id":85568392924510193,"keywords":["nocrits","nodmgspread","payload","uncletopia"],"game_id":440,"stv_port":27046,"stv_name":"Uncletopia | London | 4 | All Maps | STV","players":[{"user_id":360,"name":"meratrof","steam_id":76561198181841702,"connected_time":917000000000,"state":"active","ping":67},{"user_id":343,"name":"LiterallyRyanGosling","steam_id":76561199017856691,"connected_time":1989000000000,"state":"active","ping":56},{"user_id":345,"name":"Farmercy","steam_id":76561198000038039,"connected_time":1845000000000,"state":"active","ping":68},{"user_id":237,"name":"Michał","steam_id":76561198320346362,"connected_time":9471000000000,"state":"active","ping":72},{"user_id":362,"name":"FutabaUchiha","steam_id":76561199436467630,"connected_time":735000000000,"state":"active","ping":144},{"user_id":267,"name":"JkauxxHQ","steam_id":76561198135428304,"connected_time":7363000000000,"state":"active","ping":96},{"user_id":258,"name":"Backstreet Badger","steam_id":76561199024411975,"connected_time":7805000000000,"state":"active","ping":118},{"user_id":331,"name":"Menimaru","steam_id":76561198090197240,"connected_time":2712000000000,"state":"active","ping":68},{"user_id":336,"name":"gun spy","steam_id":76561199389926609,"connected_time":2479000000000,"state":"active","ping":94},{"user_id":361,"name":"промокашка","steam_id":76561199064297073,"connected_time":783000000000,"state":"active","ping":149},{"user_id":323,"name":"Theskillmaster32734","steam_id":76561198845682486,"connected_time":2843000000000,"state":"active","ping":87},{"user_id":349,"name":"Charm Quark","steam_id":76561198017932409,"connected_time":1629000000000,"state":"active","ping":59},{"user_id":358,"name":"typicalcrimson","steam_id":76561198295439747,"connected_time":1148000000000,"state":"active","ping":86},{"user_id":366,"name":"SausageRoll","steam_id":76561197994072622,"connected_time":142000000000,"state":"active","ping":49},{"user_id":326,"name":"Grzegorz.exe","steam_id":76561198093756481,"connected_time":2823000000000,"state":"active","ping":71},{"user_id":320,"name":"dopamine overdose","steam_id":76561199032511302,"connected_time":3192000000000,"state":"active","ping":111},{"user_id":354,"name":"Mig_Chungus","steam_id":76561198053410265,"connected_time":1451000000000,"state":"active","ping":62},{"user_id":359,"name":"MaccyF","steam_id":76561198039214805,"connected_time":944000000000,"state":"active","ping":61},{"user_id":344,"name":"Matt the Waffling-Iron","steam_id":76561198044066043,"connected_time":1973000000000,"state":"active","ping":88},{"user_id":246,"name":"Decadence","steam_id":76561198206829379,"connected_time":9124000000000,"state":"active","ping":85},{"user_id":341,"name":"Zamorocian","steam_id":76561198076604017,"connected_time":2155000000000,"state":"active","ping":39},{"user_id":363,"name":"PASTAMANIA!","steam_id":76561197967858558,"connected_time":632000000000,"state":"active","ping":51},{"user_id":335,"name":"Sir nutz the 4th","steam_id":76561199094009174,"connected_time":2677000000000,"state":"active","ping":79},{"user_id":364,"name":"çodar","steam_id":76561198235518444,"connected_time":629000000000,"state":"active","ping":37}]},{"server_id":21,"name":"Uncletopia | London | 5 | All Maps","name_short":"lon-5","host":"lon-1.uk.uncletopia.com","port":27055,"enabled":true,"region":"eu","cc":"gb","latitude":51.509865,"longitude":-0.118092,"reserved":0,"last_update":"0001-01-01T00:00:00Z","name_a2s":"Uncletopia | London | 5 | All Maps","protocol":17,"map":"pl_borneo","folder":"tf","game":"Team Fortress","app_id":440,"player_count":17,"max_players":24,"Bots":0,"server_type":"Dedicated","server_os":"Linux","password":true,"vac":true,"version":"7961495","steam_id":85568392924742829,"keywords":["nocrits","nodmgspread","payload","uncletopia"],"game_id":440,"stv_port":27056,"stv_name":"Uncletopia | London | 5 | All Maps | STV","players":[{"user_id":13,"name":"Sad Potato","steam_id":76561198239654762,"connected_time":1963000000000,"state":"active","ping":45},{"user_id":14,"name":"SpicyBoi","steam_id":76561198137845321,"connected_time":1944000000000,"state":"active","ping":60},{"user_id":16,"name":"ja","steam_id":76561199228540618,"connected_time":1179000000000,"state":"active","ping":65},{"user_id":17,"name":"rrm#4395","steam_id":76561199225339381,"connected_time":734000000000,"state":"active","ping":50},{"user_id":18,"name":"Kahvi","steam_id":76561198723244199,"connected_time":405000000000,"state":"active","ping":77},{"user_id":19,"name":"wee bit depresso","steam_id":76561198097507847,"connected_time":395000000000,"state":"active","ping":86},{"user_id":20,"name":"Dolcelatte","steam_id":76561198038501770,"connected_time":378000000000,"state":"active","ping":60},{"user_id":21,"name":"W","steam_id":76561198273623211,"connected_time":366000000000,"state":"active","ping":87},{"user_id":22,"name":"de6s","steam_id":76561199223240505,"connected_time":289000000000,"state":"active","ping":137},{"user_id":23,"name":"tromboner","steam_id":76561198170609049,"connected_time":240000000000,"state":"active","ping":90},{"user_id":24,"name":"Wee bit espresso","steam_id":76561198067204908,"connected_time":217000000000,"state":"active","ping":55},{"user_id":25,"name":"IHaveConsumed50KmofMeth","steam_id":76561199221172552,"connected_time":111000000000,"state":"spawning","ping":79},{"user_id":26,"name":"Big Mean Muther Hubbard","steam_id":76561199223016965,"connected_time":107000000000,"state":"active","ping":45},{"user_id":27,"name":"[2013] tRiPlE_PuNk-Xx","steam_id":76561198119449463,"connected_time":100000000000,"state":"active","ping":60},{"user_id":30,"name":"Nintails","steam_id":76561198075157560,"connected_time":73000000000,"state":"active","ping":45},{"user_id":29,"name":"A Troglodyte","steam_id":76561198049741167,"connected_time":81000000000,"state":"active","ping":90},{"user_id":31,"name":"r06u3","steam_id":76561198254099253,"connected_time":47000000000,"state":"active","ping":179}]},{"server_id":22,"name":"Uncletopia | London | 6 | All Maps","name_short":"lon-6","host":"lon-1.uk.uncletopia.com","port":27065,"enabled":true,"region":"eu","cc":"gb","latitude":51.509865,"longitude":-0.118092,"reserved":0,"last_update":"0001-01-01T00:00:00Z","name_a2s":"Uncletopia | London | 6 | All Maps","protocol":17,"map":"koth_viaduct","folder":"tf","game":"Team Fortress","app_id":440,"player_count":0,"max_players":24,"Bots":0,"server_type":"Dedicated","server_os":"Linux","password":true,"vac":true,"version":"7961495","steam_id":85568392924742830,"keywords":["cp","nocrits","nodmgspread","uncletopia"],"game_id":440,"stv_port":27066,"stv_name":"Uncletopia | London | 6 | All Maps | STV","players":null},{"server_id":40,"name":"Uncletopia | London | 7 | Stopwatch","name_short":"lon-7","host":"lon-1.uk.uncletopia.com","port":27075,"enabled":true,"region":"eu","cc":"gb","latitude":51.509865,"longitude":-0.118092,"reserved":0,"last_update":"0001-01-01T00:00:00Z","name_a2s":"Uncletopia | London | 7 | Stopwatch","protocol":17,"map":"workshop/cp_reckoner_rc6.ugc674719999","folder":"tf","game":"Team Fortress","app_id":440,"player_count":0,"max_players":24,"Bots":0,"server_type":"Dedicated","server_os":"Linux","password":true,"vac":true,"version":"7961495","steam_id":85568392924964314,"keywords":["cp","nocrits","nodmgspread","uncletopia"],"game_id":440,"stv_port":27076,"stv_name":"Uncletopia | London | 7 | Stopwatch | STV","players":null},{"server_id":41,"name":"Uncletopia | London | 8 | Community","name_short":"lon-8","host":"lon-1.uk.uncletopia.com","port":27085,"enabled":true,"region":"eu","cc":"gb","latitude":51.509865,"longitude":-0.118092,"reserved":0,"last_update":"0001-01-01T00:00:00Z","name_a2s":"Uncletopia | London | 8 | Community","protocol":17,"map":"workshop/cp_glassworks_rc7a.ugc454118349","folder":"tf","game":"Team Fortress","app_id":440,"player_count":0,"max_players":24,"Bots":0,"server_type":"Dedicated","server_os":"Linux","password":true,"vac":true,"version":"7961495","steam_id":85568392924964315,"keywords":["cp","nocrits","nodmgspread","uncletopia"],"game_id":440,"stv_port":27086,"stv_name":"Uncletopia | London | 8 | Community | STV","players":null},{"server_id":300,"name":"Uncletopia | Montréal | 1 | One Thousand Uncles","name_short":"mtl-1","host":"mtl-1.ca.uncletopia.com","port":27015,"enabled":true,"region":"us-east","cc":"ca","latitude":45.50889,"longitude":-73.56167,"reserved":0,"last_update":"0001-01-01T00:00:00Z","name_a2s":"Uncletopia | Montréal | 1 | One Thousand Uncles","protocol":17,"map":"cp_mossrock","folder":"tf","game":"Team Fortress","app_id":440,"player_count":25,"max_players":32,"Bots":20,"server_type":"Dedicated","server_os":"Linux","password":true,"vac":true,"version":"7961495","steam_id":85568392924500087,"keywords":["alltalk","bots","cp","danepve","increased_maxplayers","norespawntime","uncletopia"],"game_id":440,"stv_port":0,"stv_name":"","players":[{"user_id":173,"name":"Waaagh!","steam_id":76561197995317887,"connected_time":1144000000000,"state":"active","ping":50},{"user_id":124,"name":"patronshito","steam_id":76561198266063209,"connected_time":3319000000000,"state":"active","ping":115},{"user_id":151,"name":"Red Falcon","steam_id":76561198986132432,"connected_time":1897000000000,"state":"active","ping":101},{"user_id":149,"name":"Very Small Giant","steam_id":76561199187337967,"connected_time":2642000000000,"state":"active","ping":77},{"user_id":174,"name":"abhorrence","steam_id":76561198208849751,"connected_time":267000000000,"state":"active","ping":78}]},{"server_id":301,"name":"Uncletopia | Montréal | 2 | One Thousand Uncles","name_short":"mtl-2","host":"mtl-1.ca.uncletopia.com","port":27025,"enabled":true,"region":"us-east","cc":"ca","latitude":45.50889,"longitude":-73.56167,"reserved":0,"last_update":"0001-01-01T00:00:00Z","name_a2s":"Uncletopia | Montréal | 2 | One Thousand Uncles","protocol":17,"map":"cp_mossrock","folder":"tf","game":"Team Fortress","app_id":440,"player_count":0,"max_players":32,"Bots":0,"server_type":"Dedicated","server_os":"Linux","password":true,"vac":true,"version":"7961495","steam_id":85568392924500088,"keywords":["alltalk","cp","danepve","increased_maxplayers","norespawntime","uncletopia"],"game_id":440,"stv_port":0,"stv_name":"","players":null},{"server_id":302,"name":"Uncletopia | Montréal | 3 | One Thousand Uncles","name_short":"mtl-3","host":"mtl-1.ca.uncletopia.com","port":27035,"enabled":true,"region":"us-east","cc":"ca","latitude":45.50889,"longitude":-73.56167,"reserved":0,"last_update":"0001-01-01T00:00:00Z","name_a2s":"Uncletopia | Montréal | 3 | One Thousand Uncles","protocol":17,"map":"pl_pier","folder":"tf","game":"Team Fortress","app_id":440,"player_count":0,"max_players":32,"Bots":0,"server_type":"Dedicated","server_os":"Linux","password":true,"vac":true,"version":"7961495","steam_id":85568392924500089,"keywords":["alltalk","danepve","increased_maxplayers","norespawntime","payload","uncletopia"],"game_id":440,"stv_port":0,"stv_name":"","players":null},{"server_id":13,"name":"Uncletopia | New York City | 1 | All Maps","name_short":"nyc-1","host":"nyc-1.us.uncletopia.com","port":27015,"enabled":true,"region":"us-east","cc":"us","latitude":40.73061,"longitude":-73.93524,"reserved":0,"last_update":"0001-01-01T00:00:00Z","name_a2s":"Uncletopia | New York City | 1 | All Maps","protocol":17,"map":"cp_dustbowl","folder":"tf","game":"Team Fortress","app_id":440,"player_count":24,"max_players":24,"Bots":0,"server_type":"Dedicated","server_os":"Linux","password":true,"vac":true,"version":"7961495","steam_id":85568392924469993,"keywords":["cp","nocrits","nodmgspread","uncletopia"],"game_id":440,"stv_port":27016,"stv_name":"Uncletopia | New York City | 1 | All Maps | STV","players":[{"user_id":114,"name":"Cheeseboi","steam_id":76561198151598074,"connected_time":1791000000000,"state":"active","ping":49},{"user_id":87,"name":"Strike Force Lightning","steam_id":76561198271519776,"connected_time":3759000000000,"state":"active","ping":60},{"user_id":115,"name":"you forgot the sauce","steam_id":76561198387016713,"connected_time":1691000000000,"state":"active","ping":50},{"user_id":124,"name":"Harry S. Truman","steam_id":76561197993339757,"connected_time":841000000000,"state":"active","ping":59},{"user_id":96,"name":"Senator Armstrong","steam_id":76561198141479053,"connected_time":3142000000000,"state":"active","ping":45},{"user_id":138,"name":"dangerzach","steam_id":76561199044680710,"connected_time":160000000000,"state":"active","ping":76},{"user_id":118,"name":"Young Sheldon Tik-Tok Clip","steam_id":76561198253927199,"connected_time":1545000000000,"state":"active","ping":167},{"user_id":135,"name":"SkadooshPlayz","steam_id":76561198310986662,"connected_time":260000000000,"state":"active","ping":121},{"user_id":83,"name":"Raine","steam_id":76561198055761141,"connected_time":4105000000000,"state":"active","ping":64},{"user_id":129,"name":"Suspicious Individual","steam_id":76561198398918486,"connected_time":583000000000,"state":"active","ping":60},{"user_id":109,"name":"HippieOfWar","steam_id":76561198079776257,"connected_time":2360000000000,"state":"active","ping":106},{"user_id":108,"name":"Super Stupid","steam_id":76561198040665081,"connected_time":2406000000000,"state":"active","ping":139},{"user_id":137,"name":"AquaticSky","steam_id":76561198091332323,"connected_time":189000000000,"state":"active","ping":123},{"user_id":123,"name":"Bother","steam_id":76561198336750909,"connected_time":1275000000000,"state":"active","ping":41},{"user_id":127,"name":"THEY DONT WANT US TO THRIVE","steam_id":76561197995620232,"connected_time":590000000000,"state":"active","ping":36},{"user_id":131,"name":"DJpocalypse","steam_id":76561199230125964,"connected_time":498000000000,"state":"active","ping":77},{"user_id":103,"name":"Scarecrow","steam_id":76561198045870511,"connected_time":2933000000000,"state":"active","ping":83},{"user_id":139,"name":"Rhea","steam_id":76561198066626240,"connected_time":127000000000,"state":"active","ping":90},{"user_id":104,"name":"dantheman","steam_id":76561199486390813,"connected_time":2894000000000,"state":"active","ping":82},{"user_id":128,"name":"Larry Cañonga","steam_id":76561198081053203,"connected_time":588000000000,"state":"active","ping":120},{"user_id":140,"name":"mostly ham","steam_id":76561199479937232,"connected_time":126000000000,"state":"active","ping":78},{"user_id":66,"name":"ThatGamingKiwi","steam_id":76561199170522237,"connected_time":5484000000000,"state":"active","ping":73},{"user_id":107,"name":"Femboy Dracula","steam_id":76561198090606686,"connected_time":2683000000000,"state":"active","ping":60},{"user_id":45,"name":"Renegaiden","steam_id":76561198060179109,"connected_time":7213000000000,"state":"active","ping":80}]},{"server_id":14,"name":"Uncletopia | New York City | 2 | All Maps","name_short":"nyc-2","host":"nyc-1.us.uncletopia.com","port":27025,"enabled":true,"region":"us-east","cc":"us","latitude":40.73061,"longitude":-73.93524,"reserved":0,"last_update":"0001-01-01T00:00:00Z","name_a2s":"Uncletopia | New York City | 2 | All Maps","protocol":17,"map":"pl_upward","folder":"tf","game":"Team Fortress","app_id":440,"player_count":0,"max_players":24,"Bots":0,"server_type":"Dedicated","server_os":"Linux","password":true,"vac":true,"version":"7961495","steam_id":85568392924469994,"keywords":["nocrits","nodmgspread","payload","uncletopia"],"game_id":440,"stv_port":27026,"stv_name":"Uncletopia | New York City | 2 | All Maps | STV","players":null},{"server_id":15,"name":"Uncletopia | New York City | 3 | Stopwatch","name_short":"nyc-3","host":"nyc-1.us.uncletopia.com","port":27035,"enabled":true,"region":"us-east","cc":"us","latitude":40.73061,"longitude":-73.93524,"reserved":0,"last_update":"0001-01-01T00:00:00Z","name_a2s":"Uncletopia | New York City | 3 | Stopwatch","protocol":17,"map":"workshop/koth_bagel_rc6.ugc2514036946","folder":"tf","game":"Team Fortress","app_id":440,"player_count":0,"max_players":24,"Bots":0,"server_type":"Dedicated","server_os":"Linux","password":true,"vac":true,"version":"7961495","steam_id":85568392924742820,"keywords":["cp","nocrits","nodmgspread","uncletopia"],"game_id":440,"stv_port":27036,"stv_name":"Uncletopia | New York City | 3 | Stopwatch | STV","players":null},{"server_id":16,"name":"Uncletopia | New York City | 4 | Community","name_short":"nyc-4","host":"nyc-1.us.uncletopia.com","port":27045,"enabled":true,"region":"us-east","cc":"us","latitude":40.73061,"longitude":-73.93524,"reserved":0,"last_update":"0001-01-01T00:00:00Z","name_a2s":"Uncletopia | New York City | 4 | Community","protocol":17,"map":"workshop/cp_indulge.ugc528106646","folder":"tf","game":"Team Fortress","app_id":440,"player_count":3,"max_players":24,"Bots":0,"server_type":"Dedicated","server_os":"Linux","password":true,"vac":true,"version":"7961495","steam_id":85568392924742821,"keywords":["cp","nocrits","nodmgspread","uncletopia"],"game_id":440,"stv_port":27046,"stv_name":"Uncletopia | New York City | 4 | Community | STV","players":[{"user_id":4,"name":"Romes_Last","steam_id":76561198168113577,"connected_time":939000000000,"state":"active","ping":65},{"user_id":5,"name":"GoldenAmbrosia13","steam_id":76561198801456597,"connected_time":918000000000,"state":"active","ping":67},{"user_id":6,"name":"bhamil1128","steam_id":76561199469172285,"connected_time":618000000000,"state":"active","ping":56}]},{"server_id":142,"name":"Uncletopia | São Paulo | 1 | All Maps","name_short":"sao-1","host":"sao-1.br.uncletopia.com","port":27015,"enabled":true,"region":"sa","cc":"br","latitude":-23.533773,"longitude":-46.62529,"reserved":0,"last_update":"0001-01-01T00:00:00Z","name_a2s":"Uncletopia | São Paulo | 1 | All Maps","protocol":17,"map":"cp_mountainlab","folder":"tf","game":"Team Fortress","app_id":440,"player_count":0,"max_players":24,"Bots":0,"server_type":"Dedicated","server_os":"Linux","password":true,"vac":true,"version":"7961495","steam_id":85568392924469996,"keywords":["cp","nocrits","nodmgspread","uncletopia"],"game_id":440,"stv_port":27016,"stv_name":"Uncletopia | São Paulo | 1 | All Maps | STV","players":null},{"server_id":143,"name":"Uncletopia | São Paulo | 2 | Community","name_short":"sao-2","host":"sao-2.br.uncletopia.com","port":27015,"enabled":true,"region":"sa","cc":"br","latitude":-23.533773,"longitude":-46.62529,"reserved":0,"last_update":"0001-01-01T00:00:00Z","name_a2s":"Uncletopia | São Paulo | 2 | Community","protocol":17,"map":"workshop/koth_slaughter_rc1.ugc1712845210","folder":"tf","game":"Team Fortress","app_id":440,"player_count":0,"max_players":24,"Bots":0,"server_type":"Dedicated","server_os":"Linux","password":true,"vac":true,"version":"7961495","steam_id":85568392924485349,"keywords":["cp","nocrits","nodmgspread","uncletopia"],"game_id":440,"stv_port":27016,"stv_name":"Uncletopia | São Paulo | 2 | Community | STV","players":null},{"server_id":7,"name":"Uncletopia | Seattle | 1 | All Maps","name_short":"sea-1","host":"sea-1.us.uncletopia.com","port":27015,"enabled":true,"region":"us-west","cc":"us","latitude":47.608013,"longitude":-122.33517,"reserved":0,"last_update":"0001-01-01T00:00:00Z","name_a2s":"Uncletopia | Seattle | 1 | All Maps","protocol":17,"map":"pl_barnblitz","folder":"tf","game":"Team Fortress","app_id":440,"player_count":24,"max_players":24,"Bots":0,"server_type":"Dedicated","server_os":"Linux","password":true,"vac":true,"version":"7961495","steam_id":85568392924469997,"keywords":["nocrits","nodmgspread","payload","uncletopia"],"game_id":440,"stv_port":27016,"stv_name":"Uncletopia | Seattle | 1 | All Maps | STV","players":[{"user_id":272,"name":"KlassicLoL","steam_id":76561198081815303,"connected_time":2714000000000,"state":"active","ping":76},{"user_id":239,"name":"soda","steam_id":76561198105924953,"connected_time":4637000000000,"state":"active","ping":68},{"user_id":228,"name":"That was insane clip that","steam_id":76561199247095754,"connected_time":5166000000000,"state":"active","ping":74},{"user_id":290,"name":"Knock on the sky and listen","steam_id":76561198077597130,"connected_time":645000000000,"state":"active","ping":67},{"user_id":291,"name":"Keamy","steam_id":76561199471434875,"connected_time":287000000000,"state":"active","ping":44},{"user_id":293,"name":"AuraBraixen_4412","steam_id":76561198120668769,"connected_time":227000000000,"state":"active","ping":100},{"user_id":199,"name":"DaddyGalaxy","steam_id":76561198139697796,"connected_time":7998000000000,"state":"active","ping":58},{"user_id":284,"name":"Wholesale Socks","steam_id":76561198169911945,"connected_time":1198000000000,"state":"active","ping":75},{"user_id":277,"name":"Drake from State Farm","steam_id":76561199069029812,"connected_time":1876000000000,"state":"active","ping":89},{"user_id":269,"name":"Scorpianswag","steam_id":76561198260651036,"connected_time":3029000000000,"state":"active","ping":60},{"user_id":285,"name":"Napa cabbage","steam_id":76561198103825541,"connected_time":1169000000000,"state":"active","ping":125},{"user_id":283,"name":"NavyDinosaur","steam_id":76561198088459962,"connected_time":1261000000000,"state":"active","ping":74},{"user_id":266,"name":"rmbl","steam_id":76561198150137369,"connected_time":3127000000000,"state":"active","ping":78},{"user_id":286,"name":"Reed the Flame Shadow","steam_id":76561198348354629,"connected_time":1156000000000,"state":"active","ping":78},{"user_id":251,"name":"ForAPessimistImPrettyOptimistic","steam_id":76561198170128009,"connected_time":3903000000000,"state":"active","ping":74},{"user_id":275,"name":"Lé Mon","steam_id":76561198078626283,"connected_time":2412000000000,"state":"active","ping":30},{"user_id":287,"name":"goofy goober","steam_id":76561199024079388,"connected_time":1144000000000,"state":"active","ping":45},{"user_id":265,"name":"UltimaA","steam_id":76561198083618022,"connected_time":3132000000000,"state":"active","ping":78},{"user_id":280,"name":"vfa","steam_id":76561198055729118,"connected_time":1737000000000,"state":"active","ping":62},{"user_id":270,"name":"milk","steam_id":76561198053410877,"connected_time":2985000000000,"state":"active","ping":101},{"user_id":292,"name":"Zing","steam_id":76561198379302861,"connected_time":274000000000,"state":"active","ping":82},{"user_id":271,"name":"Hamlindigo Blue™","steam_id":76561198116337540,"connected_time":2939000000000,"state":"active","ping":89},{"user_id":289,"name":"the keebler","steam_id":76561199486326945,"connected_time":1055000000000,"state":"active","ping":120},{"user_id":259,"name":"Perfume Department","steam_id":76561198128299594,"connected_time":3721000000000,"state":"active","ping":78}]},{"server_id":119,"name":"Uncletopia | Seattle | 2 | All Maps","name_short":"sea-2","host":"sea-1.us.uncletopia.com","port":27025,"enabled":true,"region":"us-west","cc":"us","latitude":47.608013,"longitude":-122.33517,"reserved":0,"last_update":"0001-01-01T00:00:00Z","name_a2s":"Uncletopia | Seattle | 2 | All Maps","protocol":17,"map":"cp_mountainlab","folder":"tf","game":"Team Fortress","app_id":440,"player_count":0,"max_players":24,"Bots":0,"server_type":"Dedicated","server_os":"Linux","password":true,"vac":true,"version":"7961495","steam_id":85568392924469998,"keywords":["cp","nocrits","nodmgspread","uncletopia"],"game_id":440,"stv_port":27026,"stv_name":"Uncletopia | Seattle | 2 | All Maps | STV","players":null},{"server_id":406,"name":"Uncletopia | Seattle | 3 | Stopwatch","name_short":"sea-3","host":"sea-1.us.uncletopia.com","port":27035,"enabled":true,"region":"us-west","cc":"us","latitude":47.608013,"longitude":-122.33517,"reserved":0,"last_update":"0001-01-01T00:00:00Z","name_a2s":"Uncletopia | Seattle | 3 | Stopwatch","protocol":17,"map":"cp_gullywash_final1","folder":"tf","game":"Team Fortress","app_id":440,"player_count":0,"max_players":24,"Bots":0,"server_type":"Dedicated","server_os":"Linux","password":true,"vac":true,"version":"7961495","steam_id":85568392924515217,"keywords":["cp","nocrits","nodmgspread","uncletopia"],"game_id":440,"stv_port":27036,"stv_name":"Uncletopia | Seattle | 3 | Stopwatch | STV","players":null},{"server_id":17,"name":"Uncletopia | San Francisco | 1 | All Maps","name_short":"sfo-1","host":"sfo-1.us.uncletopia.com","port":27015,"enabled":true,"region":"us-west","cc":"us","latitude":37.77397,"longitude":-122.4313,"reserved":0,"last_update":"0001-01-01T00:00:00Z","name_a2s":"Uncletopia | San Francisco | 1 | All Maps","protocol":17,"map":"cp_gullywash_final1","folder":"tf","game":"Team Fortress","app_id":440,"player_count":0,"max_players":24,"Bots":0,"server_type":"Dedicated","server_os":"Linux","password":true,"vac":true,"version":"7961495","steam_id":85568392924469999,"keywords":["cp","nocrits","nodmgspread","uncletopia"],"game_id":440,"stv_port":27016,"stv_name":"Uncletopia | San Francisco | 1 | All Maps | STV","players":null},{"server_id":18,"name":"Uncletopia | San Francisco | 2 | All Maps","name_short":"sfo-2","host":"sfo-1.us.uncletopia.com","port":27025,"enabled":true,"region":"us-west","cc":"us","latitude":37.77397,"longitude":-122.4313,"reserved":0,"last_update":"0001-01-01T00:00:00Z","name_a2s":"Uncletopia | San Francisco | 2 | All Maps","protocol":17,"map":"cp_sunshine","folder":"tf","game":"Team Fortress","app_id":440,"player_count":0,"max_players":24,"Bots":0,"server_type":"Dedicated","server_os":"Linux","password":true,"vac":true,"version":"7961495","steam_id":85568392924470000,"keywords":["cp","nocrits","nodmgspread","uncletopia"],"game_id":440,"stv_port":27026,"stv_name":"Uncletopia | San Francisco | 2 | All Maps | STV","players":null},{"server_id":19,"name":"Uncletopia | San Francisco | 3 | Stopwatch","name_short":"sfo-3","host":"sfo-1.us.uncletopia.com","port":27035,"enabled":true,"region":"us-west","cc":"us","latitude":37.77397,"longitude":-122.4313,"reserved":0,"last_update":"0001-01-01T00:00:00Z","name_a2s":"Uncletopia | San Francisco | 3 | Stopwatch","protocol":17,"map":"workshop/koth_clearcut_b15.ugc2107050255","folder":"tf","game":"Team Fortress","app_id":440,"player_count":0,"max_players":24,"Bots":0,"server_type":"Dedicated","server_os":"Linux","password":true,"vac":true,"version":"7961495","steam_id":85568392924742824,"keywords":["cp","nocrits","nodmgspread","uncletopia"],"game_id":440,"stv_port":27036,"stv_name":"Uncletopia | San Francisco | 3 | Stopwatch | STV","players":null},{"server_id":20,"name":"Uncletopia | San Francisco | 4 | Community","name_short":"sfo-4","host":"sfo-1.us.uncletopia.com","port":27045,"enabled":true,"region":"us-west","cc":"us","latitude":37.77397,"longitude":-122.4313,"reserved":0,"last_update":"0001-01-01T00:00:00Z","name_a2s":"Uncletopia | San Francisco | 4 | Community","protocol":17,"map":"workshop/cp_reckoner_rc6.ugc674719999","folder":"tf","game":"Team Fortress","app_id":440,"player_count":0,"max_players":24,"Bots":0,"server_type":"Dedicated","server_os":"Linux","password":true,"vac":true,"version":"7961495","steam_id":85568392924742826,"keywords":["cp","nocrits","nodmgspread","uncletopia"],"game_id":440,"stv_port":27046,"stv_name":"Uncletopia | San Francisco | 4 | Community | STV","players":null},{"server_id":141,"name":"Uncletopia | Sydney | 1 | All Maps","name_short":"syd-1","host":"syd-1.au.uncletopia.com","port":27015,"enabled":true,"region":"au","cc":"au","latitude":-33.865143,"longitude":151.2099,"reserved":0,"last_update":"0001-01-01T00:00:00Z","name_a2s":"Uncletopia | Sydney | 1 | All Maps","protocol":17,"map":"pl_pier","folder":"tf","game":"Team Fortress","app_id":440,"player_count":0,"max_players":24,"Bots":0,"server_type":"Dedicated","server_os":"Linux","password":true,"vac":true,"version":"7961495","steam_id":85568392924470001,"keywords":["nocrits","nodmgspread","payload","uncletopia"],"game_id":440,"stv_port":27016,"stv_name":"Uncletopia | Sydney | 1 | All Maps | STV","players":null},{"server_id":123,"name":"Uncletopia | Sydney | 2 | All Maps","name_short":"syd-2","host":"syd-1.au.uncletopia.com","port":27025,"enabled":true,"region":"au","cc":"au","latitude":-33.865143,"longitude":151.2099,"reserved":0,"last_update":"0001-01-01T00:00:00Z","name_a2s":"Uncletopia | Sydney | 2 | All Maps","protocol":17,"map":"koth_highpass","folder":"tf","game":"Team Fortress","app_id":440,"player_count":0,"max_players":24,"Bots":0,"server_type":"Dedicated","server_os":"Linux","password":true,"vac":true,"version":"7961495","steam_id":85568392924470002,"keywords":["cp","nocrits","nodmgspread","uncletopia"],"game_id":440,"stv_port":27026,"stv_name":"Uncletopia | Sydney | 2 | All Maps | STV","players":null},{"server_id":395,"name":"Uncletopia | Sydney | 3 | All Maps","name_short":"syd-3","host":"syd-1.au.uncletopia.com","port":27035,"enabled":true,"region":"au","cc":"au","latitude":-33.865143,"longitude":151.2099,"reserved":0,"last_update":"0001-01-01T00:00:00Z","name_a2s":"Uncletopia | Sydney | 3 | All Maps","protocol":17,"map":"cp_process_final","folder":"tf","game":"Team Fortress","app_id":440,"player_count":0,"max_players":24,"Bots":0,"server_type":"Dedicated","server_os":"Linux","password":true,"vac":true,"version":"7961495","steam_id":85568392925194467,"keywords":["cp","nocrits","nodmgspread","uncletopia"],"game_id":440,"stv_port":27036,"stv_name":"Uncletopia | Sydney | 3 | All Maps | STV","players":null},{"server_id":396,"name":"Uncletopia | Sydney | 4 | All Maps","name_short":"syd-4","host":"syd-1.au.uncletopia.com","port":27045,"enabled":true,"region":"au","cc":"au","latitude":-33.865143,"longitude":151.2099,"reserved":0,"last_update":"0001-01-01T00:00:00Z","name_a2s":"Uncletopia | Sydney | 4 | All Maps","protocol":17,"map":"plr_bananabay","folder":"tf","game":"Team Fortress","app_id":440,"player_count":0,"max_players":24,"Bots":0,"server_type":"Dedicated","server_os":"Linux","password":true,"vac":true,"version":"7961495","steam_id":85568392925397958,"keywords":["nocrits","nodmgspread","payload","uncletopia"],"game_id":440,"stv_port":27046,"stv_name":"Uncletopia | Sydney | 4 | All Maps | STV","players":null},{"server_id":58,"name":"Uncletopia | Sydney | 5 | Stopwatch","name_short":"syd-5","host":"syd-1.au.uncletopia.com","port":27055,"enabled":true,"region":"au","cc":"au","latitude":-33.865143,"longitude":151.2099,"reserved":0,"last_update":"0001-01-01T00:00:00Z","name_a2s":"Uncletopia | Sydney | 5 | Stopwatch","protocol":17,"map":"workshop/pl_barnblitz_pro7.ugc582280235","folder":"tf","game":"Team Fortress","app_id":440,"player_count":0,"max_players":24,"Bots":0,"server_type":"Dedicated","server_os":"Linux","password":true,"vac":true,"version":"7961495","steam_id":85568392925397959,"keywords":["nocrits","nodmgspread","payload","uncletopia"],"game_id":440,"stv_port":27056,"stv_name":"Uncletopia | Sydney | 5 | Stopwatch | STV","players":null},{"server_id":59,"name":"Uncletopia | Sydney | 6 | Community","name_short":"syd-6","host":"syd-1.au.uncletopia.com","port":27065,"enabled":true,"region":"au","cc":"au","latitude":-33.865143,"longitude":151.2099,"reserved":0,"last_update":"0001-01-01T00:00:00Z","name_a2s":"Uncletopia | Sydney | 6 | Community","protocol":17,"map":"workshop/koth_soot_final1.ugc2969540689","folder":"tf","game":"Team Fortress","app_id":440,"player_count":0,"max_players":24,"Bots":0,"server_type":"Dedicated","server_os":"Linux","password":true,"vac":true,"version":"7961495","steam_id":85568392925397960,"keywords":["cp","nocrits","nodmgspread","uncletopia"],"game_id":440,"stv_port":27066,"stv_name":"Uncletopia | Sydney | 6 | Community | STV","players":null},{"server_id":49,"name":"Uncletopia | Warsaw | 1 | One Thousand Uncles","name_short":"waw-1","host":"waw-1.pl.uncletopia.com","port":27015,"enabled":true,"region":"eu","cc":"pl","latitude":52.2297,"longitude":21.017532,"reserved":0,"last_update":"0001-01-01T00:00:00Z","name_a2s":"Uncletopia | Warsaw | 1 | One Thousand Uncles","protocol":17,"map":"pl_upward","folder":"tf","game":"Team Fortress","app_id":440,"player_count":31,"max_players":32,"Bots":20,"server_type":"Dedicated","server_os":"Linux","password":true,"vac":true,"version":"7961495","steam_id":85568392925397850,"keywords":["alltalk","bots","danepve","increased_maxplayers","norespawntime","payload","uncletopia"],"game_id":440,"stv_port":0,"stv_name":"","players":[{"user_id":3,"name":"The Fire Pyro","steam_id":76561198300296457,"connected_time":8604000000000,"state":"active","ping":79},{"user_id":133,"name":"dog?","steam_id":76561199232839385,"connected_time":127000000000,"state":"active","ping":107},{"user_id":90,"name":"cheesecake hunter","steam_id":76561198097769060,"connected_time":2765000000000,"state":"active","ping":85},{"user_id":95,"name":"DarthDanny","steam_id":76561197997718926,"connected_time":2476000000000,"state":"active","ping":129},{"user_id":104,"name":"Bordt258","steam_id":76561199038280717,"connected_time":826000000000,"state":"active","ping":60},{"user_id":134,"name":"Paul_Mc","steam_id":76561199031955413,"connected_time":15000000000,"state":"spawning","ping":149},{"user_id":106,"name":"Vanes #savetf2","steam_id":76561198070099171,"connected_time":308000000000,"state":"active","ping":95},{"user_id":98,"name":"Paraducks","steam_id":76561198083301973,"connected_time":2062000000000,"state":"active","ping":89},{"user_id":108,"name":"Kassava #savetf2","steam_id":76561199008616675,"connected_time":301000000000,"state":"active","ping":95},{"user_id":130,"name":"bill11128 lolo","steam_id":76561199404243518,"connected_time":213000000000,"state":"active","ping":66},{"user_id":101,"name":"fumo gaming","steam_id":76561198053997947,"connected_time":1871000000000,"state":"active","ping":64},{"user_id":131,"name":"Луис","steam_id":76561199210922560,"connected_time":204000000000,"state":"active","ping":65}]},{"server_id":50,"name":"Uncletopia | Warsaw | 2 | One Thousand Uncles","name_short":"waw-2","host":"waw-1.pl.uncletopia.com","port":27025,"enabled":true,"region":"eu","cc":"pl","latitude":52.2297,"longitude":21.017532,"reserved":0,"last_update":"0001-01-01T00:00:00Z","name_a2s":"Uncletopia | Warsaw | 2 | One Thousand Uncles","protocol":17,"map":"cp_egypt_final","folder":"tf","game":"Team Fortress","app_id":440,"player_count":29,"max_players":32,"Bots":20,"server_type":"Dedicated","server_os":"Linux","password":true,"vac":true,"version":"7961495","steam_id":85568392925397851,"keywords":["alltalk","bots","cp","danepve","increased_maxplayers","norespawntime","uncletopia"],"game_id":440,"stv_port":0,"stv_name":"","players":[{"user_id":325,"name":"Eradical","steam_id":76561199035578645,"connected_time":5917000000000,"state":"active","ping":119},{"user_id":379,"name":"TheCheeseLord73","steam_id":76561199416226610,"connected_time":868000000000,"state":"active","ping":106},{"user_id":264,"name":"sad bruh","steam_id":76561198150640861,"connected_time":9915000000000,"state":"active","ping":154},{"user_id":378,"name":"didi_gaga","steam_id":76561198797688627,"connected_time":1305000000000,"state":"active","ping":58},{"user_id":259,"name":"momo","steam_id":76561198132750021,"connected_time":11649000000000,"state":"active","ping":68},{"user_id":326,"name":"lungdung","steam_id":76561199041919130,"connected_time":5884000000000,"state":"active","ping":179},{"user_id":380,"name":"Gusvenga","steam_id":76561199350840589,"connected_time":336000000000,"state":"active","ping":88},{"user_id":382,"name":"Intern","steam_id":76561198062744679,"connected_time":112000000000,"state":"active","ping":96},{"user_id":350,"name":"facetious dog","steam_id":76561198095289436,"connected_time":2516000000000,"state":"active","ping":60}]},{"server_id":51,"name":"Uncletopia | Warsaw | 3 | All Maps","name_short":"waw-3","host":"waw-1.pl.uncletopia.com","port":27035,"enabled":true,"region":"eu","cc":"pl","latitude":52.2297,"longitude":21.017532,"reserved":0,"last_update":"0001-01-01T00:00:00Z","name_a2s":"Uncletopia | Warsaw | 3 | All Maps","protocol":17,"map":"koth_viaduct","folder":"tf","game":"Team Fortress","app_id":440,"player_count":0,"max_players":24,"Bots":0,"server_type":"Dedicated","server_os":"Linux","password":true,"vac":true,"version":"7961495","steam_id":85568392925397852,"keywords":["cp","nocrits","nodmgspread","uncletopia"],"game_id":440,"stv_port":27036,"stv_name":"Uncletopia | Warsaw | 3 | All Maps | STV","players":null},{"server_id":52,"name":"Uncletopia | Warsaw | 4 | All Maps","name_short":"waw-4","host":"waw-1.pl.uncletopia.com","port":27045,"enabled":true,"region":"eu","cc":"pl","latitude":52.2297,"longitude":21.017532,"reserved":0,"last_update":"0001-01-01T00:00:00Z","name_a2s":"Uncletopia | Warsaw | 4 | All Maps","protocol":17,"map":"ctf_turbine","folder":"tf","game":"Team Fortress","app_id":440,"player_count":24,"max_players":24,"Bots":0,"server_type":"Dedicated","server_os":"Linux","password":true,"vac":true,"version":"7961495","steam_id":85568392925397853,"keywords":["ctf","nocrits","nodmgspread","uncletopia"],"game_id":440,"stv_port":27046,"stv_name":"Uncletopia | Warsaw | 4 | All Maps | STV","players":[{"user_id":221,"name":"warforge3","steam_id":76561199276024310,"connected_time":676000000000,"state":"active","ping":73},{"user_id":116,"name":"soney","steam_id":76561198121177512,"connected_time":7951000000000,"state":"active","ping":89},{"user_id":226,"name":"AshleyJWilliams","steam_id":76561199319657907,"connected_time":408000000000,"state":"active","ping":190},{"user_id":230,"name":"в отрубе(жёстком)","steam_id":76561198163244605,"connected_time":235000000000,"state":"active","ping":87},{"user_id":181,"name":"Ham","steam_id":76561198866730509,"connected_time":3361000000000,"state":"active","ping":106},{"user_id":216,"name":"DonutDispencer","steam_id":76561198853850941,"connected_time":910000000000,"state":"active","ping":111},{"user_id":138,"name":"greggs #1 customer","steam_id":76561198046873337,"connected_time":7100000000000,"state":"active","ping":76},{"user_id":202,"name":"♥ Cirno ♥","steam_id":76561198834982738,"connected_time":2125000000000,"state":"active","ping":78},{"user_id":203,"name":"glue eating champion","steam_id":76561198100963738,"connected_time":2021000000000,"state":"active","ping":82},{"user_id":223,"name":"noot","steam_id":76561198148074472,"connected_time":650000000000,"state":"active","ping":60},{"user_id":228,"name":"anni","steam_id":76561198017686306,"connected_time":345000000000,"state":"active","ping":61},{"user_id":225,"name":"NINJA","steam_id":76561198287884918,"connected_time":627000000000,"state":"active","ping":37},{"user_id":229,"name":"Caliban","steam_id":76561197999696839,"connected_time":339000000000,"state":"active","ping":102},{"user_id":207,"name":"GRRRR BARK BARK WOOF WOOF :3","steam_id":76561198010662796,"connected_time":1408000000000,"state":"active","ping":79},{"user_id":220,"name":"BENDYS_cz","steam_id":76561198369601322,"connected_time":716000000000,"state":"active","ping":44},{"user_id":235,"name":"Preksy","steam_id":76561199179193076,"connected_time":90000000000,"state":"active","ping":77},{"user_id":218,"name":"Bobo","steam_id":76561198052308399,"connected_time":874000000000,"state":"active","ping":70},{"user_id":213,"name":"Favi","steam_id":76561198013236935,"connected_time":1162000000000,"state":"active","ping":72},{"user_id":232,"name":"Lorenzo Lovers","steam_id":76561198073973581,"connected_time":230000000000,"state":"active","ping":102},{"user_id":189,"name":"1 NIGHT IN PUSSYHACKNEY","steam_id":76561198023211417,"connected_time":3101000000000,"state":"active","ping":86},{"user_id":233,"name":"Shawty","steam_id":76561198256704286,"connected_time":136000000000,"state":"active","ping":79},{"user_id":106,"name":"popeyes employee of the month","steam_id":76561198076219289,"connected_time":8883000000000,"state":"active","ping":69},{"user_id":219,"name":"Egor Pomidor","steam_id":76561199175688390,"connected_time":841000000000,"state":"active","ping":92},{"user_id":237,"name":"Yodawg","steam_id":76561198261933946,"connected_time":12000000000,"state":"active","ping":75}]},{"server_id":53,"name":"Uncletopia | Warsaw | 5 | Stopwatch","name_short":"waw-5","host":"waw-1.pl.uncletopia.com","port":27055,"enabled":true,"region":"eu","cc":"pl","latitude":52.2297,"longitude":21.017532,"reserved":0,"last_update":"0001-01-01T00:00:00Z","name_a2s":"Uncletopia | Warsaw | 5 | Stopwatch","protocol":17,"map":"koth_lakeside_final","folder":"tf","game":"Team Fortress","app_id":440,"player_count":0,"max_players":24,"Bots":0,"server_type":"Dedicated","server_os":"Linux","password":true,"vac":true,"version":"7961495","steam_id":85568392925397854,"keywords":["cp","nocrits","nodmgspread","uncletopia"],"game_id":440,"stv_port":27056,"stv_name":"Uncletopia | Warsaw | 5 | Stopwatch | STV","players":null},{"server_id":54,"name":"Uncletopia | Warsaw | 6 | Community","name_short":"waw-6","host":"waw-1.pl.uncletopia.com","port":27065,"enabled":true,"region":"eu","cc":"pl","latitude":52.2297,"longitude":21.017532,"reserved":0,"last_update":"0001-01-01T00:00:00Z","name_a2s":"Uncletopia | Warsaw | 6 | Community","protocol":17,"map":"workshop/koth_bagel_rc6.ugc2514036946","folder":"tf","game":"Team Fortress","app_id":440,"player_count":0,"max_players":24,"Bots":0,"server_type":"Dedicated","server_os":"Linux","password":true,"vac":true,"version":"7961495","steam_id":85568392925397856,"keywords":["cp","nocrits","nodmgspread","uncletopia"],"game_id":440,"stv_port":27066,"stv_name":"Uncletopia | Warsaw | 6 | Community | STV","players":null}]}