{"status":true,"message":"","result":[{"server_id":9,"name":"Uncletopia | Atlanta | 1 | All Maps","name_short":"atl-1","host":"atl-1.us.uncletopia.com","port":27015,"enabled":true,"region":"us-east","cc":"us","latitude":33.753746,"longitude":-84.38633,"reserved":0,"last_update":"0001-01-01T00:00:00Z","name_a2s":"Uncletopia | Atlanta | 1 | All Maps","protocol":17,"map":"pl_pier","folder":"tf","game":"Team Fortress","app_id":440,"player_count":24,"max_players":24,"Bots":0,"server_type":"Dedicated","server_os":"Linux","password":true,"vac":true,"version":"7757534","steam_id":85568392924469982,"keywords":["nocrits","nodmgspread","payload","uncletopia"],"game_id":440,"stv_port":27016,"stv_name":"Uncletopia | Atlanta | 1 | All Maps | STV","players":[{"user_id":175,"name":"Vanya","steam_id":76561198042631561,"connected_time":3595000000000,"state":"active","ping":110},{"user_id":211,"name":"RED1 | vid_","steam_id":76561198065159053,"connected_time":77000000000,"state":"active","ping":54},{"user_id":157,"name":"shaderoses","steam_id":76561198070800500,"connected_time":4686000000000,"state":"active","ping":70},{"user_id":206,"name":"broth automation","steam_id":76561198891031643,"connected_time":320000000000,"state":"active","ping":63},{"user_id":184,"name":"Mournful-Misery","steam_id":76561198838757422,"connected_time":2114000000000,"state":"active","ping":81},{"user_id":209,"name":"Yukon Cornelius","steam_id":76561198261512781,"connected_time":98000000000,"state":"active","ping":61},{"user_id":158,"name":"BLU1 | cola","steam_id":76561198374390458,"connected_time":4605000000000,"state":"active","ping":59},{"user_id":197,"name":"Snazzi","steam_id":76561198085208276,"connected_time":1100000000000,"state":"active","ping":77},{"user_id":136,"name":"noah","steam_id":76561198140305002,"connected_time":6565000000000,"state":"active","ping":94},{"user_id":208,"name":"Karma","steam_id":76561198030565234,"connected_time":185000000000,"state":"active","ping":66},{"user_id":185,"name":"RED1 | Le4n!!!","steam_id":76561198045522596,"connected_time":2078000000000,"state":"active","ping":70},{"user_id":142,"name":"Ape","steam_id":76561199105321535,"connected_time":6360000000000,"state":"active","ping":63},{"user_id":178,"name":"A Rhino with Coronavirus","steam_id":76561197999451366,"connected_time":2938000000000,"state":"active","ping":100},{"user_id":199,"name":"mark","steam_id":76561198223421912,"connected_time":841000000000,"state":"active","ping":96},{"user_id":192,"name":"adankmix","steam_id":76561198106945614,"connected_time":1261000000000,"state":"active","ping":54},{"user_id":130,"name":"Mage","steam_id":76561198285026879,"connected_time":6775000000000,"state":"active","ping":85},{"user_id":193,"name":"Lolxdloldx","steam_id":76561198136887125,"connected_time":1260000000000,"state":"active","ping":100},{"user_id":182,"name":"AER0.exe","steam_id":76561198062940197,"connected_time":2258000000000,"state":"active","ping":82},{"user_id":207,"name":"Pungabot","steam_id":76561198009088243,"connected_time":238000000000,"state":"active","ping":79},{"user_id":188,"name":"Rockhead","steam_id":76561197995196535,"connected_time":1641000000000,"state":"active","ping":84},{"user_id":187,"name":"RED1 | Mug","steam_id":76561199282207802,"connected_time":1673000000000,"state":"active","ping":90},{"user_id":139,"name":"ELO oak","steam_id":76561198092135570,"connected_time":6430000000000,"state":"active","ping":61},{"user_id":194,"name":"realhedgehog2082","steam_id":76561198168931330,"connected_time":1245000000000,"state":"active","ping":60},{"user_id":198,"name":"NovaSc6ut","steam_id":76561198277163301,"connected_time":1023000000000,"state":"active","ping":80}]},{"server_id":400,"name":"Uncletopia | Atlanta | 3 | Stopwatch Beta","name_short":"atl-3","host":"atl-1.us.uncletopia.com","port":27035,"enabled":true,"region":"us-east","cc":"us","latitude":33.753746,"longitude":-84.38633,"reserved":0,"last_update":"0001-01-01T00:00:00Z","name_a2s":"Uncletopia | Atlanta | 3 | Stopwatch Beta","protocol":17,"map":"workshop/koth_ashville_final.ugc2130459942","folder":"tf","game":"Team Fortress","app_id":440,"player_count":3,"max_players":24,"Bots":0,"server_type":"Dedicated","server_os":"Linux","password":true,"vac":true,"version":"7757534","steam_id":85568392924515187,"keywords":["cp","nocrits","nodmgspread","uncletopia"],"game_id":440,"stv_port":27036,"stv_name":"Uncletopia | Atlanta | 3 | Stopwatch Beta | STV","players":[{"user_id":12,"name":"sys","steam_id":76561198300912581,"connected_time":107000000000,"state":"active","ping":123},{"user_id":9,"name":"A Fucking Degenerate","steam_id":76561198093261788,"connected_time":591000000000,"state":"active","ping":77},{"user_id":11,"name":"Slowingbranch90","steam_id":76561199445875508,"connected_time":525000000000,"state":"active","ping":89}]},{"server_id":401,"name":"Uncletopia | Atlanta | 4 | No Payload","name_short":"atl-4","host":"atl-1.us.uncletopia.com","port":27045,"enabled":true,"region":"us-east","cc":"us","latitude":33.753746,"longitude":-84.38633,"reserved":0,"last_update":"0001-01-01T00:00:00Z","name_a2s":"Uncletopia | Atlanta | 4 | No Payload","protocol":17,"map":"pl_pier","folder":"tf","game":"Team Fortress","app_id":440,"player_count":0,"max_players":24,"Bots":0,"server_type":"Dedicated","server_os":"Linux","password":true,"vac":true,"version":"7723704","steam_id":85568392924515188,"keywords":["nocrits","nodmgspread","payload","uncletopia"],"game_id":440,"stv_port":27046,"stv_name":"Uncletopia | Atlanta | 4 | No Payload | STV","players":null},{"server_id":2,"name":"Uncletopia | Chicago | 1 | All Maps","name_short":"chi-1","host":"chi-1.us.uncletopia.com","port":27015,"enabled":true,"region":"us-central","cc":"us","latitude":41.881832,"longitude":-87.62318,"reserved":0,"last_update":"0001-01-01T00:00:00Z","name_a2s":"Uncletopia | Chicago | 1 | All Maps","protocol":17,"map":"cp_sunshine","folder":"tf","game":"Team Fortress","app_id":440,"player_count":24,"max_players":24,"Bots":0,"server_type":"Dedicated","server_os":"Linux","password":true,"vac":true,"version":"7757534","steam_id":85568392924469984,"keywords":["cp","nocrits","nodmgspread","uncletopia"],"game_id":440,"stv_port":27016,"stv_name":"Uncletopia | Chicago | 1 | All Maps | STV","players":[{"user_id":430,"name":"Comfy!","steam_id":76561198008818346,"connected_time":175000000000,"state":"active","ping":75},{"user_id":406,"name":"Aster","steam_id":76561198037920420,"connected_time":800000000000,"state":"active","ping":116},{"user_id":405,"name":"al-jazair","steam_id":76561198072179483,"connected_time":834000000000,"state":"active","ping":90},{"user_id":191,"name":"177013","steam_id":76561198072303290,"connected_time":22741000000000,"state":"active","ping":63},{"user_id":421,"name":"Pancetta's vore window","steam_id":76561198428086758,"connected_time":538000000000,"state":"active","ping":79},{"user_id":422,"name":"soup","steam_id":76561198099977572,"connected_time":532000000000,"state":"active","ping":58},{"user_id":428,"name":"Sir Lagsalot","steam_id":76561198133576262,"connected_time":241000000000,"state":"active","ping":102},{"user_id":387,"name":"CeigeBirb","steam_id":76561198068538473,"connected_time":2398000000000,"state":"active","ping":78},{"user_id":416,"name":"Very Small Giant","steam_id":76561199187337967,"connected_time":666000000000,"state":"active","ping":63},{"user_id":407,"name":"PrinceGrotle","steam_id":76561198206131603,"connected_time":738000000000,"state":"active","ping":77},{"user_id":419,"name":"triangleman","steam_id":76561198972733542,"connected_time":639000000000,"state":"active","ping":62},{"user_id":390,"name":"Fluffeline","steam_id":76561198352909489,"connected_time":2276000000000,"state":"active","ping":146},{"user_id":431,"name":"Fk it we Ball","steam_id":76561198078421075,"connected_time":133000000000,"state":"active","ping":69},{"user_id":425,"name":"ZBaldTop","steam_id":76561199396318132,"connected_time":483000000000,"state":"active","ping":49},{"user_id":394,"name":"gps","steam_id":76561198067492304,"connected_time":1693000000000,"state":"active","ping":82},{"user_id":174,"name":"[ØWQJØ]chubacaalatake","steam_id":76561198136201697,"connected_time":24500000000000,"state":"active","ping":140},{"user_id":410,"name":"ali oop","steam_id":76561198057516213,"connected_time":723000000000,"state":"active","ping":82},{"user_id":417,"name":"Squibo","steam_id":76561198413882627,"connected_time":665000000000,"state":"active","ping":89},{"user_id":392,"name":"lil bro","steam_id":76561198031675881,"connected_time":2182000000000,"state":"active","ping":46},{"user_id":427,"name":"LegendaryMister151","steam_id":76561198064890524,"connected_time":334000000000,"state":"active","ping":90},{"user_id":420,"name":"CPUnit","steam_id":76561198162881878,"connected_time":619000000000,"state":"active","ping":72},{"user_id":331,"name":"Ϫ.averted","steam_id":76561198067784310,"connected_time":7915000000000,"state":"active","ping":63},{"user_id":424,"name":"cottagecore ringwraith","steam_id":76561198405479940,"connected_time":516000000000,"state":"active","ping":76},{"user_id":400,"name":"wiiblob","steam_id":76561198109106242,"connected_time":1410000000000,"state":"active","ping":132}]},{"server_id":106,"name":"Uncletopia | Chicago | 2 | All Maps","name_short":"chi-2","host":"chi-1.us.uncletopia.com","port":27025,"enabled":true,"region":"us-central","cc":"us","latitude":41.881832,"longitude":-87.62318,"reserved":0,"last_update":"0001-01-01T00:00:00Z","name_a2s":"Uncletopia | Chicago | 2 | All Maps","protocol":17,"map":"koth_lakeside_final","folder":"tf","game":"Team Fortress","app_id":440,"player_count":0,"max_players":24,"Bots":0,"server_type":"Dedicated","server_os":"Linux","password":true,"vac":true,"version":"7757534","steam_id":85568392924469985,"keywords":["cp","nocrits","nodmgspread","uncletopia"],"game_id":440,"stv_port":27026,"stv_name":"Uncletopia | Chicago | 2 | All Maps | STV","players":null},{"server_id":402,"name":"Uncletopia | Chicago | 3 | All Maps","name_short":"chi-3","host":"chi-1.us.uncletopia.com","port":27035,"enabled":true,"region":"us-central","cc":"us","latitude":41.881832,"longitude":-87.62318,"reserved":0,"last_update":"0001-01-01T00:00:00Z","name_a2s":"Uncletopia | Chicago | 3 | All Maps","protocol":17,"map":"koth_cascade","folder":"tf","game":"Team Fortress","app_id":440,"player_count":0,"max_players":24,"Bots":0,"server_type":"Dedicated","server_os":"Linux","password":true,"vac":true,"version":"7757534","steam_id":85568392924515191,"keywords":["cp","nocrits","nodmgspread","uncletopia"],"game_id":440,"stv_port":27036,"stv_name":"Uncletopia | Chicago | 3 | All Maps | STV","players":null},{"server_id":403,"name":"Uncletopia | Chicago | 4 | All Maps","name_short":"chi-4","host":"chi-1.us.uncletopia.com","port":27045,"enabled":true,"region":"us-central","cc":"us","latitude":41.881832,"longitude":-87.62318,"reserved":0,"last_update":"0001-01-01T00:00:00Z","name_a2s":"Uncletopia | Chicago | 4 | All Maps","protocol":17,"map":"koth_king","folder":"tf","game":"Team Fortress","app_id":440,"player_count":23,"max_players":24,"Bots":0,"server_type":"Dedicated","server_os":"Linux","password":true,"vac":true,"version":"7757534","steam_id":85568392924515193,"keywords":["cp","nocrits","nodmgspread","uncletopia"],"game_id":440,"stv_port":27046,"stv_name":"Uncletopia | Chicago | 4 | All Maps | STV","players":[{"user_id":428,"name":"cringeass nae-nae girl","steam_id":76561198108753857,"connected_time":1350000000000,"state":"active","ping":90},{"user_id":442,"name":"Cooldude_15","steam_id":76561198346713382,"connected_time":404000000000,"state":"active","ping":50},{"user_id":408,"name":"GC.loafe","steam_id":76561198119679320,"connected_time":2403000000000,"state":"active","ping":59},{"user_id":410,"name":"honked off the bobo","steam_id":76561198123287268,"connected_time":2388000000000,"state":"active","ping":45},{"user_id":380,"name":"PeopleOrderOurPatties","steam_id":76561198323144922,"connected_time":4096000000000,"state":"active","ping":63},{"user_id":444,"name":"hoboways","steam_id":76561198168035195,"connected_time":369000000000,"state":"active","ping":82},{"user_id":421,"name":"clavin_","steam_id":76561198046398447,"connected_time":1844000000000,"state":"active","ping":56},{"user_id":403,"name":"$3.99 Shrimps","steam_id":76561198077272494,"connected_time":3124000000000,"state":"active","ping":52},{"user_id":406,"name":"Coach McFish","steam_id":76561198210456405,"connected_time":2557000000000,"state":"active","ping":74},{"user_id":436,"name":"phyonic","steam_id":76561198059183301,"connected_time":1099000000000,"state":"active","ping":47},{"user_id":390,"name":"GiraffeMan","steam_id":76561198042104084,"connected_time":3681000000000,"state":"active","ping":75},{"user_id":441,"name":"volta","steam_id":76561199214283884,"connected_time":436000000000,"state":"active","ping":100},{"user_id":431,"name":"poiuytrewqwqwqwqwqwqwqwqwqwqwqw","steam_id":76561199105253001,"connected_time":1281000000000,"state":"active","ping":74},{"user_id":413,"name":"JoCaleb02","steam_id":76561198272389829,"connected_time":2370000000000,"state":"active","ping":81},{"user_id":427,"name":"coffeeghost","steam_id":76561198155142385,"connected_time":1375000000000,"state":"active","ping":78},{"user_id":395,"name":"the grungler!","steam_id":76561198058485742,"connected_time":3538000000000,"state":"active","ping":51},{"user_id":446,"name":"Dog","steam_id":76561198450992953,"connected_time":57000000000,"state":"active","ping":111},{"user_id":439,"name":"Moscow Medic","steam_id":76561198071040516,"connected_time":675000000000,"state":"active","ping":64},{"user_id":402,"name":"Doctor Sex","steam_id":76561198119503652,"connected_time":3131000000000,"state":"active","ping":69},{"user_id":443,"name":"AAAAAAAAAAAAAAAAAAAAAAAAAAAAAAA","steam_id":76561198817866879,"connected_time":383000000000,"state":"active","ping":78},{"user_id":437,"name":"Sous-Chef","steam_id":76561198075705827,"connected_time":772000000000,"state":"active","ping":79},{"user_id":357,"name":"Albino Jellyfish","steam_id":76561198208561097,"connected_time":6412000000000,"state":"active","ping":59},{"user_id":438,"name":"Anxious Nerd Bird","steam_id":76561198112178602,"connected_time":681000000000,"state":"active","ping":109}]},{"server_id":36,"name":"Uncletopia | Chicago | 5 | All Maps","name_short":"chi-5","host":"chi-2.us.uncletopia.com","port":27015,"enabled":true,"region":"us-central","cc":"us","latitude":41.881832,"longitude":-87.62318,"reserved":0,"last_update":"0001-01-01T00:00:00Z","name_a2s":"Uncletopia | Chicago | 5 | All Maps","protocol":17,"map":"koth_cascade","folder":"tf","game":"Team Fortress","app_id":440,"player_count":0,"max_players":24,"Bots":0,"server_type":"Dedicated","server_os":"Linux","password":true,"vac":true,"version":"7757534","steam_id":85568392924866362,"keywords":["cp","nocrits","nodmgspread","uncletopia"],"game_id":440,"stv_port":27016,"stv_name":"Uncletopia | Chicago | 5 | All Maps | STV","players":null},{"server_id":37,"name":"Uncletopia | Chicago | 6 | All Maps","name_short":"chi-6","host":"chi-2.us.uncletopia.com","port":27025,"enabled":true,"region":"us-central","cc":"us","latitude":41.881832,"longitude":-87.62318,"reserved":0,"last_update":"0001-01-01T00:00:00Z","name_a2s":"Uncletopia | Chicago | 6 | All Maps","protocol":17,"map":"cp_mountainlab","folder":"tf","game":"Team Fortress","app_id":440,"player_count":0,"max_players":24,"Bots":0,"server_type":"Dedicated","server_os":"Linux","password":true,"vac":true,"version":"7757534","steam_id":85568392924866363,"keywords":["cp","nocrits","nodmgspread","uncletopia"],"game_id":440,"stv_port":27026,"stv_name":"Uncletopia | Chicago | 6 | All Maps | STV","players":null},{"server_id":38,"name":"Uncletopia | Chicago | 7 | Stopwatch Beta","name_short":"chi-7","host":"chi-2.us.uncletopia.com","port":27035,"enabled":true,"region":"us-central","cc":"us","latitude":41.881832,"longitude":-87.62318,"reserved":0,"last_update":"0001-01-01T00:00:00Z","name_a2s":"Uncletopia | Chicago | 7 | Stopwatch Beta","protocol":17,"map":"cp_granary","folder":"tf","game":"Team Fortress","app_id":440,"player_count":0,"max_players":24,"Bots":0,"server_type":"Dedicated","server_os":"Linux","password":true,"vac":true,"version":"7757534","steam_id":85568392924866364,"keywords":["cp","nocrits","nodmgspread","uncletopia"],"game_id":440,"stv_port":27036,"stv_name":"Uncletopia | Chicago | 7 | Stopwatch Beta | STV","players":null},{"server_id":39,"name":"Uncletopia | Chicago | 8 | Community","name_short":"chi-8","host":"chi-2.us.uncletopia.com","port":27045,"enabled":true,"region":"us-central","cc":"us","latitude":41.881832,"longitude":-87.62318,"reserved":0,"last_update":"0001-01-01T00:00:00Z","name_a2s":"Uncletopia | Chicago | 8 | Community","protocol":17,"map":"pl_pier","folder":"tf","game":"Team Fortress","app_id":440,"player_count":0,"max_players":24,"Bots":0,"server_type":"Dedicated","server_os":"Linux","password":true,"vac":true,"version":"7757534","steam_id":85568392924866365,"keywords":["nocrits","nodmgspread","payload","uncletopia"],"game_id":440,"stv_port":27046,"stv_name":"Uncletopia | Chicago | 8 | Community | STV","players":null},{"server_id":8,"name":"Uncletopia | Dallas | 1 | All Maps","name_short":"dal-1","host":"dal-1.us.uncletopia.com","port":27015,"enabled":true,"region":"us-central","cc":"us","latitude":32.779167,"longitude":-96.80889,"reserved":0,"last_update":"0001-01-01T00:00:00Z","name_a2s":"Uncletopia | Dallas | 1 | All Maps","protocol":17,"map":"pl_pier","folder":"tf","game":"Team Fortress","app_id":440,"player_count":25,"max_players":24,"Bots":0,"server_type":"Dedicated","server_os":"Linux","password":true,"vac":true,"version":"7757534","steam_id":85568392924469986,"keywords":["nocrits","nodmgspread","payload","uncletopia"],"game_id":440,"stv_port":27016,"stv_name":"Uncletopia | Dallas | 1 | All Maps | STV","players":[{"user_id":307,"name":"mushiio","steam_id":76561198057699378,"connected_time":2700000000000,"state":"active","ping":75},{"user_id":343,"name":"Varveer","steam_id":76561198218897383,"connected_time":7000000000,"state":"spawning","ping":88},{"user_id":298,"name":"CapnKris22","steam_id":76561198049010994,"connected_time":3305000000000,"state":"active","ping":94},{"user_id":251,"name":"Frazzer","steam_id":76561198088679707,"connected_time":7607000000000,"state":"active","ping":76},{"user_id":310,"name":"no vc no c","steam_id":76561197989503095,"connected_time":2562000000000,"state":"active","ping":171},{"user_id":329,"name":"lukamine","steam_id":76561198166827208,"connected_time":732000000000,"state":"active","ping":91},{"user_id":324,"name":"Ġ1 ♦ Synth","steam_id":76561198058660228,"connected_time":1452000000000,"state":"active","ping":45},{"user_id":336,"name":"Dictator Noodle","steam_id":76561198277243768,"connected_time":177000000000,"state":"active","ping":81},{"user_id":331,"name":"Kasimir","steam_id":76561198013840333,"connected_time":709000000000,"state":"active","ping":68},{"user_id":339,"name":"(TWoN Adric)","steam_id":76561197999304024,"connected_time":56000000000,"state":"active","ping":47},{"user_id":292,"name":"Salmon","steam_id":76561198285883040,"connected_time":3606000000000,"state":"active","ping":106},{"user_id":327,"name":"Emma","steam_id":76561198318093783,"connected_time":747000000000,"state":"active","ping":60},{"user_id":306,"name":"SCATTER [CTF2 DEV]","steam_id":76561198405168492,"connected_time":2841000000000,"state":"active","ping":99},{"user_id":322,"name":"The Squid Gamer™","steam_id":76561198340621517,"connected_time":1522000000000,"state":"active","ping":92},{"user_id":234,"name":"non menthol newport","steam_id":76561198041907345,"connected_time":8281000000000,"state":"active","ping":79},{"user_id":287,"name":"thunderous prophet","steam_id":76561198131166135,"connected_time":4271000000000,"state":"active","ping":90},{"user_id":326,"name":"pOTATO","steam_id":76561198834489470,"connected_time":897000000000,"state":"active","ping":62},{"user_id":334,"name":"kukin2cm","steam_id":76561198848888973,"connected_time":504000000000,"state":"active","ping":107},{"user_id":328,"name":"ShapedSilver","steam_id":76561199073305310,"connected_time":746000000000,"state":"active","ping":65},{"user_id":255,"name":"Delimeat","steam_id":76561198043824595,"connected_time":7548000000000,"state":"active","ping":77},{"user_id":296,"name":"flatts","steam_id":76561198094127177,"connected_time":3481000000000,"state":"active","ping":75},{"user_id":325,"name":"Lord of The Lockerroom","steam_id":76561198025975003,"connected_time":1052000000000,"state":"active","ping":74},{"user_id":313,"name":"the smiling zombie","steam_id":76561199246231090,"connected_time":2537000000000,"state":"active","ping":79},{"user_id":333,"name":"Fishstall","steam_id":76561198038126034,"connected_time":524000000000,"state":"active","ping":69},{"user_id":338,"name":"Brown_Dream","steam_id":76561198975766145,"connected_time":129000000000,"state":"active","ping":86}]},{"server_id":108,"name":"Uncletopia | Dallas | 2 | All Maps","name_short":"dal-2","host":"dal-1.us.uncletopia.com","port":27025,"enabled":true,"region":"us-central","cc":"us","latitude":32.779167,"longitude":-96.80889,"reserved":0,"last_update":"0001-01-01T00:00:00Z","name_a2s":"Uncletopia | Dallas | 2 | All Maps","protocol":17,"map":"cp_badlands","folder":"tf","game":"Team Fortress","app_id":440,"player_count":24,"max_players":24,"Bots":0,"server_type":"Dedicated","server_os":"Linux","password":true,"vac":true,"version":"7757534","steam_id":85568392924469988,"keywords":["cp","nocrits","nodmgspread","uncletopia"],"game_id":440,"stv_port":27026,"stv_name":"Uncletopia | Dallas | 2 | All Maps | STV","players":[{"user_id":147,"name":"j","steam_id":76561198821569078,"connected_time":1146000000000,"state":"active","ping":120},{"user_id":159,"name":"Lord Smelvin Beater of Meats","steam_id":76561198142699958,"connected_time":478000000000,"state":"active","ping":77},{"user_id":110,"name":"gherkin","steam_id":76561198083688737,"connected_time":3566000000000,"state":"active","ping":96},{"user_id":167,"name":"diymo","steam_id":76561198017600790,"connected_time":135000000000,"state":"active","ping":75},{"user_id":154,"name":"Aeris","steam_id":76561198287271028,"connected_time":578000000000,"state":"active","ping":73},{"user_id":160,"name":"RaixaR","steam_id":76561198025289430,"connected_time":472000000000,"state":"active","ping":49},{"user_id":156,"name":"cosmik","steam_id":76561198071193180,"connected_time":572000000000,"state":"active","ping":81},{"user_id":142,"name":"radical larry","steam_id":76561198172246829,"connected_time":1562000000000,"state":"active","ping":67},{"user_id":161,"name":"gudgeon on my pintle","steam_id":76561199066185600,"connected_time":409000000000,"state":"active","ping":91},{"user_id":165,"name":"Prankless","steam_id":76561198070678366,"connected_time":165000000000,"state":"active","ping":75},{"user_id":166,"name":"Rally","steam_id":76561198280843401,"connected_time":147000000000,"state":"active","ping":103},{"user_id":131,"name":"Michaelpc1","steam_id":76561198088365519,"connected_time":2144000000000,"state":"active","ping":75},{"user_id":143,"name":"Dr Frasier Crane","steam_id":76561198071790583,"connected_time":1561000000000,"state":"active","ping":95},{"user_id":149,"name":"Owl Pacino","steam_id":76561197979970666,"connected_time":871000000000,"state":"active","ping":76},{"user_id":148,"name":"Jag_Samurott","steam_id":76561198262036126,"connected_time":991000000000,"state":"active","ping":70},{"user_id":158,"name":"Buckytr","steam_id":76561198096335025,"connected_time":534000000000,"state":"active","ping":83},{"user_id":108,"name":"barbara","steam_id":76561198072417792,"connected_time":3719000000000,"state":"active","ping":91},{"user_id":133,"name":"hypocrisy and insincerity","steam_id":76561198044443985,"connected_time":2094000000000,"state":"active","ping":74},{"user_id":163,"name":"LIL TROUBLEMAKER","steam_id":76561198041017977,"connected_time":374000000000,"state":"active","ping":114},{"user_id":169,"name":"Glanderson booper","steam_id":76561198021223747,"connected_time":15000000000,"state":"spawning","ping":103},{"user_id":135,"name":"Animaljamfan126","steam_id":76561199013267492,"connected_time":2069000000000,"state":"active","ping":60},{"user_id":126,"name":"xMystic_Fire","steam_id":76561198189961543,"connected_time":2264000000000,"state":"active","ping":54},{"user_id":121,"name":"Hook, Line, and Sphincter","steam_id":76561198078207743,"connected_time":2792000000000,"state":"active","ping":90},{"user_id":164,"name":"Im totally a hacker","steam_id":76561198888005736,"connected_time":333000000000,"state":"active","ping":76}]},{"server_id":5,"name":"Uncletopia | Frankfurt | 1 | All Maps","name_short":"frk-1","host":"frk-1.de.uncletopia.com","port":27015,"enabled":true,"region":"eu","cc":"de","latitude":50.110924,"longitude":8.682127,"reserved":0,"last_update":"0001-01-01T00:00:00Z","name_a2s":"Uncletopia | Frankfurt | 1 | All Maps","protocol":17,"map":"pl_frontier_final","folder":"tf","game":"Team Fortress","app_id":440,"player_count":24,"max_players":24,"Bots":0,"server_type":"Dedicated","server_os":"Linux","password":true,"vac":true,"version":"7757534","steam_id":85568392924469989,"keywords":["nocrits","nodmgspread","payload","uncletopia"],"game_id":440,"stv_port":27016,"stv_name":"Uncletopia | Frankfurt | 1 | All Maps | STV","players":[{"user_id":584,"name":"Thoom Slayer","steam_id":76561198155010055,"connected_time":594000000000,"state":"active","ping":129},{"user_id":558,"name":"Ethereal","steam_id":76561199385170644,"connected_time":2234000000000,"state":"active","ping":161},{"user_id":582,"name":"Durandal","steam_id":76561198072782669,"connected_time":643000000000,"state":"active","ping":86},{"user_id":560,"name":"wafflemac364","steam_id":76561198262165252,"connected_time":2137000000000,"state":"active","ping":97},{"user_id":585,"name":"Lopata","steam_id":76561198820264239,"connected_time":593000000000,"state":"active","ping":87},{"user_id":583,"name":"yuh","steam_id":76561199005555839,"connected_time":633000000000,"state":"active","ping":76},{"user_id":545,"name":"Elon Ma","steam_id":76561199018053264,"connected_time":3146000000000,"state":"active","ping":69},{"user_id":579,"name":"training for the difficult","steam_id":76561198085393884,"connected_time":880000000000,"state":"active","ping":57},{"user_id":563,"name":"a sticky situation","steam_id":76561198011692496,"connected_time":2070000000000,"state":"active","ping":68},{"user_id":578,"name":"Dooble donk man look at me donk","steam_id":76561198225523596,"connected_time":1107000000000,"state":"active","ping":62},{"user_id":586,"name":"Arturias","steam_id":76561198188720263,"connected_time":588000000000,"state":"active","ping":59},{"user_id":587,"name":"Nickbro101","steam_id":76561198044271692,"connected_time":583000000000,"state":"active","ping":61},{"user_id":573,"name":"CRWND","steam_id":76561198329810027,"connected_time":1925000000000,"state":"active","ping":56},{"user_id":580,"name":"homeinvasion$","steam_id":76561199111905021,"connected_time":798000000000,"state":"active","ping":116},{"user_id":590,"name":"MagicTITIKAKA","steam_id":76561198129509548,"connected_time":333000000000,"state":"active","ping":103},{"user_id":575,"name":"davlevan","steam_id":76561198090848620,"connected_time":1914000000000,"state":"active","ping":88},{"user_id":479,"name":"Mach |=2OBB)\u003e\u003e\u003e","steam_id":76561198952487564,"connected_time":7815000000000,"state":"active","ping":81},{"user_id":571,"name":"poy","steam_id":76561198114063534,"connected_time":1998000000000,"state":"active","ping":46},{"user_id":589,"name":"LizaЯdlЧ","steam_id":76561198176750238,"connected_time":568000000000,"state":"active","ping":75},{"user_id":529,"name":"Clitorina","steam_id":76561198077570815,"connected_time":4298000000000,"state":"active","ping":58},{"user_id":570,"name":"cosmo kramer, lord of the manor","steam_id":76561198074979596,"connected_time":2008000000000,"state":"active","ping":74},{"user_id":510,"name":"Eyeball Sucker","steam_id":76561198195865734,"connected_time":6114000000000,"state":"active","ping":89},{"user_id":577,"name":"[ALT_F4]dottor_cacabula_m8","steam_id":76561198173192267,"connected_time":1401000000000,"state":"active","ping":74},{"user_id":458,"name":"LarsInABox","steam_id":76561198028329262,"connected_time":10046000000000,"state":"active","ping":72}]},{"server_id":110,"name":"Uncletopia | Frankfurt | 2 | All Maps","name_short":"frk-2","host":"frk-1.de.uncletopia.com","port":27025,"enabled":true,"region":"eu","cc":"de","latitude":50.110924,"longitude":8.682127,"reserved":0,"last_update":"0001-01-01T00:00:00Z","name_a2s":"Uncletopia | Frankfurt | 2 | All Maps","protocol":17,"map":"pl_snowycoast","folder":"tf","game":"Team Fortress","app_id":440,"player_count":24,"max_players":24,"Bots":0,"server_type":"Dedicated","server_os":"Linux","password":true,"vac":true,"version":"7757534","steam_id":85568392924469990,"keywords":["nocrits","nodmgspread","payload","uncletopia"],"game_id":440,"stv_port":27026,"stv_name":"Uncletopia | Frankfurt | 2 | All Maps | STV","players":[{"user_id":607,"name":"nynon","steam_id":76561197998432126,"connected_time":247000000000,"state":"active","ping":78},{"user_id":613,"name":"Hamst123","steam_id":76561198957312452,"connected_time":47000000000,"state":"active","ping":58},{"user_id":604,"name":"Refurbished Boy","steam_id":76561197995834697,"connected_time":415000000000,"state":"active","ping":93},{"user_id":603,"name":"coldwar121947","steam_id":76561199387219377,"connected_time":610000000000,"state":"active","ping":112},{"user_id":549,"name":"benibachi","steam_id":76561198190816499,"connected_time":3501000000000,"state":"active","ping":71},{"user_id":559,"name":"LionKing","steam_id":76561198023399545,"connected_time":2880000000000,"state":"active","ping":46},{"user_id":551,"name":"ChickyCoop","steam_id":76561199072983488,"connected_time":3248000000000,"state":"active","ping":81},{"user_id":560,"name":"proph","steam_id":76561197998803950,"connected_time":2879000000000,"state":"active","ping":54},{"user_id":611,"name":"Haha?","steam_id":76561198056882245,"connected_time":132000000000,"state":"active","ping":56},{"user_id":609,"name":"Msuni","steam_id":76561198334903726,"connected_time":179000000000,"state":"active","ping":84},{"user_id":596,"name":"Ged","steam_id":76561198079288943,"connected_time":1246000000000,"state":"active","ping":132},{"user_id":584,"name":"john fortress 2","steam_id":76561198202668788,"connected_time":2049000000000,"state":"active","ping":53},{"user_id":597,"name":"mishka.*","steam_id":76561198040003628,"connected_time":1179000000000,"state":"active","ping":75},{"user_id":614,"name":"Blo","steam_id":76561198161651469,"connected_time":46000000000,"state":"active","ping":63},{"user_id":610,"name":"Aesthetic Alcoholism","steam_id":76561198044418968,"connected_time":144000000000,"state":"active","ping":47},{"user_id":571,"name":"emkoç","steam_id":76561198846782346,"connected_time":2549000000000,"state":"active","ping":118},{"user_id":572,"name":"Sky","steam_id":76561198087415698,"connected_time":2461000000000,"state":"active","ping":64},{"user_id":612,"name":"Klaus Ze Flammenwerfer","steam_id":76561198087840341,"connected_time":132000000000,"state":"active","ping":101},{"user_id":585,"name":"DarkFox","steam_id":76561198364843102,"connected_time":2045000000000,"state":"active","ping":172},{"user_id":591,"name":"す LightFlight し","steam_id":76561198079007530,"connected_time":1374000000000,"state":"active","ping":70},{"user_id":586,"name":"Decadence","steam_id":76561198206829379,"connected_time":1983000000000,"state":"active","ping":83},{"user_id":598,"name":"RubyTheUnicorn","steam_id":76561198091772218,"connected_time":1160000000000,"state":"active","ping":61},{"user_id":581,"name":"Mor'du","steam_id":76561198274105878,"connected_time":2240000000000,"state":"active","ping":77},{"user_id":601,"name":"sv_opor 13123","steam_id":76561198002229612,"connected_time":980000000000,"state":"active","ping":73}]},{"server_id":308,"name":"Uncletopia | Frankfurt | 3 | All Maps","name_short":"frk-3","host":"frk-1.de.uncletopia.com","port":27035,"enabled":true,"region":"eu","cc":"de","latitude":50.110924,"longitude":8.682127,"reserved":0,"last_update":"0001-01-01T00:00:00Z","name_a2s":"Uncletopia | Frankfurt | 3 | All Maps","protocol":17,"map":"cp_egypt_final","folder":"tf","game":"Team Fortress","app_id":440,"player_count":24,"max_players":24,"Bots":0,"server_type":"Dedicated","server_os":"Linux","password":true,"vac":true,"version":"7757534","steam_id":85568392924504274,"keywords":["cp","nocrits","nodmgspread","uncletopia"],"game_id":440,"stv_port":27036,"stv_name":"Uncletopia | Frankfurt | 3 | All Maps | STV","players":[{"user_id":449,"name":"Fuvuk","steam_id":76561198044458593,"connected_time":2112000000000,"state":"active","ping":90},{"user_id":462,"name":"house in the froggy valley","steam_id":76561198064115286,"connected_time":918000000000,"state":"active","ping":61},{"user_id":372,"name":"Faraday","steam_id":76561197987182527,"connected_time":6956000000000,"state":"active","ping":58},{"user_id":461,"name":"samsung galaxy s8","steam_id":76561198097712283,"connected_time":963000000000,"state":"active","ping":90},{"user_id":467,"name":"kbbq","steam_id":76561198346638308,"connected_time":757000000000,"state":"active","ping":57},{"user_id":463,"name":"WolFFinE","steam_id":76561198125790408,"connected_time":820000000000,"state":"active","ping":76},{"user_id":464,"name":"lone wolf","steam_id":76561198373351056,"connected_time":812000000000,"state":"active","ping":47},{"user_id":428,"name":"MAJAX","steam_id":76561198254828632,"connected_time":3385000000000,"state":"active","ping":53},{"user_id":459,"name":"Joe","steam_id":76561198061717026,"connected_time":1249000000000,"state":"active","ping":57},{"user_id":444,"name":"vroom doom","steam_id":76561198192671475,"connected_time":2362000000000,"state":"active","ping":56},{"user_id":486,"name":"Bill The Beekeeper","steam_id":76561198253502133,"connected_time":23000000000,"state":"active","ping":59},{"user_id":378,"name":"ツ⁧⁧Astora","steam_id":76561198081839576,"connected_time":6856000000000,"state":"active","ping":70},{"user_id":483,"name":"artdss","steam_id":76561198853485124,"connected_time":175000000000,"state":"active","ping":75},{"user_id":474,"name":".ﱞﱞﱞﱞﱞﱞﱞﱞﱞﱞ","steam_id":76561198256821358,"connected_time":539000000000,"state":"active","ping":70},{"user_id":475,"name":"tallen","steam_id":76561198061708595,"connected_time":492000000000,"state":"active","ping":78},{"user_id":468,"name":"Kati","steam_id":76561198007231088,"connected_time":703000000000,"state":"active","ping":65},{"user_id":453,"name":"Bilaterial Newt","steam_id":76561198074655679,"connected_time":2055000000000,"state":"active","ping":76},{"user_id":484,"name":"harrison","steam_id":76561198990132243,"connected_time":144000000000,"state":"active","ping":80},{"user_id":477,"name":"Valfezant","steam_id":76561199063983797,"connected_time":472000000000,"state":"active","ping":52},{"user_id":438,"name":"Raven","steam_id":76561198036076305,"connected_time":2768000000000,"state":"active","ping":45},{"user_id":478,"name":"K1nG","steam_id":76561198130134788,"connected_time":457000000000,"state":"active","ping":85},{"user_id":479,"name":"gfjhsdf","steam_id":76561198136736426,"connected_time":436000000000,"state":"active","ping":51},{"user_id":481,"name":"idontknowwheis123","steam_id":76561199469267829,"connected_time":329000000000,"state":"active","ping":191},{"user_id":485,"name":"Endoflobbywaittime","steam_id":76561199457528443,"connected_time":86000000000,"state":"active","ping":237}]},{"server_id":309,"name":"Uncletopia | Frankfurt | 4 | All Maps","name_short":"frk-4","host":"frk-1.de.uncletopia.com","port":27045,"enabled":true,"region":"eu","cc":"de","latitude":50.110924,"longitude":8.682127,"reserved":0,"last_update":"0001-01-01T00:00:00Z","name_a2s":"Uncletopia | Frankfurt | 4 | All Maps","protocol":17,"map":"pl_pier","folder":"tf","game":"Team Fortress","app_id":440,"player_count":24,"max_players":24,"Bots":0,"server_type":"Dedicated","server_os":"Linux","password":true,"vac":true,"version":"7757534","steam_id":85568392924504275,"keywords":["nocrits","nodmgspread","payload","uncletopia"],"game_id":440,"stv_port":27046,"stv_name":"Uncletopia | Frankfurt | 4 | All Maps | STV","players":[{"user_id":763,"name":"r06u3","steam_id":76561198254099253,"connected_time":680000000000,"state":"active","ping":190},{"user_id":752,"name":"coolmath","steam_id":76561198386297305,"connected_time":891000000000,"state":"active","ping":62},{"user_id":736,"name":"donk","steam_id":76561198162676648,"connected_time":2189000000000,"state":"active","ping":53},{"user_id":761,"name":"Babbucce","steam_id":76561199124666322,"connected_time":704000000000,"state":"active","ping":77},{"user_id":754,"name":"Bentley","steam_id":76561197978252169,"connected_time":871000000000,"state":"active","ping":82},{"user_id":732,"name":"Jeff","steam_id":76561198108843030,"connected_time":2726000000000,"state":"active","ping":117},{"user_id":757,"name":"Blobbaz","steam_id":76561198031076278,"connected_time":738000000000,"state":"active","ping":68},{"user_id":758,"name":"penisfinger","steam_id":76561198103904286,"connected_time":724000000000,"state":"active","ping":64},{"user_id":671,"name":"Penis Contortionist","steam_id":76561198073663784,"connected_time":7395000000000,"state":"active","ping":57},{"user_id":740,"name":"Ruben Zo","steam_id":76561198063855616,"connected_time":2047000000000,"state":"active","ping":71},{"user_id":768,"name":"Vitamin Weee","steam_id":76561199183937747,"connected_time":301000000000,"state":"active","ping":85},{"user_id":720,"name":"gOnzaLOXX2005","steam_id":76561198056744152,"connected_time":3309000000000,"state":"active","ping":68},{"user_id":746,"name":"X45Y","steam_id":76561198112534025,"connected_time":1485000000000,"state":"active","ping":51},{"user_id":769,"name":"wolfenstein03","steam_id":76561198147173457,"connected_time":173000000000,"state":"active","ping":62},{"user_id":696,"name":"Saba","steam_id":76561198158253332,"connected_time":5402000000000,"state":"active","ping":76},{"user_id":760,"name":"Deacon Dracul","steam_id":76561198046880663,"connected_time":713000000000,"state":"active","ping":119},{"user_id":722,"name":"drippin jimmy","steam_id":76561198219243969,"connected_time":3282000000000,"state":"active","ping":62},{"user_id":764,"name":"Never Über Me","steam_id":76561198140522687,"connected_time":679000000000,"state":"active","ping":84},{"user_id":766,"name":"Cirox","steam_id":76561198383142404,"connected_time":630000000000,"state":"active","ping":84},{"user_id":767,"name":"Alexei","steam_id":76561197987169026,"connected_time":484000000000,"state":"active","ping":55},{"user_id":756,"name":"Nameless_Mann","steam_id":76561198015543601,"connected_time":777000000000,"state":"active","ping":71},{"user_id":755,"name":"Lei Ying Lo","steam_id":76561198254210743,"connected_time":846000000000,"state":"active","ping":67},{"user_id":741,"name":"☩ Knightz ☩","steam_id":76561198040936414,"connected_time":1940000000000,"state":"active","ping":119},{"user_id":734,"name":"crose","steam_id":76561199105854514,"connected_time":2513000000000,"state":"active","ping":58}]},{"server_id":310,"name":"Uncletopia | Frankfurt | 5 | All Maps","name_short":"frk-5","host":"frk-1.de.uncletopia.com","port":27055,"enabled":true,"region":"eu","cc":"de","latitude":50.110924,"longitude":8.682127,"reserved":0,"last_update":"0001-01-01T00:00:00Z","name_a2s":"Uncletopia | Frankfurt | 5 | All Maps","protocol":17,"map":"pl_upward","folder":"tf","game":"Team Fortress","app_id":440,"player_count":13,"max_players":24,"Bots":0,"server_type":"Dedicated","server_os":"Linux","password":true,"vac":true,"version":"7757534","steam_id":85568392924504277,"keywords":["nocrits","nodmgspread","payload","uncletopia"],"game_id":440,"stv_port":27056,"stv_name":"Uncletopia | Frankfurt | 5 | All Maps | STV","players":[{"user_id":257,"name":"JOÃO MIGUEL","steam_id":76561198066297489,"connected_time":1131000000000,"state":"active","ping":75},{"user_id":264,"name":"Juiceydough","steam_id":76561197997323419,"connected_time":41000000000,"state":"active","ping":90},{"user_id":247,"name":"Kjall","steam_id":76561198159249203,"connected_time":1766000000000,"state":"active","ping":105},{"user_id":260,"name":"Calanim","steam_id":76561198068163854,"connected_time":1012000000000,"state":"active","ping":69},{"user_id":251,"name":"Pancakes","steam_id":76561198196259989,"connected_time":1562000000000,"state":"active","ping":60},{"user_id":232,"name":"nytronytronytro","steam_id":76561198080496833,"connected_time":3617000000000,"state":"active","ping":61},{"user_id":248,"name":"heavy sings (real)","steam_id":76561199023804405,"connected_time":1764000000000,"state":"active","ping":77},{"user_id":249,"name":"top_g","steam_id":76561198058970797,"connected_time":1756000000000,"state":"active","ping":134},{"user_id":263,"name":"akela","steam_id":76561198122010232,"connected_time":190000000000,"state":"active","ping":66},{"user_id":258,"name":"Пес Патрон","steam_id":76561198273199378,"connected_time":1113000000000,"state":"active","ping":63},{"user_id":164,"name":"( ͡ ͡° ͜ ʖ ͡ ͡°) \\ ☞","steam_id":76561198084597975,"connected_time":8397000000000,"state":"active","ping":67},{"user_id":261,"name":"DanteFromDmc5","steam_id":76561198390314734,"connected_time":225000000000,"state":"active","ping":60},{"user_id":244,"name":"Daza_3s","steam_id":76561198796443584,"connected_time":2147000000000,"state":"active","ping":39}]},{"server_id":311,"name":"Uncletopia | Frankfurt | 6 | All Maps","name_short":"frk-6","host":"frk-1.de.uncletopia.com","port":27065,"enabled":true,"region":"eu","cc":"de","latitude":50.110924,"longitude":8.682127,"reserved":0,"last_update":"0001-01-01T00:00:00Z","name_a2s":"Uncletopia | Frankfurt | 6 | All Maps","protocol":17,"map":"pl_frontier_final","folder":"tf","game":"Team Fortress","app_id":440,"player_count":0,"max_players":24,"Bots":0,"server_type":"Dedicated","server_os":"Linux","password":true,"vac":true,"version":"7757534","steam_id":85568392924504278,"keywords":["nocrits","nodmgspread","payload","uncletopia"],"game_id":440,"stv_port":27066,"stv_name":"Uncletopia | Frankfurt | 6 | All Maps | STV","players":null},{"server_id":23,"name":"Uncletopia | Frankfurt | 7 | Stopwatch Beta","name_short":"frk-7","host":"frk-1.de.uncletopia.com","port":27075,"enabled":true,"region":"eu","cc":"de","latitude":50.110924,"longitude":8.682127,"reserved":0,"last_update":"0001-01-01T00:00:00Z","name_a2s":"Uncletopia | Frankfurt | 7 | Stopwatch Beta","protocol":17,"map":"workshop/koth_bagel_rc5.ugc2514036946","folder":"tf","game":"Team Fortress","app_id":440,"player_count":0,"max_players":24,"Bots":0,"server_type":"Dedicated","server_os":"Linux","password":true,"vac":true,"version":"7757534","steam_id":85568392924742827,"keywords":["cp","nocrits","nodmgspread","uncletopia"],"game_id":440,"stv_port":27076,"stv_name":"Uncletopia | Frankfurt | 7 | Stopwatch Beta | STV","players":null},{"server_id":24,"name":"Uncletopia | Frankfurt | 8 | Community","name_short":"frk-8","host":"frk-1.de.uncletopia.com","port":27085,"enabled":true,"region":"eu","cc":"de","latitude":50.110924,"longitude":8.682127,"reserved":0,"last_update":"0001-01-01T00:00:00Z","name_a2s":"Uncletopia | Frankfurt | 8 | Community","protocol":17,"map":"workshop/pl_eruption_b9a.ugc2807898013","folder":"tf","game":"Team Fortress","app_id":440,"player_count":0,"max_players":24,"Bots":0,"server_type":"Dedicated","server_os":"Linux","password":true,"vac":true,"version":"7757534","steam_id":85568392924742828,"keywords":["nocrits","nodmgspread","payload","uncletopia"],"game_id":440,"stv_port":27086,"stv_name":"Uncletopia | Frankfurt | 8 | Community | STV","players":null},{"server_id":202,"name":"Uncletopia | Hong Kong | 1 | All Maps","name_short":"hgk-1","host":"hgk-1.hk.uncletopia.com","port":27015,"enabled":true,"region":"asia","cc":"hk","latitude":22.302711,"longitude":114.177216,"reserved":0,"last_update":"0001-01-01T00:00:00Z","name_a2s":"Uncletopia | Hong Kong | 1 | All Maps","protocol":17,"map":"pl_frontier_final","folder":"tf","game":"Team Fortress","app_id":440,"player_count":0,"max_players":24,"Bots":0,"server_type":"Dedicated","server_os":"Linux","password":true,"vac":true,"version":"7757534","steam_id":85568392924494504,"keywords":["nocrits","nodmgspread","payload","uncletopia"],"game_id":440,"stv_port":27016,"stv_name":"Uncletopia | Hong Kong | 1 | All Maps | STV","players":null},{"server_id":1,"name":"Uncletopia | Los Angeles | 1 | All Maps","name_short":"lax-1","host":"lax-1.us.uncletopia.com","port":27015,"enabled":true,"region":"us-west","cc":"us","latitude":33.94279,"longitude":-118.41004,"reserved":0,"last_update":"0001-01-01T00:00:00Z","name_a2s":"Uncletopia | Los Angeles | 1 | All Maps","protocol":17,"map":"cp_mountainlab","folder":"tf","game":"Team Fortress","app_id":440,"player_count":0,"max_players":24,"Bots":0,"server_type":"Dedicated","server_os":"Linux","password":true,"vac":true,"version":"7757534","steam_id":85568392924469991,"keywords":["cp","nocrits","nodmgspread","uncletopia"],"game_id":440,"stv_port":27016,"stv_name":"Uncletopia | Los Angeles | 1 | All Maps | STV","players":null},{"server_id":112,"name":"Uncletopia | Los Angeles | 2 | All Maps","name_short":"lax-2","host":"lax-1.us.uncletopia.com","port":27025,"enabled":true,"region":"us-west","cc":"us","latitude":33.94279,"longitude":-118.41004,"reserved":0,"last_update":"0001-01-01T00:00:00Z","name_a2s":"Uncletopia | Los Angeles | 2 | All Maps","protocol":17,"map":"cp_mountainlab","folder":"tf","game":"Team Fortress","app_id":440,"player_count":0,"max_players":24,"Bots":0,"server_type":"Dedicated","server_os":"Linux","password":true,"vac":true,"version":"7757534","steam_id":85568392924469992,"keywords":["cp","nocrits","nodmgspread","uncletopia"],"game_id":440,"stv_port":27026,"stv_name":"Uncletopia | Los Angeles | 2 | All Maps | STV","players":null},{"server_id":324,"name":"Uncletopia | Los Angeles | 3 | All Maps","name_short":"lax-3","host":"lax-1.us.uncletopia.com","port":27035,"enabled":true,"region":"us-west","cc":"us","latitude":33.94279,"longitude":-118.41004,"reserved":0,"last_update":"0001-01-01T00:00:00Z","name_a2s":"Uncletopia | Los Angeles | 3 | All Maps","protocol":17,"map":"pl_thundermountain","folder":"tf","game":"Team Fortress","app_id":440,"player_count":23,"max_players":24,"Bots":0,"server_type":"Dedicated","server_os":"Linux","password":true,"vac":true,"version":"7757534","steam_id":85568392924510198,"keywords":["nocrits","nodmgspread","payload","uncletopia"],"game_id":440,"stv_port":27036,"stv_name":"Uncletopia | Los Angeles | 3 | All Maps | STV","players":[{"user_id":126,"name":"Ash!❤","steam_id":76561198070398840,"connected_time":1203000000000,"state":"active","ping":71},{"user_id":137,"name":"corbenis","steam_id":76561199012442511,"connected_time":69000000000,"state":"active","ping":50},{"user_id":69,"name":"ShredMaan","steam_id":76561198429982138,"connected_time":4349000000000,"state":"active","ping":54},{"user_id":127,"name":"',:^)","steam_id":76561198038123509,"connected_time":1177000000000,"state":"active","ping":126},{"user_id":134,"name":"AmyPercent","steam_id":76561198071896932,"connected_time":366000000000,"state":"active","ping":77},{"user_id":138,"name":"ope","steam_id":76561199353894539,"connected_time":62000000000,"state":"active","ping":55},{"user_id":82,"name":"jbrd4761","steam_id":76561199242047421,"connected_time":3095000000000,"state":"active","ping":127},{"user_id":136,"name":"nonanona","steam_id":76561198044776946,"connected_time":82000000000,"state":"active","ping":58},{"user_id":80,"name":"Pizza \u003c3","steam_id":76561198087357023,"connected_time":3186000000000,"state":"active","ping":74},{"user_id":132,"name":"Altruisticailuridae","steam_id":76561198335295596,"connected_time":724000000000,"state":"active","ping":57},{"user_id":130,"name":":\u003c RUN AWAY","steam_id":76561199245670274,"connected_time":1050000000000,"state":"active","ping":45},{"user_id":81,"name":"pure sun","steam_id":76561198089225457,"connected_time":3182000000000,"state":"active","ping":61},{"user_id":118,"name":"Hilo! (f2p)","steam_id":76561199126141666,"connected_time":1901000000000,"state":"active","ping":58},{"user_id":108,"name":"AmiableNebula","steam_id":76561198094306627,"connected_time":2301000000000,"state":"active","ping":44},{"user_id":111,"name":"Lo-Pan","steam_id":76561198085670133,"connected_time":2041000000000,"state":"active","ping":100},{"user_id":100,"name":"swag","steam_id":76561198094615739,"connected_time":2538000000000,"state":"active","ping":79},{"user_id":119,"name":"Sentry Gun Beta Test","steam_id":76561198038832034,"connected_time":1886000000000,"state":"active","ping":76},{"user_id":112,"name":"nolife","steam_id":76561198414300607,"connected_time":2039000000000,"state":"active","ping":60},{"user_id":121,"name":"Void","steam_id":76561198308290211,"connected_time":1664000000000,"state":"active","ping":66},{"user_id":139,"name":"Wendall555","steam_id":76561198985637603,"connected_time":58000000000,"state":"active","ping":47},{"user_id":114,"name":"Mara Roo","steam_id":76561198279341789,"connected_time":1954000000000,"state":"active","ping":147},{"user_id":115,"name":"Cave Dweller","steam_id":76561198374825685,"connected_time":1944000000000,"state":"active","ping":75},{"user_id":124,"name":"conscripted monk","steam_id":76561199029246232,"connected_time":1385000000000,"state":"active","ping":75}]},{"server_id":25,"name":"Uncletopia | Los Angeles | 4 | Stopwatch Beta","name_short":"lax-4","host":"lax-1.us.uncletopia.com","port":27045,"enabled":true,"region":"us-west","cc":"us","latitude":33.94279,"longitude":-118.41004,"reserved":0,"last_update":"0001-01-01T00:00:00Z","name_a2s":"Uncletopia | Los Angeles | 4 | Stopwatch Beta","protocol":17,"map":"koth_viaduct","folder":"tf","game":"Team Fortress","app_id":440,"player_count":0,"max_players":24,"Bots":0,"server_type":"Dedicated","server_os":"Linux","password":true,"vac":true,"version":"7757534","steam_id":85568392924510199,"keywords":["cp","nocrits","nodmgspread","uncletopia"],"game_id":440,"stv_port":27046,"stv_name":"Uncletopia | Los Angeles | 4 | Stopwatch Beta | STV","players":null},{"server_id":11,"name":"Uncletopia | London | 1 | All Maps","name_short":"lon-1","host":"lon-1.uk.uncletopia.com","port":27015,"enabled":true,"region":"eu","cc":"gb","latitude":51.509865,"longitude":-0.118092,"reserved":0,"last_update":"0001-01-01T00:00:00Z","name_a2s":"Uncletopia | London | 1 | All Maps","protocol":17,"map":"pl_barnblitz","folder":"tf","game":"Team Fortress","app_id":440,"player_count":8,"max_players":24,"Bots":0,"server_type":"Dedicated","server_os":"Linux","password":true,"vac":true,"version":"7757534","steam_id":85568392924367362,"keywords":["nocrits","nodmgspread","payload","uncletopia"],"game_id":440,"stv_port":27016,"stv_name":"Uncletopia | London | 1 | All Maps | STV","players":[{"user_id":771,"name":"Lewee","steam_id":76561198058828018,"connected_time":872000000000,"state":"active","ping":101},{"user_id":774,"name":"Estamie","steam_id":76561198058527691,"connected_time":826000000000,"state":"active","ping":74},{"user_id":775,"name":"Cum Mentalist Mikuri","steam_id":76561198298576765,"connected_time":615000000000,"state":"active","ping":81},{"user_id":776,"name":"HIYA","steam_id":76561198047544122,"connected_time":529000000000,"state":"active","ping":77},{"user_id":778,"name":"Fred","steam_id":76561198107137362,"connected_time":513000000000,"state":"active","ping":48},{"user_id":784,"name":"Cave","steam_id":76561198423147900,"connected_time":114000000000,"state":"active","ping":46},{"user_id":780,"name":"Art The Clown Surprise Gun","steam_id":76561198133538209,"connected_time":441000000000,"state":"active","ping":31},{"user_id":781,"name":"fregaropa","steam_id":76561198150806166,"connected_time":420000000000,"state":"active","ping":89}]},{"server_id":114,"name":"Uncletopia | London | 2 | All Maps","name_short":"lon-2","host":"lon-1.uk.uncletopia.com","port":27025,"enabled":true,"region":"eu","cc":"gb","latitude":51.509865,"longitude":-0.118092,"reserved":0,"last_update":"0001-01-01T00:00:00Z","name_a2s":"Uncletopia | London | 2 | All Maps","protocol":17,"map":"koth_viaduct","folder":"tf","game":"Team Fortress","app_id":440,"player_count":2,"max_players":24,"Bots":0,"server_type":"Dedicated","server_os":"Linux","password":true,"vac":true,"version":"7757534","steam_id":85568392924470941,"keywords":["cp","nocrits","nodmgspread","uncletopia"],"game_id":440,"stv_port":27026,"stv_name":"Uncletopia | London | 2 | All Maps | STV","players":[{"user_id":315,"name":"ϟ suguse1","steam_id":76561198344120559,"connected_time":670000000000,"state":"active","ping":75},{"user_id":314,"name":"VolcanGamer753","steam_id":76561199021569595,"connected_time":678000000000,"state":"active","ping":78}]},{"server_id":320,"name":"Uncletopia | London | 3 | All Maps","name_short":"lon-3","host":"lon-1.uk.uncletopia.com","port":27035,"enabled":true,"region":"eu","cc":"gb","latitude":51.509865,"longitude":-0.118092,"reserved":0,"last_update":"0001-01-01T00:00:00Z","name_a2s":"Uncletopia | London | 3 | All Maps","protocol":17,"map":"pl_pier","folder":"tf","game":"Team Fortress","app_id":440,"player_count":24,"max_players":24,"Bots":0,"server_type":"Dedicated","server_os":"Linux","password":true,"vac":true,"version":"7757534","steam_id":85568392924510192,"keywords":["nocrits","nodmgspread","payload","uncletopia"],"game_id":440,"stv_port":27036,"stv_name":"Uncletopia | London | 3 | All Maps | STV","players":[{"user_id":236,"name":"edgar","steam_id":76561198212862423,"connected_time":753000000000,"state":"active","ping":30},{"user_id":245,"name":"psychogoat101","steam_id":76561198156146805,"connected_time":271000000000,"state":"active","ping":30},{"user_id":111,"name":"Grandma","steam_id":76561198042593027,"connected_time":8360000000000,"state":"active","ping":97},{"user_id":202,"name":"R A S M U S","steam_id":76561198279799226,"connected_time":2655000000000,"state":"active","ping":78},{"user_id":226,"name":"Ark","steam_id":76561198051936087,"connected_time":1543000000000,"state":"active","ping":66},{"user_id":222,"name":"Val","steam_id":76561198000500926,"connected_time":1832000000000,"state":"active","ping":62},{"user_id":191,"name":"jesse pinkman","steam_id":76561198153488940,"connected_time":3807000000000,"state":"active","ping":74},{"user_id":246,"name":"FELHEEE","steam_id":76561197987151150,"connected_time":186000000000,"state":"active","ping":83},{"user_id":210,"name":"Holofightz Nene","steam_id":76561198226788392,"connected_time":2256000000000,"state":"active","ping":58},{"user_id":200,"name":"lawrencefishdom","steam_id":76561199190918059,"connected_time":3180000000000,"state":"active","ping":56},{"user_id":218,"name":"kilo","steam_id":76561198015641339,"connected_time":2082000000000,"state":"active","ping":77},{"user_id":239,"name":"pepper","steam_id":76561198059782462,"connected_time":741000000000,"state":"active","ping":62},{"user_id":220,"name":"marty","steam_id":76561198082934864,"connected_time":2039000000000,"state":"active","ping":64},{"user_id":248,"name":"THE_HARD_TIMES","steam_id":76561198058697973,"connected_time":36000000000,"state":"active","ping":60},{"user_id":233,"name":"the joy of recycling","steam_id":76561198415564349,"connected_time":788000000000,"state":"active","ping":61},{"user_id":213,"name":"Herot151","steam_id":76561199230605705,"connected_time":2186000000000,"state":"active","ping":66},{"user_id":241,"name":"teddy","steam_id":76561198007436837,"connected_time":720000000000,"state":"active","ping":45},{"user_id":215,"name":"Rainlamp @SaveTF2","steam_id":76561198007394958,"connected_time":2161000000000,"state":"active","ping":56},{"user_id":141,"name":"Funky Dude","steam_id":76561198271837212,"connected_time":7561000000000,"state":"active","ping":60},{"user_id":243,"name":"Vezage","steam_id":76561198064916164,"connected_time":541000000000,"state":"active","ping":70},{"user_id":234,"name":"Sweetcheesus","steam_id":76561198022299033,"connected_time":788000000000,"state":"active","ping":60},{"user_id":219,"name":"boo!","steam_id":76561198444424053,"connected_time":2071000000000,"state":"active","ping":77},{"user_id":247,"name":"Mr Prince","steam_id":76561199006591691,"connected_time":130000000000,"state":"active","ping":55},{"user_id":235,"name":"Dangerousbros","steam_id":76561198088952519,"connected_time":786000000000,"state":"active","ping":30}]},{"server_id":321,"name":"Uncletopia | London | 4 | All Maps","name_short":"lon-4","host":"lon-1.uk.uncletopia.com","port":27045,"enabled":true,"region":"eu","cc":"gb","latitude":51.509865,"longitude":-0.118092,"reserved":0,"last_update":"0001-01-01T00:00:00Z","name_a2s":"Uncletopia | London | 4 | All Maps","protocol":17,"map":"cp_sunshine","folder":"tf","game":"Team Fortress","app_id":440,"player_count":24,"max_players":24,"Bots":0,"server_type":"Dedicated","server_os":"Linux","password":true,"vac":true,"version":"7757534","steam_id":85568392924510193,"keywords":["cp","nocrits","nodmgspread","uncletopia"],"game_id":440,"stv_port":27046,"stv_name":"Uncletopia | London | 4 | All Maps | STV","players":[{"user_id":515,"name":"Grim the lemon","steam_id":76561199083433988,"connected_time":866000000000,"state":"active","ping":50},{"user_id":520,"name":"Bob Th","steam_id":76561198856284930,"connected_time":512000000000,"state":"active","ping":126},{"user_id":385,"name":"Tata Cobraz0r","steam_id":76561198017693962,"connected_time":9549000000000,"state":"active","ping":81},{"user_id":497,"name":"Coco","steam_id":76561197989843460,"connected_time":2624000000000,"state":"active","ping":59},{"user_id":530,"name":"twentysixtwentyseven","steam_id":76561198353242121,"connected_time":181000000000,"state":"active","ping":44},{"user_id":503,"name":"nedilya","steam_id":76561198039692077,"connected_time":1860000000000,"state":"active","ping":60},{"user_id":474,"name":"Piteras","steam_id":76561198858532207,"connected_time":4816000000000,"state":"active","ping":87},{"user_id":521,"name":"Star in a pond","steam_id":76561198205501279,"connected_time":511000000000,"state":"active","ping":96},{"user_id":518,"name":"Posture Check","steam_id":76561198053897197,"connected_time":535000000000,"state":"active","ping":38},{"user_id":531,"name":"Dagsdaf","steam_id":76561198055317112,"connected_time":150000000000,"state":"active","ping":150},{"user_id":387,"name":"Mihai","steam_id":76561199181038346,"connected_time":9356000000000,"state":"active","ping":83},{"user_id":505,"name":"Rizzy","steam_id":76561198164237267,"connected_time":1703000000000,"state":"active","ping":79},{"user_id":522,"name":"Tomo","steam_id":76561199015097595,"connected_time":438000000000,"state":"active","ping":48},{"user_id":529,"name":"SuntanPikachu","steam_id":76561198121242476,"connected_time":262000000000,"state":"active","ping":66},{"user_id":507,"name":"medick","steam_id":76561199380849468,"connected_time":1662000000000,"state":"active","ping":62},{"user_id":523,"name":"Greyhunter","steam_id":76561197960884202,"connected_time":386000000000,"state":"active","ping":31},{"user_id":525,"name":"AActualIdiot","steam_id":76561199226253482,"connected_time":361000000000,"state":"active","ping":142},{"user_id":483,"name":"Joseph Stalin","steam_id":76561198033199746,"connected_time":3505000000000,"state":"active","ping":47},{"user_id":508,"name":"cinny","steam_id":76561198832112629,"connected_time":1649000000000,"state":"active","ping":82},{"user_id":526,"name":"JimTheMagicJumper","steam_id":76561197996773886,"connected_time":337000000000,"state":"active","ping":41},{"user_id":527,"name":"Rave Robber","steam_id":76561199414716848,"connected_time":305000000000,"state":"active","ping":76},{"user_id":532,"name":"Johnny Cockroach","steam_id":76561198049648277,"connected_time":0,"state":"connecting","ping":0},{"user_id":509,"name":"cloud","steam_id":76561198179768931,"connected_time":1628000000000,"state":"active","ping":60},{"user_id":514,"name":"Dee","steam_id":76561198257836694,"connected_time":988000000000,"state":"active","ping":34}]},{"server_id":21,"name":"Uncletopia | London | 5 | All Maps","name_short":"lon-5","host":"lon-1.uk.uncletopia.com","port":27055,"enabled":true,"region":"eu","cc":"gb","latitude":51.509865,"longitude":-0.118092,"reserved":0,"last_update":"0001-01-01T00:00:00Z","name_a2s":"Uncletopia | London | 5 | All Maps","protocol":17,"map":"pl_borneo","folder":"tf","game":"Team Fortress","app_id":440,"player_count":20,"max_players":24,"Bots":0,"server_type":"Dedicated","server_os":"Linux","password":true,"vac":true,"version":"7757534","steam_id":85568392924742829,"keywords":["nocrits","nodmgspread","payload","uncletopia"],"game_id":440,"stv_port":27056,"stv_name":"Uncletopia | London | 5 | All Maps | STV","players":[{"user_id":552,"name":"drew","steam_id":76561198012304706,"connected_time":91000000000,"state":"active","ping":94},{"user_id":554,"name":"Popbob (notorious griefer)","steam_id":76561198100730234,"connected_time":36000000000,"state":"active","ping":80},{"user_id":540,"name":"Plutonium Lamp Oil Salesman","steam_id":76561198839259306,"connected_time":1011000000000,"state":"active","ping":73},{"user_id":546,"name":"Rain","steam_id":76561198186993269,"connected_time":497000000000,"state":"active","ping":62},{"user_id":547,"name":"Sabour","steam_id":76561197963965445,"connected_time":459000000000,"state":"active","ping":68},{"user_id":529,"name":"rosepinkyfuzz","steam_id":76561198018546334,"connected_time":1275000000000,"state":"active","ping":88},{"user_id":523,"name":"kliW","steam_id":76561198335299795,"connected_time":1384000000000,"state":"active","ping":63},{"user_id":549,"name":"sergey476a","steam_id":76561199468609800,"connected_time":284000000000,"state":"active","ping":75},{"user_id":531,"name":"goblin","steam_id":76561199010825303,"connected_time":1254000000000,"state":"active","ping":77},{"user_id":524,"name":"dzban","steam_id":76561198013511672,"connected_time":1379000000000,"state":"active","ping":72},{"user_id":527,"name":"JoJoMaMa","steam_id":76561199072686648,"connected_time":1316000000000,"state":"active","ping":80},{"user_id":528,"name":"Hoopty","steam_id":76561198057012442,"connected_time":1308000000000,"state":"active","ping":69},{"user_id":551,"name":"docta febby","steam_id":76561198133532980,"connected_time":136000000000,"state":"active","ping":45},{"user_id":515,"name":"phyre.","steam_id":76561198146519638,"connected_time":1827000000000,"state":"active","ping":69},{"user_id":543,"name":"Mimic","steam_id":76561198064890253,"connected_time":930000000000,"state":"active","ping":112},{"user_id":550,"name":"Purple Panda","steam_id":76561198092231980,"connected_time":283000000000,"state":"active","ping":40},{"user_id":480,"name":"Carol Olston","steam_id":76561198080257273,"connected_time":3044000000000,"state":"active","ping":43},{"user_id":535,"name":"heyjohn14","steam_id":76561198840831773,"connected_time":1197000000000,"state":"active","ping":99},{"user_id":501,"name":"invertO","steam_id":76561198142244174,"connected_time":2518000000000,"state":"active","ping":54},{"user_id":482,"name":"thefatcontroller","steam_id":76561199332965146,"connected_time":3024000000000,"state":"active","ping":87}]},{"server_id":22,"name":"Uncletopia | London | 6 | All Maps","name_short":"lon-6","host":"lon-1.uk.uncletopia.com","port":27065,"enabled":true,"region":"eu","cc":"gb","latitude":51.509865,"longitude":-0.118092,"reserved":0,"last_update":"0001-01-01T00:00:00Z","name_a2s":"Uncletopia | London | 6 | All Maps","protocol":17,"map":"cp_process_final","folder":"tf","game":"Team Fortress","app_id":440,"player_count":10,"max_players":24,"Bots":0,"server_type":"Dedicated","server_os":"Linux","password":true,"vac":true,"version":"7757534","steam_id":85568392924742830,"keywords":["cp","nocrits","nodmgspread","uncletopia"],"game_id":440,"stv_port":27066,"stv_name":"Uncletopia | London | 6 | All Maps | STV","players":[{"user_id":127,"name":"Uncle Owen","steam_id":76561198157999291,"connected_time":140000000000,"state":"active","ping":64},{"user_id":128,"name":"Frederick","steam_id":76561198344445693,"connected_time":29000000000,"state":"spawning","ping":66},{"user_id":125,"name":"CrankShaft","steam_id":76561197970750813,"connected_time":350000000000,"state":"active","ping":120},{"user_id":108,"name":"Baron","steam_id":76561198021901783,"connected_time":1973000000000,"state":"active","ping":59},{"user_id":111,"name":"Le Frigo","steam_id":76561198082040923,"connected_time":1931000000000,"state":"active","ping":72},{"user_id":121,"name":"F1-M","steam_id":76561198198409875,"connected_time":1472000000000,"state":"active","ping":123},{"user_id":116,"name":"Teecho","steam_id":76561197995269610,"connected_time":1758000000000,"state":"active","ping":53},{"user_id":113,"name":"Horo","steam_id":76561198009504508,"connected_time":1917000000000,"state":"active","ping":64},{"user_id":123,"name":"rocketbucket01","steam_id":76561198027701160,"connected_time":806000000000,"state":"active","ping":90},{"user_id":114,"name":"Dr Intercourse, Minister of Sex","steam_id":76561198083842063,"connected_time":1911000000000,"state":"active","ping":61}]},{"server_id":40,"name":"Uncletopia | London | 7 | No Payload","name_short":"lon-7","host":"lon-1.uk.uncletopia.com","port":27075,"enabled":true,"region":"eu","cc":"gb","latitude":51.509865,"longitude":-0.118092,"reserved":0,"last_update":"0001-01-01T00:00:00Z","name_a2s":"Uncletopia | London | 7 | No Payload","protocol":17,"map":"koth_sawmill","folder":"tf","game":"Team Fortress","app_id":440,"player_count":13,"max_players":24,"Bots":0,"server_type":"Dedicated","server_os":"Linux","password":true,"vac":true,"version":"7757534","steam_id":85568392924964314,"keywords":["cp","nocrits","nodmgspread","uncletopia"],"game_id":440,"stv_port":27076,"stv_name":"Uncletopia | London | 7 | No Payload | STV","players":[{"user_id":229,"name":"Pinkchup","steam_id":76561198106802803,"connected_time":2309000000000,"state":"active","ping":77},{"user_id":230,"name":"Kraiti","steam_id":76561198847296908,"connected_time":2300000000000,"state":"active","ping":81},{"user_id":231,"name":"Minimi","steam_id":76561198873850443,"connected_time":1818000000000,"state":"active","ping":36},{"user_id":233,"name":"Videogamer","steam_id":76561198106012909,"connected_time":1676000000000,"state":"active","ping":72},{"user_id":234,"name":"Ander","steam_id":76561199219017011,"connected_time":1625000000000,"state":"active","ping":72},{"user_id":227,"name":"LowLevelIdot","steam_id":76561199302370113,"connected_time":3294000000000,"state":"active","ping":127},{"user_id":235,"name":"Mentally Challenged Banana","steam_id":76561198271707781,"connected_time":1461000000000,"state":"active","ping":152},{"user_id":237,"name":"the Stigg","steam_id":76561198084746151,"connected_time":1098000000000,"state":"active","ping":109},{"user_id":239,"name":"yeh","steam_id":76561198061197114,"connected_time":1009000000000,"state":"active","ping":79},{"user_id":240,"name":"BazzarBaz","steam_id":76561198823420149,"connected_time":896000000000,"state":"active","ping":86},{"user_id":241,"name":"Le Chevalier Pingouin","steam_id":76561198221355000,"connected_time":772000000000,"state":"active","ping":37},{"user_id":242,"name":"Soloman","steam_id":76561199212054667,"connected_time":734000000000,"state":"active","ping":37},{"user_id":244,"name":"The End","steam_id":76561199042470246,"connected_time":135000000000,"state":"active","ping":60}]},{"server_id":41,"name":"Uncletopia | London | 8 | Community","name_short":"lon-8","host":"lon-1.uk.uncletopia.com","port":27085,"enabled":true,"region":"eu","cc":"gb","latitude":51.509865,"longitude":-0.118092,"reserved":0,"last_update":"0001-01-01T00:00:00Z","name_a2s":"Uncletopia | London | 8 | Community","protocol":17,"map":"workshop/koth_product_final.ugc454272353","folder":"tf","game":"Team Fortress","app_id":440,"player_count":0,"max_players":24,"Bots":0,"server_type":"Dedicated","server_os":"Linux","password":true,"vac":true,"version":"7757534","steam_id":85568392924964315,"keywords":["cp","nocrits","nodmgspread","uncletopia"],"game_id":440,"stv_port":27086,"stv_name":"Uncletopia | London | 8 | Community | STV","players":null},{"server_id":300,"name":"Uncletopia | Montréal | 1 | All Maps","name_short":"mtl-1","host":"mtl-1.ca.uncletopia.com","port":27015,"enabled":true,"region":"us-east","cc":"ca","latitude":45.50889,"longitude":-73.56167,"reserved":0,"last_update":"0001-01-01T00:00:00Z","name_a2s":"Uncletopia | Montréal | 1 | All Maps","protocol":17,"map":"koth_cascade","folder":"tf","game":"Team Fortress","app_id":440,"player_count":0,"max_players":24,"Bots":0,"server_type":"Dedicated","server_os":"Linux","password":true,"vac":true,"version":"7757534","steam_id":85568392924500087,"keywords":["cp","nocrits","nodmgspread","uncletopia"],"game_id":440,"stv_port":27016,"stv_name":"Uncletopia | Montréal | 1 | All Maps | STV","players":null},{"server_id":301,"name":"Uncletopia | Montréal | 2 | All Maps","name_short":"mtl-2","host":"mtl-1.ca.uncletopia.com","port":27025,"enabled":true,"region":"us-east","cc":"ca","latitude":45.50889,"longitude":-73.56167,"reserved":0,"last_update":"0001-01-01T00:00:00Z","name_a2s":"Uncletopia | Montréal | 2 | All Maps","protocol":17,"map":"pl_borneo","folder":"tf","game":"Team Fortress","app_id":440,"player_count":0,"max_players":24,"Bots":0,"server_type":"Dedicated","server_os":"Linux","password":true,"vac":true,"version":"7757534","steam_id":85568392924500088,"keywords":["nocrits","nodmgspread","payload","uncletopia"],"game_id":440,"stv_port":27026,"stv_name":"Uncletopia | Montréal | 2 | All Maps | STV","players":null},{"server_id":302,"name":"Uncletopia | Montréal | 3 | All Maps","name_short":"mtl-3","host":"mtl-1.ca.uncletopia.com","port":27035,"enabled":true,"region":"us-east","cc":"ca","latitude":45.50889,"longitude":-73.56167,"reserved":0,"last_update":"0001-01-01T00:00:00Z","name_a2s":"Uncletopia | Montréal | 3 | All Maps","protocol":17,"map":"pl_snowycoast","folder":"tf","game":"Team Fortress","app_id":440,"player_count":23,"max_players":24,"Bots":0,"server_type":"Dedicated","server_os":"Linux","password":true,"vac":true,"version":"7757534","steam_id":85568392924500089,"keywords":["nocrits","nodmgspread","payload","uncletopia"],"game_id":440,"stv_port":27036,"stv_name":"Uncletopia | Montréal | 3 | All Maps | STV","players":[{"user_id":58,"name":"MasterDoge17","steam_id":76561198917443549,"connected_time":121000000000,"state":"active","ping":63},{"user_id":5,"name":"Iska Arkham","steam_id":76561199327592024,"connected_time":2509000000000,"state":"active","ping":140},{"user_id":6,"name":"Philosopher's Stone","steam_id":76561198077574657,"connected_time":2391000000000,"state":"active","ping":97},{"user_id":12,"name":"Morefun8","steam_id":76561198274524278,"connected_time":1246000000000,"state":"active","ping":45},{"user_id":52,"name":"ChrisUnkown","steam_id":76561199453460809,"connected_time":322000000000,"state":"active","ping":99},{"user_id":61,"name":"SLiPpeRyJoe.nosound","steam_id":76561197977206359,"connected_time":42000000000,"state":"active","ping":90},{"user_id":51,"name":"schnedwob","steam_id":76561197999146588,"connected_time":335000000000,"state":"active","ping":88},{"user_id":11,"name":"Alistair Arcueid, gaymer thot","steam_id":76561198101193382,"connected_time":1395000000000,"state":"active","ping":69},{"user_id":46,"name":"Bee","steam_id":76561198074681324,"connected_time":391000000000,"state":"active","ping":55},{"user_id":42,"name":"angong","steam_id":76561198401712305,"connected_time":513000000000,"state":"active","ping":70},{"user_id":59,"name":"Shmish","steam_id":76561197966078491,"connected_time":121000000000,"state":"active","ping":64},{"user_id":41,"name":"ice spice","steam_id":76561198072657891,"connected_time":554000000000,"state":"active","ping":48},{"user_id":31,"name":"Sinister Sandwich","steam_id":76561198142327400,"connected_time":738000000000,"state":"active","ping":63},{"user_id":22,"name":"Bart Harley Jarvis","steam_id":76561199215811448,"connected_time":956000000000,"state":"active","ping":48},{"user_id":23,"name":"OldManHenderson1976","steam_id":76561198148713751,"connected_time":910000000000,"state":"active","ping":84},{"user_id":45,"name":"TrIcKiNgX3","steam_id":76561198243231748,"connected_time":403000000000,"state":"active","ping":90},{"user_id":53,"name":"raisedbybirds","steam_id":76561198131531646,"connected_time":317000000000,"state":"active","ping":69},{"user_id":38,"name":"a1ex","steam_id":76561198341411993,"connected_time":647000000000,"state":"active","ping":58},{"user_id":55,"name":"Indigolake","steam_id":76561198202215807,"connected_time":252000000000,"state":"active","ping":73},{"user_id":54,"name":"tortoise","steam_id":76561198161809306,"connected_time":316000000000,"state":"active","ping":84},{"user_id":35,"name":"phll","steam_id":76561198110430494,"connected_time":697000000000,"state":"active","ping":54},{"user_id":60,"name":"drdoofus123","steam_id":76561198016826181,"connected_time":108000000000,"state":"active","ping":75},{"user_id":39,"name":"4d4","steam_id":76561198402360789,"connected_time":643000000000,"state":"active","ping":49}]},{"server_id":303,"name":"Uncletopia | Montréal | 4 | No Payload","name_short":"mtl-4","host":"mtl-1.ca.uncletopia.com","port":27045,"enabled":true,"region":"us-east","cc":"ca","latitude":45.50889,"longitude":-73.56167,"reserved":0,"last_update":"0001-01-01T00:00:00Z","name_a2s":"Uncletopia | Montréal | 4 | No Payload","protocol":17,"map":"koth_lakeside_final","folder":"tf","game":"Team Fortress","app_id":440,"player_count":3,"max_players":24,"Bots":0,"server_type":"Dedicated","server_os":"Linux","password":true,"vac":true,"version":"7757534","steam_id":85568392924500090,"keywords":["cp","nocrits","nodmgspread","uncletopia"],"game_id":440,"stv_port":27046,"stv_name":"Uncletopia | Montréal | 4 | No Payload | STV","players":[{"user_id":3,"name":"LOLWOW:3","steam_id":76561198870007576,"connected_time":722000000000,"state":"active","ping":76},{"user_id":4,"name":"Bread.Inc","steam_id":76561199175575291,"connected_time":713000000000,"state":"active","ping":82},{"user_id":5,"name":"Fonexia","steam_id":76561199191574357,"connected_time":577000000000,"state":"active","ping":71}]},{"server_id":13,"name":"Uncletopia | New York City | 1 | All Maps","name_short":"nyc-1","host":"nyc-1.us.uncletopia.com","port":27015,"enabled":true,"region":"us-east","cc":"us","latitude":40.73061,"longitude":-73.93524,"reserved":0,"last_update":"0001-01-01T00:00:00Z","name_a2s":"Uncletopia | New York City | 1 | All Maps","protocol":17,"map":"pl_borneo","folder":"tf","game":"Team Fortress","app_id":440,"player_count":24,"max_players":24,"Bots":0,"server_type":"Dedicated","server_os":"Linux","password":true,"vac":true,"version":"7757534","steam_id":85568392924469993,"keywords":["nocrits","nodmgspread","payload","uncletopia"],"game_id":440,"stv_port":27016,"stv_name":"Uncletopia | New York City | 1 | All Maps | STV","players":[{"user_id":349,"name":"Nic0","steam_id":76561198305690218,"connected_time":1358000000000,"state":"active","ping":58},{"user_id":369,"name":"Rornir","steam_id":76561198081829615,"connected_time":176000000000,"state":"active","ping":56},{"user_id":356,"name":"igbygames","steam_id":76561199169224041,"connected_time":1206000000000,"state":"active","ping":86},{"user_id":367,"name":"Fudgely","steam_id":76561198039425862,"connected_time":421000000000,"state":"active","ping":53},{"user_id":329,"name":"Spirit","steam_id":76561199069322627,"connected_time":4024000000000,"state":"active","ping":69},{"user_id":302,"name":"Kasane","steam_id":76561198209006780,"connected_time":6855000000000,"state":"active","ping":93},{"user_id":363,"name":"the moniter","steam_id":76561198271869503,"connected_time":750000000000,"state":"active","ping":69},{"user_id":341,"name":"KyleDaDumb","steam_id":76561198059843740,"connected_time":2705000000000,"state":"active","ping":111},{"user_id":339,"name":"Mrs.Frizzle","steam_id":76561198117157085,"connected_time":3203000000000,"state":"active","ping":60},{"user_id":370,"name":"glorbert","steam_id":76561198007792525,"connected_time":165000000000,"state":"active","ping":113},{"user_id":364,"name":"6t26j","steam_id":76561198278282836,"connected_time":671000000000,"state":"active","ping":59},{"user_id":361,"name":"Drunk 3","steam_id":76561198069100779,"connected_time":896000000000,"state":"active","ping":37},{"user_id":282,"name":"Oomitch","steam_id":76561198071702759,"connected_time":8732000000000,"state":"active","ping":120},{"user_id":371,"name":"flexer_2000","steam_id":76561198084422657,"connected_time":52000000000,"state":"active","ping":119},{"user_id":351,"name":"deech","steam_id":76561198066429444,"connected_time":1295000000000,"state":"active","ping":48},{"user_id":266,"name":"parm spagert with bassil","steam_id":76561198047476380,"connected_time":9992000000000,"state":"active","ping":72},{"user_id":359,"name":"Got Hat?","steam_id":76561197998486431,"connected_time":1090000000000,"state":"active","ping":36},{"user_id":372,"name":"IrfanZn","steam_id":76561199468828920,"connected_time":29000000000,"state":"active","ping":77},{"user_id":353,"name":"Final","steam_id":76561198989154975,"connected_time":1294000000000,"state":"active","ping":61},{"user_id":338,"name":"MILF Gaming","steam_id":76561198155378170,"connected_time":3279000000000,"state":"active","ping":55},{"user_id":365,"name":"stapler","steam_id":76561198145380652,"connected_time":481000000000,"state":"active","ping":86},{"user_id":360,"name":"SciFiCode","steam_id":76561199268270149,"connected_time":1087000000000,"state":"active","ping":85},{"user_id":354,"name":"Nexusthenormie","steam_id":76561198880184146,"connected_time":1287000000000,"state":"active","ping":45},{"user_id":220,"name":"Baron von Whoopsie","steam_id":76561197996691013,"connected_time":12264000000000,"state":"active","ping":55}]},{"server_id":14,"name":"Uncletopia | New York City | 2 | All Maps","name_short":"nyc-2","host":"nyc-1.us.uncletopia.com","port":27025,"enabled":true,"region":"us-east","cc":"us","latitude":40.73061,"longitude":-73.93524,"reserved":0,"last_update":"0001-01-01T00:00:00Z","name_a2s":"Uncletopia | New York City | 2 | All Maps","protocol":17,"map":"koth_lakeside_final","folder":"tf","game":"Team Fortress","app_id":440,"player_count":0,"max_players":24,"Bots":0,"server_type":"Dedicated","server_os":"Linux","password":true,"vac":true,"version":"7757534","steam_id":85568392924469994,"keywords":["cp","nocrits","nodmgspread","uncletopia"],"game_id":440,"stv_port":27026,"stv_name":"Uncletopia | New York City | 2 | All Maps | STV","players":null},{"server_id":15,"name":"Uncletopia | New York City | 3 | Stopwatch Beta","name_short":"nyc-3","host":"nyc-1.us.uncletopia.com","port":27035,"enabled":true,"region":"us-east","cc":"us","latitude":40.73061,"longitude":-73.93524,"reserved":0,"last_update":"0001-01-01T00:00:00Z","name_a2s":"Uncletopia | New York City | 3 | Stopwatch Beta","protocol":17,"map":"workshop/koth_clearcut_b15.ugc2107050255","folder":"tf","game":"Team Fortress","app_id":440,"player_count":0,"max_players":24,"Bots":0,"server_type":"Dedicated","server_os":"Linux","password":true,"vac":true,"version":"7757534","steam_id":85568392924742820,"keywords":["cp","nocrits","nodmgspread","uncletopia"],"game_id":440,"stv_port":27036,"stv_name":"Uncletopia | New York City | 3 | Stopwatch Beta | STV","players":null},{"server_id":16,"name":"Uncletopia | New York City | 4 | Community","name_short":"nyc-4","host":"nyc-1.us.uncletopia.com","port":27045,"enabled":true,"region":"us-east","cc":"us","latitude":40.73061,"longitude":-73.93524,"reserved":0,"last_update":"0001-01-01T00:00:00Z","name_a2s":"Uncletopia | New York City | 4 | Community","protocol":17,"map":"pl_borneo","folder":"tf","game":"Team Fortress","app_id":440,"player_count":0,"max_players":24,"Bots":0,"server_type":"Dedicated","server_os":"Linux","password":true,"vac":true,"version":"7757534","steam_id":85568392924742821,"keywords":["nocrits","nodmgspread","payload","uncletopia"],"game_id":440,"stv_port":27046,"stv_name":"Uncletopia | New York City | 4 | Community | STV","players":null},{"server_id":142,"name":"Uncletopia | São Paulo | 1 | All Maps","name_short":"sao-1","host":"sao-1.br.uncletopia.com","port":27015,"enabled":true,"region":"sa","cc":"br","latitude":-23.533773,"longitude":-46.62529,"reserved":0,"last_update":"0001-01-01T00:00:00Z","name_a2s":"Uncletopia | São Paulo | 1 | All Maps","protocol":17,"map":"koth_viaduct","folder":"tf","game":"Team Fortress","app_id":440,"player_count":0,"max_players":24,"Bots":0,"server_type":"Dedicated","server_os":"Linux","password":true,"vac":true,"version":"7757534","steam_id":85568392924469996,"keywords":["cp","nocrits","nodmgspread","uncletopia"],"game_id":440,"stv_port":27016,"stv_name":"Uncletopia | São Paulo | 1 | All Maps | STV","players":null},{"server_id":143,"name":"Uncletopia | São Paulo | 2 | All Maps","name_short":"sao-2","host":"sao-2.br.uncletopia.com","port":27015,"enabled":true,"region":"sa","cc":"br","latitude":-23.533773,"longitude":-46.62529,"reserved":0,"last_update":"0001-01-01T00:00:00Z","name_a2s":"Uncletopia | São Paulo | 2 | All Maps","protocol":17,"map":"pl_snowycoast","folder":"tf","game":"Team Fortress","app_id":440,"player_count":7,"max_players":24,"Bots":0,"server_type":"Dedicated","server_os":"Linux","password":true,"vac":true,"version":"7757534","steam_id":85568392924485349,"keywords":["nocrits","nodmgspread","payload","uncletopia"],"game_id":440,"stv_port":27016,"stv_name":"Uncletopia | São Paulo | 2 | All Maps | STV","players":[{"user_id":182,"name":"MegaPootis","steam_id":76561199273735517,"connected_time":818000000000,"state":"active","ping":42},{"user_id":183,"name":"kate ♡","steam_id":76561198805567120,"connected_time":793000000000,"state":"active","ping":37},{"user_id":184,"name":"Pudding","steam_id":76561198426734034,"connected_time":694000000000,"state":"active","ping":84},{"user_id":185,"name":"sindrome de kovaak's","steam_id":76561199163995527,"connected_time":254000000000,"state":"active","ping":96},{"user_id":187,"name":"skill issue i have","steam_id":76561198147130561,"connected_time":236000000000,"state":"active","ping":51},{"user_id":188,"name":"Marmo \u003e_","steam_id":76561198213744979,"connected_time":235000000000,"state":"active","ping":55},{"user_id":189,"name":"Room","steam_id":76561199174579733,"connected_time":166000000000,"state":"active","ping":174}]},{"server_id":7,"name":"Uncletopia | Seattle | 1 | All Maps","name_short":"sea-1","host":"sea-1.us.uncletopia.com","port":27015,"enabled":true,"region":"us-west","cc":"us","latitude":47.608013,"longitude":-122.33517,"reserved":0,"last_update":"0001-01-01T00:00:00Z","name_a2s":"Uncletopia | Seattle | 1 | All Maps","protocol":17,"map":"pl_upward","folder":"tf","game":"Team Fortress","app_id":440,"player_count":24,"max_players":24,"Bots":0,"server_type":"Dedicated","server_os":"Linux","password":true,"vac":true,"version":"7757534","steam_id":85568392924469997,"keywords":["nocrits","nodmgspread","payload","uncletopia"],"game_id":440,"stv_port":27016,"stv_name":"Uncletopia | Seattle | 1 | All Maps | STV","players":[{"user_id":54,"name":"gonurlight","steam_id":76561198935839416,"connected_time":1092000000000,"state":"active","ping":134},{"user_id":13,"name":"〣dust〣 -she/her-","steam_id":76561198045218909,"connected_time":3683000000000,"state":"active","ping":39},{"user_id":31,"name":"Julien","steam_id":76561199389584938,"connected_time":2080000000000,"state":"active","ping":40},{"user_id":46,"name":"j4miecl4rk","steam_id":76561198404312721,"connected_time":1604000000000,"state":"active","ping":99},{"user_id":61,"name":"pizzalover_2014","steam_id":76561198870649125,"connected_time":791000000000,"state":"active","ping":87},{"user_id":20,"name":"Peppy","steam_id":76561198866629645,"connected_time":2781000000000,"state":"active","ping":57},{"user_id":24,"name":"MAK","steam_id":76561198089361823,"connected_time":2377000000000,"state":"active","ping":83},{"user_id":62,"name":"bodie._.","steam_id":76561198079474904,"connected_time":740000000000,"state":"active","ping":63},{"user_id":28,"name":"PheebsyDeebsy","steam_id":76561198101509436,"connected_time":2254000000000,"state":"active","ping":69},{"user_id":55,"name":"shane","steam_id":76561198060491451,"connected_time":1059000000000,"state":"active","ping":87},{"user_id":47,"name":"jungus","steam_id":76561198129862008,"connected_time":1502000000000,"state":"active","ping":75},{"user_id":68,"name":"weegeebad","steam_id":76561198280841437,"connected_time":10000000000,"state":"spawning","ping":92},{"user_id":69,"name":"🎄AndreaJingling🎄","steam_id":76561198198658783,"connected_time":2000000000,"state":"spawning","ping":53},{"user_id":66,"name":"CrazyM3rc","steam_id":76561199025383150,"connected_time":32000000000,"state":"active","ping":86},{"user_id":34,"name":"swaggdood","steam_id":76561198076173018,"connected_time":1939000000000,"state":"active","ping":74},{"user_id":35,"name":"Ignignokt","steam_id":76561198162207470,"connected_time":1930000000000,"state":"active","ping":67},{"user_id":57,"name":"hunky dory","steam_id":76561198030422254,"connected_time":1052000000000,"state":"active","ping":122},{"user_id":59,"name":"kn0n1894","steam_id":76561198249172818,"connected_time":999000000000,"state":"active","ping":156},{"user_id":64,"name":"TheGhostThatWas","steam_id":76561198055836483,"connected_time":624000000000,"state":"active","ping":126},{"user_id":40,"name":"Mignyanne :3","steam_id":76561198048754056,"connected_time":1842000000000,"state":"active","ping":75},{"user_id":67,"name":"Swag5","steam_id":76561198065311356,"connected_time":32000000000,"state":"active","ping":115},{"user_id":51,"name":"Ratski","steam_id":76561199435307479,"connected_time":1120000000000,"state":"active","ping":89},{"user_id":52,"name":"lft dw4rf","steam_id":76561198046953937,"connected_time":1098000000000,"state":"active","ping":60},{"user_id":45,"name":"Aviator77","steam_id":76561198203397184,"connected_time":1623000000000,"state":"active","ping":67}]},{"server_id":119,"name":"Uncletopia | Seattle | 2 | All Maps","name_short":"sea-2","host":"sea-1.us.uncletopia.com","port":27025,"enabled":true,"region":"us-west","cc":"us","latitude":47.608013,"longitude":-122.33517,"reserved":0,"last_update":"0001-01-01T00:00:00Z","name_a2s":"Uncletopia | Seattle | 2 | All Maps","protocol":17,"map":"koth_viaduct","folder":"tf","game":"Team Fortress","app_id":440,"player_count":0,"max_players":24,"Bots":0,"server_type":"Dedicated","server_os":"Linux","password":true,"vac":true,"version":"7757534","steam_id":85568392924469998,"keywords":["cp","nocrits","nodmgspread","uncletopia"],"game_id":440,"stv_port":27026,"stv_name":"Uncletopia | Seattle | 2 | All Maps | STV","players":null},{"server_id":406,"name":"Uncletopia | Seattle | 3 | Stopwatch Beta","name_short":"sea-3","host":"sea-1.us.uncletopia.com","port":27035,"enabled":true,"region":"us-west","cc":"us","latitude":47.608013,"longitude":-122.33517,"reserved":0,"last_update":"0001-01-01T00:00:00Z","name_a2s":"Uncletopia | Seattle | 3 | Stopwatch Beta","protocol":17,"map":"cp_sunshine","folder":"tf","game":"Team Fortress","app_id":440,"player_count":0,"max_players":24,"Bots":0,"server_type":"Dedicated","server_os":"Linux","password":true,"vac":true,"version":"7757534","steam_id":85568392924515217,"keywords":["cp","nocrits","nodmgspread","uncletopia"],"game_id":440,"stv_port":27036,"stv_name":"Uncletopia | Seattle | 3 | Stopwatch Beta | STV","players":null},{"server_id":17,"name":"Uncletopia | San Francisco | 1 | All Maps","name_short":"sfo-1","host":"sfo-1.us.uncletopia.com","port":27015,"enabled":true,"region":"us-west","cc":"us","latitude":37.77397,"longitude":-122.4313,"reserved":0,"last_update":"0001-01-01T00:00:00Z","name_a2s":"Uncletopia | San Francisco | 1 | All Maps","protocol":17,"map":"cp_dustbowl","folder":"tf","game":"Team Fortress","app_id":440,"player_count":0,"max_players":24,"Bots":0,"server_type":"Dedicated","server_os":"Linux","password":true,"vac":true,"version":"7757534","steam_id":85568392924469999,"keywords":["cp","nocrits","nodmgspread","uncletopia"],"game_id":440,"stv_port":27016,"stv_name":"Uncletopia | San Francisco | 1 | All Maps | STV","players":null},{"server_id":18,"name":"Uncletopia | San Francisco | 2 | All Maps","name_short":"sfo-2","host":"sfo-1.us.uncletopia.com","port":27025,"enabled":true,"region":"us-west","cc":"us","latitude":37.77397,"longitude":-122.4313,"reserved":0,"last_update":"0001-01-01T00:00:00Z","name_a2s":"Uncletopia | San Francisco | 2 | All Maps","protocol":17,"map":"cp_mountainlab","folder":"tf","game":"Team Fortress","app_id":440,"player_count":0,"max_players":24,"Bots":0,"server_type":"Dedicated","server_os":"Linux","password":true,"vac":true,"version":"7757534","steam_id":85568392924470000,"keywords":["cp","nocrits","nodmgspread","uncletopia"],"game_id":440,"stv_port":27026,"stv_name":"Uncletopia | San Francisco | 2 | All Maps | STV","players":null},{"server_id":19,"name":"Uncletopia | San Francisco | 3 | Stopwatch Beta","name_short":"sfo-3","host":"sfo-1.us.uncletopia.com","port":27035,"enabled":true,"region":"us-west","cc":"us","latitude":37.77397,"longitude":-122.4313,"reserved":0,"last_update":"0001-01-01T00:00:00Z","name_a2s":"Uncletopia | San Francisco | 3 | Stopwatch Beta","protocol":17,"map":"koth_viaduct","folder":"tf","game":"Team Fortress","app_id":440,"player_count":0,"max_players":24,"Bots":0,"server_type":"Dedicated","server_os":"Linux","password":true,"vac":true,"version":"7757534","steam_id":85568392924742824,"keywords":["cp","nocrits","nodmgspread","uncletopia"],"game_id":440,"stv_port":27036,"stv_name":"Uncletopia | San Francisco | 3 | Stopwatch Beta | STV","players":null},{"server_id":20,"name":"Uncletopia | San Francisco | 4 | Community","name_short":"sfo-4","host":"sfo-1.us.uncletopia.com","port":27045,"enabled":true,"region":"us-west","cc":"us","latitude":37.77397,"longitude":-122.4313,"reserved":0,"last_update":"0001-01-01T00:00:00Z","name_a2s":"Uncletopia | San Francisco | 4 | Community","protocol":17,"map":"pl_borneo","folder":"tf","game":"Team Fortress","app_id":440,"player_count":0,"max_players":24,"Bots":0,"server_type":"Dedicated","server_os":"Linux","password":true,"vac":true,"version":"7757534","steam_id":85568392924742826,"keywords":["nocrits","nodmgspread","payload","uncletopia"],"game_id":440,"stv_port":27046,"stv_name":"Uncletopia | San Francisco | 4 | Community | STV","players":null},{"server_id":141,"name":"Uncletopia | Sydney | 1 | All Maps","name_short":"syd-1","host":"syd-1.au.uncletopia.com","port":27015,"enabled":true,"region":"au","cc":"au","latitude":-33.865143,"longitude":151.2099,"reserved":0,"last_update":"0001-01-01T00:00:00Z","name_a2s":"Uncletopia | Sydney | 1 | All Maps","protocol":17,"map":"koth_lakeside_final","folder":"tf","game":"Team Fortress","app_id":440,"player_count":0,"max_players":24,"Bots":0,"server_type":"Dedicated","server_os":"Linux","password":true,"vac":true,"version":"7757534","steam_id":85568392924470001,"keywords":["cp","nocrits","nodmgspread","uncletopia"],"game_id":440,"stv_port":27016,"stv_name":"Uncletopia | Sydney | 1 | All Maps | STV","players":null},{"server_id":123,"name":"Uncletopia | Sydney | 2 | All Maps","name_short":"syd-2","host":"syd-1.au.uncletopia.com","port":27025,"enabled":true,"region":"au","cc":"au","latitude":-33.865143,"longitude":151.2099,"reserved":0,"last_update":"0001-01-01T00:00:00Z","name_a2s":"Uncletopia | Sydney | 2 | All Maps","protocol":17,"map":"koth_viaduct","folder":"tf","game":"Team Fortress","app_id":440,"player_count":0,"max_players":24,"Bots":0,"server_type":"Dedicated","server_os":"Linux","password":true,"vac":true,"version":"7757534","steam_id":85568392924470002,"keywords":["cp","nocrits","nodmgspread","uncletopia"],"game_id":440,"stv_port":27026,"stv_name":"Uncletopia | Sydney | 2 | All Maps | STV","players":null},{"server_id":395,"name":"Uncletopia | Sydney | 3 | All Maps","name_short":"syd-3","host":"syd-1.au.uncletopia.com","port":27035,"enabled":true,"region":"au","cc":"au","latitude":-33.865143,"longitude":151.2099,"reserved":0,"last_update":"0001-01-01T00:00:00Z","name_a2s":"Uncletopia | Sydney | 3 | All Maps","protocol":17,"map":"koth_viaduct","folder":"tf","game":"Team Fortress","app_id":440,"player_count":0,"max_players":24,"Bots":0,"server_type":"Dedicated","server_os":"Linux","password":true,"vac":true,"version":"7757534","steam_id":85568392925194467,"keywords":["cp","nocrits","nodmgspread","uncletopia"],"game_id":440,"stv_port":27036,"stv_name":"Uncletopia | Sydney | 3 | All Maps | STV","players":null},{"server_id":396,"name":"Uncletopia | Sydney | 4 | All Maps","name_short":"syd-4","host":"syd-1.au.uncletopia.com","port":27045,"enabled":true,"region":"au","cc":"au","latitude":-33.865143,"longitude":151.2099,"reserved":0,"last_update":"0001-01-01T00:00:00Z","name_a2s":"Uncletopia | Sydney | 4 | All Maps","protocol":17,"map":"cp_snakewater_final1","folder":"tf","game":"Team Fortress","app_id":440,"player_count":0,"max_players":24,"Bots":0,"server_type":"Dedicated","server_os":"Linux","password":true,"vac":true,"version":"7757534","steam_id":85568392925397958,"keywords":["cp","nocrits","nodmgspread","uncletopia"],"game_id":440,"stv_port":27046,"stv_name":"Uncletopia | Sydney | 4 | All Maps | STV","players":null},{"server_id":58,"name":"Uncletopia | Sydney | 5 | Stopwatch Beta","name_short":"syd-5","host":"syd-1.au.uncletopia.com","port":27055,"enabled":true,"region":"au","cc":"au","latitude":-33.865143,"longitude":151.2099,"reserved":0,"last_update":"0001-01-01T00:00:00Z","name_a2s":"Uncletopia | Sydney | 5 | Stopwatch Beta","protocol":17,"map":"pl_barnblitz","folder":"tf","game":"Team Fortress","app_id":440,"player_count":0,"max_players":24,"Bots":0,"server_type":"Dedicated","server_os":"Linux","password":true,"vac":true,"version":"7757534","steam_id":85568392925397959,"keywords":["nocrits","nodmgspread","payload","uncletopia"],"game_id":440,"stv_port":27056,"stv_name":"Uncletopia | Sydney | 5 | Stopwatch Beta | STV","players":null},{"server_id":59,"name":"Uncletopia | Sydney | 6 | Community","name_short":"syd-6","host":"syd-1.au.uncletopia.com","port":27065,"enabled":true,"region":"au","cc":"au","latitude":-33.865143,"longitude":151.2099,"reserved":0,"last_update":"0001-01-01T00:00:00Z","name_a2s":"Uncletopia | Sydney | 6 | Community","protocol":17,"map":"workshop/pl_vigil_rc9.ugc1266210012","folder":"tf","game":"Team Fortress","app_id":440,"player_count":0,"max_players":24,"Bots":0,"server_type":"Dedicated","server_os":"Linux","password":true,"vac":true,"version":"7757534","steam_id":85568392925397960,"keywords":["nocrits","nodmgspread","payload","uncletopia"],"game_id":440,"stv_port":27066,"stv_name":"Uncletopia | Sydney | 6 | Community | STV","players":null},{"server_id":49,"name":"Uncletopia | Warsaw | 1 | All Maps","name_short":"waw-1","host":"waw-1.pl.uncletopia.com","port":27015,"enabled":true,"region":"eu","cc":"pl","latitude":52.2297,"longitude":21.017532,"reserved":0,"last_update":"0001-01-01T00:00:00Z","name_a2s":"","protocol":0,"map":"","folder":"","game":"","app_id":0,"player_count":0,"max_players":0,"Bots":0,"server_type":"","server_os":"","password":false,"vac":false,"version":"","steam_id":0,"keywords":null,"game_id":0,"stv_port":0,"stv_name":"","players":null},{"server_id":50,"name":"Uncletopia | Warsaw | 2 | All Maps","name_short":"waw-2","host":"waw-1.pl.uncletopia.com","port":27025,"enabled":true,"region":"eu","cc":"pl","latitude":52.2297,"longitude":21.017532,"reserved":0,"last_update":"0001-01-01T00:00:00Z","name_a2s":"Uncletopia | Warsaw | 2 | All Maps","protocol":17,"map":"pl_borneo","folder":"tf","game":"Team Fortress","app_id":440,"player_count":0,"max_players":24,"Bots":0,"server_type":"Dedicated","server_os":"Linux","password":true,"vac":true,"version":"7757534","steam_id":85568392925397851,"keywords":["nocrits","nodmgspread","payload","uncletopia"],"game_id":440,"stv_port":27026,"stv_name":"Uncletopia | Warsaw | 2 | All Maps | STV","players":null},{"server_id":51,"name":"Uncletopia | Warsaw | 3 | All Maps","name_short":"waw-3","host":"waw-1.pl.uncletopia.com","port":27035,"enabled":true,"region":"eu","cc":"pl","latitude":52.2297,"longitude":21.017532,"reserved":0,"last_update":"0001-01-01T00:00:00Z","name_a2s":"Uncletopia | Warsaw | 3 | All Maps","protocol":17,"map":"koth_viaduct","folder":"tf","game":"Team Fortress","app_id":440,"player_count":0,"max_players":24,"Bots":0,"server_type":"Dedicated","server_os":"Linux","password":true,"vac":true,"version":"7757534","steam_id":85568392925397852,"keywords":["cp","nocrits","nodmgspread","uncletopia"],"game_id":440,"stv_port":27036,"stv_name":"Uncletopia | Warsaw | 3 | All Maps | STV","players":null},{"server_id":52,"name":"Uncletopia | Warsaw | 4 | All Maps","name_short":"waw-4","host":"waw-1.pl.uncletopia.com","port":27045,"enabled":true,"region":"eu","cc":"pl","latitude":52.2297,"longitude":21.017532,"reserved":0,"last_update":"0001-01-01T00:00:00Z","name_a2s":"Uncletopia | Warsaw | 4 | All Maps","protocol":17,"map":"koth_highpass","folder":"tf","game":"Team Fortress","app_id":440,"player_count":0,"max_players":24,"Bots":0,"server_type":"Dedicated","server_os":"Linux","password":true,"vac":true,"version":"7757534","steam_id":85568392925397853,"keywords":["cp","nocrits","nodmgspread","uncletopia"],"game_id":440,"stv_port":27046,"stv_name":"Uncletopia | Warsaw | 4 | All Maps | STV","players":null},{"server_id":53,"name":"Uncletopia | Warsaw | 5 | Stopwatch Beta","name_short":"waw-5","host":"waw-1.pl.uncletopia.com","port":27055,"enabled":true,"region":"eu","cc":"pl","latitude":52.2297,"longitude":21.017532,"reserved":0,"last_update":"0001-01-01T00:00:00Z","name_a2s":"Uncletopia | Warsaw | 5 | Stopwatch Beta","protocol":17,"map":"pl_upward","folder":"tf","game":"Team Fortress","app_id":440,"player_count":0,"max_players":24,"Bots":0,"server_type":"Dedicated","server_os":"Linux","password":true,"vac":true,"version":"7757534","steam_id":85568392925397854,"keywords":["nocrits","nodmgspread","payload","uncletopia"],"game_id":440,"stv_port":27056,"stv_name":"Uncletopia | Warsaw | 5 | Stopwatch Beta | STV","players":null},{"server_id":54,"name":"Uncletopia | Warsaw | 6 | Community","name_short":"waw-6","host":"waw-1.pl.uncletopia.com","port":27065,"enabled":true,"region":"eu","cc":"pl","latitude":52.2297,"longitude":21.017532,"reserved":0,"last_update":"0001-01-01T00:00:00Z","name_a2s":"Uncletopia | Warsaw | 6 | Community","protocol":17,"map":"workshop/koth_synthetic_rc6a.ugc1549817316","folder":"tf","game":"Team Fortress","app_id":440,"player_count":0,"max_players":24,"Bots":0,"server_type":"Dedicated","server_os":"Linux","password":true,"vac":true,"version":"7757534","steam_id":85568392925397856,"keywords":["cp","nocrits","nodmgspread","uncletopia"],"game_id":440,"stv_port":27066,"stv_name":"Uncletopia | Warsaw | 6 | Community | STV","players":null}]}