{"status":true,"message":"","result":[{"server_id":9,"name":"Uncletopia | Atlanta | 1 | All Maps","name_short":"atl-1","host":"atl-1.us.uncletopia.com","port":27015,"enabled":true,"region":"us-east","cc":"us","latitude":33.753746,"longitude":-84.38633,"reserved":0,"last_update":"0001-01-01T00:00:00Z","name_a2s":"Uncletopia | Atlanta | 1 | All Maps","protocol":17,"map":"pl_frontier_final","folder":"tf","game":"Team Fortress","app_id":440,"player_count":17,"max_players":24,"Bots":0,"server_type":"Dedicated","server_os":"Linux","password":true,"vac":true,"version":"7704440","steam_id":85568392924469982,"keywords":["nocrits","nodmgspread","payload","uncletopia"],"game_id":440,"stv_port":27016,"stv_name":"Uncletopia | Atlanta | 1 | All Maps | STV","players":[{"user_id":40,"name":"vacant","steam_id":76561199067153815,"connected_time":1245000000000,"state":"active","ping":89},{"user_id":45,"name":"Gnome Warlord","steam_id":76561199075520017,"connected_time":551000000000,"state":"active","ping":51},{"user_id":29,"name":"Texan","steam_id":76561199386939629,"connected_time":2719000000000,"state":"active","ping":194},{"user_id":66,"name":"SkippZz","steam_id":76561198037944582,"connected_time":25000000000,"state":"active","ping":63},{"user_id":47,"name":"Swoletard","steam_id":76561198074212758,"connected_time":518000000000,"state":"active","ping":45},{"user_id":57,"name":"Nico","steam_id":76561198125701869,"connected_time":130000000000,"state":"active","ping":61},{"user_id":49,"name":"gabryxx","steam_id":76561199075272427,"connected_time":463000000000,"state":"active","ping":170},{"user_id":50,"name":"sansa musa","steam_id":76561198163723555,"connected_time":442000000000,"state":"active","ping":70},{"user_id":53,"name":"The Scoundrel","steam_id":76561198254822004,"connected_time":294000000000,"state":"active","ping":183},{"user_id":56,"name":"Asanez3","steam_id":76561198037381436,"connected_time":145000000000,"state":"active","ping":69},{"user_id":59,"name":"nix the protogen (she/they)","steam_id":76561198403517028,"connected_time":102000000000,"state":"active","ping":71},{"user_id":60,"name":"womit","steam_id":76561198333675595,"connected_time":93000000000,"state":"active","ping":97},{"user_id":61,"name":"Nerpuge","steam_id":76561198032316546,"connected_time":88000000000,"state":"active","ping":73},{"user_id":62,"name":"crunchy and spicy wasp snack","steam_id":76561199322728703,"connected_time":84000000000,"state":"active","ping":60},{"user_id":65,"name":"The Potato Romancer","steam_id":76561198204197648,"connected_time":64000000000,"state":"active","ping":95},{"user_id":64,"name":"CyDev","steam_id":76561198253072875,"connected_time":73000000000,"state":"active","ping":60}]},{"server_id":400,"name":"Uncletopia | Atlanta | 3 | All Maps","name_short":"atl-3","host":"atl-1.us.uncletopia.com","port":27035,"enabled":true,"region":"us-east","cc":"us","latitude":33.753746,"longitude":-84.38633,"reserved":0,"last_update":"0001-01-01T00:00:00Z","name_a2s":"Uncletopia | Atlanta | 3 | All Maps","protocol":17,"map":"koth_lakeside_final","folder":"tf","game":"Team Fortress","app_id":440,"player_count":2,"max_players":24,"Bots":0,"server_type":"Dedicated","server_os":"Linux","password":true,"vac":true,"version":"7704440","steam_id":85568392924515187,"keywords":["cp","nocrits","nodmgspread","uncletopia"],"game_id":440,"stv_port":27036,"stv_name":"Uncletopia | Atlanta | 3 | All Maps | STV","players":[{"user_id":20,"name":"peacekeeper","steam_id":76561199260462952,"connected_time":154000000000,"state":"active","ping":180},{"user_id":18,"name":"Superior Turtle","steam_id":76561199051735799,"connected_time":1109000000000,"state":"active","ping":125}]},{"server_id":401,"name":"Uncletopia | Atlanta | 4 | No Payload","name_short":"atl-4","host":"atl-1.us.uncletopia.com","port":27045,"enabled":true,"region":"us-east","cc":"us","latitude":33.753746,"longitude":-84.38633,"reserved":0,"last_update":"0001-01-01T00:00:00Z","name_a2s":"Uncletopia | Atlanta | 4 | No Payload","protocol":17,"map":"pl_swiftwater_final1","folder":"tf","game":"Team Fortress","app_id":440,"player_count":0,"max_players":24,"Bots":0,"server_type":"Dedicated","server_os":"Linux","password":true,"vac":true,"version":"7704440","steam_id":85568392924515188,"keywords":["nocrits","nodmgspread","payload","uncletopia"],"game_id":440,"stv_port":0,"stv_name":"","players":null},{"server_id":2,"name":"Uncletopia | Chicago | 1 | All Maps","name_short":"chi-1","host":"chi-1.us.uncletopia.com","port":27015,"enabled":true,"region":"us-central","cc":"us","latitude":41.881832,"longitude":-87.62318,"reserved":0,"last_update":"0001-01-01T00:00:00Z","name_a2s":"Uncletopia | Chicago | 1 | All Maps","protocol":17,"map":"pl_swiftwater_final1","folder":"tf","game":"Team Fortress","app_id":440,"player_count":24,"max_players":24,"Bots":0,"server_type":"Dedicated","server_os":"Linux","password":true,"vac":true,"version":"7704440","steam_id":85568392924469984,"keywords":["nocrits","nodmgspread","payload","uncletopia"],"game_id":440,"stv_port":27016,"stv_name":"Uncletopia | Chicago | 1 | All Maps | STV","players":[{"user_id":98,"name":"The_atom_bomb","steam_id":76561198139944683,"connected_time":2126000000000,"state":"active","ping":58},{"user_id":122,"name":"✩BONGO✩","steam_id":76561198018040930,"connected_time":635000000000,"state":"active","ping":65},{"user_id":64,"name":"aisu","steam_id":76561198043768507,"connected_time":6352000000000,"state":"active","ping":69},{"user_id":120,"name":"eredyn","steam_id":76561198868116439,"connected_time":680000000000,"state":"active","ping":50},{"user_id":117,"name":"Quansen","steam_id":76561198151594550,"connected_time":1066000000000,"state":"active","ping":58},{"user_id":69,"name":"The Big","steam_id":76561198078572184,"connected_time":5682000000000,"state":"active","ping":75},{"user_id":121,"name":"Pork Tenderloin","steam_id":76561198138663842,"connected_time":663000000000,"state":"active","ping":48},{"user_id":17,"name":"Chode Mode","steam_id":76561198353840477,"connected_time":8867000000000,"state":"active","ping":52},{"user_id":109,"name":"Sailor","steam_id":76561199081983517,"connected_time":1274000000000,"state":"active","ping":90},{"user_id":65,"name":"Rornir","steam_id":76561198081829615,"connected_time":6325000000000,"state":"active","ping":41},{"user_id":110,"name":"VerociousVee","steam_id":76561198289106015,"connected_time":1271000000000,"state":"active","ping":93},{"user_id":123,"name":"mbs","steam_id":76561198013079739,"connected_time":435000000000,"state":"active","ping":61},{"user_id":112,"name":"Guwop","steam_id":76561197970425737,"connected_time":1205000000000,"state":"active","ping":54},{"user_id":125,"name":"Jolly Crowbar","steam_id":76561199105488936,"connected_time":269000000000,"state":"active","ping":145},{"user_id":124,"name":"David De Bergerac","steam_id":76561198010306294,"connected_time":349000000000,"state":"active","ping":79},{"user_id":114,"name":"let that boba cheese","steam_id":76561198086193212,"connected_time":1101000000000,"state":"active","ping":70},{"user_id":115,"name":"lemon","steam_id":76561198329179651,"connected_time":1088000000000,"state":"active","ping":104},{"user_id":116,"name":"Hey","steam_id":76561198447517893,"connected_time":1086000000000,"state":"active","ping":76},{"user_id":118,"name":"toastman","steam_id":76561198207073088,"connected_time":1061000000000,"state":"active","ping":67},{"user_id":84,"name":"Tyler\u0026Fingers","steam_id":76561198085154485,"connected_time":4407000000000,"state":"active","ping":80},{"user_id":92,"name":"Whoa","steam_id":76561197970353496,"connected_time":3064000000000,"state":"active","ping":79},{"user_id":37,"name":"Airon","steam_id":76561197970481950,"connected_time":8303000000000,"state":"active","ping":164},{"user_id":107,"name":"yitz","steam_id":76561198375575841,"connected_time":1755000000000,"state":"active","ping":58},{"user_id":119,"name":"GooniOoni","steam_id":76561198102154561,"connected_time":1000000000000,"state":"active","ping":47}]},{"server_id":106,"name":"Uncletopia | Chicago | 2 | All Maps","name_short":"chi-2","host":"chi-1.us.uncletopia.com","port":27025,"enabled":true,"region":"us-central","cc":"us","latitude":41.881832,"longitude":-87.62318,"reserved":0,"last_update":"0001-01-01T00:00:00Z","name_a2s":"Uncletopia | Chicago | 2 | All Maps","protocol":17,"map":"pl_hoodoo_final","folder":"tf","game":"Team Fortress","app_id":440,"player_count":24,"max_players":24,"Bots":0,"server_type":"Dedicated","server_os":"Linux","password":true,"vac":true,"version":"7704440","steam_id":85568392924469985,"keywords":["nocrits","nodmgspread","payload","uncletopia"],"game_id":440,"stv_port":27026,"stv_name":"Uncletopia | Chicago | 2 | All Maps | STV","players":[{"user_id":200,"name":"Chrome Knight","steam_id":76561198851348871,"connected_time":2372000000000,"state":"active","ping":79},{"user_id":233,"name":"Hot Milk + Sweet Delight","steam_id":76561197988989149,"connected_time":834000000000,"state":"active","ping":84},{"user_id":229,"name":"existential dread","steam_id":76561198041907345,"connected_time":965000000000,"state":"active","ping":106},{"user_id":243,"name":"Satori Komeiji","steam_id":76561198158211423,"connected_time":108000000000,"state":"active","ping":94},{"user_id":190,"name":"fi_ji","steam_id":76561198126087725,"connected_time":2963000000000,"state":"active","ping":73},{"user_id":215,"name":"Timbs!!","steam_id":76561198156215344,"connected_time":1724000000000,"state":"active","ping":59},{"user_id":227,"name":"Eightyy  Fourr","steam_id":76561197960374225,"connected_time":1331000000000,"state":"active","ping":74},{"user_id":201,"name":"Rotation","steam_id":76561198865324866,"connected_time":2290000000000,"state":"active","ping":76},{"user_id":217,"name":"prdxninja","steam_id":76561198170081774,"connected_time":1692000000000,"state":"active","ping":45},{"user_id":230,"name":"Pigeon","steam_id":76561199232498885,"connected_time":922000000000,"state":"active","ping":82},{"user_id":221,"name":"Junior Firefighter Dan Boswell","steam_id":76561197986605638,"connected_time":1552000000000,"state":"active","ping":72},{"user_id":219,"name":"Curly-Haired Rogue","steam_id":76561198101915594,"connected_time":1621000000000,"state":"active","ping":71},{"user_id":242,"name":"firefly","steam_id":76561198151308698,"connected_time":174000000000,"state":"active","ping":68},{"user_id":202,"name":"Tourmaline Lazuli","steam_id":76561198987049358,"connected_time":2234000000000,"state":"active","ping":45},{"user_id":220,"name":"SnowStorm","steam_id":76561198095817025,"connected_time":1615000000000,"state":"active","ping":48},{"user_id":236,"name":"Lord GabeN","steam_id":76561198140862723,"connected_time":695000000000,"state":"active","ping":61},{"user_id":238,"name":"faxxy","steam_id":76561198079621240,"connected_time":492000000000,"state":"active","ping":64},{"user_id":214,"name":"Corbe","steam_id":76561198353893927,"connected_time":1752000000000,"state":"active","ping":39},{"user_id":218,"name":"Miramar","steam_id":76561198022057653,"connected_time":1685000000000,"state":"active","ping":78},{"user_id":235,"name":"Coldspyros","steam_id":76561198006520524,"connected_time":801000000000,"state":"active","ping":69},{"user_id":223,"name":"Overwatch 2 ® By Blizzard ENT.","steam_id":76561198824796895,"connected_time":1530000000000,"state":"active","ping":102},{"user_id":224,"name":"Verathragna","steam_id":76561198067215453,"connected_time":1517000000000,"state":"active","ping":62},{"user_id":199,"name":"Moz","steam_id":76561198027171160,"connected_time":2602000000000,"state":"active","ping":49},{"user_id":237,"name":"Crow","steam_id":76561198055648496,"connected_time":518000000000,"state":"active","ping":51}]},{"server_id":402,"name":"Uncletopia | Chicago | 3 | All Maps","name_short":"chi-3","host":"chi-1.us.uncletopia.com","port":27035,"enabled":true,"region":"us-central","cc":"us","latitude":41.881832,"longitude":-87.62318,"reserved":0,"last_update":"0001-01-01T00:00:00Z","name_a2s":"Uncletopia | Chicago | 3 | All Maps","protocol":17,"map":"pl_upward","folder":"tf","game":"Team Fortress","app_id":440,"player_count":5,"max_players":24,"Bots":0,"server_type":"Dedicated","server_os":"Linux","password":true,"vac":true,"version":"7704440","steam_id":85568392924515191,"keywords":["nocrits","nodmgspread","payload","uncletopia"],"game_id":440,"stv_port":27036,"stv_name":"Uncletopia | Chicago | 3 | All Maps | STV","players":[{"user_id":166,"name":"Kovalski","steam_id":76561199092689216,"connected_time":1652000000000,"state":"active","ping":165},{"user_id":164,"name":"thezranger","steam_id":76561198454086460,"connected_time":2125000000000,"state":"active","ping":108},{"user_id":171,"name":"ZachChase","steam_id":76561198086057112,"connected_time":515000000000,"state":"active","ping":79},{"user_id":170,"name":"the mole man from mole land","steam_id":76561199121285443,"connected_time":602000000000,"state":"active","ping":51},{"user_id":155,"name":"PP pump (water)","steam_id":76561198079462109,"connected_time":3054000000000,"state":"active","ping":84}]},{"server_id":403,"name":"Uncletopia | Chicago | 4 | All Maps","name_short":"chi-4","host":"chi-1.us.uncletopia.com","port":27045,"enabled":true,"region":"us-central","cc":"us","latitude":41.881832,"longitude":-87.62318,"reserved":0,"last_update":"0001-01-01T00:00:00Z","name_a2s":"Uncletopia | Chicago | 4 | All Maps","protocol":17,"map":"koth_lakeside_final","folder":"tf","game":"Team Fortress","app_id":440,"player_count":8,"max_players":24,"Bots":0,"server_type":"Dedicated","server_os":"Linux","password":true,"vac":true,"version":"7704440","steam_id":85568392924515193,"keywords":["cp","nocrits","nodmgspread","uncletopia"],"game_id":440,"stv_port":0,"stv_name":"","players":[{"user_id":5,"name":"Turnups","steam_id":76561199078299198,"connected_time":1672000000000,"state":"active","ping":87},{"user_id":6,"name":"Spycrab","steam_id":76561199021850955,"connected_time":1586000000000,"state":"active","ping":91},{"user_id":7,"name":"shroom","steam_id":76561198431664933,"connected_time":1323000000000,"state":"active","ping":87},{"user_id":8,"name":"FigBaguette","steam_id":76561198076596803,"connected_time":1095000000000,"state":"active","ping":83},{"user_id":15,"name":"TasteMaple","steam_id":76561199103760177,"connected_time":98000000000,"state":"active","ping":56},{"user_id":10,"name":"BoX_hEaD101","steam_id":76561198200875467,"connected_time":588000000000,"state":"active","ping":110},{"user_id":14,"name":"DIZ","steam_id":76561199065119525,"connected_time":159000000000,"state":"active","ping":68},{"user_id":16,"name":"Phroliax","steam_id":76561198207075529,"connected_time":65000000000,"state":"active","ping":91}]},{"server_id":36,"name":"Uncletopia | Chicago | 5 | All Maps","name_short":"chi-5","host":"chi-2.us.uncletopia.com","port":27015,"enabled":true,"region":"us-central","cc":"us","latitude":41.881832,"longitude":-87.62318,"reserved":0,"last_update":"0001-01-01T00:00:00Z","name_a2s":"Uncletopia | Chicago | 5 | All Maps","protocol":17,"map":"pl_borneo","folder":"tf","game":"Team Fortress","app_id":440,"player_count":0,"max_players":24,"Bots":0,"server_type":"Dedicated","server_os":"Linux","password":true,"vac":true,"version":"7704440","steam_id":85568392924866362,"keywords":["nocrits","nodmgspread","payload","uncletopia"],"game_id":440,"stv_port":0,"stv_name":"","players":null},{"server_id":37,"name":"Uncletopia | Chicago | 6 | All Maps","name_short":"chi-6","host":"chi-2.us.uncletopia.com","port":27025,"enabled":true,"region":"us-central","cc":"us","latitude":41.881832,"longitude":-87.62318,"reserved":0,"last_update":"0001-01-01T00:00:00Z","name_a2s":"Uncletopia | Chicago | 6 | All Maps","protocol":17,"map":"pl_upward","folder":"tf","game":"Team Fortress","app_id":440,"player_count":0,"max_players":24,"Bots":0,"server_type":"Dedicated","server_os":"Linux","password":true,"vac":true,"version":"7704440","steam_id":85568392924866363,"keywords":["nocrits","nodmgspread","payload","uncletopia"],"game_id":440,"stv_port":0,"stv_name":"","players":null},{"server_id":38,"name":"Uncletopia | Chicago | 7 | No Payload","name_short":"chi-7","host":"chi-2.us.uncletopia.com","port":27035,"enabled":true,"region":"us-central","cc":"us","latitude":41.881832,"longitude":-87.62318,"reserved":0,"last_update":"0001-01-01T00:00:00Z","name_a2s":"Uncletopia | Chicago | 7 | No Payload","protocol":17,"map":"pl_snowycoast","folder":"tf","game":"Team Fortress","app_id":440,"player_count":0,"max_players":24,"Bots":0,"server_type":"Dedicated","server_os":"Linux","password":true,"vac":true,"version":"7704440","steam_id":85568392924866364,"keywords":["nocrits","nodmgspread","payload","uncletopia"],"game_id":440,"stv_port":0,"stv_name":"","players":null},{"server_id":39,"name":"Uncletopia | Chicago | 8 | Community","name_short":"chi-8","host":"chi-2.us.uncletopia.com","port":27045,"enabled":true,"region":"us-central","cc":"us","latitude":41.881832,"longitude":-87.62318,"reserved":0,"last_update":"0001-01-01T00:00:00Z","name_a2s":"Uncletopia | Chicago | 8 | Community","protocol":17,"map":"pl_upward","folder":"tf","game":"Team Fortress","app_id":440,"player_count":0,"max_players":24,"Bots":0,"server_type":"Dedicated","server_os":"Linux","password":true,"vac":true,"version":"7704440","steam_id":85568392924866365,"keywords":["nocrits","nodmgspread","payload","uncletopia"],"game_id":440,"stv_port":0,"stv_name":"","players":null},{"server_id":8,"name":"Uncletopia | Dallas | 1 | All Maps","name_short":"dal-1","host":"dal-1.us.uncletopia.com","port":27015,"enabled":true,"region":"us-central","cc":"us","latitude":32.779167,"longitude":-96.80889,"reserved":0,"last_update":"0001-01-01T00:00:00Z","name_a2s":"Uncletopia | Dallas | 1 | All Maps","protocol":17,"map":"pl_barnblitz","folder":"tf","game":"Team Fortress","app_id":440,"player_count":0,"max_players":24,"Bots":0,"server_type":"Dedicated","server_os":"Linux","password":true,"vac":true,"version":"7704440","steam_id":85568392924469986,"keywords":["nocrits","nodmgspread","payload","uncletopia"],"game_id":440,"stv_port":27016,"stv_name":"Uncletopia | Dallas | 1 | All Maps | STV","players":null},{"server_id":108,"name":"Uncletopia | Dallas | 2 | All Maps","name_short":"dal-2","host":"dal-1.us.uncletopia.com","port":27025,"enabled":true,"region":"us-central","cc":"us","latitude":32.779167,"longitude":-96.80889,"reserved":0,"last_update":"0001-01-01T00:00:00Z","name_a2s":"Uncletopia | Dallas | 2 | All Maps","protocol":17,"map":"cp_mountainlab","folder":"tf","game":"Team Fortress","app_id":440,"player_count":0,"max_players":24,"Bots":0,"server_type":"Dedicated","server_os":"Linux","password":true,"vac":true,"version":"7704440","steam_id":85568392924469988,"keywords":["cp","nocrits","nodmgspread","uncletopia"],"game_id":440,"stv_port":27026,"stv_name":"Uncletopia | Dallas | 2 | All Maps | STV","players":null},{"server_id":5,"name":"Uncletopia | Frankfurt | 1 | All Maps","name_short":"frk-1","host":"frk-1.de.uncletopia.com","port":27015,"enabled":true,"region":"eu","cc":"de","latitude":50.110924,"longitude":8.682127,"reserved":0,"last_update":"0001-01-01T00:00:00Z","name_a2s":"Uncletopia | Frankfurt | 1 | All Maps","protocol":17,"map":"pl_pier","folder":"tf","game":"Team Fortress","app_id":440,"player_count":22,"max_players":24,"Bots":0,"server_type":"Dedicated","server_os":"Linux","password":true,"vac":true,"version":"7704440","steam_id":85568392924469989,"keywords":["nocrits","nodmgspread","payload","uncletopia"],"game_id":440,"stv_port":27016,"stv_name":"Uncletopia | Frankfurt | 1 | All Maps | STV","players":[{"user_id":537,"name":"Caliban","steam_id":76561197999696839,"connected_time":4521000000000,"state":"active","ping":99},{"user_id":672,"name":"Reform","steam_id":76561198410662428,"connected_time":9000000000,"state":"spawning","ping":86},{"user_id":668,"name":"Pestdoktor","steam_id":76561198058159271,"connected_time":521000000000,"state":"active","ping":56},{"user_id":583,"name":"blz","steam_id":76561198180979137,"connected_time":2596000000000,"state":"active","ping":74},{"user_id":533,"name":"pandeux","steam_id":76561198343527617,"connected_time":4879000000000,"state":"active","ping":37},{"user_id":553,"name":"Serton♝","steam_id":76561198011061126,"connected_time":3979000000000,"state":"active","ping":84},{"user_id":653,"name":"Oceanic | tuesday maybe","steam_id":76561197979741827,"connected_time":1345000000000,"state":"active","ping":55},{"user_id":662,"name":"MAKENTAKEN","steam_id":76561199127359587,"connected_time":1119000000000,"state":"active","ping":85},{"user_id":585,"name":"Rudebwoyyy","steam_id":76561199387956486,"connected_time":2568000000000,"state":"active","ping":56},{"user_id":559,"name":"Transgender E-girl","steam_id":76561198168589809,"connected_time":3598000000000,"state":"active","ping":64},{"user_id":649,"name":"Sad Slut","steam_id":76561198838277022,"connected_time":1373000000000,"state":"active","ping":74},{"user_id":669,"name":"Not Steven","steam_id":76561198051881261,"connected_time":473000000000,"state":"active","ping":78},{"user_id":670,"name":"Giggen","steam_id":76561198070986689,"connected_time":398000000000,"state":"active","ping":44},{"user_id":568,"name":"Bones","steam_id":76561198065081225,"connected_time":3167000000000,"state":"active","ping":83},{"user_id":569,"name":"COFFEE","steam_id":76561198869355986,"connected_time":3152000000000,"state":"active","ping":57},{"user_id":600,"name":"miko csgofast.com","steam_id":76561198167085293,"connected_time":2374000000000,"state":"active","ping":77},{"user_id":665,"name":"witxes","steam_id":76561199442579490,"connected_time":1022000000000,"state":"active","ping":52},{"user_id":586,"name":"deVychu","steam_id":76561198078032019,"connected_time":2561000000000,"state":"active","ping":74},{"user_id":572,"name":"outlaw","steam_id":76561198323805289,"connected_time":3090000000000,"state":"active","ping":45},{"user_id":634,"name":"fake jordans","steam_id":76561199250808808,"connected_time":1742000000000,"state":"active","ping":76},{"user_id":530,"name":"LarsInABox","steam_id":76561198028329262,"connected_time":5339000000000,"state":"active","ping":71},{"user_id":667,"name":"relax, sugar tits","steam_id":76561197988085026,"connected_time":730000000000,"state":"active","ping":68}]},{"server_id":110,"name":"Uncletopia | Frankfurt | 2 | All Maps","name_short":"frk-2","host":"frk-1.de.uncletopia.com","port":27025,"enabled":true,"region":"eu","cc":"de","latitude":50.110924,"longitude":8.682127,"reserved":0,"last_update":"0001-01-01T00:00:00Z","name_a2s":"Uncletopia | Frankfurt | 2 | All Maps","protocol":17,"map":"pl_barnblitz","folder":"tf","game":"Team Fortress","app_id":440,"player_count":24,"max_players":24,"Bots":0,"server_type":"Dedicated","server_os":"Linux","password":true,"vac":true,"version":"7704440","steam_id":85568392924469990,"keywords":["nocrits","nodmgspread","payload","uncletopia"],"game_id":440,"stv_port":27026,"stv_name":"Uncletopia | Frankfurt | 2 | All Maps | STV","players":[{"user_id":219,"name":"magnolia","steam_id":76561199228865188,"connected_time":3319000000000,"state":"active","ping":174},{"user_id":235,"name":"Efeca","steam_id":76561198018923829,"connected_time":2670000000000,"state":"active","ping":62},{"user_id":280,"name":"WolfmanCZ","steam_id":76561199157141414,"connected_time":6000000000,"state":"spawning","ping":80},{"user_id":268,"name":"DB841","steam_id":76561198328063504,"connected_time":754000000000,"state":"active","ping":57},{"user_id":253,"name":"miau","steam_id":76561198053919062,"connected_time":1506000000000,"state":"active","ping":74},{"user_id":256,"name":"generic alias","steam_id":76561198271607226,"connected_time":1295000000000,"state":"active","ping":99},{"user_id":267,"name":"DeepBlue","steam_id":76561198140075795,"connected_time":812000000000,"state":"active","ping":55},{"user_id":209,"name":"wickEd_","steam_id":76561198048068999,"connected_time":3821000000000,"state":"active","ping":151},{"user_id":251,"name":"I wish I was polish","steam_id":76561199433578516,"connected_time":1629000000000,"state":"active","ping":84},{"user_id":270,"name":"notJack","steam_id":76561198191190839,"connected_time":741000000000,"state":"active","ping":73},{"user_id":271,"name":"Gordon Birdman","steam_id":76561198013382324,"connected_time":735000000000,"state":"active","ping":77},{"user_id":278,"name":"Enforcer02","steam_id":76561197966045944,"connected_time":441000000000,"state":"active","ping":59},{"user_id":279,"name":"LOBZIK","steam_id":76561198114830120,"connected_time":107000000000,"state":"active","ping":78},{"user_id":220,"name":"Sireena","steam_id":76561198262042305,"connected_time":3308000000000,"state":"active","ping":75},{"user_id":233,"name":"XPullaHiiri","steam_id":76561198031652375,"connected_time":2870000000000,"state":"active","ping":85},{"user_id":269,"name":"Scrubs","steam_id":76561198444671592,"connected_time":748000000000,"state":"active","ping":235},{"user_id":252,"name":"Deacon Dracul","steam_id":76561198046880663,"connected_time":1625000000000,"state":"active","ping":123},{"user_id":177,"name":"Greed","steam_id":76561198034264020,"connected_time":6767000000000,"state":"active","ping":121},{"user_id":215,"name":"3xample","steam_id":76561198805049375,"connected_time":3378000000000,"state":"active","ping":66},{"user_id":275,"name":"some edgy nickname","steam_id":76561198040241299,"connected_time":633000000000,"state":"active","ping":62},{"user_id":241,"name":"Alin","steam_id":76561198059679991,"connected_time":2107000000000,"state":"active","ping":92},{"user_id":273,"name":"mijn jeus neukt","steam_id":76561198210482280,"connected_time":717000000000,"state":"active","ping":61},{"user_id":247,"name":"Vitamin Weee","steam_id":76561199183937747,"connected_time":1735000000000,"state":"active","ping":68},{"user_id":265,"name":"born to shit forced to wipe","steam_id":76561198053116096,"connected_time":1015000000000,"state":"active","ping":80}]},{"server_id":308,"name":"Uncletopia | Frankfurt | 3 | All Maps","name_short":"frk-3","host":"frk-1.de.uncletopia.com","port":27035,"enabled":true,"region":"eu","cc":"de","latitude":50.110924,"longitude":8.682127,"reserved":0,"last_update":"0001-01-01T00:00:00Z","name_a2s":"Uncletopia | Frankfurt | 3 | All Maps","protocol":17,"map":"cp_sunshine","folder":"tf","game":"Team Fortress","app_id":440,"player_count":24,"max_players":24,"Bots":0,"server_type":"Dedicated","server_os":"Linux","password":true,"vac":true,"version":"7704440","steam_id":85568392924504274,"keywords":["cp","nocrits","nodmgspread","uncletopia"],"game_id":440,"stv_port":27036,"stv_name":"Uncletopia | Frankfurt | 3 | All Maps | STV","players":[{"user_id":99,"name":"JP ₪ F4.exe","steam_id":76561197997909480,"connected_time":501000000000,"state":"active","ping":75},{"user_id":101,"name":"Avoonix","steam_id":76561198186954897,"connected_time":460000000000,"state":"active","ping":65},{"user_id":102,"name":"Zazou","steam_id":76561198028076362,"connected_time":431000000000,"state":"active","ping":55},{"user_id":104,"name":"Salty Choclat","steam_id":76561198110441236,"connected_time":304000000000,"state":"active","ping":82},{"user_id":116,"name":"Ducc","steam_id":76561198030677425,"connected_time":17000000000,"state":"active","ping":55},{"user_id":48,"name":"DeCypher","steam_id":76561198171992619,"connected_time":3159000000000,"state":"active","ping":60},{"user_id":103,"name":"glyph","steam_id":76561197980736364,"connected_time":344000000000,"state":"active","ping":77},{"user_id":85,"name":"Zapper","steam_id":76561198080407120,"connected_time":1454000000000,"state":"active","ping":52},{"user_id":105,"name":"monstrioz","steam_id":76561199004673069,"connected_time":300000000000,"state":"active","ping":81},{"user_id":106,"name":"Vischan but worse","steam_id":76561199371650805,"connected_time":290000000000,"state":"active","ping":75},{"user_id":117,"name":"V★ren","steam_id":76561198063138371,"connected_time":4000000000,"state":"spawning","ping":72},{"user_id":50,"name":"forthingthe","steam_id":76561199370089653,"connected_time":3128000000000,"state":"active","ping":125},{"user_id":108,"name":"electro","steam_id":76561198015523943,"connected_time":226000000000,"state":"active","ping":49},{"user_id":109,"name":"F4.exe","steam_id":76561198278822807,"connected_time":194000000000,"state":"active","ping":58},{"user_id":53,"name":"Insanity Arc","steam_id":76561198314627088,"connected_time":2960000000000,"state":"active","ping":78},{"user_id":110,"name":"winner braguette","steam_id":76561198084056439,"connected_time":181000000000,"state":"active","ping":59},{"user_id":82,"name":"CRWND","steam_id":76561198329810027,"connected_time":1550000000000,"state":"active","ping":53},{"user_id":111,"name":"ČokoLoko","steam_id":76561198353680235,"connected_time":179000000000,"state":"active","ping":61},{"user_id":96,"name":"donk","steam_id":76561198742407927,"connected_time":529000000000,"state":"active","ping":75},{"user_id":112,"name":"Food, we need food!","steam_id":76561198208328357,"connected_time":139000000000,"state":"active","ping":84},{"user_id":113,"name":"maximf","steam_id":76561198291717647,"connected_time":133000000000,"state":"active","ping":110},{"user_id":115,"name":"Tywhip","steam_id":76561199207545191,"connected_time":40000000000,"state":"active","ping":57},{"user_id":83,"name":"Qatuk","steam_id":76561198857696199,"connected_time":1538000000000,"state":"active","ping":66},{"user_id":114,"name":"Lyell","steam_id":76561198350329389,"connected_time":117000000000,"state":"active","ping":85}]},{"server_id":309,"name":"Uncletopia | Frankfurt | 4 | All Maps","name_short":"frk-4","host":"frk-1.de.uncletopia.com","port":27045,"enabled":true,"region":"eu","cc":"de","latitude":50.110924,"longitude":8.682127,"reserved":0,"last_update":"0001-01-01T00:00:00Z","name_a2s":"Uncletopia | Frankfurt | 4 | All Maps","protocol":17,"map":"pl_swiftwater_final1","folder":"tf","game":"Team Fortress","app_id":440,"player_count":24,"max_players":24,"Bots":0,"server_type":"Dedicated","server_os":"Linux","password":true,"vac":true,"version":"7704440","steam_id":85568392924504275,"keywords":["nocrits","nodmgspread","payload","uncletopia"],"game_id":440,"stv_port":27046,"stv_name":"Uncletopia | Frankfurt | 4 | All Maps | STV","players":[{"user_id":364,"name":"kokomilka222","steam_id":76561199356664707,"connected_time":1052000000000,"state":"active","ping":57},{"user_id":373,"name":"MaticJ","steam_id":76561198286727852,"connected_time":707000000000,"state":"active","ping":48},{"user_id":355,"name":"Lord of the Lockerroom","steam_id":76561198080619697,"connected_time":1613000000000,"state":"active","ping":87},{"user_id":350,"name":"Tides","steam_id":76561198257383813,"connected_time":1867000000000,"state":"active","ping":45},{"user_id":282,"name":"sHIFTINGvORTEX","steam_id":76561198231648332,"connected_time":5371000000000,"state":"active","ping":71},{"user_id":381,"name":"RazOverdrive","steam_id":76561198000794210,"connected_time":420000000000,"state":"active","ping":49},{"user_id":374,"name":"Audiofall","steam_id":76561198208814216,"connected_time":695000000000,"state":"active","ping":66},{"user_id":365,"name":"Mor'du","steam_id":76561198274105878,"connected_time":1017000000000,"state":"active","ping":74},{"user_id":331,"name":"MrDimka","steam_id":76561199214148332,"connected_time":2648000000000,"state":"active","ping":79},{"user_id":382,"name":"mAYONEZ INTERNATIONAL","steam_id":76561197999887000,"connected_time":363000000000,"state":"active","ping":76},{"user_id":379,"name":"Antimation","steam_id":76561198125649544,"connected_time":643000000000,"state":"active","ping":69},{"user_id":368,"name":"johncenx","steam_id":76561198366703672,"connected_time":858000000000,"state":"active","ping":67},{"user_id":369,"name":"joelttyjoel","steam_id":76561198035036816,"connected_time":840000000000,"state":"active","ping":74},{"user_id":380,"name":"G6 sherlock","steam_id":76561198802967796,"connected_time":536000000000,"state":"active","ping":120},{"user_id":341,"name":"ruby (ribbit)","steam_id":76561198040870467,"connected_time":2326000000000,"state":"active","ping":60},{"user_id":371,"name":"a","steam_id":76561199387194409,"connected_time":788000000000,"state":"active","ping":90},{"user_id":285,"name":"Carry Krypl","steam_id":76561198136938121,"connected_time":5166000000000,"state":"active","ping":52},{"user_id":372,"name":"Ivan","steam_id":76561198874503008,"connected_time":771000000000,"state":"active","ping":91},{"user_id":358,"name":"Sweat Plantation","steam_id":76561198025086883,"connected_time":1403000000000,"state":"active","ping":86},{"user_id":375,"name":"tacker11","steam_id":76561198886244287,"connected_time":686000000000,"state":"active","ping":73},{"user_id":376,"name":"Michael","steam_id":76561198003146906,"connected_time":680000000000,"state":"active","ping":67},{"user_id":377,"name":"oh hi mark","steam_id":76561197971981807,"connected_time":674000000000,"state":"active","ping":87},{"user_id":378,"name":"Andebil","steam_id":76561198131829815,"connected_time":672000000000,"state":"active","ping":63},{"user_id":281,"name":"Icarus300","steam_id":76561198015125766,"connected_time":5445000000000,"state":"active","ping":90}]},{"server_id":310,"name":"Uncletopia | Frankfurt | 5 | All Maps","name_short":"frk-5","host":"frk-1.de.uncletopia.com","port":27055,"enabled":true,"region":"eu","cc":"de","latitude":50.110924,"longitude":8.682127,"reserved":0,"last_update":"0001-01-01T00:00:00Z","name_a2s":"Uncletopia | Frankfurt | 5 | All Maps","protocol":17,"map":"pl_swiftwater_final1","folder":"tf","game":"Team Fortress","app_id":440,"player_count":24,"max_players":24,"Bots":0,"server_type":"Dedicated","server_os":"Linux","password":true,"vac":true,"version":"7704440","steam_id":85568392924504277,"keywords":["nocrits","nodmgspread","payload","uncletopia"],"game_id":440,"stv_port":27056,"stv_name":"Uncletopia | Frankfurt | 5 | All Maps | STV","players":[{"user_id":130,"name":"D!E","steam_id":76561198012118005,"connected_time":1283000000000,"state":"active","ping":57},{"user_id":99,"name":"[P-roc] Cmm Bert","steam_id":76561198016658674,"connected_time":2924000000000,"state":"active","ping":66},{"user_id":68,"name":"dongus","steam_id":76561198042774930,"connected_time":6141000000000,"state":"active","ping":77},{"user_id":145,"name":"gion","steam_id":76561199065121816,"connected_time":695000000000,"state":"active","ping":95},{"user_id":131,"name":"padillacampos","steam_id":76561198161923970,"connected_time":1260000000000,"state":"active","ping":78},{"user_id":132,"name":"the smissmass cretin","steam_id":76561198334042273,"connected_time":1259000000000,"state":"active","ping":99},{"user_id":108,"name":"zinzyk","steam_id":76561198128011822,"connected_time":2772000000000,"state":"active","ping":59},{"user_id":91,"name":"Boobs rater","steam_id":76561198066977580,"connected_time":3569000000000,"state":"active","ping":91},{"user_id":109,"name":"[P-roc] Lovely","steam_id":76561198074361075,"connected_time":2755000000000,"state":"active","ping":71},{"user_id":153,"name":"Midoriaga","steam_id":76561198010699090,"connected_time":309000000000,"state":"active","ping":47},{"user_id":115,"name":"Birne","steam_id":76561198001335120,"connected_time":2506000000000,"state":"active","ping":59},{"user_id":149,"name":"Carrot","steam_id":76561198119340863,"connected_time":478000000000,"state":"active","ping":57},{"user_id":138,"name":"literally argon II","steam_id":76561198048741472,"connected_time":1131000000000,"state":"active","ping":54},{"user_id":135,"name":"Supercle26","steam_id":76561199027147631,"connected_time":1211000000000,"state":"active","ping":52},{"user_id":94,"name":"Chocofrolik","steam_id":76561198454779847,"connected_time":3401000000000,"state":"active","ping":77},{"user_id":151,"name":"snsmac","steam_id":76561198082821185,"connected_time":461000000000,"state":"active","ping":48},{"user_id":148,"name":"hubbles","steam_id":76561197961142646,"connected_time":507000000000,"state":"active","ping":50},{"user_id":139,"name":"Fox","steam_id":76561198079364100,"connected_time":1131000000000,"state":"active","ping":64},{"user_id":155,"name":"Naginacz","steam_id":76561199099232534,"connected_time":144000000000,"state":"active","ping":68},{"user_id":103,"name":"jaime8D","steam_id":76561197980590671,"connected_time":2917000000000,"state":"active","ping":90},{"user_id":143,"name":"orel2006","steam_id":76561198874872035,"connected_time":960000000000,"state":"active","ping":57},{"user_id":127,"name":"VIN WEASEL","steam_id":76561198014387066,"connected_time":1543000000000,"state":"active","ping":52},{"user_id":85,"name":"SIGMA BALLS","steam_id":76561198302623594,"connected_time":4614000000000,"state":"active","ping":96},{"user_id":147,"name":"Kanny","steam_id":76561198058810184,"connected_time":576000000000,"state":"active","ping":62}]},{"server_id":311,"name":"Uncletopia | Frankfurt | 6 | All Maps","name_short":"frk-6","host":"frk-1.de.uncletopia.com","port":27065,"enabled":true,"region":"eu","cc":"de","latitude":50.110924,"longitude":8.682127,"reserved":0,"last_update":"0001-01-01T00:00:00Z","name_a2s":"Uncletopia | Frankfurt | 6 | All Maps","protocol":17,"map":"koth_lakeside_final","folder":"tf","game":"Team Fortress","app_id":440,"player_count":0,"max_players":24,"Bots":0,"server_type":"Dedicated","server_os":"Linux","password":true,"vac":true,"version":"7704440","steam_id":85568392924504278,"keywords":["cp","nocrits","nodmgspread","uncletopia"],"game_id":440,"stv_port":0,"stv_name":"","players":null},{"server_id":23,"name":"Uncletopia | Frankfurt | 7 | No Payload","name_short":"frk-7","host":"frk-1.de.uncletopia.com","port":27075,"enabled":true,"region":"eu","cc":"de","latitude":50.110924,"longitude":8.682127,"reserved":0,"last_update":"0001-01-01T00:00:00Z","name_a2s":"Uncletopia | Frankfurt | 7 | No Payload","protocol":17,"map":"cp_sunshine","folder":"tf","game":"Team Fortress","app_id":440,"player_count":1,"max_players":24,"Bots":0,"server_type":"Dedicated","server_os":"Linux","password":true,"vac":true,"version":"7704440","steam_id":85568392924742827,"keywords":["cp","nocrits","nodmgspread","uncletopia"],"game_id":440,"stv_port":27076,"stv_name":"Uncletopia | Frankfurt | 7 | No Payload | STV","players":[{"user_id":173,"name":"small tony","steam_id":76561199141010349,"connected_time":1396000000000,"state":"active","ping":80}]},{"server_id":24,"name":"Uncletopia | Frankfurt | 8 | Community","name_short":"frk-8","host":"frk-1.de.uncletopia.com","port":27085,"enabled":true,"region":"eu","cc":"de","latitude":50.110924,"longitude":8.682127,"reserved":0,"last_update":"0001-01-01T00:00:00Z","name_a2s":"Uncletopia | Frankfurt | 8 | Community","protocol":17,"map":"workshop/koth_synthetic_rc6a.ugc1549817316","folder":"tf","game":"Team Fortress","app_id":440,"player_count":0,"max_players":24,"Bots":0,"server_type":"Dedicated","server_os":"Linux","password":true,"vac":true,"version":"7704440","steam_id":85568392924742828,"keywords":["cp","nocrits","nodmgspread","uncletopia"],"game_id":440,"stv_port":27086,"stv_name":"Uncletopia | Frankfurt | 8 | Community | STV","players":null},{"server_id":202,"name":"Uncletopia | Hong Kong | 1 | All Maps","name_short":"hgk-1","host":"hgk-1.hk.uncletopia.com","port":27015,"enabled":true,"region":"asia","cc":"hk","latitude":22.302711,"longitude":114.177216,"reserved":0,"last_update":"0001-01-01T00:00:00Z","name_a2s":"Uncletopia | Hong Kong | 1 | All Maps","protocol":17,"map":"koth_lakeside_final","folder":"tf","game":"Team Fortress","app_id":440,"player_count":0,"max_players":24,"Bots":0,"server_type":"Dedicated","server_os":"Linux","password":true,"vac":true,"version":"7704440","steam_id":85568392924494504,"keywords":["cp","nocrits","nodmgspread","uncletopia"],"game_id":440,"stv_port":27016,"stv_name":"Uncletopia | Hong Kong | 1 | All Maps | STV","players":null},{"server_id":1,"name":"Uncletopia | Los Angeles | 1 | All Maps","name_short":"lax-1","host":"lax-1.us.uncletopia.com","port":27015,"enabled":true,"region":"us-west","cc":"us","latitude":33.94279,"longitude":-118.41004,"reserved":0,"last_update":"0001-01-01T00:00:00Z","name_a2s":"Uncletopia | Los Angeles | 1 | All Maps","protocol":17,"map":"pl_barnblitz","folder":"tf","game":"Team Fortress","app_id":440,"player_count":0,"max_players":24,"Bots":0,"server_type":"Dedicated","server_os":"Linux","password":true,"vac":true,"version":"7704440","steam_id":85568392924469991,"keywords":["nocrits","nodmgspread","payload","uncletopia"],"game_id":440,"stv_port":0,"stv_name":"","players":null},{"server_id":112,"name":"Uncletopia | Los Angeles | 2 | All Maps","name_short":"lax-2","host":"lax-1.us.uncletopia.com","port":27025,"enabled":true,"region":"us-west","cc":"us","latitude":33.94279,"longitude":-118.41004,"reserved":0,"last_update":"0001-01-01T00:00:00Z","name_a2s":"Uncletopia | Los Angeles | 2 | All Maps","protocol":17,"map":"pl_pier","folder":"tf","game":"Team Fortress","app_id":440,"player_count":0,"max_players":24,"Bots":0,"server_type":"Dedicated","server_os":"Linux","password":true,"vac":true,"version":"7704440","steam_id":85568392924469992,"keywords":["nocrits","nodmgspread","payload","uncletopia"],"game_id":440,"stv_port":0,"stv_name":"","players":null},{"server_id":324,"name":"Uncletopia | Los Angeles | 3 | All Maps","name_short":"lax-3","host":"lax-1.us.uncletopia.com","port":27035,"enabled":true,"region":"us-west","cc":"us","latitude":33.94279,"longitude":-118.41004,"reserved":0,"last_update":"0001-01-01T00:00:00Z","name_a2s":"Uncletopia | Los Angeles | 3 | All Maps","protocol":17,"map":"cp_dustbowl","folder":"tf","game":"Team Fortress","app_id":440,"player_count":0,"max_players":24,"Bots":0,"server_type":"Dedicated","server_os":"Linux","password":true,"vac":true,"version":"7704440","steam_id":85568392924510198,"keywords":["cp","nocrits","nodmgspread","uncletopia"],"game_id":440,"stv_port":0,"stv_name":"","players":null},{"server_id":25,"name":"Uncletopia | Los Angeles | 4 | No Payload","name_short":"lax-4","host":"lax-1.us.uncletopia.com","port":27045,"enabled":true,"region":"us-west","cc":"us","latitude":33.94279,"longitude":-118.41004,"reserved":0,"last_update":"0001-01-01T00:00:00Z","name_a2s":"Uncletopia | Los Angeles | 4 | No Payload","protocol":17,"map":"ctf_doublecross","folder":"tf","game":"Team Fortress","app_id":440,"player_count":0,"max_players":24,"Bots":0,"server_type":"Dedicated","server_os":"Linux","password":true,"vac":true,"version":"7704440","steam_id":85568392924510199,"keywords":["ctf","nocrits","nodmgspread","uncletopia"],"game_id":440,"stv_port":27046,"stv_name":"Uncletopia | Los Angeles | 4 | No Payload | STV","players":null},{"server_id":11,"name":"Uncletopia | London | 1 | All Maps","name_short":"lon-1","host":"lon-1.uk.uncletopia.com","port":27015,"enabled":true,"region":"eu","cc":"gb","latitude":51.509865,"longitude":-0.118092,"reserved":0,"last_update":"0001-01-01T00:00:00Z","name_a2s":"Uncletopia | London | 1 | All Maps","protocol":17,"map":"pl_rumford_event","folder":"tf","game":"Team Fortress","app_id":440,"player_count":24,"max_players":24,"Bots":0,"server_type":"Dedicated","server_os":"Linux","password":true,"vac":true,"version":"7704440","steam_id":85568392924367362,"keywords":["nocrits","nodmgspread","payload","uncletopia"],"game_id":440,"stv_port":27016,"stv_name":"Uncletopia | London | 1 | All Maps | STV","players":[{"user_id":390,"name":"Crimea a bridge","steam_id":76561198030898371,"connected_time":1872000000000,"state":"active","ping":83},{"user_id":409,"name":"Aaron","steam_id":76561197990046953,"connected_time":977000000000,"state":"active","ping":62},{"user_id":347,"name":"Revenge Ridden Scootz","steam_id":76561198018491455,"connected_time":5751000000000,"state":"active","ping":50},{"user_id":410,"name":"Kaizah Kuma","steam_id":76561198822640882,"connected_time":950000000000,"state":"active","ping":43},{"user_id":381,"name":"When Life gives you Lemons","steam_id":76561198318290663,"connected_time":2167000000000,"state":"active","ping":57},{"user_id":406,"name":"КТ306б (Монти)","steam_id":76561198829371575,"connected_time":1260000000000,"state":"active","ping":84},{"user_id":335,"name":"festive jones","steam_id":76561198073975078,"connected_time":7087000000000,"state":"active","ping":43},{"user_id":401,"name":"chrissymas","steam_id":76561198096547662,"connected_time":1737000000000,"state":"active","ping":51},{"user_id":392,"name":"lurjus","steam_id":76561198042894236,"connected_time":1832000000000,"state":"active","ping":100},{"user_id":385,"name":"Kahvi","steam_id":76561198723244199,"connected_time":2117000000000,"state":"active","ping":77},{"user_id":386,"name":"Kapitan Polska","steam_id":76561197968069413,"connected_time":2099000000000,"state":"active","ping":80},{"user_id":404,"name":"Alexandre","steam_id":76561198121784446,"connected_time":1306000000000,"state":"active","ping":41},{"user_id":413,"name":"Johnny Amoeba Of Christmas Past","steam_id":76561198079530054,"connected_time":83000000000,"state":"active","ping":53},{"user_id":375,"name":"Festivized Pitpit","steam_id":76561198005342133,"connected_time":2477000000000,"state":"active","ping":43},{"user_id":405,"name":"cat (they/them)","steam_id":76561198416657815,"connected_time":1279000000000,"state":"active","ping":80},{"user_id":377,"name":"「◆Raku• 」","steam_id":76561198059283183,"connected_time":2380000000000,"state":"active","ping":88},{"user_id":407,"name":"Oysterhead","steam_id":76561198034055215,"connected_time":987000000000,"state":"active","ping":45},{"user_id":411,"name":"Joseph Stalin LFT","steam_id":76561198033199746,"connected_time":106000000000,"state":"active","ping":50},{"user_id":342,"name":"ahh, eto... nya. :3","steam_id":76561198878171763,"connected_time":6350000000000,"state":"active","ping":51},{"user_id":395,"name":"jingleboob","steam_id":76561198097507847,"connected_time":1795000000000,"state":"active","ping":81},{"user_id":396,"name":"twitch.tv/biofun_","steam_id":76561198170609049,"connected_time":1788000000000,"state":"active","ping":60},{"user_id":400,"name":"Simping for Pizza-san","steam_id":76561198067204908,"connected_time":1740000000000,"state":"active","ping":60},{"user_id":412,"name":"syndenz","steam_id":76561198176063813,"connected_time":105000000000,"state":"active","ping":139},{"user_id":403,"name":"lephanukkah","steam_id":76561198797345502,"connected_time":1571000000000,"state":"active","ping":43}]},{"server_id":114,"name":"Uncletopia | London | 2 | All Maps","name_short":"lon-2","host":"lon-1.uk.uncletopia.com","port":27025,"enabled":true,"region":"eu","cc":"gb","latitude":51.509865,"longitude":-0.118092,"reserved":0,"last_update":"0001-01-01T00:00:00Z","name_a2s":"Uncletopia | London | 2 | All Maps","protocol":17,"map":"pl_rumford_event","folder":"tf","game":"Team Fortress","app_id":440,"player_count":24,"max_players":24,"Bots":0,"server_type":"Dedicated","server_os":"Linux","password":true,"vac":true,"version":"7704440","steam_id":85568392924470941,"keywords":["nocrits","nodmgspread","payload","uncletopia"],"game_id":440,"stv_port":27026,"stv_name":"Uncletopia | London | 2 | All Maps | STV","players":[{"user_id":247,"name":"Revettah","steam_id":76561198040442214,"connected_time":443000000000,"state":"active","ping":41},{"user_id":225,"name":"Scientific Idiocy","steam_id":76561198951206047,"connected_time":1583000000000,"state":"active","ping":103},{"user_id":155,"name":"Kylul_","steam_id":76561198042981061,"connected_time":6079000000000,"state":"active","ping":31},{"user_id":231,"name":"(can't chat)mafutbolero","steam_id":76561199233664005,"connected_time":1229000000000,"state":"active","ping":71},{"user_id":250,"name":"Chang supremacy","steam_id":76561198179324075,"connected_time":125000000000,"state":"active","ping":61},{"user_id":200,"name":"Gnarville","steam_id":76561198006373329,"connected_time":3111000000000,"state":"active","ping":48},{"user_id":233,"name":"i am bread","steam_id":76561199180277321,"connected_time":1198000000000,"state":"active","ping":44},{"user_id":215,"name":"tekszi","steam_id":76561198107220903,"connected_time":2777000000000,"state":"active","ping":61},{"user_id":242,"name":"ඞbominasus 2137  #SaveTF2","steam_id":76561198030062981,"connected_time":597000000000,"state":"active","ping":72},{"user_id":205,"name":"\"courtly proven\" masochist","steam_id":76561198977420882,"connected_time":3074000000000,"state":"active","ping":40},{"user_id":105,"name":"Classic gamer","steam_id":76561198125638711,"connected_time":9398000000000,"state":"active","ping":87},{"user_id":144,"name":"dochris.2","steam_id":76561198026478625,"connected_time":7157000000000,"state":"active","ping":51},{"user_id":243,"name":"fuzzy hair","steam_id":76561199137825989,"connected_time":590000000000,"state":"active","ping":60},{"user_id":249,"name":"Bananaman","steam_id":76561198042593027,"connected_time":253000000000,"state":"active","ping":92},{"user_id":235,"name":"Bottomest","steam_id":76561198091734693,"connected_time":1162000000000,"state":"active","ping":60},{"user_id":237,"name":"p1dgeon シ","steam_id":76561199109713313,"connected_time":1131000000000,"state":"active","ping":46},{"user_id":209,"name":"LadyMissfit","steam_id":76561198042236349,"connected_time":3021000000000,"state":"active","ping":74},{"user_id":185,"name":"heisenburger","steam_id":76561198284589853,"connected_time":4210000000000,"state":"active","ping":90},{"user_id":238,"name":"Gnome561","steam_id":76561198183771141,"connected_time":1125000000000,"state":"active","ping":67},{"user_id":221,"name":"Twink_enjoyer_6969","steam_id":76561198397024973,"connected_time":2143000000000,"state":"active","ping":32},{"user_id":244,"name":"MrKampfCookie","steam_id":76561198085490175,"connected_time":549000000000,"state":"active","ping":52},{"user_id":197,"name":"War Ren","steam_id":76561198301524251,"connected_time":3186000000000,"state":"active","ping":52},{"user_id":212,"name":"ball sniffa","steam_id":76561199022705805,"connected_time":2969000000000,"state":"active","ping":44},{"user_id":145,"name":"sareena","steam_id":76561198810194062,"connected_time":7122000000000,"state":"active","ping":71}]},{"server_id":320,"name":"Uncletopia | London | 3 | All Maps","name_short":"lon-3","host":"lon-1.uk.uncletopia.com","port":27035,"enabled":true,"region":"eu","cc":"gb","latitude":51.509865,"longitude":-0.118092,"reserved":0,"last_update":"0001-01-01T00:00:00Z","name_a2s":"Uncletopia | London | 3 | All Maps","protocol":17,"map":"ctf_turbine","folder":"tf","game":"Team Fortress","app_id":440,"player_count":21,"max_players":24,"Bots":0,"server_type":"Dedicated","server_os":"Linux","password":true,"vac":true,"version":"7704440","steam_id":85568392924510192,"keywords":["ctf","nocrits","nodmgspread","uncletopia"],"game_id":440,"stv_port":27036,"stv_name":"Uncletopia | London | 3 | All Maps | STV","players":[{"user_id":176,"name":"SaltyCupcakes","steam_id":76561198256386417,"connected_time":2312000000000,"state":"spawning","ping":163},{"user_id":212,"name":"crazycalumrock","steam_id":76561198049890080,"connected_time":28000000000,"state":"active","ping":42},{"user_id":161,"name":"ТЯЖЕЛЫЕ ИГРЫ","steam_id":76561198413545609,"connected_time":3378000000000,"state":"active","ping":51},{"user_id":91,"name":"hulluheppu1","steam_id":76561198093458326,"connected_time":6300000000000,"state":"active","ping":69},{"user_id":153,"name":"Bargon","steam_id":76561198964641940,"connected_time":3803000000000,"state":"active","ping":84},{"user_id":187,"name":"GentleRex","steam_id":76561198136589162,"connected_time":1639000000000,"state":"spawning","ping":63},{"user_id":189,"name":"Femboy Lilli","steam_id":76561198090146457,"connected_time":1510000000000,"state":"active","ping":72},{"user_id":179,"name":"Ar Di","steam_id":76561198119526557,"connected_time":2240000000000,"state":"spawning","ping":49},{"user_id":190,"name":"OutOfDucks","steam_id":76561198166376227,"connected_time":1488000000000,"state":"active","ping":60},{"user_id":213,"name":"|Bobby|","steam_id":76561198154208319,"connected_time":3000000000,"state":"spawning","ping":60},{"user_id":166,"name":"$100","steam_id":76561198851003008,"connected_time":2947000000000,"state":"active","ping":65},{"user_id":124,"name":"Zm4j","steam_id":76561198259465946,"connected_time":5099000000000,"state":"active","ping":124},{"user_id":191,"name":"TheFirstGlueBender","steam_id":76561199387319886,"connected_time":1484000000000,"state":"spawning","ping":32},{"user_id":150,"name":"100 IQ gaming","steam_id":76561198948719596,"connected_time":3990000000000,"state":"spawning","ping":148},{"user_id":182,"name":"Jafoul","steam_id":76561199383437138,"connected_time":2129000000000,"state":"active","ping":132},{"user_id":194,"name":"CouT1nho","steam_id":76561198203926376,"connected_time":1414000000000,"state":"active","ping":66},{"user_id":209,"name":"mordecai.nmc","steam_id":76561197997223851,"connected_time":435000000000,"state":"active","ping":48},{"user_id":204,"name":"JustNoSkill","steam_id":76561198399115995,"connected_time":963000000000,"state":"spawning","ping":166},{"user_id":183,"name":"coachnetworkoperared514","steam_id":76561198236015392,"connected_time":2025000000000,"state":"active","ping":125},{"user_id":205,"name":"moser23","steam_id":76561197960543171,"connected_time":952000000000,"state":"active","ping":52},{"user_id":196,"name":"maurice ultrakill","steam_id":76561198379362481,"connected_time":1377000000000,"state":"active","ping":78}]},{"server_id":321,"name":"Uncletopia | London | 4 | All Maps","name_short":"lon-4","host":"lon-1.uk.uncletopia.com","port":27045,"enabled":true,"region":"eu","cc":"gb","latitude":51.509865,"longitude":-0.118092,"reserved":0,"last_update":"0001-01-01T00:00:00Z","name_a2s":"Uncletopia | London | 4 | All Maps","protocol":17,"map":"koth_viaduct","folder":"tf","game":"Team Fortress","app_id":440,"player_count":0,"max_players":24,"Bots":0,"server_type":"Dedicated","server_os":"Linux","password":true,"vac":true,"version":"7704440","steam_id":85568392924510193,"keywords":["cp","nocrits","nodmgspread","uncletopia"],"game_id":440,"stv_port":0,"stv_name":"","players":null},{"server_id":21,"name":"Uncletopia | London | 5 | All Maps","name_short":"lon-5","host":"lon-1.uk.uncletopia.com","port":27055,"enabled":true,"region":"eu","cc":"gb","latitude":51.509865,"longitude":-0.118092,"reserved":0,"last_update":"0001-01-01T00:00:00Z","name_a2s":"Uncletopia | London | 5 | All Maps","protocol":17,"map":"cp_sunshine","folder":"tf","game":"Team Fortress","app_id":440,"player_count":23,"max_players":24,"Bots":0,"server_type":"Dedicated","server_os":"Linux","password":true,"vac":true,"version":"7704440","steam_id":85568392924742829,"keywords":["cp","nocrits","nodmgspread","uncletopia"],"game_id":440,"stv_port":27056,"stv_name":"Uncletopia | London | 5 | All Maps | STV","players":[{"user_id":467,"name":"Sniper, no sniping!","steam_id":76561198148074472,"connected_time":2056000000000,"state":"active","ping":48},{"user_id":495,"name":"Maul Man","steam_id":76561199036358853,"connected_time":326000000000,"state":"active","ping":44},{"user_id":497,"name":"mayonnaise","steam_id":76561198317960853,"connected_time":262000000000,"state":"active","ping":111},{"user_id":498,"name":"Max Andrew","steam_id":76561198158955194,"connected_time":261000000000,"state":"active","ping":52},{"user_id":502,"name":"Mass","steam_id":76561198432195204,"connected_time":145000000000,"state":"active","ping":57},{"user_id":455,"name":"demoknight tf2","steam_id":76561199012488416,"connected_time":2434000000000,"state":"active","ping":84},{"user_id":501,"name":"WhatsABun","steam_id":76561199077421272,"connected_time":199000000000,"state":"active","ping":53},{"user_id":480,"name":"fénix","steam_id":76561198083199151,"connected_time":1156000000000,"state":"active","ping":55},{"user_id":406,"name":"Team Dim Sun Grunt","steam_id":76561198393596975,"connected_time":5897000000000,"state":"active","ping":52},{"user_id":442,"name":"Threon","steam_id":76561198826783545,"connected_time":3008000000000,"state":"active","ping":89},{"user_id":496,"name":"haledust","steam_id":76561199259786987,"connected_time":304000000000,"state":"active","ping":167},{"user_id":443,"name":"esheen","steam_id":76561198139376665,"connected_time":3006000000000,"state":"active","ping":69},{"user_id":503,"name":"holykyckling","steam_id":76561198040661615,"connected_time":99000000000,"state":"active","ping":74},{"user_id":504,"name":"saml","steam_id":76561198040716257,"connected_time":87000000000,"state":"active","ping":76},{"user_id":505,"name":"Axord","steam_id":76561199289652176,"connected_time":68000000000,"state":"spawning","ping":46},{"user_id":492,"name":"krzysby","steam_id":76561198340229275,"connected_time":390000000000,"state":"active","ping":84},{"user_id":468,"name":"ok","steam_id":76561198147277460,"connected_time":2026000000000,"state":"active","ping":62},{"user_id":471,"name":"dafydd","steam_id":76561198052200325,"connected_time":1923000000000,"state":"active","ping":90},{"user_id":482,"name":"currently wearing space gucci","steam_id":76561198023211417,"connected_time":1108000000000,"state":"active","ping":46},{"user_id":483,"name":"professional kid gaslighter","steam_id":76561198941142018,"connected_time":1093000000000,"state":"active","ping":69},{"user_id":484,"name":"Joe","steam_id":76561198061717026,"connected_time":1029000000000,"state":"active","ping":45},{"user_id":475,"name":"Emerald","steam_id":76561199141384216,"connected_time":1491000000000,"state":"active","ping":39},{"user_id":485,"name":"sp00ky","steam_id":76561198279985917,"connected_time":995000000000,"state":"active","ping":34}]},{"server_id":22,"name":"Uncletopia | London | 6 | All Maps","name_short":"lon-6","host":"lon-1.uk.uncletopia.com","port":27065,"enabled":true,"region":"eu","cc":"gb","latitude":51.509865,"longitude":-0.118092,"reserved":0,"last_update":"0001-01-01T00:00:00Z","name_a2s":"Uncletopia | London | 6 | All Maps","protocol":17,"map":"pl_pier","folder":"tf","game":"Team Fortress","app_id":440,"player_count":9,"max_players":24,"Bots":0,"server_type":"Dedicated","server_os":"Linux","password":true,"vac":true,"version":"7704440","steam_id":85568392924742830,"keywords":["nocrits","nodmgspread","payload","uncletopia"],"game_id":440,"stv_port":27066,"stv_name":"Uncletopia | London | 6 | All Maps | STV","players":[{"user_id":14,"name":"NishDaBoss","steam_id":76561199110181370,"connected_time":798000000000,"state":"active","ping":70},{"user_id":15,"name":"Carl_SMH","steam_id":76561199026844027,"connected_time":786000000000,"state":"active","ping":30},{"user_id":16,"name":"epiemanCan","steam_id":76561199013159854,"connected_time":694000000000,"state":"active","ping":49},{"user_id":17,"name":"Femto","steam_id":76561198044307112,"connected_time":476000000000,"state":"active","ping":68},{"user_id":18,"name":"nafaszom","steam_id":76561198091175167,"connected_time":465000000000,"state":"active","ping":71},{"user_id":19,"name":"justin_ (f2p)","steam_id":76561198839843428,"connected_time":208000000000,"state":"active","ping":166},{"user_id":20,"name":"RocketBoy08","steam_id":76561198833978944,"connected_time":205000000000,"state":"active","ping":112},{"user_id":21,"name":"Dominus.","steam_id":76561199065917088,"connected_time":119000000000,"state":"active","ping":60},{"user_id":22,"name":"JEGamer","steam_id":76561198306309465,"connected_time":90000000000,"state":"active","ping":62}]},{"server_id":40,"name":"Uncletopia | London | 7 | No Payload","name_short":"lon-7","host":"lon-1.uk.uncletopia.com","port":27075,"enabled":true,"region":"eu","cc":"gb","latitude":51.509865,"longitude":-0.118092,"reserved":0,"last_update":"0001-01-01T00:00:00Z","name_a2s":"Uncletopia | London | 7 | No Payload","protocol":17,"map":"plr_bananabay","folder":"tf","game":"Team Fortress","app_id":440,"player_count":0,"max_players":24,"Bots":0,"server_type":"Dedicated","server_os":"Linux","password":true,"vac":true,"version":"7704440","steam_id":85568392924964314,"keywords":["nocrits","nodmgspread","payload","uncletopia"],"game_id":440,"stv_port":27076,"stv_name":"Uncletopia | London | 7 | No Payload | STV","players":null},{"server_id":41,"name":"Uncletopia | London | 8 | Community","name_short":"lon-8","host":"lon-1.uk.uncletopia.com","port":27085,"enabled":true,"region":"eu","cc":"gb","latitude":51.509865,"longitude":-0.118092,"reserved":0,"last_update":"0001-01-01T00:00:00Z","name_a2s":"Uncletopia | London | 8 | Community","protocol":17,"map":"workshop/cp_sulfur_rc2.ugc619869471","folder":"tf","game":"Team Fortress","app_id":440,"player_count":0,"max_players":24,"Bots":0,"server_type":"Dedicated","server_os":"Linux","password":true,"vac":true,"version":"7704440","steam_id":85568392924964315,"keywords":["cp","nocrits","nodmgspread","uncletopia"],"game_id":440,"stv_port":27086,"stv_name":"Uncletopia | London | 8 | Community | STV","players":null},{"server_id":300,"name":"Uncletopia | Montréal | 1 | All Maps","name_short":"mtl-1","host":"mtl-1.ca.uncletopia.com","port":27015,"enabled":true,"region":"us-east","cc":"ca","latitude":45.50889,"longitude":-73.56167,"reserved":0,"last_update":"0001-01-01T00:00:00Z","name_a2s":"Uncletopia | Montréal | 1 | All Maps","protocol":17,"map":"pl_snowycoast","folder":"tf","game":"Team Fortress","app_id":440,"player_count":0,"max_players":24,"Bots":0,"server_type":"Dedicated","server_os":"Linux","password":true,"vac":true,"version":"7704440","steam_id":85568392924500087,"keywords":["nocrits","nodmgspread","payload","uncletopia"],"game_id":440,"stv_port":0,"stv_name":"","players":null},{"server_id":301,"name":"Uncletopia | Montréal | 2 | All Maps","name_short":"mtl-2","host":"mtl-1.ca.uncletopia.com","port":27025,"enabled":true,"region":"us-east","cc":"ca","latitude":45.50889,"longitude":-73.56167,"reserved":0,"last_update":"0001-01-01T00:00:00Z","name_a2s":"Uncletopia | Montréal | 2 | All Maps","protocol":17,"map":"cp_snakewater_final1","folder":"tf","game":"Team Fortress","app_id":440,"player_count":0,"max_players":24,"Bots":0,"server_type":"Dedicated","server_os":"Linux","password":true,"vac":true,"version":"7704440","steam_id":85568392924500088,"keywords":["cp","nocrits","nodmgspread","uncletopia"],"game_id":440,"stv_port":0,"stv_name":"","players":null},{"server_id":302,"name":"Uncletopia | Montréal | 3 | All Maps","name_short":"mtl-3","host":"mtl-1.ca.uncletopia.com","port":27035,"enabled":true,"region":"us-east","cc":"ca","latitude":45.50889,"longitude":-73.56167,"reserved":0,"last_update":"0001-01-01T00:00:00Z","name_a2s":"Uncletopia | Montréal | 3 | All Maps","protocol":17,"map":"pl_pier","folder":"tf","game":"Team Fortress","app_id":440,"player_count":0,"max_players":24,"Bots":0,"server_type":"Dedicated","server_os":"Linux","password":true,"vac":true,"version":"7704440","steam_id":85568392924500089,"keywords":["nocrits","nodmgspread","payload","uncletopia"],"game_id":440,"stv_port":0,"stv_name":"","players":null},{"server_id":303,"name":"Uncletopia | Montréal | 4 | No Payload","name_short":"mtl-4","host":"mtl-1.ca.uncletopia.com","port":27045,"enabled":true,"region":"us-east","cc":"ca","latitude":45.50889,"longitude":-73.56167,"reserved":0,"last_update":"0001-01-01T00:00:00Z","name_a2s":"Uncletopia | Montréal | 4 | No Payload","protocol":17,"map":"koth_brazil","folder":"tf","game":"Team Fortress","app_id":440,"player_count":0,"max_players":24,"Bots":0,"server_type":"Dedicated","server_os":"Linux","password":true,"vac":true,"version":"7704440","steam_id":85568392924500090,"keywords":["cp","nocrits","nodmgspread","uncletopia"],"game_id":440,"stv_port":27046,"stv_name":"Uncletopia | Montréal | 4 | No Payload | STV","players":null},{"server_id":13,"name":"Uncletopia | New York City | 1 | All Maps","name_short":"nyc-1","host":"nyc-1.us.uncletopia.com","port":27015,"enabled":true,"region":"us-east","cc":"us","latitude":40.73061,"longitude":-73.93524,"reserved":0,"last_update":"0001-01-01T00:00:00Z","name_a2s":"Uncletopia | New York City | 1 | All Maps","protocol":17,"map":"koth_lakeside_final","folder":"tf","game":"Team Fortress","app_id":440,"player_count":1,"max_players":24,"Bots":0,"server_type":"Dedicated","server_os":"Linux","password":true,"vac":true,"version":"7704440","steam_id":85568392924469993,"keywords":["cp","nocrits","nodmgspread","uncletopia"],"game_id":440,"stv_port":0,"stv_name":"","players":[{"user_id":2,"name":"BFRXCRPGFHANZUX","steam_id":76561199065983842,"connected_time":230000000000,"state":"active","ping":93}]},{"server_id":14,"name":"Uncletopia | New York City | 2 | All Maps","name_short":"nyc-2","host":"nyc-1.us.uncletopia.com","port":27025,"enabled":true,"region":"us-east","cc":"us","latitude":40.73061,"longitude":-73.93524,"reserved":0,"last_update":"0001-01-01T00:00:00Z","name_a2s":"Uncletopia | New York City | 2 | All Maps","protocol":17,"map":"pl_upward","folder":"tf","game":"Team Fortress","app_id":440,"player_count":0,"max_players":24,"Bots":0,"server_type":"Dedicated","server_os":"Linux","password":true,"vac":true,"version":"7704440","steam_id":85568392924469994,"keywords":["nocrits","nodmgspread","payload","uncletopia"],"game_id":440,"stv_port":27026,"stv_name":"Uncletopia | New York City | 2 | All Maps | STV","players":null},{"server_id":15,"name":"Uncletopia | New York City | 3 | All Maps","name_short":"nyc-3","host":"nyc-1.us.uncletopia.com","port":27035,"enabled":true,"region":"us-east","cc":"us","latitude":40.73061,"longitude":-73.93524,"reserved":0,"last_update":"0001-01-01T00:00:00Z","name_a2s":"Uncletopia | New York City | 3 | All Maps","protocol":17,"map":"pl_borneo","folder":"tf","game":"Team Fortress","app_id":440,"player_count":0,"max_players":24,"Bots":0,"server_type":"Dedicated","server_os":"Linux","password":true,"vac":true,"version":"7704440","steam_id":85568392924742820,"keywords":["nocrits","nodmgspread","payload","uncletopia"],"game_id":440,"stv_port":27036,"stv_name":"Uncletopia | New York City | 3 | All Maps | STV","players":null},{"server_id":16,"name":"Uncletopia | New York City | 4 | Community","name_short":"nyc-4","host":"nyc-1.us.uncletopia.com","port":27045,"enabled":true,"region":"us-east","cc":"us","latitude":40.73061,"longitude":-73.93524,"reserved":0,"last_update":"0001-01-01T00:00:00Z","name_a2s":"Uncletopia | New York City | 4 | Community","protocol":17,"map":"workshop/cp_villa_b19.ugc2113052569","folder":"tf","game":"Team Fortress","app_id":440,"player_count":0,"max_players":24,"Bots":0,"server_type":"Dedicated","server_os":"Linux","password":true,"vac":true,"version":"7704440","steam_id":85568392924742821,"keywords":["cp","nocrits","nodmgspread","uncletopia"],"game_id":440,"stv_port":27046,"stv_name":"Uncletopia | New York City | 4 | Community | STV","players":null},{"server_id":142,"name":"Uncletopia | São Paulo | 1 | All Maps","name_short":"sao-1","host":"sao-1.br.uncletopia.com","port":27015,"enabled":true,"region":"sa","cc":"br","latitude":-23.533773,"longitude":-46.62529,"reserved":0,"last_update":"0001-01-01T00:00:00Z","name_a2s":"Uncletopia | São Paulo | 1 | All Maps","protocol":17,"map":"cp_altitude","folder":"tf","game":"Team Fortress","app_id":440,"player_count":0,"max_players":24,"Bots":0,"server_type":"Dedicated","server_os":"Linux","password":true,"vac":true,"version":"7704440","steam_id":85568392924469996,"keywords":["cp","nocrits","nodmgspread","uncletopia"],"game_id":440,"stv_port":27016,"stv_name":"Uncletopia | São Paulo | 1 | All Maps | STV","players":null},{"server_id":143,"name":"Uncletopia | São Paulo | 2 | All Maps","name_short":"sao-2","host":"sao-2.br.uncletopia.com","port":27015,"enabled":true,"region":"sa","cc":"br","latitude":-23.533773,"longitude":-46.62529,"reserved":0,"last_update":"0001-01-01T00:00:00Z","name_a2s":"Uncletopia | São Paulo | 2 | All Maps","protocol":17,"map":"pl_upward","folder":"tf","game":"Team Fortress","app_id":440,"player_count":19,"max_players":24,"Bots":0,"server_type":"Dedicated","server_os":"Linux","password":true,"vac":true,"version":"7704440","steam_id":85568392924485349,"keywords":["nocrits","nodmgspread","payload","uncletopia"],"game_id":440,"stv_port":27016,"stv_name":"Uncletopia | São Paulo | 2 | All Maps | STV","players":[{"user_id":12,"name":"Just a Dud","steam_id":76561199016767341,"connected_time":2636000000000,"state":"active","ping":61},{"user_id":15,"name":"ShinGojira[BR]","steam_id":76561199199037141,"connected_time":1432000000000,"state":"active","ping":96},{"user_id":14,"name":"siirtyaoliveira","steam_id":76561199176805537,"connected_time":1860000000000,"state":"active","ping":39},{"user_id":19,"name":"Ricardo Ereto","steam_id":76561199022729585,"connected_time":1098000000000,"state":"active","ping":56},{"user_id":30,"name":"Rick Astley Gaming","steam_id":76561199088485755,"connected_time":293000000000,"state":"active","ping":76},{"user_id":18,"name":"Carlos 24","steam_id":76561198171272677,"connected_time":1149000000000,"state":"active","ping":73},{"user_id":20,"name":"NenF | Yatosemtato","steam_id":76561199066360306,"connected_time":1007000000000,"state":"active","ping":83},{"user_id":23,"name":"Liniker","steam_id":76561198948736406,"connected_time":588000000000,"state":"active","ping":52},{"user_id":26,"name":"lilygata","steam_id":76561198042448105,"connected_time":489000000000,"state":"active","ping":71},{"user_id":25,"name":"Vriska/rainha_da_praia","steam_id":76561198201335279,"connected_time":543000000000,"state":"active","ping":49},{"user_id":31,"name":"mamute","steam_id":76561198388070478,"connected_time":281000000000,"state":"active","ping":105},{"user_id":29,"name":"Gabriel_","steam_id":76561198111915113,"connected_time":365000000000,"state":"active","ping":28},{"user_id":35,"name":"level 2 slime","steam_id":76561198163107508,"connected_time":60000000000,"state":"active","ping":45},{"user_id":33,"name":"luca4808","steam_id":76561198417592091,"connected_time":115000000000,"state":"active","ping":82},{"user_id":34,"name":"Emmi Rosa♥ ໒꒱ ˚⁎⁺˳","steam_id":76561198122827249,"connected_time":82000000000,"state":"active","ping":81},{"user_id":36,"name":"qB |","steam_id":76561198137728820,"connected_time":50000000000,"state":"active","ping":86},{"user_id":37,"name":"tomas.carras","steam_id":76561199239481875,"connected_time":27000000000,"state":"spawning","ping":88},{"user_id":38,"name":"Vic Rattlehead","steam_id":76561199232899925,"connected_time":26000000000,"state":"spawning","ping":59},{"user_id":39,"name":"DJ master 3000","steam_id":76561199081627245,"connected_time":22000000000,"state":"spawning","ping":75}]},{"server_id":7,"name":"Uncletopia | Seattle | 1 | All Maps","name_short":"sea-1","host":"sea-1.us.uncletopia.com","port":27015,"enabled":true,"region":"us-west","cc":"us","latitude":47.608013,"longitude":-122.33517,"reserved":0,"last_update":"0001-01-01T00:00:00Z","name_a2s":"Uncletopia | Seattle | 1 | All Maps","protocol":17,"map":"cp_mountainlab","folder":"tf","game":"Team Fortress","app_id":440,"player_count":0,"max_players":24,"Bots":0,"server_type":"Dedicated","server_os":"Linux","password":true,"vac":true,"version":"7704440","steam_id":85568392924469997,"keywords":["cp","nocrits","nodmgspread","uncletopia"],"game_id":440,"stv_port":27016,"stv_name":"Uncletopia | Seattle | 1 | All Maps | STV","players":null},{"server_id":119,"name":"Uncletopia | Seattle | 2 | All Maps","name_short":"sea-2","host":"sea-1.us.uncletopia.com","port":27025,"enabled":true,"region":"us-west","cc":"us","latitude":47.608013,"longitude":-122.33517,"reserved":0,"last_update":"0001-01-01T00:00:00Z","name_a2s":"Uncletopia | Seattle | 2 | All Maps","protocol":17,"map":"pl_borneo","folder":"tf","game":"Team Fortress","app_id":440,"player_count":20,"max_players":24,"Bots":0,"server_type":"Dedicated","server_os":"Linux","password":true,"vac":true,"version":"7704440","steam_id":85568392924469998,"keywords":["nocrits","nodmgspread","payload","uncletopia"],"game_id":440,"stv_port":27026,"stv_name":"Uncletopia | Seattle | 2 | All Maps | STV","players":[{"user_id":90,"name":"HRT","steam_id":76561198013781132,"connected_time":1384000000000,"state":"active","ping":131},{"user_id":85,"name":"Fajita Master","steam_id":76561198329150962,"connected_time":1785000000000,"state":"active","ping":78},{"user_id":119,"name":"gretchling","steam_id":76561198046111695,"connected_time":80000000000,"state":"active","ping":90},{"user_id":122,"name":"Eliza","steam_id":76561198108938752,"connected_time":45000000000,"state":"active","ping":105},{"user_id":108,"name":"lukethepumpkin","steam_id":76561198204158335,"connected_time":568000000000,"state":"active","ping":121},{"user_id":120,"name":"monsterkill4567","steam_id":76561198272986367,"connected_time":70000000000,"state":"active","ping":78},{"user_id":115,"name":"Frank","steam_id":76561198126681511,"connected_time":315000000000,"state":"active","ping":91},{"user_id":113,"name":"BIG HOG","steam_id":76561198079923652,"connected_time":446000000000,"state":"active","ping":105},{"user_id":114,"name":"Chromatic","steam_id":76561198355976286,"connected_time":430000000000,"state":"active","ping":182},{"user_id":96,"name":"kid ichster","steam_id":76561198011675372,"connected_time":1178000000000,"state":"active","ping":59},{"user_id":121,"name":"hellohello","steam_id":76561198094058177,"connected_time":64000000000,"state":"active","ping":122},{"user_id":75,"name":"Terezi Pyrope","steam_id":76561198065112186,"connected_time":2668000000000,"state":"active","ping":59},{"user_id":116,"name":"WATCHOUT!","steam_id":76561198850428601,"connected_time":306000000000,"state":"active","ping":105},{"user_id":94,"name":"Flickerr","steam_id":76561198080190967,"connected_time":1320000000000,"state":"active","ping":42},{"user_id":100,"name":"Emu","steam_id":76561198004595048,"connected_time":1000000000000,"state":"active","ping":65},{"user_id":123,"name":"Red Physical","steam_id":76561198151864382,"connected_time":15000000000,"state":"spawning","ping":126},{"user_id":107,"name":"Skippies","steam_id":76561198131280715,"connected_time":623000000000,"state":"active","ping":118},{"user_id":98,"name":"yolginmo","steam_id":76561198157985901,"connected_time":1111000000000,"state":"active","ping":53},{"user_id":77,"name":"King Keifer","steam_id":76561198141070466,"connected_time":2532000000000,"state":"active","ping":59},{"user_id":99,"name":"another breloom","steam_id":76561198006938024,"connected_time":1040000000000,"state":"active","ping":71}]},{"server_id":17,"name":"Uncletopia | San Francisco | 1 | All Maps","name_short":"sfo-1","host":"sfo-1.us.uncletopia.com","port":27015,"enabled":true,"region":"us-west","cc":"us","latitude":37.77397,"longitude":-122.4313,"reserved":0,"last_update":"0001-01-01T00:00:00Z","name_a2s":"Uncletopia | San Francisco | 1 | All Maps","protocol":17,"map":"pl_borneo","folder":"tf","game":"Team Fortress","app_id":440,"player_count":2,"max_players":24,"Bots":0,"server_type":"Dedicated","server_os":"Linux","password":true,"vac":true,"version":"7704440","steam_id":85568392924469999,"keywords":["nocrits","nodmgspread","payload","uncletopia"],"game_id":440,"stv_port":27016,"stv_name":"Uncletopia | San Francisco | 1 | All Maps | STV","players":[{"user_id":4,"name":"Benvenuti nel mondo dei grandi","steam_id":76561199276035454,"connected_time":742000000000,"state":"active","ping":178},{"user_id":5,"name":"The bellman","steam_id":76561199244819489,"connected_time":739000000000,"state":"active","ping":248}]},{"server_id":18,"name":"Uncletopia | San Francisco | 2 | All Maps","name_short":"sfo-2","host":"sfo-1.us.uncletopia.com","port":27025,"enabled":true,"region":"us-west","cc":"us","latitude":37.77397,"longitude":-122.4313,"reserved":0,"last_update":"0001-01-01T00:00:00Z","name_a2s":"Uncletopia | San Francisco | 2 | All Maps","protocol":17,"map":"koth_highpass","folder":"tf","game":"Team Fortress","app_id":440,"player_count":0,"max_players":24,"Bots":0,"server_type":"Dedicated","server_os":"Linux","password":true,"vac":true,"version":"7704440","steam_id":85568392924470000,"keywords":["cp","nocrits","nodmgspread","uncletopia"],"game_id":440,"stv_port":0,"stv_name":"","players":null},{"server_id":19,"name":"Uncletopia | San Francisco | 3 | No Payload","name_short":"sfo-3","host":"sfo-1.us.uncletopia.com","port":27035,"enabled":true,"region":"us-west","cc":"us","latitude":37.77397,"longitude":-122.4313,"reserved":0,"last_update":"0001-01-01T00:00:00Z","name_a2s":"Uncletopia | San Francisco | 3 | No Payload","protocol":17,"map":"cp_process_final","folder":"tf","game":"Team Fortress","app_id":440,"player_count":0,"max_players":24,"Bots":0,"server_type":"Dedicated","server_os":"Linux","password":true,"vac":true,"version":"7704440","steam_id":85568392924742824,"keywords":["cp","nocrits","nodmgspread","uncletopia"],"game_id":440,"stv_port":0,"stv_name":"","players":null},{"server_id":20,"name":"Uncletopia | San Francisco | 4 | Community","name_short":"sfo-4","host":"sfo-1.us.uncletopia.com","port":27045,"enabled":true,"region":"us-west","cc":"us","latitude":37.77397,"longitude":-122.4313,"reserved":0,"last_update":"0001-01-01T00:00:00Z","name_a2s":"Uncletopia | San Francisco | 4 | Community","protocol":17,"map":"koth_highpass","folder":"tf","game":"Team Fortress","app_id":440,"player_count":0,"max_players":24,"Bots":0,"server_type":"Dedicated","server_os":"Linux","password":true,"vac":true,"version":"7704440","steam_id":85568392924742826,"keywords":["cp","nocrits","nodmgspread","uncletopia"],"game_id":440,"stv_port":0,"stv_name":"","players":null},{"server_id":141,"name":"Uncletopia | Sydney | 1 | All Maps","name_short":"syd-1","host":"syd-1.au.uncletopia.com","port":27015,"enabled":true,"region":"au","cc":"au","latitude":-33.865143,"longitude":151.2099,"reserved":0,"last_update":"0001-01-01T00:00:00Z","name_a2s":"Uncletopia | Sydney | 1 | All Maps","protocol":17,"map":"cp_mountainlab","folder":"tf","game":"Team Fortress","app_id":440,"player_count":0,"max_players":24,"Bots":0,"server_type":"Dedicated","server_os":"Linux","password":true,"vac":true,"version":"7704440","steam_id":85568392924470001,"keywords":["cp","nocrits","nodmgspread","uncletopia"],"game_id":440,"stv_port":27016,"stv_name":"Uncletopia | Sydney | 1 | All Maps | STV","players":null},{"server_id":123,"name":"Uncletopia | Sydney | 2 | All Maps","name_short":"syd-2","host":"syd-1.au.uncletopia.com","port":27025,"enabled":true,"region":"au","cc":"au","latitude":-33.865143,"longitude":151.2099,"reserved":0,"last_update":"0001-01-01T00:00:00Z","name_a2s":"Uncletopia | Sydney | 2 | All Maps","protocol":17,"map":"koth_viaduct","folder":"tf","game":"Team Fortress","app_id":440,"player_count":0,"max_players":24,"Bots":0,"server_type":"Dedicated","server_os":"Linux","password":true,"vac":true,"version":"7704440","steam_id":85568392924470002,"keywords":["cp","nocrits","nodmgspread","uncletopia"],"game_id":440,"stv_port":27026,"stv_name":"Uncletopia | Sydney | 2 | All Maps | STV","players":null},{"server_id":395,"name":"Uncletopia | Sydney | 3 | All Maps","name_short":"syd-3","host":"syd-1.au.uncletopia.com","port":27035,"enabled":true,"region":"au","cc":"au","latitude":-33.865143,"longitude":151.2099,"reserved":0,"last_update":"0001-01-01T00:00:00Z","name_a2s":"Uncletopia | Sydney | 3 | All Maps","protocol":17,"map":"pl_pier","folder":"tf","game":"Team Fortress","app_id":440,"player_count":0,"max_players":24,"Bots":0,"server_type":"Dedicated","server_os":"Linux","password":true,"vac":true,"version":"7704440","steam_id":85568392925194467,"keywords":["nocrits","nodmgspread","payload","uncletopia"],"game_id":440,"stv_port":27036,"stv_name":"Uncletopia | Sydney | 3 | All Maps | STV","players":null},{"server_id":396,"name":"Uncletopia | Sydney | 4 | All Maps","name_short":"syd-4","host":"syd-1.au.uncletopia.com","port":27045,"enabled":true,"region":"au","cc":"au","latitude":-33.865143,"longitude":151.2099,"reserved":0,"last_update":"0001-01-01T00:00:00Z","name_a2s":"Uncletopia | Sydney | 4 | All Maps","protocol":17,"map":"koth_highpass","folder":"tf","game":"Team Fortress","app_id":440,"player_count":0,"max_players":24,"Bots":0,"server_type":"Dedicated","server_os":"Linux","password":true,"vac":true,"version":"7704440","steam_id":85568392925397958,"keywords":["cp","nocrits","nodmgspread","uncletopia"],"game_id":440,"stv_port":27046,"stv_name":"Uncletopia | Sydney | 4 | All Maps | STV","players":null},{"server_id":58,"name":"Uncletopia | Sydney | 5 | No Payload","name_short":"syd-5","host":"syd-1.au.uncletopia.com","port":27055,"enabled":true,"region":"au","cc":"au","latitude":-33.865143,"longitude":151.2099,"reserved":0,"last_update":"0001-01-01T00:00:00Z","name_a2s":"Uncletopia | Sydney | 5 | No Payload","protocol":17,"map":"pl_barnblitz","folder":"tf","game":"Team Fortress","app_id":440,"player_count":0,"max_players":24,"Bots":0,"server_type":"Dedicated","server_os":"Linux","password":true,"vac":true,"version":"7704440","steam_id":85568392925397959,"keywords":["nocrits","nodmgspread","payload","uncletopia"],"game_id":440,"stv_port":0,"stv_name":"","players":null},{"server_id":59,"name":"Uncletopia | Sydney | 6 | Community","name_short":"syd-6","host":"syd-1.au.uncletopia.com","port":27065,"enabled":true,"region":"au","cc":"au","latitude":-33.865143,"longitude":151.2099,"reserved":0,"last_update":"0001-01-01T00:00:00Z","name_a2s":"Uncletopia | Sydney | 6 | Community","protocol":17,"map":"workshop/rd_asteroid_redux_rc9.ugc2154902912","folder":"tf","game":"Team Fortress","app_id":440,"player_count":0,"max_players":24,"Bots":0,"server_type":"Dedicated","server_os":"Linux","password":true,"vac":true,"version":"7704440","steam_id":85568392925397960,"keywords":["beta","nocrits","nodmgspread","rd","uncletopia"],"game_id":440,"stv_port":27066,"stv_name":"Uncletopia | Sydney | 6 | Community | STV","players":null},{"server_id":49,"name":"Uncletopia | Warsaw | 1 | All Maps","name_short":"waw-1","host":"waw-1.pl.uncletopia.com","port":27015,"enabled":true,"region":"eu","cc":"pl","latitude":52.2297,"longitude":21.017532,"reserved":0,"last_update":"0001-01-01T00:00:00Z","name_a2s":"Uncletopia | Warsaw | 1 | All Maps","protocol":17,"map":"koth_cascade","folder":"tf","game":"Team Fortress","app_id":440,"player_count":0,"max_players":24,"Bots":0,"server_type":"Dedicated","server_os":"Linux","password":true,"vac":true,"version":"7704440","steam_id":85568392925397850,"keywords":["cp","nocrits","nodmgspread","uncletopia"],"game_id":440,"stv_port":27016,"stv_name":"Uncletopia | Warsaw | 1 | All Maps | STV","players":null},{"server_id":50,"name":"Uncletopia | Warsaw | 2 | All Maps","name_short":"waw-2","host":"waw-1.pl.uncletopia.com","port":27025,"enabled":true,"region":"eu","cc":"pl","latitude":52.2297,"longitude":21.017532,"reserved":0,"last_update":"0001-01-01T00:00:00Z","name_a2s":"Uncletopia | Warsaw | 2 | All Maps","protocol":17,"map":"koth_lakeside_final","folder":"tf","game":"Team Fortress","app_id":440,"player_count":0,"max_players":24,"Bots":0,"server_type":"Dedicated","server_os":"Linux","password":true,"vac":true,"version":"7704440","steam_id":85568392925397851,"keywords":["cp","nocrits","nodmgspread","uncletopia"],"game_id":440,"stv_port":27026,"stv_name":"Uncletopia | Warsaw | 2 | All Maps | STV","players":null},{"server_id":51,"name":"Uncletopia | Warsaw | 3 | All Maps","name_short":"waw-3","host":"waw-1.pl.uncletopia.com","port":27035,"enabled":true,"region":"eu","cc":"pl","latitude":52.2297,"longitude":21.017532,"reserved":0,"last_update":"0001-01-01T00:00:00Z","name_a2s":"Uncletopia | Warsaw | 3 | All Maps","protocol":17,"map":"pl_swiftwater_final1","folder":"tf","game":"Team Fortress","app_id":440,"player_count":0,"max_players":24,"Bots":0,"server_type":"Dedicated","server_os":"Linux","password":true,"vac":true,"version":"7704440","steam_id":85568392925397852,"keywords":["nocrits","nodmgspread","payload","uncletopia"],"game_id":440,"stv_port":27036,"stv_name":"Uncletopia | Warsaw | 3 | All Maps | STV","players":null},{"server_id":52,"name":"Uncletopia | Warsaw | 4 | All Maps","name_short":"waw-4","host":"waw-1.pl.uncletopia.com","port":27045,"enabled":true,"region":"eu","cc":"pl","latitude":52.2297,"longitude":21.017532,"reserved":0,"last_update":"0001-01-01T00:00:00Z","name_a2s":"Uncletopia | Warsaw | 4 | All Maps","protocol":17,"map":"koth_highpass","folder":"tf","game":"Team Fortress","app_id":440,"player_count":0,"max_players":24,"Bots":0,"server_type":"Dedicated","server_os":"Linux","password":true,"vac":true,"version":"7704440","steam_id":85568392925397853,"keywords":["cp","nocrits","nodmgspread","uncletopia"],"game_id":440,"stv_port":27046,"stv_name":"Uncletopia | Warsaw | 4 | All Maps | STV","players":null},{"server_id":53,"name":"Uncletopia | Warsaw | 5 | No Payload","name_short":"waw-5","host":"waw-1.pl.uncletopia.com","port":27055,"enabled":true,"region":"eu","cc":"pl","latitude":52.2297,"longitude":21.017532,"reserved":0,"last_update":"0001-01-01T00:00:00Z","name_a2s":"Uncletopia | Warsaw | 5 | No Payload","protocol":17,"map":"cp_process_final","folder":"tf","game":"Team Fortress","app_id":440,"player_count":0,"max_players":24,"Bots":0,"server_type":"Dedicated","server_os":"Linux","password":true,"vac":true,"version":"7704440","steam_id":85568392925397854,"keywords":["cp","nocrits","nodmgspread","uncletopia"],"game_id":440,"stv_port":27056,"stv_name":"Uncletopia | Warsaw | 5 | No Payload | STV","players":null},{"server_id":54,"name":"Uncletopia | Warsaw | 6 | Community","name_short":"waw-6","host":"waw-1.pl.uncletopia.com","port":27065,"enabled":true,"region":"eu","cc":"pl","latitude":52.2297,"longitude":21.017532,"reserved":0,"last_update":"0001-01-01T00:00:00Z","name_a2s":"Uncletopia | Warsaw | 6 | Community","protocol":17,"map":"workshop/koth_slaughter_rc1.ugc1712845210","folder":"tf","game":"Team Fortress","app_id":440,"player_count":0,"max_players":24,"Bots":0,"server_type":"Dedicated","server_os":"Linux","password":true,"vac":true,"version":"7704440","steam_id":85568392925397856,"keywords":["cp","nocrits","nodmgspread","uncletopia"],"game_id":440,"stv_port":27066,"stv_name":"Uncletopia | Warsaw | 6 | Community | STV","players":null}]}