{"status":true,"message":"","result":[{"server_id":9,"name":"Uncletopia | Atlanta | 1 | All Maps","name_short":"atl-1","host":"atl-1.us.uncletopia.com","port":27015,"enabled":true,"region":"us-east","cc":"us","latitude":33.753746,"longitude":-84.38633,"reserved":0,"last_update":"0001-01-01T00:00:00Z","name_a2s":"Uncletopia | Atlanta | 1 | All Maps","protocol":17,"map":"pl_pier","folder":"tf","game":"Team Fortress","app_id":440,"player_count":23,"max_players":24,"Bots":0,"server_type":"Dedicated","server_os":"Linux","password":true,"vac":true,"version":"7882260","steam_id":85568392924469982,"keywords":["nocrits","nodmgspread","payload","uncletopia"],"game_id":440,"stv_port":27016,"stv_name":"Uncletopia | Atlanta | 1 | All Maps | STV","players":[{"user_id":327,"name":"floom","steam_id":76561198387571809,"connected_time":4000000000,"state":"spawning","ping":64},{"user_id":314,"name":"Osrio","steam_id":76561198083428069,"connected_time":1526000000000,"state":"active","ping":87},{"user_id":320,"name":"LG_Fridge_User","steam_id":76561198977815014,"connected_time":963000000000,"state":"active","ping":102},{"user_id":280,"name":"Ramin Jamin","steam_id":76561198086516541,"connected_time":5542000000000,"state":"active","ping":70},{"user_id":322,"name":"Axities","steam_id":76561198278008225,"connected_time":885000000000,"state":"active","ping":59},{"user_id":276,"name":"FheeseWurger Insouptitty","steam_id":76561198130772096,"connected_time":6270000000000,"state":"active","ping":54},{"user_id":292,"name":"metalfan666|bday tmrw|","steam_id":76561198386344068,"connected_time":4701000000000,"state":"active","ping":70},{"user_id":294,"name":"Sophie","steam_id":76561198170408057,"connected_time":4228000000000,"state":"active","ping":54},{"user_id":283,"name":"Le4n!!!","steam_id":76561198045522596,"connected_time":5125000000000,"state":"active","ping":69},{"user_id":312,"name":"Wheat Box","steam_id":76561198203443358,"connected_time":2128000000000,"state":"active","ping":78},{"user_id":265,"name":"Duckywinner","steam_id":76561198254828139,"connected_time":6499000000000,"state":"active","ping":58},{"user_id":313,"name":"Jrock","steam_id":76561198045715996,"connected_time":1970000000000,"state":"active","ping":81},{"user_id":326,"name":"ATL1 | on my hunting trip","steam_id":76561198315341646,"connected_time":12000000000,"state":"spawning","ping":59},{"user_id":321,"name":"Crystron","steam_id":76561198880437428,"connected_time":902000000000,"state":"active","ping":80},{"user_id":263,"name":"Solar","steam_id":76561198070121486,"connected_time":6513000000000,"state":"active","ping":58},{"user_id":296,"name":"Toonice","steam_id":76561198402994885,"connected_time":3474000000000,"state":"active","ping":69},{"user_id":302,"name":"DrStarBucksCoffee","steam_id":76561198037372470,"connected_time":2804000000000,"state":"active","ping":81},{"user_id":290,"name":"Daniel Craig Fan","steam_id":76561198053467923,"connected_time":4739000000000,"state":"active","ping":79},{"user_id":304,"name":"and i'm javert!","steam_id":76561198117033273,"connected_time":2762000000000,"state":"active","ping":138},{"user_id":318,"name":"MrVegasAguitar","steam_id":76561198084466946,"connected_time":1285000000000,"state":"active","ping":71},{"user_id":307,"name":"BIG HOG","steam_id":76561198079923652,"connected_time":2583000000000,"state":"active","ping":61},{"user_id":323,"name":"∆ê’å—¥∆≥","steam_id":76561198099470277,"connected_time":860000000000,"state":"active","ping":69},{"user_id":325,"name":"BackwardsEagle","steam_id":76561199013712612,"connected_time":17000000000,"state":"spawning","ping":87}]},{"server_id":104,"name":"Uncletopia | Atlanta | 2 | All Maps","name_short":"atl-2","host":"atl-1.us.uncletopia.com","port":27025,"enabled":true,"region":"us-east","cc":"us","latitude":33.753746,"longitude":-84.38633,"reserved":0,"last_update":"0001-01-01T00:00:00Z","name_a2s":"Uncletopia | Atlanta | 2 | All Maps","protocol":17,"map":"cp_steel","folder":"tf","game":"Team Fortress","app_id":440,"player_count":1,"max_players":24,"Bots":0,"server_type":"Dedicated","server_os":"Linux","password":true,"vac":true,"version":"7882260","steam_id":85568392924469983,"keywords":["cp","nocrits","nodmgspread","uncletopia"],"game_id":440,"stv_port":27026,"stv_name":"Uncletopia | Atlanta | 2 | All Maps | STV","players":[{"user_id":9,"name":"Waterzuka","steam_id":76561198254454489,"connected_time":2967000000000,"state":"active","ping":78}]},{"server_id":400,"name":"Uncletopia | Atlanta | 3 | Community","name_short":"atl-3","host":"atl-1.us.uncletopia.com","port":27035,"enabled":true,"region":"us-east","cc":"us","latitude":33.753746,"longitude":-84.38633,"reserved":0,"last_update":"0001-01-01T00:00:00Z","name_a2s":"Uncletopia | Atlanta | 3 | Community","protocol":17,"map":"workshop/cp_logjam_rc12.ugc454812035","folder":"tf","game":"Team Fortress","app_id":440,"player_count":0,"max_players":24,"Bots":0,"server_type":"Dedicated","server_os":"Linux","password":true,"vac":true,"version":"7882260","steam_id":85568392924515187,"keywords":["cp","nocrits","nodmgspread","uncletopia"],"game_id":440,"stv_port":27036,"stv_name":"Uncletopia | Atlanta | 3 | Community | STV","players":null},{"server_id":401,"name":"Uncletopia | Atlanta | 4 | No Payload","name_short":"atl-4","host":"atl-1.us.uncletopia.com","port":27045,"enabled":true,"region":"us-east","cc":"us","latitude":33.753746,"longitude":-84.38633,"reserved":0,"last_update":"0001-01-01T00:00:00Z","name_a2s":"","protocol":0,"map":"","folder":"","game":"","app_id":0,"player_count":0,"max_players":0,"Bots":0,"server_type":"","server_os":"","password":false,"vac":false,"version":"","steam_id":0,"keywords":null,"game_id":0,"stv_port":0,"stv_name":"","players":null},{"server_id":2,"name":"Uncletopia | Chicago | 1 | All Maps","name_short":"chi-1","host":"chi-1.us.uncletopia.com","port":27015,"enabled":true,"region":"us-central","cc":"us","latitude":41.881832,"longitude":-87.62318,"reserved":0,"last_update":"0001-01-01T00:00:00Z","name_a2s":"Uncletopia | Chicago | 1 | All Maps","protocol":17,"map":"cp_mountainlab","folder":"tf","game":"Team Fortress","app_id":440,"player_count":24,"max_players":24,"Bots":0,"server_type":"Dedicated","server_os":"Linux","password":true,"vac":true,"version":"7882260","steam_id":85568392924469984,"keywords":["cp","nocrits","nodmgspread","uncletopia"],"game_id":440,"stv_port":27016,"stv_name":"Uncletopia | Chicago | 1 | All Maps | STV","players":[{"user_id":446,"name":"997 N State Street, Orem, Utah","steam_id":76561198285931413,"connected_time":667000000000,"state":"active","ping":66},{"user_id":444,"name":"Scooter O'Boyl","steam_id":76561197971687069,"connected_time":851000000000,"state":"active","ping":72},{"user_id":436,"name":"bean d eafs","steam_id":76561199481822977,"connected_time":1451000000000,"state":"active","ping":75},{"user_id":419,"name":"Zixzs","steam_id":76561198055504126,"connected_time":2478000000000,"state":"active","ping":62},{"user_id":415,"name":"scrotal recall","steam_id":76561198135945598,"connected_time":2874000000000,"state":"active","ping":75},{"user_id":445,"name":"seeyouauntie","steam_id":76561198045852999,"connected_time":767000000000,"state":"active","ping":57},{"user_id":400,"name":"J O S H¬≥¬≤","steam_id":76561198122603779,"connected_time":4229000000000,"state":"active","ping":122},{"user_id":358,"name":"0","steam_id":76561198046055673,"connected_time":7784000000000,"state":"active","ping":74},{"user_id":442,"name":"Pot Head Pixie","steam_id":76561198083024504,"connected_time":1376000000000,"state":"active","ping":55},{"user_id":423,"name":"Kamin","steam_id":76561198255299559,"connected_time":2390000000000,"state":"active","ping":89},{"user_id":450,"name":"kermitcreeper(ZAZA)","steam_id":76561199222829972,"connected_time":64000000000,"state":"active","ping":57},{"user_id":427,"name":"bought this cart for 15 dollars","steam_id":76561198253731826,"connected_time":2071000000000,"state":"active","ping":52},{"user_id":418,"name":"Habba","steam_id":76561197986096340,"connected_time":2486000000000,"state":"active","ping":77},{"user_id":437,"name":"Sean Bae","steam_id":76561198036909521,"connected_time":1441000000000,"state":"active","ping":83},{"user_id":420,"name":"Lock'd","steam_id":76561198170108230,"connected_time":2467000000000,"state":"active","ping":93},{"user_id":443,"name":"KaleScrooge","steam_id":76561199229442595,"connected_time":1177000000000,"state":"active","ping":161},{"user_id":438,"name":"zik","steam_id":76561198122186802,"connected_time":1433000000000,"state":"active","ping":63},{"user_id":448,"name":"BradB","steam_id":76561199163905036,"connected_time":411000000000,"state":"active","ping":75},{"user_id":403,"name":"Alpharious","steam_id":76561197970289529,"connected_time":3605000000000,"state":"active","ping":74},{"user_id":449,"name":"[ŸäŸáŸàÿØŸä] Bill Clinton [◊ê◊ú","steam_id":76561198163291190,"connected_time":116000000000,"state":"active","ping":87},{"user_id":408,"name":"3xtr3m3rWbyFan2901025","steam_id":76561198042286766,"connected_time":3234000000000,"state":"active","ping":69},{"user_id":432,"name":"nottabot","steam_id":76561198041001835,"connected_time":1800000000000,"state":"active","ping":81},{"user_id":422,"name":"pharmacist","steam_id":76561198274424248,"connected_time":2409000000000,"state":"active","ping":182},{"user_id":441,"name":"SentientKitKatBar(F2P)","steam_id":76561198842149924,"connected_time":1411000000000,"state":"active","ping":196}]},{"server_id":106,"name":"Uncletopia | Chicago | 2 | All Maps","name_short":"chi-2","host":"chi-1.us.uncletopia.com","port":27025,"enabled":true,"region":"us-central","cc":"us","latitude":41.881832,"longitude":-87.62318,"reserved":0,"last_update":"0001-01-01T00:00:00Z","name_a2s":"Uncletopia | Chicago | 2 | All Maps","protocol":17,"map":"cp_dustbowl","folder":"tf","game":"Team Fortress","app_id":440,"player_count":24,"max_players":24,"Bots":0,"server_type":"Dedicated","server_os":"Linux","password":true,"vac":true,"version":"7882260","steam_id":85568392924469985,"keywords":["cp","nocrits","nodmgspread","uncletopia"],"game_id":440,"stv_port":27026,"stv_name":"Uncletopia | Chicago | 2 | All Maps | STV","players":[{"user_id":167,"name":"bobbymcbobington","steam_id":76561199089411172,"connected_time":4914000000000,"state":"active","ping":116},{"user_id":209,"name":"L√¶ffy","steam_id":76561198046136731,"connected_time":1027000000000,"state":"active","ping":115},{"user_id":178,"name":"apple pie","steam_id":76561198073215150,"connected_time":4335000000000,"state":"active","ping":70},{"user_id":224,"name":"Drew P. Sack","steam_id":76561198036201738,"connected_time":325000000000,"state":"active","ping":52},{"user_id":211,"name":"stungoperation","steam_id":76561199162409918,"connected_time":987000000000,"state":"active","ping":60},{"user_id":212,"name":"Your Medic Boyfriend","steam_id":76561198044762641,"connected_time":983000000000,"state":"active","ping":90},{"user_id":134,"name":"MankTKO","steam_id":76561198189421005,"connected_time":6722000000000,"state":"active","ping":57},{"user_id":197,"name":"beats","steam_id":76561199245717718,"connected_time":2797000000000,"state":"active","ping":68},{"user_id":213,"name":"Zig","steam_id":76561198176048801,"connected_time":949000000000,"state":"active","ping":68},{"user_id":223,"name":"Kapitan Bomba","steam_id":76561199102087660,"connected_time":508000000000,"state":"active","ping":64},{"user_id":220,"name":"Hell's Reindeer","steam_id":76561198065310364,"connected_time":753000000000,"state":"active","ping":58},{"user_id":222,"name":"SpaceLeezerd","steam_id":76561198171026678,"connected_time":654000000000,"state":"active","ping":49},{"user_id":218,"name":"Michaelpc1","steam_id":76561198088365519,"connected_time":777000000000,"state":"active","ping":70},{"user_id":225,"name":"Exio","steam_id":76561198218639325,"connected_time":200000000000,"state":"active","ping":89},{"user_id":226,"name":"Mediocre Gaming","steam_id":76561199230467980,"connected_time":185000000000,"state":"active","ping":61},{"user_id":207,"name":"Mr. Tickle","steam_id":76561198126684647,"connected_time":1438000000000,"state":"active","ping":60},{"user_id":203,"name":"NarcolepticRock","steam_id":76561199123103642,"connected_time":2542000000000,"state":"active","ping":85},{"user_id":208,"name":"AquaPhoenix","steam_id":76561198157474924,"connected_time":1376000000000,"state":"active","ping":50},{"user_id":189,"name":"LunarrD","steam_id":76561198811220107,"connected_time":3452000000000,"state":"active","ping":90},{"user_id":219,"name":"g00bur","steam_id":76561197993622520,"connected_time":762000000000,"state":"active","ping":69},{"user_id":62,"name":"Moomin","steam_id":76561198072726213,"connected_time":11888000000000,"state":"active","ping":100},{"user_id":172,"name":"WALKING GOPRO","steam_id":76561198186928885,"connected_time":4665000000000,"state":"active","ping":70},{"user_id":175,"name":"yoodle doodle","steam_id":76561198054897884,"connected_time":4551000000000,"state":"active","ping":77},{"user_id":192,"name":"hashmap","steam_id":76561198043794014,"connected_time":3369000000000,"state":"active","ping":48}]},{"server_id":402,"name":"Uncletopia | Chicago | 3 | All Maps","name_short":"chi-3","host":"chi-1.us.uncletopia.com","port":27035,"enabled":true,"region":"us-central","cc":"us","latitude":41.881832,"longitude":-87.62318,"reserved":0,"last_update":"0001-01-01T00:00:00Z","name_a2s":"Uncletopia | Chicago | 3 | All Maps","protocol":17,"map":"cp_egypt_final","folder":"tf","game":"Team Fortress","app_id":440,"player_count":22,"max_players":24,"Bots":0,"server_type":"Dedicated","server_os":"Linux","password":true,"vac":true,"version":"7882260","steam_id":85568392924515191,"keywords":["cp","nocrits","nodmgspread","uncletopia"],"game_id":440,"stv_port":27036,"stv_name":"Uncletopia | Chicago | 3 | All Maps | STV","players":[{"user_id":332,"name":"Dr. Chad Feelgood","steam_id":76561198454077219,"connected_time":657000000000,"state":"active","ping":64},{"user_id":320,"name":"coolkid","steam_id":76561198072600034,"connected_time":1437000000000,"state":"active","ping":110},{"user_id":314,"name":"MoldOfTheBread","steam_id":76561199131987248,"connected_time":1726000000000,"state":"active","ping":192},{"user_id":267,"name":"Token","steam_id":76561198067814426,"connected_time":5708000000000,"state":"active","ping":82},{"user_id":341,"name":"Wigl","steam_id":76561198019324464,"connected_time":0,"state":"spawning","ping":14},{"user_id":329,"name":"Gamba","steam_id":76561198069264650,"connected_time":802000000000,"state":"active","ping":57},{"user_id":306,"name":"Suez","steam_id":76561198034642980,"connected_time":1960000000000,"state":"active","ping":76},{"user_id":265,"name":"Knooper","steam_id":76561198096149824,"connected_time":5877000000000,"state":"active","ping":119},{"user_id":203,"name":"Elroy Spark - DJ- Roro","steam_id":76561198071776428,"connected_time":10178000000000,"state":"active","ping":109},{"user_id":326,"name":"Sans Undertale","steam_id":76561199140519634,"connected_time":1051000000000,"state":"active","ping":130},{"user_id":278,"name":"shpadoinkle","steam_id":76561198044909073,"connected_time":4760000000000,"state":"active","ping":109},{"user_id":291,"name":"sentry turret","steam_id":76561198327057433,"connected_time":3451000000000,"state":"active","ping":84},{"user_id":336,"name":"gromit","steam_id":76561198037746805,"connected_time":382000000000,"state":"active","ping":64},{"user_id":330,"name":"Herdez Hot Salsa","steam_id":76561197991740906,"connected_time":761000000000,"state":"active","ping":64},{"user_id":327,"name":"Missing Minus","steam_id":76561198120822928,"connected_time":891000000000,"state":"active","ping":60},{"user_id":333,"name":"Drippin Jimmy","steam_id":76561198161241865,"connected_time":603000000000,"state":"active","ping":93},{"user_id":322,"name":"LeRoy42","steam_id":76561198035591428,"connected_time":1335000000000,"state":"active","ping":141},{"user_id":337,"name":"HOMESHAKE","steam_id":76561198045144546,"connected_time":362000000000,"state":"active","ping":86},{"user_id":338,"name":"Ash_Follow3","steam_id":76561199150479264,"connected_time":355000000000,"state":"active","ping":61},{"user_id":319,"name":"F0restFerret","steam_id":76561199112458876,"connected_time":1469000000000,"state":"active","ping":56},{"user_id":248,"name":"worst tf2 player ever","steam_id":76561198330205913,"connected_time":7214000000000,"state":"active","ping":77},{"user_id":340,"name":"Wanted Criminal Hedgehog","steam_id":76561198124081839,"connected_time":298000000000,"state":"active","ping":65}]},{"server_id":403,"name":"Uncletopia | Chicago | 4 | All Maps","name_short":"chi-4","host":"chi-1.us.uncletopia.com","port":27045,"enabled":true,"region":"us-central","cc":"us","latitude":41.881832,"longitude":-87.62318,"reserved":0,"last_update":"0001-01-01T00:00:00Z","name_a2s":"Uncletopia | Chicago | 4 | All Maps","protocol":17,"map":"pl_rumford_event","folder":"tf","game":"Team Fortress","app_id":440,"player_count":24,"max_players":24,"Bots":0,"server_type":"Dedicated","server_os":"Linux","password":true,"vac":true,"version":"7882260","steam_id":85568392924515193,"keywords":["nocrits","nodmgspread","payload","uncletopia"],"game_id":440,"stv_port":27046,"stv_name":"Uncletopia | Chicago | 4 | All Maps | STV","players":[{"user_id":467,"name":"ScandinavianRice","steam_id":76561198125059181,"connected_time":1328000000000,"state":"active","ping":82},{"user_id":472,"name":"nekoknight tf2","steam_id":76561198400058665,"connected_time":1191000000000,"state":"active","ping":73},{"user_id":452,"name":"waltuh","steam_id":76561198363541736,"connected_time":2890000000000,"state":"active","ping":92},{"user_id":464,"name":"MoonWolf","steam_id":76561198095735033,"connected_time":1736000000000,"state":"active","ping":72},{"user_id":460,"name":"Lexabyte","steam_id":76561198065032237,"connected_time":1946000000000,"state":"active","ping":74},{"user_id":453,"name":"Crows!","steam_id":76561198150086324,"connected_time":2676000000000,"state":"active","ping":60},{"user_id":407,"name":"WALL-E","steam_id":76561198154701370,"connected_time":5743000000000,"state":"active","ping":91},{"user_id":439,"name":"ThatGamingKiwi","steam_id":76561199170522237,"connected_time":3778000000000,"state":"active","ping":88},{"user_id":478,"name":"RyInc","steam_id":76561198874261643,"connected_time":735000000000,"state":"active","ping":48},{"user_id":431,"name":"Bee_Pirate","steam_id":76561199000599111,"connected_time":4135000000000,"state":"active","ping":64},{"user_id":438,"name":"Balls Insurance","steam_id":76561198005860388,"connected_time":3890000000000,"state":"active","ping":105},{"user_id":445,"name":"Weeb","steam_id":76561198333568146,"connected_time":3069000000000,"state":"active","ping":83},{"user_id":484,"name":"bananalover5","steam_id":76561199143854578,"connected_time":170000000000,"state":"active","ping":83},{"user_id":402,"name":"SCATTER","steam_id":76561198405168492,"connected_time":6406000000000,"state":"active","ping":83},{"user_id":479,"name":"Chicken Joe","steam_id":76561198278185182,"connected_time":656000000000,"state":"active","ping":79},{"user_id":426,"name":"ItsRoy","steam_id":76561198119525485,"connected_time":4668000000000,"state":"active","ping":57},{"user_id":480,"name":"H.","steam_id":76561198074951179,"connected_time":647000000000,"state":"active","ping":65},{"user_id":481,"name":"ü§®","steam_id":76561199365672047,"connected_time":560000000000,"state":"active","ping":85},{"user_id":462,"name":"InfantrySonic","steam_id":76561198251004990,"connected_time":1802000000000,"state":"active","ping":58},{"user_id":483,"name":"feliser","steam_id":76561198084336096,"connected_time":310000000000,"state":"active","ping":51},{"user_id":413,"name":"RandyPickleshoes","steam_id":76561198064139260,"connected_time":5463000000000,"state":"active","ping":77},{"user_id":474,"name":"orange","steam_id":76561198272694642,"connected_time":1112000000000,"state":"active","ping":70},{"user_id":450,"name":"Smelly Unfortunate","steam_id":76561199014848255,"connected_time":2913000000000,"state":"active","ping":77},{"user_id":321,"name":"Spazz","steam_id":76561198036167494,"connected_time":12894000000000,"state":"active","ping":41}]},{"server_id":36,"name":"Uncletopia | Chicago | 5 | All Maps","name_short":"chi-5","host":"chi-2.us.uncletopia.com","port":27015,"enabled":true,"region":"us-central","cc":"us","latitude":41.881832,"longitude":-87.62318,"reserved":0,"last_update":"0001-01-01T00:00:00Z","name_a2s":"Uncletopia | Chicago | 5 | All Maps","protocol":17,"map":"pl_barnblitz","folder":"tf","game":"Team Fortress","app_id":440,"player_count":24,"max_players":24,"Bots":0,"server_type":"Dedicated","server_os":"Linux","password":true,"vac":true,"version":"7882260","steam_id":85568392924866362,"keywords":["nocrits","nodmgspread","payload","uncletopia"],"game_id":440,"stv_port":27016,"stv_name":"Uncletopia | Chicago | 5 | All Maps | STV","players":[{"user_id":116,"name":"sasharudzik","steam_id":76561199126617781,"connected_time":306000000000,"state":"active","ping":69},{"user_id":102,"name":"caption cool","steam_id":76561197990612056,"connected_time":1394000000000,"state":"active","ping":46},{"user_id":26,"name":"Blitzy","steam_id":76561198149472890,"connected_time":4905000000000,"state":"active","ping":75},{"user_id":73,"name":"Dr.Q","steam_id":76561198080791537,"connected_time":2823000000000,"state":"active","ping":214},{"user_id":23,"name":"üÖúüÖîüÖîüÖöüÖ¢üÖ£üÖî\ufffd\ufffd\ufffd","steam_id":76561197999748343,"connected_time":5162000000000,"state":"active","ping":66},{"user_id":117,"name":"Serene Salamander","steam_id":76561198001094770,"connected_time":300000000000,"state":"active","ping":116},{"user_id":36,"name":"Malmart_Employee","steam_id":76561198320388704,"connected_time":4680000000000,"state":"active","ping":109},{"user_id":69,"name":"Overduecat","steam_id":76561198092452824,"connected_time":2896000000000,"state":"active","ping":72},{"user_id":115,"name":"Victor Skull","steam_id":76561198352212864,"connected_time":321000000000,"state":"active","ping":59},{"user_id":94,"name":"PenguinJack","steam_id":76561198120680312,"connected_time":1678000000000,"state":"active","ping":90},{"user_id":122,"name":"riSygneD","steam_id":76561198331618687,"connected_time":79000000000,"state":"active","ping":95},{"user_id":110,"name":"Vostopulous","steam_id":76561198040190843,"connected_time":362000000000,"state":"active","ping":88},{"user_id":95,"name":"kiaan","steam_id":76561198060819695,"connected_time":1593000000000,"state":"active","ping":71},{"user_id":111,"name":"Furry on main","steam_id":76561198371577822,"connected_time":352000000000,"state":"active","ping":70},{"user_id":74,"name":"xen","steam_id":76561198048568188,"connected_time":2799000000000,"state":"active","ping":61},{"user_id":106,"name":"The Nikocado Enjoyer","steam_id":76561198263154374,"connected_time":685000000000,"state":"active","ping":55},{"user_id":109,"name":"the trollining","steam_id":76561199160884713,"connected_time":451000000000,"state":"active","ping":95},{"user_id":113,"name":"tim-","steam_id":76561199119101315,"connected_time":336000000000,"state":"active","ping":73},{"user_id":121,"name":"Happy Yaoi Friday","steam_id":76561198111290441,"connected_time":162000000000,"state":"active","ping":59},{"user_id":119,"name":"Rin \"Hindwing\" Redtail","steam_id":76561199074865638,"connected_time":253000000000,"state":"active","ping":74},{"user_id":99,"name":"laserx175","steam_id":76561199220960517,"connected_time":1493000000000,"state":"active","ping":78},{"user_id":93,"name":"twizted","steam_id":76561197960407274,"connected_time":1747000000000,"state":"active","ping":72},{"user_id":120,"name":"floofy","steam_id":76561198389769098,"connected_time":243000000000,"state":"active","ping":78},{"user_id":105,"name":"ttv/lilirouxxx","steam_id":76561198000522179,"connected_time":757000000000,"state":"active","ping":85}]},{"server_id":37,"name":"Uncletopia | Chicago | 6 | All Maps","name_short":"chi-6","host":"chi-2.us.uncletopia.com","port":27025,"enabled":true,"region":"us-central","cc":"us","latitude":41.881832,"longitude":-87.62318,"reserved":0,"last_update":"0001-01-01T00:00:00Z","name_a2s":"Uncletopia | Chicago | 6 | All Maps","protocol":17,"map":"koth_cascade","folder":"tf","game":"Team Fortress","app_id":440,"player_count":0,"max_players":24,"Bots":0,"server_type":"Dedicated","server_os":"Linux","password":true,"vac":true,"version":"7882260","steam_id":85568392924866363,"keywords":["cp","nocrits","nodmgspread","uncletopia"],"game_id":440,"stv_port":27026,"stv_name":"Uncletopia | Chicago | 6 | All Maps | STV","players":null},{"server_id":38,"name":"Uncletopia | Chicago | 7 | Stopwatch Beta","name_short":"chi-7","host":"chi-2.us.uncletopia.com","port":27035,"enabled":true,"region":"us-central","cc":"us","latitude":41.881832,"longitude":-87.62318,"reserved":0,"last_update":"0001-01-01T00:00:00Z","name_a2s":"Uncletopia | Chicago | 7 | Stopwatch Beta","protocol":17,"map":"pl_borneo","folder":"tf","game":"Team Fortress","app_id":440,"player_count":0,"max_players":24,"Bots":0,"server_type":"Dedicated","server_os":"Linux","password":true,"vac":true,"version":"7882260","steam_id":85568392924866364,"keywords":["nocrits","nodmgspread","payload","uncletopia"],"game_id":440,"stv_port":27036,"stv_name":"Uncletopia | Chicago | 7 | Stopwatch Beta | STV","players":null},{"server_id":39,"name":"Uncletopia | Chicago | 8 | Community","name_short":"chi-8","host":"chi-2.us.uncletopia.com","port":27045,"enabled":true,"region":"us-central","cc":"us","latitude":41.881832,"longitude":-87.62318,"reserved":0,"last_update":"0001-01-01T00:00:00Z","name_a2s":"Uncletopia | Chicago | 8 | Community","protocol":17,"map":"workshop/cp_indulge.ugc528106646","folder":"tf","game":"Team Fortress","app_id":440,"player_count":7,"max_players":24,"Bots":0,"server_type":"Dedicated","server_os":"Linux","password":true,"vac":true,"version":"7882260","steam_id":85568392924866365,"keywords":["cp","nocrits","nodmgspread","uncletopia"],"game_id":440,"stv_port":27046,"stv_name":"Uncletopia | Chicago | 8 | Community | STV","players":[{"user_id":9,"name":"GuyGoom","steam_id":76561198254522178,"connected_time":165000000000,"state":"active","ping":45},{"user_id":5,"name":"JustDokiDokiLiteratureClub!9221","steam_id":76561198821706797,"connected_time":1409000000000,"state":"active","ping":59},{"user_id":8,"name":"KittyToy","steam_id":76561198043990701,"connected_time":699000000000,"state":"active","ping":99},{"user_id":7,"name":"Chucklez","steam_id":76561198058193135,"connected_time":892000000000,"state":"active","ping":60},{"user_id":10,"name":"the.land.of.avalon","steam_id":76561198245431668,"connected_time":142000000000,"state":"active","ping":48},{"user_id":11,"name":"Sturmtiger-Chan","steam_id":76561198376975972,"connected_time":91000000000,"state":"spawning","ping":116},{"user_id":12,"name":"gideon nav my beloved","steam_id":76561198259092181,"connected_time":79000000000,"state":"active","ping":60}]},{"server_id":8,"name":"Uncletopia | Dallas | 1 | All Maps","name_short":"dal-1","host":"dal-1.us.uncletopia.com","port":27015,"enabled":true,"region":"us-central","cc":"us","latitude":32.779167,"longitude":-96.80889,"reserved":0,"last_update":"0001-01-01T00:00:00Z","name_a2s":"Uncletopia | Dallas | 1 | All Maps","protocol":17,"map":"koth_suijin","folder":"tf","game":"Team Fortress","app_id":440,"player_count":23,"max_players":24,"Bots":0,"server_type":"Dedicated","server_os":"Linux","password":true,"vac":true,"version":"7882260","steam_id":85568392924469986,"keywords":["cp","nocrits","nodmgspread","uncletopia"],"game_id":440,"stv_port":27016,"stv_name":"Uncletopia | Dallas | 1 | All Maps | STV","players":[{"user_id":219,"name":"evil jesus 05","steam_id":76561198419315893,"connected_time":2846000000000,"state":"active","ping":88},{"user_id":251,"name":"¬øsoup?","steam_id":76561198121042852,"connected_time":18000000000,"state":"active","ping":95},{"user_id":252,"name":"Zorlovo","steam_id":76561198006443283,"connected_time":2000000000,"state":"spawning","ping":77},{"user_id":228,"name":"Sammich Slinger","steam_id":76561198007644532,"connected_time":1792000000000,"state":"active","ping":68},{"user_id":243,"name":"Jazztral (Grandmaster)","steam_id":76561198067827514,"connected_time":656000000000,"state":"active","ping":36},{"user_id":245,"name":"Nico The Cheese","steam_id":76561199065272792,"connected_time":388000000000,"state":"active","ping":92},{"user_id":200,"name":"SmokeyGalaxy","steam_id":76561198118780516,"connected_time":3746000000000,"state":"active","ping":48},{"user_id":248,"name":"Weerk","steam_id":76561199209543551,"connected_time":67000000000,"state":"active","ping":80},{"user_id":230,"name":"wrist game dumbin","steam_id":76561198247984828,"connected_time":1729000000000,"state":"active","ping":62},{"user_id":216,"name":"good soup guy","steam_id":76561199210237835,"connected_time":2905000000000,"state":"active","ping":83},{"user_id":232,"name":"goon refinery","steam_id":76561198166781089,"connected_time":1644000000000,"state":"active","ping":57},{"user_id":235,"name":"Humon Player","steam_id":76561198013593178,"connected_time":1284000000000,"state":"active","ping":56},{"user_id":234,"name":"Miro","steam_id":76561198936412406,"connected_time":1288000000000,"state":"active","ping":75},{"user_id":244,"name":"CIA informant","steam_id":76561198070380404,"connected_time":487000000000,"state":"active","ping":89},{"user_id":247,"name":"Kito","steam_id":76561198394383213,"connected_time":78000000000,"state":"active","ping":90},{"user_id":241,"name":"Honest Tunnel Salesman","steam_id":76561198059071100,"connected_time":1037000000000,"state":"active","ping":90},{"user_id":249,"name":"Woorj07 [DEFN]","steam_id":76561198162606064,"connected_time":61000000000,"state":"active","ping":106},{"user_id":221,"name":"Ÿ©(^·¥ó^)€∂","steam_id":76561199013337543,"connected_time":2824000000000,"state":"active","ping":60},{"user_id":250,"name":"JoeJoeJoeBob","steam_id":76561198067236683,"connected_time":42000000000,"state":"spawning","ping":282},{"user_id":147,"name":"Moonflower ‚ú¶","steam_id":76561198191782483,"connected_time":8340000000000,"state":"active","ping":48},{"user_id":207,"name":"Xanveil","steam_id":76561198370304125,"connected_time":3339000000000,"state":"active","ping":58},{"user_id":198,"name":"pim","steam_id":76561198095163441,"connected_time":3796000000000,"state":"active","ping":45},{"user_id":226,"name":"Manchurian Bandit","steam_id":76561198072410042,"connected_time":1823000000000,"state":"active","ping":76}]},{"server_id":108,"name":"Uncletopia | Dallas | 2 | All Maps","name_short":"dal-2","host":"dal-1.us.uncletopia.com","port":27025,"enabled":true,"region":"us-central","cc":"us","latitude":32.779167,"longitude":-96.80889,"reserved":0,"last_update":"0001-01-01T00:00:00Z","name_a2s":"Uncletopia | Dallas | 2 | All Maps","protocol":17,"map":"pl_upward","folder":"tf","game":"Team Fortress","app_id":440,"player_count":24,"max_players":24,"Bots":0,"server_type":"Dedicated","server_os":"Linux","password":true,"vac":true,"version":"7882260","steam_id":85568392924469988,"keywords":["nocrits","nodmgspread","payload","uncletopia"],"game_id":440,"stv_port":27026,"stv_name":"Uncletopia | Dallas | 2 | All Maps | STV","players":[{"user_id":112,"name":"[chef] iron","steam_id":76561197970888616,"connected_time":962000000000,"state":"active","ping":58},{"user_id":60,"name":"ScrockCat","steam_id":76561198012882208,"connected_time":3980000000000,"state":"active","ping":106},{"user_id":84,"name":"vgMaster749","steam_id":76561198205048900,"connected_time":2416000000000,"state":"active","ping":60},{"user_id":107,"name":"‚ô• thedittofemboy ‚ô•","steam_id":76561199013129784,"connected_time":1936000000000,"state":"active","ping":55},{"user_id":69,"name":"BigPimpin","steam_id":76561198119549348,"connected_time":3148000000000,"state":"active","ping":46},{"user_id":118,"name":"aintnowaiyboi","steam_id":76561198301372369,"connected_time":759000000000,"state":"active","ping":38},{"user_id":99,"name":"Temujin","steam_id":76561198030936583,"connected_time":2141000000000,"state":"active","ping":63},{"user_id":115,"name":"Panda Loser","steam_id":76561198828745176,"connected_time":849000000000,"state":"active","ping":109},{"user_id":122,"name":"Sup m8","steam_id":76561198081659121,"connected_time":22000000000,"state":"active","ping":45},{"user_id":117,"name":"thepokeyen","steam_id":76561198236847572,"connected_time":790000000000,"state":"active","ping":85},{"user_id":81,"name":"deb","steam_id":76561198414336279,"connected_time":2471000000000,"state":"active","ping":60},{"user_id":82,"name":"„Ç¥?!Jon Chainsaw!?„Ç¥","steam_id":76561198400240040,"connected_time":2454000000000,"state":"active","ping":52},{"user_id":92,"name":"Big man real strong","steam_id":76561198173921691,"connected_time":2270000000000,"state":"active","ping":63},{"user_id":85,"name":"Ethan7704","steam_id":76561198821010606,"connected_time":2408000000000,"state":"active","ping":79},{"user_id":121,"name":"UnkownGamerLOL","steam_id":76561198225902368,"connected_time":215000000000,"state":"active","ping":70},{"user_id":87,"name":"orange rind (3 cent wifi)","steam_id":76561198130242461,"connected_time":2380000000000,"state":"active","ping":53},{"user_id":93,"name":"Baked Beans","steam_id":76561198090419068,"connected_time":2233000000000,"state":"active","ping":134},{"user_id":110,"name":"Emijon","steam_id":76561198255179590,"connected_time":1486000000000,"state":"active","ping":104},{"user_id":94,"name":"catrinaisahuman","steam_id":76561198281355729,"connected_time":2216000000000,"state":"active","ping":62},{"user_id":116,"name":"mritea","steam_id":76561198872799796,"connected_time":809000000000,"state":"active","ping":102},{"user_id":98,"name":"KingKata","steam_id":76561198289610011,"connected_time":2149000000000,"state":"active","ping":121},{"user_id":119,"name":"Bob","steam_id":76561198844788240,"connected_time":657000000000,"state":"active","ping":95},{"user_id":120,"name":"Heart","steam_id":76561198171449661,"connected_time":388000000000,"state":"active","ping":92},{"user_id":104,"name":"Jaydyn","steam_id":76561198140326797,"connected_time":2074000000000,"state":"active","ping":102}]},{"server_id":5,"name":"Uncletopia | Frankfurt | 1 | All Maps","name_short":"frk-1","host":"frk-1.de.uncletopia.com","port":27015,"enabled":true,"region":"eu","cc":"de","latitude":50.110924,"longitude":8.682127,"reserved":0,"last_update":"0001-01-01T00:00:00Z","name_a2s":"Uncletopia | Frankfurt | 1 | All Maps","protocol":17,"map":"pl_goldrush","folder":"tf","game":"Team Fortress","app_id":440,"player_count":24,"max_players":24,"Bots":0,"server_type":"Dedicated","server_os":"Linux","password":true,"vac":true,"version":"7882260","steam_id":85568392924469989,"keywords":["nocrits","nodmgspread","payload","uncletopia"],"game_id":440,"stv_port":27016,"stv_name":"Uncletopia | Frankfurt | 1 | All Maps | STV","players":[{"user_id":695,"name":"Ratatatatatatouille","steam_id":76561198182267098,"connected_time":1515000000000,"state":"active","ping":84},{"user_id":707,"name":"Flyffmario","steam_id":76561198044770177,"connected_time":1042000000000,"state":"active","ping":89},{"user_id":679,"name":"Benswollo","steam_id":76561198882064648,"connected_time":2434000000000,"state":"active","ping":176},{"user_id":727,"name":"Juiceydough","steam_id":76561197997323419,"connected_time":172000000000,"state":"active","ping":84},{"user_id":694,"name":"grub","steam_id":76561199026102218,"connected_time":1531000000000,"state":"active","ping":80},{"user_id":697,"name":"Atronic","steam_id":76561198354960567,"connected_time":1389000000000,"state":"active","ping":51},{"user_id":655,"name":"dun-Dun-DUUUUUN!","steam_id":76561198193357946,"connected_time":3768000000000,"state":"active","ping":122},{"user_id":706,"name":"TCrazy","steam_id":76561198167074159,"connected_time":1051000000000,"state":"active","ping":81},{"user_id":726,"name":"[O\u0026O]YaboiDucki","steam_id":76561198195976589,"connected_time":299000000000,"state":"active","ping":75},{"user_id":725,"name":"dripstein","steam_id":76561198059598696,"connected_time":349000000000,"state":"active","ping":60},{"user_id":717,"name":"Providence","steam_id":76561198003920270,"connected_time":719000000000,"state":"active","ping":83},{"user_id":686,"name":"Silverdarlin","steam_id":76561198118540970,"connected_time":2146000000000,"state":"active","ping":64},{"user_id":721,"name":"LOBZIK","steam_id":76561198114830120,"connected_time":452000000000,"state":"active","ping":76},{"user_id":689,"name":"Phanom","steam_id":76561198995241508,"connected_time":1998000000000,"state":"active","ping":80},{"user_id":699,"name":"simon","steam_id":76561198880361394,"connected_time":1327000000000,"state":"active","ping":51},{"user_id":714,"name":"ldshwt","steam_id":76561198090364357,"connected_time":854000000000,"state":"active","ping":55},{"user_id":704,"name":"SDCK! GardenFungus tf2easy.com","steam_id":76561198054894337,"connected_time":1144000000000,"state":"active","ping":56},{"user_id":705,"name":"Stefan","steam_id":76561198983111090,"connected_time":1138000000000,"state":"active","ping":64},{"user_id":723,"name":"Egg","steam_id":76561199360189459,"connected_time":402000000000,"state":"active","ping":78},{"user_id":711,"name":"Pan Pan","steam_id":76561199074670515,"connected_time":917000000000,"state":"active","ping":93},{"user_id":724,"name":"Weebot00","steam_id":76561199479204459,"connected_time":396000000000,"state":"active","ping":82},{"user_id":728,"name":"Skrbi‚ù§","steam_id":76561198393866042,"connected_time":135000000000,"state":"active","ping":80},{"user_id":720,"name":"Smurph","steam_id":76561197996539360,"connected_time":646000000000,"state":"active","ping":98},{"user_id":719,"name":"–£–ß–£–°–¨ –°–†–ê–¢–¨","steam_id":76561198888902677,"connected_time":688000000000,"state":"active","ping":65}]},{"server_id":110,"name":"Uncletopia | Frankfurt | 2 | All Maps","name_short":"frk-2","host":"frk-1.de.uncletopia.com","port":27025,"enabled":true,"region":"eu","cc":"de","latitude":50.110924,"longitude":8.682127,"reserved":0,"last_update":"0001-01-01T00:00:00Z","name_a2s":"Uncletopia | Frankfurt | 2 | All Maps","protocol":17,"map":"pl_pier","folder":"tf","game":"Team Fortress","app_id":440,"player_count":21,"max_players":24,"Bots":0,"server_type":"Dedicated","server_os":"Linux","password":true,"vac":true,"version":"7882260","steam_id":85568392924469990,"keywords":["nocrits","nodmgspread","payload","uncletopia"],"game_id":440,"stv_port":27026,"stv_name":"Uncletopia | Frankfurt | 2 | All Maps | STV","players":[{"user_id":458,"name":"DeBlauwe","steam_id":76561198003140896,"connected_time":490000000000,"state":"active","ping":43},{"user_id":437,"name":"Genuine","steam_id":76561197966295765,"connected_time":1604000000000,"state":"active","ping":38},{"user_id":465,"name":"_Starlight_","steam_id":76561197993885738,"connected_time":302000000000,"state":"active","ping":75},{"user_id":402,"name":"giclure :;","steam_id":76561197986362828,"connected_time":5362000000000,"state":"active","ping":60},{"user_id":476,"name":"a mcdonalds employee","steam_id":76561198429149902,"connected_time":37000000000,"state":"active","ping":179},{"user_id":455,"name":"Zembis","steam_id":76561198008017918,"connected_time":748000000000,"state":"active","ping":99},{"user_id":477,"name":"Kaishakunin","steam_id":76561198028123874,"connected_time":27000000000,"state":"active","ping":90},{"user_id":478,"name":"‡∂ûbominasus 2137  #SaveTF2","steam_id":76561198030062981,"connected_time":5000000000,"state":"spawning","ping":64},{"user_id":462,"name":"Salih","steam_id":76561198287934839,"connected_time":366000000000,"state":"active","ping":47},{"user_id":407,"name":"Melford","steam_id":76561198319650677,"connected_time":4410000000000,"state":"active","ping":137},{"user_id":441,"name":"just a person","steam_id":76561198340369454,"connected_time":1495000000000,"state":"active","ping":63},{"user_id":456,"name":"tek-9","steam_id":76561198107220903,"connected_time":695000000000,"state":"active","ping":46},{"user_id":445,"name":"amdon.art","steam_id":76561198066251000,"connected_time":1356000000000,"state":"active","ping":46},{"user_id":431,"name":"bunglar","steam_id":76561198027374166,"connected_time":2361000000000,"state":"active","ping":51},{"user_id":468,"name":"Eco","steam_id":76561199201938256,"connected_time":227000000000,"state":"active","ping":75},{"user_id":469,"name":"ohio.lottery.contestant4004","steam_id":76561198051852765,"connected_time":220000000000,"state":"active","ping":60},{"user_id":470,"name":"feelin' pootis","steam_id":76561197995254867,"connected_time":200000000000,"state":"active","ping":60},{"user_id":473,"name":"paguro","steam_id":76561198119560871,"connected_time":134000000000,"state":"active","ping":61},{"user_id":471,"name":"Suck my Puck!","steam_id":76561198019632321,"connected_time":165000000000,"state":"active","ping":84},{"user_id":472,"name":"Eric Coconut","steam_id":76561198910623003,"connected_time":150000000000,"state":"active","ping":78},{"user_id":475,"name":"leminsc8","steam_id":76561198825084995,"connected_time":115000000000,"state":"active","ping":41}]},{"server_id":308,"name":"Uncletopia | Frankfurt | 3 | All Maps","name_short":"frk-3","host":"frk-1.de.uncletopia.com","port":27035,"enabled":true,"region":"eu","cc":"de","latitude":50.110924,"longitude":8.682127,"reserved":0,"last_update":"0001-01-01T00:00:00Z","name_a2s":"Uncletopia | Frankfurt | 3 | All Maps","protocol":17,"map":"cp_fastlane","folder":"tf","game":"Team Fortress","app_id":440,"player_count":11,"max_players":24,"Bots":0,"server_type":"Dedicated","server_os":"Linux","password":true,"vac":true,"version":"7882260","steam_id":85568392924504274,"keywords":["cp","nocrits","nodmgspread","uncletopia"],"game_id":440,"stv_port":27036,"stv_name":"Uncletopia | Frankfurt | 3 | All Maps | STV","players":[{"user_id":299,"name":"Rat King","steam_id":76561198256783599,"connected_time":1267000000000,"state":"active","ping":67},{"user_id":247,"name":"Pixie","steam_id":76561198044038797,"connected_time":5635000000000,"state":"active","ping":75},{"user_id":300,"name":"name is NOBODY","steam_id":76561198436188791,"connected_time":306000000000,"state":"active","ping":74},{"user_id":298,"name":"akakez","steam_id":76561198095432821,"connected_time":1403000000000,"state":"active","ping":116},{"user_id":301,"name":"SudPad","steam_id":76561198312204253,"connected_time":13000000000,"state":"spawning","ping":92},{"user_id":235,"name":"Grim","steam_id":76561198141464555,"connected_time":6802000000000,"state":"active","ping":76},{"user_id":281,"name":"David \"Crash\" Murphy","steam_id":76561198292845505,"connected_time":2779000000000,"state":"active","ping":88},{"user_id":215,"name":"Tegnerud","steam_id":76561198214185612,"connected_time":8059000000000,"state":"active","ping":68},{"user_id":271,"name":"Bepperman","steam_id":76561198397517828,"connected_time":3343000000000,"state":"active","ping":68},{"user_id":287,"name":"Maintenant Priez","steam_id":76561198833249164,"connected_time":2481000000000,"state":"active","ping":76},{"user_id":288,"name":"Grim the lemon","steam_id":76561199083433988,"connected_time":2475000000000,"state":"active","ping":60}]},{"server_id":309,"name":"Uncletopia | Frankfurt | 4 | All Maps","name_short":"frk-4","host":"frk-1.de.uncletopia.com","port":27045,"enabled":true,"region":"eu","cc":"de","latitude":50.110924,"longitude":8.682127,"reserved":0,"last_update":"0001-01-01T00:00:00Z","name_a2s":"Uncletopia | Frankfurt | 4 | All Maps","protocol":17,"map":"cp_altitude","folder":"tf","game":"Team Fortress","app_id":440,"player_count":24,"max_players":24,"Bots":0,"server_type":"Dedicated","server_os":"Linux","password":true,"vac":true,"version":"7882260","steam_id":85568392924504275,"keywords":["cp","nocrits","nodmgspread","uncletopia"],"game_id":440,"stv_port":27046,"stv_name":"Uncletopia | Frankfurt | 4 | All Maps | STV","players":[{"user_id":692,"name":"MrKampfCookie","steam_id":76561198085490175,"connected_time":2117000000000,"state":"active","ping":44},{"user_id":707,"name":"swallowed 10 pennies please hel","steam_id":76561198055816412,"connected_time":835000000000,"state":"active","ping":63},{"user_id":699,"name":"Jack.Orlando","steam_id":76561198802400236,"connected_time":1536000000000,"state":"active","ping":73},{"user_id":697,"name":"Plow cheese","steam_id":76561198142478067,"connected_time":1595000000000,"state":"active","ping":78},{"user_id":706,"name":"Spinyapickle","steam_id":76561198086653667,"connected_time":990000000000,"state":"active","ping":71},{"user_id":639,"name":"kananugettikeitto","steam_id":76561198071162890,"connected_time":6238000000000,"state":"active","ping":78},{"user_id":685,"name":"√Ñ√§rik ‚ô£","steam_id":76561198131871737,"connected_time":2664000000000,"state":"active","ping":39},{"user_id":698,"name":"Alpha","steam_id":76561198133229149,"connected_time":1574000000000,"state":"active","ping":96},{"user_id":640,"name":"davf591","steam_id":76561198110322367,"connected_time":6229000000000,"state":"active","ping":89},{"user_id":711,"name":"meowcity","steam_id":76561198097712283,"connected_time":540000000000,"state":"active","ping":89},{"user_id":681,"name":"god's eepiest soldier","steam_id":76561199044306780,"connected_time":2821000000000,"state":"active","ping":80},{"user_id":684,"name":"dotdotdot","steam_id":76561198057628751,"connected_time":2715000000000,"state":"active","ping":68},{"user_id":686,"name":"RedFog","steam_id":76561198284713081,"connected_time":2514000000000,"state":"active","ping":42},{"user_id":689,"name":"wgbubl","steam_id":76561199133004884,"connected_time":2464000000000,"state":"active","ping":95},{"user_id":641,"name":"Whiff","steam_id":76561198086264411,"connected_time":6225000000000,"state":"active","ping":76},{"user_id":700,"name":"ijustsmokeandcry","steam_id":76561198044189114,"connected_time":1445000000000,"state":"active","ping":58},{"user_id":701,"name":"PierraNova","steam_id":76561198145686102,"connected_time":1445000000000,"state":"active","ping":58},{"user_id":712,"name":"Delta Melta","steam_id":76561198283391403,"connected_time":527000000000,"state":"active","ping":68},{"user_id":674,"name":"Jackson News","steam_id":76561198401610939,"connected_time":3627000000000,"state":"active","ping":69},{"user_id":714,"name":"BELADIT","steam_id":76561198011911501,"connected_time":479000000000,"state":"active","ping":61},{"user_id":676,"name":"Agartha Dweller","steam_id":76561198076881381,"connected_time":3312000000000,"state":"active","ping":73},{"user_id":715,"name":"TSpirit_Wycc","steam_id":76561198003876146,"connected_time":444000000000,"state":"active","ping":72},{"user_id":716,"name":"Doggo225","steam_id":76561198166707002,"connected_time":362000000000,"state":"active","ping":55},{"user_id":713,"name":"Dzan50","steam_id":76561198059758591,"connected_time":512000000000,"state":"active","ping":108}]},{"server_id":310,"name":"Uncletopia | Frankfurt | 5 | All Maps","name_short":"frk-5","host":"frk-1.de.uncletopia.com","port":27055,"enabled":true,"region":"eu","cc":"de","latitude":50.110924,"longitude":8.682127,"reserved":0,"last_update":"0001-01-01T00:00:00Z","name_a2s":"Uncletopia | Frankfurt | 5 | All Maps","protocol":17,"map":"cp_sunshine","folder":"tf","game":"Team Fortress","app_id":440,"player_count":24,"max_players":24,"Bots":0,"server_type":"Dedicated","server_os":"Linux","password":true,"vac":true,"version":"7882260","steam_id":85568392924504277,"keywords":["cp","nocrits","nodmgspread","uncletopia"],"game_id":440,"stv_port":27056,"stv_name":"Uncletopia | Frankfurt | 5 | All Maps | STV","players":[{"user_id":646,"name":"‚ô• trixy ‚ô•","steam_id":76561199474154775,"connected_time":257000000000,"state":"active","ping":53},{"user_id":625,"name":"Udinese Dion","steam_id":76561198067931573,"connected_time":1813000000000,"state":"active","ping":52},{"user_id":632,"name":"Jeƒçmen","steam_id":76561198051617968,"connected_time":1084000000000,"state":"active","ping":68},{"user_id":622,"name":"twitch/auratf2","steam_id":76561197988085026,"connected_time":2387000000000,"state":"active","ping":69},{"user_id":628,"name":"Horo","steam_id":76561198009504508,"connected_time":1470000000000,"state":"active","ping":67},{"user_id":601,"name":"hedon/","steam_id":76561198249832770,"connected_time":3864000000000,"state":"active","ping":58},{"user_id":559,"name":"Rarky","steam_id":76561198054398642,"connected_time":5947000000000,"state":"active","ping":57},{"user_id":594,"name":"Mi Manchi","steam_id":76561198171573129,"connected_time":4301000000000,"state":"active","ping":59},{"user_id":633,"name":"Bajas","steam_id":76561198179339326,"connected_time":1070000000000,"state":"active","ping":78},{"user_id":634,"name":"Tomex999","steam_id":76561198049587675,"connected_time":1064000000000,"state":"active","ping":79},{"user_id":570,"name":"Pilaarius","steam_id":76561198120273212,"connected_time":5310000000000,"state":"active","ping":92},{"user_id":638,"name":"CAWER","steam_id":76561198277265652,"connected_time":937000000000,"state":"active","ping":49},{"user_id":626,"name":"f√©nix","steam_id":76561198083199151,"connected_time":1610000000000,"state":"active","ping":63},{"user_id":579,"name":"Teecho","steam_id":76561197995269610,"connected_time":5184000000000,"state":"active","ping":70},{"user_id":598,"name":"xavier","steam_id":76561198076494034,"connected_time":4025000000000,"state":"active","ping":58},{"user_id":647,"name":"Zakk","steam_id":76561199217826681,"connected_time":232000000000,"state":"active","ping":82},{"user_id":639,"name":"Koli","steam_id":76561197992428783,"connected_time":812000000000,"state":"active","ping":46},{"user_id":627,"name":"Snaky","steam_id":76561199000954430,"connected_time":1589000000000,"state":"active","ping":96},{"user_id":613,"name":"monaskick","steam_id":76561198326190912,"connected_time":3031000000000,"state":"active","ping":78},{"user_id":599,"name":"Massmarine","steam_id":76561198038696531,"connected_time":3953000000000,"state":"active","ping":114},{"user_id":640,"name":"Saltanat","steam_id":76561198802621568,"connected_time":740000000000,"state":"active","ping":78},{"user_id":589,"name":"‚úûhe joy of recycling","steam_id":76561198415564349,"connected_time":4758000000000,"state":"active","ping":60},{"user_id":637,"name":"P√¶b√¶s","steam_id":76561198088369219,"connected_time":1020000000000,"state":"active","ping":76},{"user_id":643,"name":"elijah","steam_id":76561198093936708,"connected_time":361000000000,"state":"active","ping":60}]},{"server_id":311,"name":"Uncletopia | Frankfurt | 6 | All Maps","name_short":"frk-6","host":"frk-1.de.uncletopia.com","port":27065,"enabled":true,"region":"eu","cc":"de","latitude":50.110924,"longitude":8.682127,"reserved":0,"last_update":"0001-01-01T00:00:00Z","name_a2s":"Uncletopia | Frankfurt | 6 | All Maps","protocol":17,"map":"pl_upward","folder":"tf","game":"Team Fortress","app_id":440,"player_count":24,"max_players":24,"Bots":0,"server_type":"Dedicated","server_os":"Linux","password":true,"vac":true,"version":"7882260","steam_id":85568392924504278,"keywords":["nocrits","nodmgspread","payload","uncletopia"],"game_id":440,"stv_port":27066,"stv_name":"Uncletopia | Frankfurt | 6 | All Maps | STV","players":[{"user_id":134,"name":"WATANG!","steam_id":76561198040478926,"connected_time":5970000000000,"state":"active","ping":68},{"user_id":161,"name":"Lux","steam_id":76561198060417740,"connected_time":2408000000000,"state":"active","ping":45},{"user_id":148,"name":"Ross from F.R.I.E.N.D.S.","steam_id":76561198008511665,"connected_time":4067000000000,"state":"active","ping":60},{"user_id":190,"name":"svantezch","steam_id":76561198373831657,"connected_time":427000000000,"state":"active","ping":71},{"user_id":191,"name":"‚≤ò‚≤ì‚≤Å","steam_id":76561199005875559,"connected_time":404000000000,"state":"active","ping":45},{"user_id":178,"name":"Hoff","steam_id":76561198138540938,"connected_time":1428000000000,"state":"active","ping":82},{"user_id":186,"name":"Chucky.","steam_id":76561197969361063,"connected_time":693000000000,"state":"active","ping":85},{"user_id":192,"name":"MONKEY FIT CHECK üíÄüíÄüíÄ","steam_id":76561198235739036,"connected_time":347000000000,"state":"active","ping":64},{"user_id":176,"name":"BOB","steam_id":76561198797287684,"connected_time":1564000000000,"state":"active","ping":65},{"user_id":164,"name":"slifer the executive producer","steam_id":76561198322087870,"connected_time":2069000000000,"state":"active","ping":106},{"user_id":175,"name":"Testicular torsion","steam_id":76561198119547399,"connected_time":1720000000000,"state":"active","ping":55},{"user_id":173,"name":"DRIXENNNNN;1","steam_id":76561198056810212,"connected_time":1804000000000,"state":"active","ping":67},{"user_id":159,"name":"enter","steam_id":76561198048374516,"connected_time":2768000000000,"state":"active","ping":129},{"user_id":193,"name":"hoterbran","steam_id":76561198002701344,"connected_time":333000000000,"state":"active","ping":49},{"user_id":177,"name":"modavak","steam_id":76561198946290908,"connected_time":1487000000000,"state":"active","ping":91},{"user_id":180,"name":"Thors","steam_id":76561197968739075,"connected_time":1347000000000,"state":"active","ping":45},{"user_id":140,"name":"senior pomidor","steam_id":76561198123659806,"connected_time":5392000000000,"state":"active","ping":99},{"user_id":195,"name":"REN","steam_id":76561198000596385,"connected_time":37000000000,"state":"active","ping":68},{"user_id":136,"name":"xx_peter_griffinzz_xx","steam_id":76561198863013731,"connected_time":5722000000000,"state":"active","ping":51},{"user_id":183,"name":"ZerCroix","steam_id":76561198199523226,"connected_time":781000000000,"state":"active","ping":56},{"user_id":194,"name":"Donny","steam_id":76561198317950036,"connected_time":137000000000,"state":"active","ping":98},{"user_id":160,"name":"„É†GeRmAn |√óUA√ó„É†","steam_id":76561199044754898,"connected_time":2677000000000,"state":"active","ping":60},{"user_id":138,"name":"Kaiser","steam_id":76561198024490825,"connected_time":5629000000000,"state":"active","ping":45},{"user_id":153,"name":"Menty","steam_id":76561198036748212,"connected_time":4024000000000,"state":"active","ping":35}]},{"server_id":23,"name":"Uncletopia | Frankfurt | 7 | Stopwatch Beta","name_short":"frk-7","host":"frk-1.de.uncletopia.com","port":27075,"enabled":true,"region":"eu","cc":"de","latitude":50.110924,"longitude":8.682127,"reserved":0,"last_update":"0001-01-01T00:00:00Z","name_a2s":"Uncletopia | Frankfurt | 7 | Stopwatch Beta","protocol":17,"map":"workshop/pl_badwater_pro_v12.ugc2142942074","folder":"tf","game":"Team Fortress","app_id":440,"player_count":0,"max_players":24,"Bots":0,"server_type":"Dedicated","server_os":"Linux","password":true,"vac":true,"version":"7882260","steam_id":85568392924742827,"keywords":["nocrits","nodmgspread","payload","uncletopia"],"game_id":440,"stv_port":27076,"stv_name":"Uncletopia | Frankfurt | 7 | Stopwatch Beta | STV","players":null},{"server_id":24,"name":"Uncletopia | Frankfurt | 8 | Community","name_short":"frk-8","host":"frk-1.de.uncletopia.com","port":27085,"enabled":true,"region":"eu","cc":"de","latitude":50.110924,"longitude":8.682127,"reserved":0,"last_update":"0001-01-01T00:00:00Z","name_a2s":"Uncletopia | Frankfurt | 8 | Community","protocol":17,"map":"workshop/koth_trenchfoot_b1a.ugc731436616","folder":"tf","game":"Team Fortress","app_id":440,"player_count":0,"max_players":24,"Bots":0,"server_type":"Dedicated","server_os":"Linux","password":true,"vac":true,"version":"7882260","steam_id":85568392924742828,"keywords":["cp","nocrits","nodmgspread","uncletopia"],"game_id":440,"stv_port":27086,"stv_name":"Uncletopia | Frankfurt | 8 | Community | STV","players":null},{"server_id":202,"name":"Uncletopia | Hong Kong | 1 | All Maps","name_short":"hgk-1","host":"hgk-1.hk.uncletopia.com","port":27015,"enabled":true,"region":"asia","cc":"hk","latitude":22.302711,"longitude":114.177216,"reserved":0,"last_update":"0001-01-01T00:00:00Z","name_a2s":"Uncletopia | Hong Kong | 1 | All Maps","protocol":17,"map":"koth_viaduct","folder":"tf","game":"Team Fortress","app_id":440,"player_count":0,"max_players":24,"Bots":0,"server_type":"Dedicated","server_os":"Linux","password":true,"vac":true,"version":"7882260","steam_id":85568392924494504,"keywords":["cp","nocrits","nodmgspread","uncletopia"],"game_id":440,"stv_port":27016,"stv_name":"Uncletopia | Hong Kong | 1 | All Maps | STV","players":null},{"server_id":1,"name":"Uncletopia | Los Angeles | 1 | All Maps","name_short":"lax-1","host":"lax-1.us.uncletopia.com","port":27015,"enabled":true,"region":"us-west","cc":"us","latitude":33.94279,"longitude":-118.41004,"reserved":0,"last_update":"0001-01-01T00:00:00Z","name_a2s":"Uncletopia | Los Angeles | 1 | All Maps","protocol":17,"map":"pl_upward","folder":"tf","game":"Team Fortress","app_id":440,"player_count":25,"max_players":24,"Bots":0,"server_type":"Dedicated","server_os":"Linux","password":true,"vac":true,"version":"7882260","steam_id":85568392924469991,"keywords":["nocrits","nodmgspread","payload","uncletopia"],"game_id":440,"stv_port":27016,"stv_name":"Uncletopia | Los Angeles | 1 | All Maps | STV","players":[{"user_id":108,"name":"RIP Old Man Chico :(","steam_id":76561198865172720,"connected_time":1934000000000,"state":"active","ping":59},{"user_id":130,"name":"a stoned femboy","steam_id":76561199122985878,"connected_time":1169000000000,"state":"active","ping":93},{"user_id":85,"name":"Mega","steam_id":76561198121258379,"connected_time":3571000000000,"state":"active","ping":117},{"user_id":110,"name":"cielael","steam_id":76561198043971956,"connected_time":1892000000000,"state":"active","ping":47},{"user_id":122,"name":"resh","steam_id":76561198239598834,"connected_time":1552000000000,"state":"active","ping":102},{"user_id":67,"name":"Harold","steam_id":76561198057317770,"connected_time":4649000000000,"state":"active","ping":45},{"user_id":129,"name":"sagekiss","steam_id":76561198038831240,"connected_time":1260000000000,"state":"active","ping":83},{"user_id":112,"name":"Gabe","steam_id":76561198081153719,"connected_time":1847000000000,"state":"active","ping":64},{"user_id":120,"name":"Emgee","steam_id":76561198096429333,"connected_time":1609000000000,"state":"active","ping":99},{"user_id":142,"name":"slafflow","steam_id":76561199381012350,"connected_time":755000000000,"state":"active","ping":75},{"user_id":139,"name":"nail","steam_id":76561198212969373,"connected_time":879000000000,"state":"active","ping":57},{"user_id":146,"name":"H2OBourne","steam_id":76561198396293109,"connected_time":461000000000,"state":"active","ping":97},{"user_id":115,"name":"Bandit Heeler","steam_id":76561198371858344,"connected_time":1785000000000,"state":"active","ping":130},{"user_id":96,"name":"Lepa Radiƒá","steam_id":76561198014698593,"connected_time":3127000000000,"state":"active","ping":70},{"user_id":79,"name":"gumcuzzler","steam_id":76561198118644686,"connected_time":4180000000000,"state":"active","ping":51},{"user_id":90,"name":"PJROCK101","steam_id":76561198070616561,"connected_time":3306000000000,"state":"active","ping":86},{"user_id":144,"name":"AC3S Spade","steam_id":76561198266913930,"connected_time":505000000000,"state":"active","ping":32},{"user_id":47,"name":"Manticore","steam_id":76561198044664093,"connected_time":6535000000000,"state":"active","ping":102},{"user_id":145,"name":"Kaldor Draigo","steam_id":76561198317662346,"connected_time":502000000000,"state":"active","ping":127},{"user_id":132,"name":"Oruo the Husky","steam_id":76561199028788094,"connected_time":1144000000000,"state":"active","ping":60},{"user_id":147,"name":"bobletoob","steam_id":76561199184464900,"connected_time":451000000000,"state":"active","ping":56},{"user_id":141,"name":"I throw a lot","steam_id":76561198209650964,"connected_time":793000000000,"state":"active","ping":56},{"user_id":148,"name":"Yimberly","steam_id":76561199206923109,"connected_time":411000000000,"state":"active","ping":86},{"user_id":137,"name":"Mateo The Social Engineer","steam_id":76561199199772083,"connected_time":927000000000,"state":"active","ping":72},{"user_id":166,"name":"Whoplops","steam_id":76561197977188933,"connected_time":9000000000,"state":"connecting","ping":0}]},{"server_id":112,"name":"Uncletopia | Los Angeles | 2 | All Maps","name_short":"lax-2","host":"lax-1.us.uncletopia.com","port":27025,"enabled":true,"region":"us-west","cc":"us","latitude":33.94279,"longitude":-118.41004,"reserved":0,"last_update":"0001-01-01T00:00:00Z","name_a2s":"Uncletopia | Los Angeles | 2 | All Maps","protocol":17,"map":"cp_sunshine","folder":"tf","game":"Team Fortress","app_id":440,"player_count":0,"max_players":24,"Bots":0,"server_type":"Dedicated","server_os":"Linux","password":true,"vac":true,"version":"7882260","steam_id":85568392924469992,"keywords":["cp","nocrits","nodmgspread","uncletopia"],"game_id":440,"stv_port":27026,"stv_name":"Uncletopia | Los Angeles | 2 | All Maps | STV","players":null},{"server_id":324,"name":"Uncletopia | Los Angeles | 3 | All Maps","name_short":"lax-3","host":"lax-1.us.uncletopia.com","port":27035,"enabled":true,"region":"us-west","cc":"us","latitude":33.94279,"longitude":-118.41004,"reserved":0,"last_update":"0001-01-01T00:00:00Z","name_a2s":"Uncletopia | Los Angeles | 3 | All Maps","protocol":17,"map":"pl_pier","folder":"tf","game":"Team Fortress","app_id":440,"player_count":0,"max_players":24,"Bots":0,"server_type":"Dedicated","server_os":"Linux","password":true,"vac":true,"version":"7882260","steam_id":85568392924510198,"keywords":["nocrits","nodmgspread","payload","uncletopia"],"game_id":440,"stv_port":27036,"stv_name":"Uncletopia | Los Angeles | 3 | All Maps | STV","players":null},{"server_id":25,"name":"Uncletopia | Los Angeles | 4 | Stopwatch Beta","name_short":"lax-4","host":"lax-1.us.uncletopia.com","port":27045,"enabled":true,"region":"us-west","cc":"us","latitude":33.94279,"longitude":-118.41004,"reserved":0,"last_update":"0001-01-01T00:00:00Z","name_a2s":"Uncletopia | Los Angeles | 4 | Stopwatch Beta","protocol":17,"map":"workshop/koth_bagel_rc6.ugc2514036946","folder":"tf","game":"Team Fortress","app_id":440,"player_count":0,"max_players":24,"Bots":0,"server_type":"Dedicated","server_os":"Linux","password":true,"vac":true,"version":"7882260","steam_id":85568392924510199,"keywords":["cp","nocrits","nodmgspread","uncletopia"],"game_id":440,"stv_port":27046,"stv_name":"Uncletopia | Los Angeles | 4 | Stopwatch Beta | STV","players":null},{"server_id":11,"name":"Uncletopia | London | 1 | All Maps","name_short":"lon-1","host":"lon-1.uk.uncletopia.com","port":27015,"enabled":true,"region":"eu","cc":"gb","latitude":51.509865,"longitude":-0.118092,"reserved":0,"last_update":"0001-01-01T00:00:00Z","name_a2s":"Uncletopia | London | 1 | All Maps","protocol":17,"map":"cp_dustbowl","folder":"tf","game":"Team Fortress","app_id":440,"player_count":24,"max_players":24,"Bots":0,"server_type":"Dedicated","server_os":"Linux","password":true,"vac":true,"version":"7882260","steam_id":85568392924367362,"keywords":["cp","nocrits","nodmgspread","uncletopia"],"game_id":440,"stv_port":27016,"stv_name":"Uncletopia | London | 1 | All Maps | STV","players":[{"user_id":322,"name":"mas","steam_id":76561198145465595,"connected_time":3077000000000,"state":"active","ping":38},{"user_id":349,"name":"ayadam","steam_id":76561198161515769,"connected_time":829000000000,"state":"active","ping":122},{"user_id":329,"name":"BreadBubbles","steam_id":76561198174332826,"connected_time":2287000000000,"state":"active","ping":58},{"user_id":343,"name":"ChomeDomer","steam_id":76561198049375898,"connected_time":1791000000000,"state":"active","ping":72},{"user_id":334,"name":"cowboy","steam_id":76561198080361351,"connected_time":2214000000000,"state":"active","ping":69},{"user_id":352,"name":"dec","steam_id":76561198009660168,"connected_time":552000000000,"state":"active","ping":46},{"user_id":287,"name":"‚ô• aura ‚ô•","steam_id":76561198066258544,"connected_time":5917000000000,"state":"active","ping":61},{"user_id":317,"name":"I am on the TF2 Scoreboard...","steam_id":76561198043850884,"connected_time":3927000000000,"state":"active","ping":63},{"user_id":340,"name":"flappi","steam_id":76561198072892783,"connected_time":1908000000000,"state":"active","ping":72},{"user_id":307,"name":"trite","steam_id":76561197983765323,"connected_time":4337000000000,"state":"active","ping":48},{"user_id":324,"name":"maritalfuture36","steam_id":76561198272718247,"connected_time":2830000000000,"state":"active","ping":83},{"user_id":266,"name":"Pinkchup","steam_id":76561198106802803,"connected_time":8073000000000,"state":"active","ping":74},{"user_id":344,"name":"Mapavri","steam_id":76561198370196400,"connected_time":1686000000000,"state":"active","ping":90},{"user_id":321,"name":"Jofiah/TTV","steam_id":76561197977233962,"connected_time":3756000000000,"state":"active","ping":48},{"user_id":228,"name":"Ark-e","steam_id":76561198261870909,"connected_time":10623000000000,"state":"active","ping":32},{"user_id":355,"name":"eon","steam_id":76561197971360276,"connected_time":294000000000,"state":"active","ping":69},{"user_id":330,"name":"Arellano","steam_id":76561199047081427,"connected_time":2278000000000,"state":"active","ping":96},{"user_id":338,"name":"Gety0","steam_id":76561198044387185,"connected_time":2154000000000,"state":"active","ping":99},{"user_id":323,"name":"CalzoneCarl456","steam_id":76561198846982793,"connected_time":2848000000000,"state":"active","ping":47},{"user_id":252,"name":"Minimi","steam_id":76561198873850443,"connected_time":8389000000000,"state":"active","ping":41},{"user_id":351,"name":"jimmy bob","steam_id":76561198319583692,"connected_time":815000000000,"state":"active","ping":60},{"user_id":313,"name":"Russenluster","steam_id":76561198118016220,"connected_time":3996000000000,"state":"active","ping":59},{"user_id":309,"name":"Dwevy","steam_id":76561198090379437,"connected_time":4194000000000,"state":"active","ping":55},{"user_id":328,"name":"TunnelVision","steam_id":76561198232823472,"connected_time":2440000000000,"state":"active","ping":55}]},{"server_id":114,"name":"Uncletopia | London | 2 | All Maps","name_short":"lon-2","host":"lon-1.uk.uncletopia.com","port":27025,"enabled":true,"region":"eu","cc":"gb","latitude":51.509865,"longitude":-0.118092,"reserved":0,"last_update":"0001-01-01T00:00:00Z","name_a2s":"Uncletopia | London | 2 | All Maps","protocol":17,"map":"cp_mercenarypark","folder":"tf","game":"Team Fortress","app_id":440,"player_count":4,"max_players":24,"Bots":0,"server_type":"Dedicated","server_os":"Linux","password":true,"vac":true,"version":"7882260","steam_id":85568392924470941,"keywords":["cp","nocrits","nodmgspread","uncletopia"],"game_id":440,"stv_port":27026,"stv_name":"Uncletopia | London | 2 | All Maps | STV","players":[{"user_id":317,"name":"JonnyBain","steam_id":76561198090080911,"connected_time":439000000000,"state":"active","ping":73},{"user_id":316,"name":"CLAPPER","steam_id":76561199061808252,"connected_time":584000000000,"state":"active","ping":54},{"user_id":299,"name":"R0mulone","steam_id":76561198352513792,"connected_time":1700000000000,"state":"active","ping":60},{"user_id":294,"name":"Hetmanych","steam_id":76561198870926865,"connected_time":2164000000000,"state":"active","ping":41}]},{"server_id":320,"name":"Uncletopia | London | 3 | All Maps","name_short":"lon-3","host":"lon-1.uk.uncletopia.com","port":27035,"enabled":true,"region":"eu","cc":"gb","latitude":51.509865,"longitude":-0.118092,"reserved":0,"last_update":"0001-01-01T00:00:00Z","name_a2s":"Uncletopia | London | 3 | All Maps","protocol":17,"map":"pl_borneo","folder":"tf","game":"Team Fortress","app_id":440,"player_count":12,"max_players":24,"Bots":0,"server_type":"Dedicated","server_os":"Linux","password":true,"vac":true,"version":"7882260","steam_id":85568392924510192,"keywords":["nocrits","nodmgspread","payload","uncletopia"],"game_id":440,"stv_port":27036,"stv_name":"Uncletopia | London | 3 | All Maps | STV","players":[{"user_id":95,"name":"Davey","steam_id":76561198256879107,"connected_time":2319000000000,"state":"active","ping":73},{"user_id":111,"name":"zozo","steam_id":76561198332612319,"connected_time":198000000000,"state":"active","ping":120},{"user_id":112,"name":"Lusa","steam_id":76561199435564731,"connected_time":154000000000,"state":"active","ping":105},{"user_id":114,"name":"Rez","steam_id":76561198410598772,"connected_time":86000000000,"state":"active","ping":55},{"user_id":115,"name":"ender45","steam_id":76561198840955715,"connected_time":59000000000,"state":"active","ping":30},{"user_id":69,"name":"ja","steam_id":76561199228540618,"connected_time":4215000000000,"state":"active","ping":75},{"user_id":116,"name":"person360","steam_id":76561198013646971,"connected_time":42000000000,"state":"active","ping":51},{"user_id":107,"name":"inebriation of the senses","steam_id":76561198977420882,"connected_time":848000000000,"state":"active","ping":30},{"user_id":70,"name":"gabagool","steam_id":76561198307111838,"connected_time":4179000000000,"state":"active","ping":37},{"user_id":78,"name":"Big Al","steam_id":76561198079585198,"connected_time":2935000000000,"state":"active","ping":49},{"user_id":73,"name":"TylowStar","steam_id":76561198357107806,"connected_time":4117000000000,"state":"active","ping":60},{"user_id":81,"name":"Mirage","steam_id":76561199013190566,"connected_time":2771000000000,"state":"active","ping":58}]},{"server_id":321,"name":"Uncletopia | London | 4 | All Maps","name_short":"lon-4","host":"lon-1.uk.uncletopia.com","port":27045,"enabled":true,"region":"eu","cc":"gb","latitude":51.509865,"longitude":-0.118092,"reserved":0,"last_update":"0001-01-01T00:00:00Z","name_a2s":"Uncletopia | London | 4 | All Maps","protocol":17,"map":"koth_highpass","folder":"tf","game":"Team Fortress","app_id":440,"player_count":23,"max_players":24,"Bots":0,"server_type":"Dedicated","server_os":"Linux","password":true,"vac":true,"version":"7882260","steam_id":85568392924510193,"keywords":["cp","nocrits","nodmgspread","uncletopia"],"game_id":440,"stv_port":27046,"stv_name":"Uncletopia | London | 4 | All Maps | STV","players":[{"user_id":206,"name":"Hivel","steam_id":76561198151390773,"connected_time":6389000000000,"state":"active","ping":93},{"user_id":284,"name":"SKFBoge","steam_id":76561198269038278,"connected_time":433000000000,"state":"active","ping":79},{"user_id":220,"name":"Gnarville","steam_id":76561198006373329,"connected_time":5632000000000,"state":"active","ping":49},{"user_id":245,"name":"bird (trans rights)","steam_id":76561198393596975,"connected_time":4574000000000,"state":"active","ping":46},{"user_id":282,"name":"alleged idiot cyclops","steam_id":76561198013502376,"connected_time":748000000000,"state":"active","ping":52},{"user_id":259,"name":"frosty","steam_id":76561198094560834,"connected_time":2835000000000,"state":"active","ping":53},{"user_id":261,"name":"Jon","steam_id":76561199380849468,"connected_time":2804000000000,"state":"active","ping":61},{"user_id":289,"name":"Raving Classicist -1000","steam_id":76561198152733105,"connected_time":156000000000,"state":"active","ping":58},{"user_id":290,"name":"cinny","steam_id":76561198832112629,"connected_time":92000000000,"state":"active","ping":89},{"user_id":262,"name":"Banzar1","steam_id":76561198170325423,"connected_time":2746000000000,"state":"active","ping":119},{"user_id":263,"name":"JaneDoe","steam_id":76561198067081506,"connected_time":2727000000000,"state":"active","ping":81},{"user_id":268,"name":"Spanns","steam_id":76561197998349793,"connected_time":2443000000000,"state":"active","ping":62},{"user_id":264,"name":"BonesJohnson","steam_id":76561198799169951,"connected_time":2693000000000,"state":"active","ping":49},{"user_id":276,"name":"–∏–≤–∞–Ω","steam_id":76561198072730591,"connected_time":1180000000000,"state":"active","ping":63},{"user_id":196,"name":"KeTlEr","steam_id":76561198100957443,"connected_time":7901000000000,"state":"active","ping":70},{"user_id":281,"name":"Enkloth | trade.tf","steam_id":76561198115106008,"connected_time":844000000000,"state":"active","ping":56},{"user_id":269,"name":"Finn","steam_id":76561198179960193,"connected_time":2375000000000,"state":"active","ping":36},{"user_id":254,"name":"Pootis.gov.uk","steam_id":76561197970114051,"connected_time":3878000000000,"state":"active","ping":45},{"user_id":203,"name":"hlug2340","steam_id":76561198087970118,"connected_time":7260000000000,"state":"active","ping":75},{"user_id":278,"name":"Bill Carr","steam_id":76561198110033943,"connected_time":1099000000000,"state":"active","ping":42},{"user_id":283,"name":"General Petrov","steam_id":76561198027204104,"connected_time":484000000000,"state":"active","ping":77},{"user_id":242,"name":"Koby","steam_id":76561198118554071,"connected_time":4621000000000,"state":"active","ping":82},{"user_id":271,"name":"Sarii","steam_id":76561199155102111,"connected_time":2352000000000,"state":"active","ping":80}]},{"server_id":21,"name":"Uncletopia | London | 5 | All Maps","name_short":"lon-5","host":"lon-1.uk.uncletopia.com","port":27055,"enabled":true,"region":"eu","cc":"gb","latitude":51.509865,"longitude":-0.118092,"reserved":0,"last_update":"0001-01-01T00:00:00Z","name_a2s":"Uncletopia | London | 5 | All Maps","protocol":17,"map":"pl_pier","folder":"tf","game":"Team Fortress","app_id":440,"player_count":24,"max_players":24,"Bots":0,"server_type":"Dedicated","server_os":"Linux","password":true,"vac":true,"version":"7882260","steam_id":85568392924742829,"keywords":["nocrits","nodmgspread","payload","uncletopia"],"game_id":440,"stv_port":27056,"stv_name":"Uncletopia | London | 5 | All Maps | STV","players":[{"user_id":16,"name":"Carrot","steam_id":76561198119340863,"connected_time":4622000000000,"state":"active","ping":44},{"user_id":18,"name":"mh","steam_id":76561198442932674,"connected_time":4551000000000,"state":"active","ping":52},{"user_id":19,"name":"abipinch","steam_id":76561199104348040,"connected_time":4550000000000,"state":"active","ping":58},{"user_id":66,"name":"Toa LightMakuta","steam_id":76561198212178104,"connected_time":696000000000,"state":"active","ping":61},{"user_id":22,"name":"lollyformolly","steam_id":76561199017868205,"connected_time":4342000000000,"state":"active","ping":57},{"user_id":67,"name":"Axter","steam_id":76561198118747192,"connected_time":489000000000,"state":"active","ping":78},{"user_id":65,"name":"Saint","steam_id":76561198003296382,"connected_time":726000000000,"state":"active","ping":73},{"user_id":43,"name":"zek","steam_id":76561198862763731,"connected_time":2848000000000,"state":"active","ping":75},{"user_id":72,"name":"Captain Scrumpe","steam_id":76561198032206577,"connected_time":23000000000,"state":"active","ping":85},{"user_id":27,"name":"Knobcobbler","steam_id":76561198071519233,"connected_time":3666000000000,"state":"active","ping":123},{"user_id":58,"name":"Clitorina","steam_id":76561198077570815,"connected_time":1534000000000,"state":"active","ping":41},{"user_id":73,"name":"midlpsyzl47","steam_id":76561199475972637,"connected_time":18000000000,"state":"active","ping":65},{"user_id":33,"name":"Silent","steam_id":76561198344588858,"connected_time":3293000000000,"state":"active","ping":50},{"user_id":51,"name":"gfjhsdf","steam_id":76561198136736426,"connected_time":2306000000000,"state":"active","ping":75},{"user_id":45,"name":"eva.","steam_id":76561198054474684,"connected_time":2776000000000,"state":"active","ping":87},{"user_id":54,"name":"Slothdude0","steam_id":76561198292376854,"connected_time":1818000000000,"state":"active","ping":55},{"user_id":61,"name":"Burpman","steam_id":76561198022897937,"connected_time":1024000000000,"state":"active","ping":42},{"user_id":59,"name":"how","steam_id":76561199145480076,"connected_time":1271000000000,"state":"active","ping":54},{"user_id":63,"name":"Ran33","steam_id":76561197991474499,"connected_time":982000000000,"state":"active","ping":79},{"user_id":55,"name":"medicinal man","steam_id":76561198202668788,"connected_time":1796000000000,"state":"active","ping":71},{"user_id":47,"name":"Jonno","steam_id":76561198023443744,"connected_time":2743000000000,"state":"active","ping":53},{"user_id":57,"name":"Doruk K√º√ß√ºkduman","steam_id":76561198399815628,"connected_time":1579000000000,"state":"active","ping":101},{"user_id":49,"name":"Benzo Fury","steam_id":76561198025259336,"connected_time":2574000000000,"state":"active","ping":38},{"user_id":70,"name":"olsolsols12","steam_id":76561198089444052,"connected_time":219000000000,"state":"active","ping":59}]},{"server_id":22,"name":"Uncletopia | London | 6 | All Maps","name_short":"lon-6","host":"lon-1.uk.uncletopia.com","port":27065,"enabled":true,"region":"eu","cc":"gb","latitude":51.509865,"longitude":-0.118092,"reserved":0,"last_update":"0001-01-01T00:00:00Z","name_a2s":"Uncletopia | London | 6 | All Maps","protocol":17,"map":"pl_snowycoast","folder":"tf","game":"Team Fortress","app_id":440,"player_count":24,"max_players":24,"Bots":0,"server_type":"Dedicated","server_os":"Linux","password":true,"vac":true,"version":"7882260","steam_id":85568392924742830,"keywords":["nocrits","nodmgspread","payload","uncletopia"],"game_id":440,"stv_port":27066,"stv_name":"Uncletopia | London | 6 | All Maps | STV","players":[{"user_id":505,"name":"Umby","steam_id":76561198166584580,"connected_time":905000000000,"state":"active","ping":38},{"user_id":524,"name":"heiiis.","steam_id":76561199149006242,"connected_time":138000000000,"state":"active","ping":75},{"user_id":525,"name":"Government Hooker","steam_id":76561198005361358,"connected_time":127000000000,"state":"active","ping":48},{"user_id":491,"name":"The Sex Defender","steam_id":76561198165732391,"connected_time":2166000000000,"state":"active","ping":100},{"user_id":507,"name":"Flint","steam_id":76561197995920776,"connected_time":821000000000,"state":"active","ping":47},{"user_id":521,"name":":P","steam_id":76561198106399430,"connected_time":297000000000,"state":"active","ping":44},{"user_id":508,"name":"DelaNo","steam_id":76561199125086655,"connected_time":717000000000,"state":"active","ping":42},{"user_id":523,"name":"stepbro","steam_id":76561198119607160,"connected_time":276000000000,"state":"active","ping":79},{"user_id":467,"name":"LiterallyRyanGosling","steam_id":76561199017856691,"connected_time":3935000000000,"state":"active","ping":53},{"user_id":453,"name":"quickfast","steam_id":76561199438900919,"connected_time":4643000000000,"state":"active","ping":42},{"user_id":509,"name":"DoDonPachi","steam_id":76561199085984801,"connected_time":681000000000,"state":"active","ping":60},{"user_id":526,"name":"nedilya","steam_id":76561198039692077,"connected_time":103000000000,"state":"active","ping":61},{"user_id":527,"name":"Carrotcracker","steam_id":76561198034862396,"connected_time":100000000000,"state":"active","ping":85},{"user_id":510,"name":"mercurial","steam_id":76561198046227550,"connected_time":679000000000,"state":"active","ping":46},{"user_id":433,"name":"sex havin'","steam_id":76561198169857427,"connected_time":6074000000000,"state":"active","ping":74},{"user_id":511,"name":"neo the cracked protogen","steam_id":76561198874467825,"connected_time":660000000000,"state":"active","ping":48},{"user_id":419,"name":"burgz","steam_id":76561198109955787,"connected_time":7315000000000,"state":"active","ping":56},{"user_id":528,"name":"ASASIN","steam_id":76561198175636147,"connected_time":98000000000,"state":"active","ping":100},{"user_id":513,"name":"mpk02","steam_id":76561198056572735,"connected_time":617000000000,"state":"active","ping":44},{"user_id":501,"name":"Larry Penus","steam_id":76561198207546233,"connected_time":1533000000000,"state":"active","ping":45},{"user_id":529,"name":"Majami","steam_id":76561198054365738,"connected_time":92000000000,"state":"active","ping":83},{"user_id":530,"name":"JJB #savetf2","steam_id":76561198811847427,"connected_time":76000000000,"state":"active","ping":42},{"user_id":531,"name":"the babadook","steam_id":76561198040168682,"connected_time":49000000000,"state":"active","ping":43},{"user_id":532,"name":"L4","steam_id":76561198168270939,"connected_time":36000000000,"state":"active","ping":61}]},{"server_id":40,"name":"Uncletopia | London | 7 | No Payload","name_short":"lon-7","host":"lon-1.uk.uncletopia.com","port":27075,"enabled":true,"region":"eu","cc":"gb","latitude":51.509865,"longitude":-0.118092,"reserved":0,"last_update":"0001-01-01T00:00:00Z","name_a2s":"Uncletopia | London | 7 | No Payload","protocol":17,"map":"koth_viaduct","folder":"tf","game":"Team Fortress","app_id":440,"player_count":0,"max_players":24,"Bots":0,"server_type":"Dedicated","server_os":"Linux","password":true,"vac":true,"version":"7882260","steam_id":85568392924964314,"keywords":["cp","nocrits","nodmgspread","uncletopia"],"game_id":440,"stv_port":27076,"stv_name":"Uncletopia | London | 7 | No Payload | STV","players":null},{"server_id":41,"name":"Uncletopia | London | 8 | Community","name_short":"lon-8","host":"lon-1.uk.uncletopia.com","port":27085,"enabled":true,"region":"eu","cc":"gb","latitude":51.509865,"longitude":-0.118092,"reserved":0,"last_update":"0001-01-01T00:00:00Z","name_a2s":"Uncletopia | London | 8 | Community","protocol":17,"map":"workshop/koth_kemptown_rc1.ugc767410655","folder":"tf","game":"Team Fortress","app_id":440,"player_count":0,"max_players":24,"Bots":0,"server_type":"Dedicated","server_os":"Linux","password":true,"vac":true,"version":"7882260","steam_id":85568392924964315,"keywords":["cp","nocrits","nodmgspread","uncletopia"],"game_id":440,"stv_port":27086,"stv_name":"Uncletopia | London | 8 | Community | STV","players":null},{"server_id":300,"name":"Uncletopia | Montr√©al | 1 | All Maps","name_short":"mtl-1","host":"mtl-1.ca.uncletopia.com","port":27015,"enabled":true,"region":"us-east","cc":"ca","latitude":45.50889,"longitude":-73.56167,"reserved":0,"last_update":"0001-01-01T00:00:00Z","name_a2s":"Uncletopia | Montr√©al | 1 | All Maps","protocol":17,"map":"koth_viaduct","folder":"tf","game":"Team Fortress","app_id":440,"player_count":0,"max_players":24,"Bots":0,"server_type":"Dedicated","server_os":"Linux","password":true,"vac":true,"version":"7882260","steam_id":85568392924500087,"keywords":["cp","nocrits","nodmgspread","uncletopia"],"game_id":440,"stv_port":27016,"stv_name":"Uncletopia | Montr√©al | 1 | All Maps | STV","players":null},{"server_id":301,"name":"Uncletopia | Montr√©al | 2 | All Maps","name_short":"mtl-2","host":"mtl-1.ca.uncletopia.com","port":27025,"enabled":true,"region":"us-east","cc":"ca","latitude":45.50889,"longitude":-73.56167,"reserved":0,"last_update":"0001-01-01T00:00:00Z","name_a2s":"Uncletopia | Montr√©al | 2 | All Maps","protocol":17,"map":"cp_altitude","folder":"tf","game":"Team Fortress","app_id":440,"player_count":0,"max_players":24,"Bots":0,"server_type":"Dedicated","server_os":"Linux","password":true,"vac":true,"version":"7882260","steam_id":85568392924500088,"keywords":["cp","nocrits","nodmgspread","uncletopia"],"game_id":440,"stv_port":27026,"stv_name":"Uncletopia | Montr√©al | 2 | All Maps | STV","players":null},{"server_id":302,"name":"Uncletopia | Montr√©al | 3 | All Maps","name_short":"mtl-3","host":"mtl-1.ca.uncletopia.com","port":27035,"enabled":true,"region":"us-east","cc":"ca","latitude":45.50889,"longitude":-73.56167,"reserved":0,"last_update":"0001-01-01T00:00:00Z","name_a2s":"Uncletopia | Montr√©al | 3 | All Maps","protocol":17,"map":"pl_frontier_final","folder":"tf","game":"Team Fortress","app_id":440,"player_count":1,"max_players":24,"Bots":0,"server_type":"Dedicated","server_os":"Linux","password":true,"vac":true,"version":"7882260","steam_id":85568392924500089,"keywords":["nocrits","nodmgspread","payload","uncletopia"],"game_id":440,"stv_port":27036,"stv_name":"Uncletopia | Montr√©al | 3 | All Maps | STV","players":[{"user_id":4,"name":"YesMargaret","steam_id":76561198127971751,"connected_time":430000000000,"state":"active","ping":57}]},{"server_id":303,"name":"Uncletopia | Montr√©al | 4 | No Payload","name_short":"mtl-4","host":"mtl-1.ca.uncletopia.com","port":27045,"enabled":true,"region":"us-east","cc":"ca","latitude":45.50889,"longitude":-73.56167,"reserved":0,"last_update":"0001-01-01T00:00:00Z","name_a2s":"Uncletopia | Montr√©al | 4 | No Payload","protocol":17,"map":"cp_altitude","folder":"tf","game":"Team Fortress","app_id":440,"player_count":0,"max_players":24,"Bots":0,"server_type":"Dedicated","server_os":"Linux","password":true,"vac":true,"version":"7882260","steam_id":85568392924500090,"keywords":["cp","nocrits","nodmgspread","uncletopia"],"game_id":440,"stv_port":27046,"stv_name":"Uncletopia | Montr√©al | 4 | No Payload | STV","players":null},{"server_id":13,"name":"Uncletopia | New York City | 1 | All Maps","name_short":"nyc-1","host":"nyc-1.us.uncletopia.com","port":27015,"enabled":true,"region":"us-east","cc":"us","latitude":40.73061,"longitude":-73.93524,"reserved":0,"last_update":"0001-01-01T00:00:00Z","name_a2s":"Uncletopia | New York City | 1 | All Maps","protocol":17,"map":"koth_highpass","folder":"tf","game":"Team Fortress","app_id":440,"player_count":11,"max_players":24,"Bots":0,"server_type":"Dedicated","server_os":"Linux","password":true,"vac":true,"version":"7882260","steam_id":85568392924469993,"keywords":["cp","nocrits","nodmgspread","uncletopia"],"game_id":440,"stv_port":27016,"stv_name":"Uncletopia | New York City | 1 | All Maps | STV","players":[{"user_id":12,"name":"M16A1Sauce","steam_id":76561199058049384,"connected_time":578000000000,"state":"active","ping":61},{"user_id":13,"name":"Failtastic","steam_id":76561198994009973,"connected_time":528000000000,"state":"active","ping":47},{"user_id":14,"name":"Ironfyn","steam_id":76561198256850182,"connected_time":447000000000,"state":"active","ping":65},{"user_id":15,"name":"abed","steam_id":76561198072856511,"connected_time":424000000000,"state":"active","ping":83},{"user_id":16,"name":"don't leave her waiting","steam_id":76561198103496593,"connected_time":319000000000,"state":"active","ping":60},{"user_id":17,"name":"brain_damage","steam_id":76561199381954163,"connected_time":237000000000,"state":"active","ping":90},{"user_id":18,"name":"boat","steam_id":76561198157124609,"connected_time":184000000000,"state":"active","ping":54},{"user_id":19,"name":"gohanthegod97","steam_id":76561199031214114,"connected_time":140000000000,"state":"active","ping":59},{"user_id":20,"name":"that one","steam_id":76561199088969462,"connected_time":121000000000,"state":"active","ping":120},{"user_id":23,"name":"Chaotic Rushu","steam_id":76561198170054407,"connected_time":49000000000,"state":"spawning","ping":49},{"user_id":22,"name":"xX_Big Boss420_Xx","steam_id":76561198191167133,"connected_time":69000000000,"state":"active","ping":54}]},{"server_id":14,"name":"Uncletopia | New York City | 2 | All Maps","name_short":"nyc-2","host":"nyc-1.us.uncletopia.com","port":27025,"enabled":true,"region":"us-east","cc":"us","latitude":40.73061,"longitude":-73.93524,"reserved":0,"last_update":"0001-01-01T00:00:00Z","name_a2s":"Uncletopia | New York City | 2 | All Maps","protocol":17,"map":"cp_process_final","folder":"tf","game":"Team Fortress","app_id":440,"player_count":0,"max_players":24,"Bots":0,"server_type":"Dedicated","server_os":"Linux","password":true,"vac":true,"version":"7882260","steam_id":85568392924469994,"keywords":["cp","nocrits","nodmgspread","uncletopia"],"game_id":440,"stv_port":27026,"stv_name":"Uncletopia | New York City | 2 | All Maps | STV","players":null},{"server_id":15,"name":"Uncletopia | New York City | 3 | Stopwatch Beta","name_short":"nyc-3","host":"nyc-1.us.uncletopia.com","port":27035,"enabled":true,"region":"us-east","cc":"us","latitude":40.73061,"longitude":-73.93524,"reserved":0,"last_update":"0001-01-01T00:00:00Z","name_a2s":"Uncletopia | New York City | 3 | Stopwatch Beta","protocol":17,"map":"koth_lakeside_final","folder":"tf","game":"Team Fortress","app_id":440,"player_count":0,"max_players":24,"Bots":0,"server_type":"Dedicated","server_os":"Linux","password":true,"vac":true,"version":"7882260","steam_id":85568392924742820,"keywords":["cp","nocrits","nodmgspread","uncletopia"],"game_id":440,"stv_port":27036,"stv_name":"Uncletopia | New York City | 3 | Stopwatch Beta | STV","players":null},{"server_id":16,"name":"Uncletopia | New York City | 4 | Community","name_short":"nyc-4","host":"nyc-1.us.uncletopia.com","port":27045,"enabled":true,"region":"us-east","cc":"us","latitude":40.73061,"longitude":-73.93524,"reserved":0,"last_update":"0001-01-01T00:00:00Z","name_a2s":"Uncletopia | New York City | 4 | Community","protocol":17,"map":"workshop/pl_badwater_pro_v12.ugc2142942074","folder":"tf","game":"Team Fortress","app_id":440,"player_count":20,"max_players":24,"Bots":0,"server_type":"Dedicated","server_os":"Linux","password":true,"vac":true,"version":"7882260","steam_id":85568392924742821,"keywords":["nocrits","nodmgspread","payload","uncletopia"],"game_id":440,"stv_port":27046,"stv_name":"Uncletopia | New York City | 4 | Community | STV","players":[{"user_id":48,"name":"marge","steam_id":76561198064823861,"connected_time":1794000000000,"state":"active","ping":53},{"user_id":38,"name":"reatardhole","steam_id":76561198141217941,"connected_time":2111000000000,"state":"active","ping":57},{"user_id":64,"name":"Feistypanda34","steam_id":76561198260910134,"connected_time":136000000000,"state":"active","ping":74},{"user_id":54,"name":"Philip360","steam_id":76561199196112717,"connected_time":1078000000000,"state":"active","ping":137},{"user_id":8,"name":"Yoshimelon","steam_id":76561198253054325,"connected_time":3966000000000,"state":"active","ping":76},{"user_id":65,"name":"kimchiking82","steam_id":76561198008423339,"connected_time":104000000000,"state":"active","ping":45},{"user_id":18,"name":"\u003cTFF\u003e Gurn","steam_id":76561198011393367,"connected_time":2906000000000,"state":"active","ping":99},{"user_id":66,"name":"monkey","steam_id":76561198099481645,"connected_time":100000000000,"state":"active","ping":30},{"user_id":67,"name":"Musica Universalis","steam_id":76561198184794174,"connected_time":55000000000,"state":"active","ping":63},{"user_id":61,"name":"hazel","steam_id":76561198173271218,"connected_time":473000000000,"state":"active","ping":58},{"user_id":15,"name":"Cap'n Crunch","steam_id":76561199045902619,"connected_time":2947000000000,"state":"active","ping":54},{"user_id":68,"name":"Gamerdude313","steam_id":76561198869211435,"connected_time":27000000000,"state":"active","ping":78},{"user_id":17,"name":"sid67crowe","steam_id":76561198069746696,"connected_time":2939000000000,"state":"active","ping":56},{"user_id":51,"name":"Noid","steam_id":76561198227804500,"connected_time":1350000000000,"state":"active","ping":71},{"user_id":40,"name":"dongwater","steam_id":76561198186629499,"connected_time":2084000000000,"state":"active","ping":96},{"user_id":44,"name":"mini vegas stan","steam_id":76561198126029630,"connected_time":1973000000000,"state":"active","ping":60},{"user_id":57,"name":"sunglasses","steam_id":76561198173747227,"connected_time":861000000000,"state":"active","ping":70},{"user_id":56,"name":"gojoel","steam_id":76561198251181946,"connected_time":968000000000,"state":"active","ping":116},{"user_id":49,"name":"hsuna","steam_id":76561198127325351,"connected_time":1516000000000,"state":"active","ping":49},{"user_id":63,"name":"worker","steam_id":76561198039608940,"connected_time":328000000000,"state":"active","ping":118}]},{"server_id":142,"name":"Uncletopia | S√£o Paulo | 1 | All Maps","name_short":"sao-1","host":"sao-1.br.uncletopia.com","port":27015,"enabled":true,"region":"sa","cc":"br","latitude":-23.533773,"longitude":-46.62529,"reserved":0,"last_update":"0001-01-01T00:00:00Z","name_a2s":"Uncletopia | S√£o Paulo | 1 | All Maps","protocol":17,"map":"koth_viaduct","folder":"tf","game":"Team Fortress","app_id":440,"player_count":0,"max_players":24,"Bots":0,"server_type":"Dedicated","server_os":"Linux","password":true,"vac":true,"version":"7882260","steam_id":85568392924469996,"keywords":["cp","nocrits","nodmgspread","uncletopia"],"game_id":440,"stv_port":27016,"stv_name":"Uncletopia | S√£o Paulo | 1 | All Maps | STV","players":null},{"server_id":143,"name":"Uncletopia | S√£o Paulo | 2 | All Maps","name_short":"sao-2","host":"sao-2.br.uncletopia.com","port":27015,"enabled":true,"region":"sa","cc":"br","latitude":-23.533773,"longitude":-46.62529,"reserved":0,"last_update":"0001-01-01T00:00:00Z","name_a2s":"Uncletopia | S√£o Paulo | 2 | All Maps","protocol":17,"map":"pl_badwater","folder":"tf","game":"Team Fortress","app_id":440,"player_count":0,"max_players":24,"Bots":0,"server_type":"Dedicated","server_os":"Linux","password":true,"vac":true,"version":"7882260","steam_id":85568392924485349,"keywords":["nocrits","nodmgspread","payload","uncletopia"],"game_id":440,"stv_port":27016,"stv_name":"Uncletopia | S√£o Paulo | 2 | All Maps | STV","players":null},{"server_id":7,"name":"Uncletopia | Seattle | 1 | All Maps","name_short":"sea-1","host":"sea-1.us.uncletopia.com","port":27015,"enabled":true,"region":"us-west","cc":"us","latitude":47.608013,"longitude":-122.33517,"reserved":0,"last_update":"0001-01-01T00:00:00Z","name_a2s":"Uncletopia | Seattle | 1 | All Maps","protocol":17,"map":"cp_process_final","folder":"tf","game":"Team Fortress","app_id":440,"player_count":24,"max_players":24,"Bots":0,"server_type":"Dedicated","server_os":"Linux","password":true,"vac":true,"version":"7882260","steam_id":85568392924469997,"keywords":["cp","nocrits","nodmgspread","uncletopia"],"game_id":440,"stv_port":27016,"stv_name":"Uncletopia | Seattle | 1 | All Maps | STV","players":[{"user_id":319,"name":"imtoofadedicantevendapuup","steam_id":76561198180372310,"connected_time":2068000000000,"state":"active","ping":59},{"user_id":276,"name":"TheMagicMrWaffle","steam_id":76561198104357256,"connected_time":6055000000000,"state":"active","ping":71},{"user_id":304,"name":"SolarusD","steam_id":76561198029279861,"connected_time":3069000000000,"state":"active","ping":60},{"user_id":330,"name":"ImaLilWeirdo","steam_id":76561198171653353,"connected_time":792000000000,"state":"active","ping":65},{"user_id":289,"name":"Delicate Steve","steam_id":76561198063582381,"connected_time":3835000000000,"state":"active","ping":67},{"user_id":336,"name":"Boyaredeen","steam_id":76561198880492636,"connected_time":548000000000,"state":"active","ping":53},{"user_id":327,"name":"Ira","steam_id":76561198855586261,"connected_time":823000000000,"state":"active","ping":68},{"user_id":315,"name":"Jacobzeba01","steam_id":76561198131808718,"connected_time":2246000000000,"state":"active","ping":60},{"user_id":325,"name":"Lime","steam_id":76561198080786408,"connected_time":1323000000000,"state":"active","ping":54},{"user_id":332,"name":"Strikerbolt","steam_id":76561199095622897,"connected_time":750000000000,"state":"active","ping":74},{"user_id":322,"name":"PocketTieAMPLFY","steam_id":76561199080485881,"connected_time":1851000000000,"state":"active","ping":166},{"user_id":329,"name":"LizardBoyTailFrotting","steam_id":76561199169859135,"connected_time":811000000000,"state":"active","ping":106},{"user_id":338,"name":"PheebsyDeebsy","steam_id":76561198101509436,"connected_time":460000000000,"state":"active","ping":72},{"user_id":333,"name":"Cardboardcoin","steam_id":76561199421284163,"connected_time":729000000000,"state":"active","ping":80},{"user_id":299,"name":"Flores","steam_id":76561198106938500,"connected_time":3611000000000,"state":"active","ping":88},{"user_id":334,"name":"white boy enjoyer","steam_id":76561198093939936,"connected_time":724000000000,"state":"active","ping":91},{"user_id":337,"name":"professional twelve year old","steam_id":76561198858796870,"connected_time":498000000000,"state":"active","ping":41},{"user_id":302,"name":"Alien Figure","steam_id":76561198057999536,"connected_time":3482000000000,"state":"active","ping":36},{"user_id":340,"name":"keithykeithers","steam_id":76561197995552615,"connected_time":208000000000,"state":"active","ping":47},{"user_id":285,"name":"Ruben","steam_id":76561198048508642,"connected_time":4513000000000,"state":"active","ping":51},{"user_id":321,"name":"Mecha","steam_id":76561198014927379,"connected_time":1930000000000,"state":"active","ping":117},{"user_id":298,"name":"forest (italian)","steam_id":76561198157960257,"connected_time":3638000000000,"state":"active","ping":42},{"user_id":310,"name":"jayeskae","steam_id":76561198144220801,"connected_time":2753000000000,"state":"active","ping":52},{"user_id":328,"name":"D34dR4bbit","steam_id":76561198167411455,"connected_time":823000000000,"state":"active","ping":60}]},{"server_id":119,"name":"Uncletopia | Seattle | 2 | All Maps","name_short":"sea-2","host":"sea-1.us.uncletopia.com","port":27025,"enabled":true,"region":"us-west","cc":"us","latitude":47.608013,"longitude":-122.33517,"reserved":0,"last_update":"0001-01-01T00:00:00Z","name_a2s":"Uncletopia | Seattle | 2 | All Maps","protocol":17,"map":"plr_pipeline","folder":"tf","game":"Team Fortress","app_id":440,"player_count":24,"max_players":24,"Bots":0,"server_type":"Dedicated","server_os":"Linux","password":true,"vac":true,"version":"7882260","steam_id":85568392924469998,"keywords":["nocrits","nodmgspread","payload","uncletopia"],"game_id":440,"stv_port":27026,"stv_name":"Uncletopia | Seattle | 2 | All Maps | STV","players":[{"user_id":121,"name":"ether","steam_id":76561198210322871,"connected_time":4910000000000,"state":"active","ping":65},{"user_id":181,"name":"laggy mcstab","steam_id":76561198106379962,"connected_time":45000000000,"state":"active","ping":55},{"user_id":150,"name":"AmiableNebula","steam_id":76561198094306627,"connected_time":1867000000000,"state":"active","ping":76},{"user_id":157,"name":"chicken pot pie gaming","steam_id":76561198104800182,"connected_time":1614000000000,"state":"active","ping":111},{"user_id":168,"name":"tiny terry","steam_id":76561198001488041,"connected_time":723000000000,"state":"active","ping":116},{"user_id":158,"name":"Bookhead","steam_id":76561197962042356,"connected_time":1580000000000,"state":"active","ping":32},{"user_id":169,"name":"Killer Fish From San Diego","steam_id":76561199037594575,"connected_time":712000000000,"state":"active","ping":62},{"user_id":151,"name":"Apollo","steam_id":76561198162364702,"connected_time":1865000000000,"state":"active","ping":47},{"user_id":159,"name":"JawnyMac","steam_id":76561198179529599,"connected_time":1558000000000,"state":"active","ping":71},{"user_id":178,"name":"3/9","steam_id":76561198166827208,"connected_time":142000000000,"state":"active","ping":47},{"user_id":146,"name":"Bobby","steam_id":76561198265253992,"connected_time":2214000000000,"state":"active","ping":75},{"user_id":164,"name":"Sleempreem","steam_id":76561198131987251,"connected_time":1092000000000,"state":"active","ping":73},{"user_id":125,"name":"NFT(non functioning testicle)","steam_id":76561198092435966,"connected_time":4679000000000,"state":"active","ping":121},{"user_id":160,"name":"flameboy50","steam_id":76561198258638052,"connected_time":1542000000000,"state":"active","ping":70},{"user_id":182,"name":"G. Howard Dee","steam_id":76561198058382812,"connected_time":42000000000,"state":"active","ping":81},{"user_id":118,"name":"Your cousin Throckmorton","steam_id":76561198055430804,"connected_time":5435000000000,"state":"active","ping":122},{"user_id":172,"name":"Banzai","steam_id":76561198196503877,"connected_time":206000000000,"state":"active","ping":52},{"user_id":152,"name":"HFMurasama","steam_id":76561198272021214,"connected_time":1800000000000,"state":"active","ping":81},{"user_id":171,"name":"radicalPolio","steam_id":76561197961561855,"connected_time":446000000000,"state":"active","ping":97},{"user_id":153,"name":"BuncusBeffer","steam_id":76561198285936616,"connected_time":1791000000000,"state":"active","ping":82},{"user_id":177,"name":"Dr. Dingus PhD","steam_id":76561199209834538,"connected_time":161000000000,"state":"active","ping":86},{"user_id":179,"name":"strbry","steam_id":76561198155133601,"connected_time":118000000000,"state":"active","ping":59},{"user_id":137,"name":"TechLegion","steam_id":76561198951606276,"connected_time":3711000000000,"state":"active","ping":138},{"user_id":175,"name":"PopcornBucketGames","steam_id":76561199089562026,"connected_time":182000000000,"state":"active","ping":55}]},{"server_id":406,"name":"Uncletopia | Seattle | 3 | Stopwatch Beta","name_short":"sea-3","host":"sea-1.us.uncletopia.com","port":27035,"enabled":true,"region":"us-west","cc":"us","latitude":47.608013,"longitude":-122.33517,"reserved":0,"last_update":"0001-01-01T00:00:00Z","name_a2s":"Uncletopia | Seattle | 3 | Stopwatch Beta","protocol":17,"map":"workshop/pl_badwater_pro_v12.ugc2142942074","folder":"tf","game":"Team Fortress","app_id":440,"player_count":0,"max_players":24,"Bots":0,"server_type":"Dedicated","server_os":"Linux","password":true,"vac":true,"version":"7882260","steam_id":85568392924515217,"keywords":["nocrits","nodmgspread","payload","uncletopia"],"game_id":440,"stv_port":27036,"stv_name":"Uncletopia | Seattle | 3 | Stopwatch Beta | STV","players":null},{"server_id":17,"name":"Uncletopia | San Francisco | 1 | All Maps","name_short":"sfo-1","host":"sfo-1.us.uncletopia.com","port":27015,"enabled":true,"region":"us-west","cc":"us","latitude":37.77397,"longitude":-122.4313,"reserved":0,"last_update":"0001-01-01T00:00:00Z","name_a2s":"Uncletopia | San Francisco | 1 | All Maps","protocol":17,"map":"cp_process_final","folder":"tf","game":"Team Fortress","app_id":440,"player_count":0,"max_players":24,"Bots":0,"server_type":"Dedicated","server_os":"Linux","password":true,"vac":true,"version":"7757534","steam_id":85568392924469999,"keywords":["cp","nocrits","nodmgspread","uncletopia"],"game_id":440,"stv_port":27016,"stv_name":"Uncletopia | San Francisco | 1 | All Maps | STV","players":null},{"server_id":18,"name":"Uncletopia | San Francisco | 2 | All Maps","name_short":"sfo-2","host":"sfo-1.us.uncletopia.com","port":27025,"enabled":true,"region":"us-west","cc":"us","latitude":37.77397,"longitude":-122.4313,"reserved":0,"last_update":"0001-01-01T00:00:00Z","name_a2s":"Uncletopia | San Francisco | 2 | All Maps","protocol":17,"map":"koth_highpass","folder":"tf","game":"Team Fortress","app_id":440,"player_count":0,"max_players":24,"Bots":0,"server_type":"Dedicated","server_os":"Linux","password":true,"vac":true,"version":"7757534","steam_id":85568392924470000,"keywords":["cp","nocrits","nodmgspread","uncletopia"],"game_id":440,"stv_port":27026,"stv_name":"Uncletopia | San Francisco | 2 | All Maps | STV","players":null},{"server_id":19,"name":"Uncletopia | San Francisco | 3 | Stopwatch Beta","name_short":"sfo-3","host":"sfo-1.us.uncletopia.com","port":27035,"enabled":true,"region":"us-west","cc":"us","latitude":37.77397,"longitude":-122.4313,"reserved":0,"last_update":"0001-01-01T00:00:00Z","name_a2s":"Uncletopia | San Francisco | 3 | Stopwatch Beta","protocol":17,"map":"koth_lakeside_final","folder":"tf","game":"Team Fortress","app_id":440,"player_count":0,"max_players":24,"Bots":0,"server_type":"Dedicated","server_os":"Linux","password":true,"vac":true,"version":"7757534","steam_id":85568392924742824,"keywords":["cp","nocrits","nodmgspread","uncletopia"],"game_id":440,"stv_port":27036,"stv_name":"Uncletopia | San Francisco | 3 | Stopwatch Beta | STV","players":null},{"server_id":20,"name":"Uncletopia | San Francisco | 4 | Community","name_short":"sfo-4","host":"sfo-1.us.uncletopia.com","port":27045,"enabled":true,"region":"us-west","cc":"us","latitude":37.77397,"longitude":-122.4313,"reserved":0,"last_update":"0001-01-01T00:00:00Z","name_a2s":"Uncletopia | San Francisco | 4 | Community","protocol":17,"map":"cp_altitude","folder":"tf","game":"Team Fortress","app_id":440,"player_count":0,"max_players":24,"Bots":0,"server_type":"Dedicated","server_os":"Linux","password":true,"vac":true,"version":"7757534","steam_id":85568392924742826,"keywords":["cp","nocrits","nodmgspread","uncletopia"],"game_id":440,"stv_port":27046,"stv_name":"Uncletopia | San Francisco | 4 | Community | STV","players":null},{"server_id":141,"name":"Uncletopia | Sydney | 1 | All Maps","name_short":"syd-1","host":"syd-1.au.uncletopia.com","port":27015,"enabled":true,"region":"au","cc":"au","latitude":-33.865143,"longitude":151.2099,"reserved":0,"last_update":"0001-01-01T00:00:00Z","name_a2s":"Uncletopia | Sydney | 1 | All Maps","protocol":17,"map":"cp_snakewater_final1","folder":"tf","game":"Team Fortress","app_id":440,"player_count":0,"max_players":24,"Bots":0,"server_type":"Dedicated","server_os":"Linux","password":true,"vac":true,"version":"7882260","steam_id":85568392924470001,"keywords":["cp","nocrits","nodmgspread","uncletopia"],"game_id":440,"stv_port":27016,"stv_name":"Uncletopia | Sydney | 1 | All Maps | STV","players":null},{"server_id":123,"name":"Uncletopia | Sydney | 2 | All Maps","name_short":"syd-2","host":"syd-1.au.uncletopia.com","port":27025,"enabled":true,"region":"au","cc":"au","latitude":-33.865143,"longitude":151.2099,"reserved":0,"last_update":"0001-01-01T00:00:00Z","name_a2s":"Uncletopia | Sydney | 2 | All Maps","protocol":17,"map":"pl_barnblitz","folder":"tf","game":"Team Fortress","app_id":440,"player_count":0,"max_players":24,"Bots":0,"server_type":"Dedicated","server_os":"Linux","password":true,"vac":true,"version":"7882260","steam_id":85568392924470002,"keywords":["nocrits","nodmgspread","payload","uncletopia"],"game_id":440,"stv_port":27026,"stv_name":"Uncletopia | Sydney | 2 | All Maps | STV","players":null},{"server_id":395,"name":"Uncletopia | Sydney | 3 | All Maps","name_short":"syd-3","host":"syd-1.au.uncletopia.com","port":27035,"enabled":true,"region":"au","cc":"au","latitude":-33.865143,"longitude":151.2099,"reserved":0,"last_update":"0001-01-01T00:00:00Z","name_a2s":"Uncletopia | Sydney | 3 | All Maps","protocol":17,"map":"pl_badwater","folder":"tf","game":"Team Fortress","app_id":440,"player_count":0,"max_players":24,"Bots":0,"server_type":"Dedicated","server_os":"Linux","password":true,"vac":true,"version":"7882260","steam_id":85568392925194467,"keywords":["nocrits","nodmgspread","payload","uncletopia"],"game_id":440,"stv_port":27036,"stv_name":"Uncletopia | Sydney | 3 | All Maps | STV","players":null},{"server_id":396,"name":"Uncletopia | Sydney | 4 | All Maps","name_short":"syd-4","host":"syd-1.au.uncletopia.com","port":27045,"enabled":true,"region":"au","cc":"au","latitude":-33.865143,"longitude":151.2099,"reserved":0,"last_update":"0001-01-01T00:00:00Z","name_a2s":"Uncletopia | Sydney | 4 | All Maps","protocol":17,"map":"cp_dustbowl","folder":"tf","game":"Team Fortress","app_id":440,"player_count":0,"max_players":24,"Bots":0,"server_type":"Dedicated","server_os":"Linux","password":true,"vac":true,"version":"7882260","steam_id":85568392925397958,"keywords":["cp","nocrits","nodmgspread","uncletopia"],"game_id":440,"stv_port":27046,"stv_name":"Uncletopia | Sydney | 4 | All Maps | STV","players":null},{"server_id":58,"name":"Uncletopia | Sydney | 5 | Stopwatch Beta","name_short":"syd-5","host":"syd-1.au.uncletopia.com","port":27055,"enabled":true,"region":"au","cc":"au","latitude":-33.865143,"longitude":151.2099,"reserved":0,"last_update":"0001-01-01T00:00:00Z","name_a2s":"Uncletopia | Sydney | 5 | Stopwatch Beta","protocol":17,"map":"cp_snakewater_final1","folder":"tf","game":"Team Fortress","app_id":440,"player_count":0,"max_players":24,"Bots":0,"server_type":"Dedicated","server_os":"Linux","password":true,"vac":true,"version":"7882260","steam_id":85568392925397959,"keywords":["cp","nocrits","nodmgspread","uncletopia"],"game_id":440,"stv_port":27056,"stv_name":"Uncletopia | Sydney | 5 | Stopwatch Beta | STV","players":null},{"server_id":59,"name":"Uncletopia | Sydney | 6 | Community","name_short":"syd-6","host":"syd-1.au.uncletopia.com","port":27065,"enabled":true,"region":"au","cc":"au","latitude":-33.865143,"longitude":151.2099,"reserved":0,"last_update":"0001-01-01T00:00:00Z","name_a2s":"Uncletopia | Sydney | 6 | Community","protocol":17,"map":"workshop/koth_ramjam_rc1.ugc459778887","folder":"tf","game":"Team Fortress","app_id":440,"player_count":0,"max_players":24,"Bots":0,"server_type":"Dedicated","server_os":"Linux","password":true,"vac":true,"version":"7882260","steam_id":85568392925397960,"keywords":["cp","nocrits","nodmgspread","uncletopia"],"game_id":440,"stv_port":27066,"stv_name":"Uncletopia | Sydney | 6 | Community | STV","players":null},{"server_id":49,"name":"Uncletopia | Warsaw | 1 | All Maps","name_short":"waw-1","host":"waw-1.pl.uncletopia.com","port":27015,"enabled":true,"region":"eu","cc":"pl","latitude":52.2297,"longitude":21.017532,"reserved":0,"last_update":"0001-01-01T00:00:00Z","name_a2s":"","protocol":0,"map":"","folder":"","game":"","app_id":0,"player_count":0,"max_players":0,"Bots":0,"server_type":"","server_os":"","password":false,"vac":false,"version":"","steam_id":0,"keywords":null,"game_id":0,"stv_port":0,"stv_name":"","players":null},{"server_id":50,"name":"Uncletopia | Warsaw | 2 | All Maps","name_short":"waw-2","host":"waw-1.pl.uncletopia.com","port":27025,"enabled":true,"region":"eu","cc":"pl","latitude":52.2297,"longitude":21.017532,"reserved":0,"last_update":"0001-01-01T00:00:00Z","name_a2s":"Uncletopia | Warsaw | 2 | All Maps","protocol":17,"map":"cp_snakewater_final1","folder":"tf","game":"Team Fortress","app_id":440,"player_count":0,"max_players":24,"Bots":0,"server_type":"Dedicated","server_os":"Linux","password":true,"vac":true,"version":"7882260","steam_id":85568392925397851,"keywords":["cp","nocrits","nodmgspread","uncletopia"],"game_id":440,"stv_port":27026,"stv_name":"Uncletopia | Warsaw | 2 | All Maps | STV","players":null},{"server_id":51,"name":"Uncletopia | Warsaw | 3 | All Maps","name_short":"waw-3","host":"waw-1.pl.uncletopia.com","port":27035,"enabled":true,"region":"eu","cc":"pl","latitude":52.2297,"longitude":21.017532,"reserved":0,"last_update":"0001-01-01T00:00:00Z","name_a2s":"Uncletopia | Warsaw | 3 | All Maps","protocol":17,"map":"koth_lakeside_final","folder":"tf","game":"Team Fortress","app_id":440,"player_count":0,"max_players":24,"Bots":0,"server_type":"Dedicated","server_os":"Linux","password":true,"vac":true,"version":"7882260","steam_id":85568392925397852,"keywords":["cp","nocrits","nodmgspread","uncletopia"],"game_id":440,"stv_port":27036,"stv_name":"Uncletopia | Warsaw | 3 | All Maps | STV","players":null},{"server_id":52,"name":"Uncletopia | Warsaw | 4 | All Maps","name_short":"waw-4","host":"waw-1.pl.uncletopia.com","port":27045,"enabled":true,"region":"eu","cc":"pl","latitude":52.2297,"longitude":21.017532,"reserved":0,"last_update":"0001-01-01T00:00:00Z","name_a2s":"Uncletopia | Warsaw | 4 | All Maps","protocol":17,"map":"koth_highpass","folder":"tf","game":"Team Fortress","app_id":440,"player_count":0,"max_players":24,"Bots":0,"server_type":"Dedicated","server_os":"Linux","password":true,"vac":true,"version":"7882260","steam_id":85568392925397853,"keywords":["cp","nocrits","nodmgspread","uncletopia"],"game_id":440,"stv_port":27046,"stv_name":"Uncletopia | Warsaw | 4 | All Maps | STV","players":null},{"server_id":53,"name":"Uncletopia | Warsaw | 5 | Stopwatch Beta","name_short":"waw-5","host":"waw-1.pl.uncletopia.com","port":27055,"enabled":true,"region":"eu","cc":"pl","latitude":52.2297,"longitude":21.017532,"reserved":0,"last_update":"0001-01-01T00:00:00Z","name_a2s":"Uncletopia | Warsaw | 5 | Stopwatch Beta","protocol":17,"map":"cp_mountainlab","folder":"tf","game":"Team Fortress","app_id":440,"player_count":0,"max_players":24,"Bots":0,"server_type":"Dedicated","server_os":"Linux","password":true,"vac":true,"version":"7882260","steam_id":85568392925397854,"keywords":["cp","nocrits","nodmgspread","uncletopia"],"game_id":440,"stv_port":27056,"stv_name":"Uncletopia | Warsaw | 5 | Stopwatch Beta | STV","players":null},{"server_id":54,"name":"Uncletopia | Warsaw | 6 | Community","name_short":"waw-6","host":"waw-1.pl.uncletopia.com","port":27065,"enabled":true,"region":"eu","cc":"pl","latitude":52.2297,"longitude":21.017532,"reserved":0,"last_update":"0001-01-01T00:00:00Z","name_a2s":"Uncletopia | Warsaw | 6 | Community","protocol":17,"map":"workshop/cp_mannbase_rc2a.ugc1900737467","folder":"tf","game":"Team Fortress","app_id":440,"player_count":0,"max_players":24,"Bots":0,"server_type":"Dedicated","server_os":"Linux","password":true,"vac":true,"version":"7882260","steam_id":85568392925397856,"keywords":["cp","nocrits","nodmgspread","uncletopia"],"game_id":440,"stv_port":27066,"stv_name":"Uncletopia | Warsaw | 6 | Community | STV","players":null}]}