{"status":true,"message":"","result":[{"server_id":9,"name":"Uncletopia | Atlanta | 1 | All Maps","name_short":"atl-1","host":"atl-1.us.uncletopia.com","port":27015,"enabled":true,"region":"us-east","cc":"us","latitude":33.753746,"longitude":-84.38633,"reserved":0,"last_update":"0001-01-01T00:00:00Z","name_a2s":"Uncletopia | Atlanta | 1 | All Maps","protocol":17,"map":"pl_frontier_final","folder":"tf","game":"Team Fortress","app_id":440,"player_count":24,"max_players":24,"Bots":0,"server_type":"Dedicated","server_os":"Linux","password":true,"vac":true,"version":"7882260","steam_id":85568392924469982,"keywords":["nocrits","nodmgspread","payload","uncletopia"],"game_id":440,"stv_port":27016,"stv_name":"Uncletopia | Atlanta | 1 | All Maps | STV","players":[{"user_id":163,"name":"DragonFalcon‚Ñ¢","steam_id":76561198044559930,"connected_time":862000000000,"state":"active","ping":55},{"user_id":171,"name":"troll","steam_id":76561198040890252,"connected_time":654000000000,"state":"active","ping":47},{"user_id":169,"name":"trobin120","steam_id":76561199122420273,"connected_time":712000000000,"state":"active","ping":55},{"user_id":154,"name":"luxin","steam_id":76561198399383047,"connected_time":1656000000000,"state":"active","ping":48},{"user_id":161,"name":"Jango","steam_id":76561198084589742,"connected_time":1087000000000,"state":"active","ping":60},{"user_id":183,"name":"Rockhead","steam_id":76561197995196535,"connected_time":64000000000,"state":"active","ping":66},{"user_id":142,"name":"goblino","steam_id":76561198068260422,"connected_time":3466000000000,"state":"active","ping":74},{"user_id":152,"name":"your local forecast","steam_id":76561198042243083,"connected_time":2256000000000,"state":"active","ping":55},{"user_id":103,"name":"William Wallace","steam_id":76561199343316814,"connected_time":7012000000000,"state":"active","ping":57},{"user_id":170,"name":"Br1 AV","steam_id":76561198802433117,"connected_time":710000000000,"state":"active","ping":132},{"user_id":167,"name":"Roof Rat","steam_id":76561198136475073,"connected_time":796000000000,"state":"active","ping":73},{"user_id":155,"name":"Quelfa","steam_id":76561199013444208,"connected_time":1655000000000,"state":"active","ping":55},{"user_id":145,"name":"T Jit","steam_id":76561197993371179,"connected_time":2909000000000,"state":"active","ping":45},{"user_id":168,"name":"Ninty","steam_id":76561199364725776,"connected_time":791000000000,"state":"active","ping":67},{"user_id":131,"name":"Temujin","steam_id":76561198030936583,"connected_time":5476000000000,"state":"active","ping":48},{"user_id":141,"name":"emily","steam_id":76561198148132163,"connected_time":3517000000000,"state":"active","ping":78},{"user_id":133,"name":"Mage","steam_id":76561198285026879,"connected_time":4514000000000,"state":"active","ping":83},{"user_id":166,"name":"Skinny Pete","steam_id":76561198801608576,"connected_time":802000000000,"state":"active","ping":73},{"user_id":181,"name":"Serenue","steam_id":76561199040361250,"connected_time":311000000000,"state":"active","ping":92},{"user_id":101,"name":"Bag","steam_id":76561198012395490,"connected_time":7205000000000,"state":"active","ping":59},{"user_id":172,"name":"SleepyT","steam_id":76561198042272576,"connected_time":621000000000,"state":"active","ping":60},{"user_id":160,"name":"Muk__Tuk","steam_id":76561199122524457,"connected_time":1283000000000,"state":"active","ping":85},{"user_id":179,"name":"DiGiorno's Pizza","steam_id":76561198142244035,"connected_time":319000000000,"state":"active","ping":71},{"user_id":162,"name":"basil smoking weed","steam_id":76561198119590214,"connected_time":1087000000000,"state":"active","ping":58}]},{"server_id":104,"name":"Uncletopia | Atlanta | 2 | All Maps","name_short":"atl-2","host":"atl-1.us.uncletopia.com","port":27025,"enabled":true,"region":"us-east","cc":"us","latitude":33.753746,"longitude":-84.38633,"reserved":0,"last_update":"0001-01-01T00:00:00Z","name_a2s":"Uncletopia | Atlanta | 2 | All Maps","protocol":17,"map":"koth_lakeside_final","folder":"tf","game":"Team Fortress","app_id":440,"player_count":13,"max_players":24,"Bots":0,"server_type":"Dedicated","server_os":"Linux","password":true,"vac":true,"version":"7882260","steam_id":85568392924469983,"keywords":["cp","nocrits","nodmgspread","uncletopia"],"game_id":440,"stv_port":27026,"stv_name":"Uncletopia | Atlanta | 2 | All Maps | STV","players":[{"user_id":11,"name":"Sprinklze","steam_id":76561198163562681,"connected_time":2938000000000,"state":"active","ping":46},{"user_id":23,"name":"Rampage","steam_id":76561199470344786,"connected_time":362000000000,"state":"active","ping":152},{"user_id":13,"name":"sal","steam_id":76561198814096380,"connected_time":1745000000000,"state":"active","ping":69},{"user_id":20,"name":"WaywardFinn","steam_id":76561198040391296,"connected_time":452000000000,"state":"active","ping":66},{"user_id":19,"name":"Smol Widdle Goblin","steam_id":76561198152031932,"connected_time":671000000000,"state":"active","ping":71},{"user_id":22,"name":"MainKayden08","steam_id":76561198436038337,"connected_time":425000000000,"state":"active","ping":62},{"user_id":27,"name":"BEES","steam_id":76561198811545874,"connected_time":141000000000,"state":"active","ping":72},{"user_id":25,"name":"Nephs","steam_id":76561198136763403,"connected_time":174000000000,"state":"active","ping":73},{"user_id":26,"name":"Triple-Edged","steam_id":76561198308472155,"connected_time":151000000000,"state":"active","ping":71},{"user_id":28,"name":"catrinaisahuman","steam_id":76561198281355729,"connected_time":135000000000,"state":"active","ping":86},{"user_id":29,"name":"Bad Rollout","steam_id":76561197971948876,"connected_time":48000000000,"state":"active","ping":66},{"user_id":30,"name":"motherfucker 2.0","steam_id":76561198141189209,"connected_time":38000000000,"state":"active","ping":79},{"user_id":31,"name":"manbearswineflu","steam_id":76561198083945137,"connected_time":13000000000,"state":"spawning","ping":102}]},{"server_id":400,"name":"Uncletopia | Atlanta | 3 | Community","name_short":"atl-3","host":"atl-1.us.uncletopia.com","port":27035,"enabled":true,"region":"us-east","cc":"us","latitude":33.753746,"longitude":-84.38633,"reserved":0,"last_update":"0001-01-01T00:00:00Z","name_a2s":"Uncletopia | Atlanta | 3 | Community","protocol":17,"map":"workshop/koth_ramjam_rc1.ugc459778887","folder":"tf","game":"Team Fortress","app_id":440,"player_count":0,"max_players":24,"Bots":0,"server_type":"Dedicated","server_os":"Linux","password":true,"vac":true,"version":"7882260","steam_id":85568392924515187,"keywords":["cp","nocrits","nodmgspread","uncletopia"],"game_id":440,"stv_port":27036,"stv_name":"Uncletopia | Atlanta | 3 | Community | STV","players":null},{"server_id":401,"name":"Uncletopia | Atlanta | 4 | No Payload","name_short":"atl-4","host":"atl-1.us.uncletopia.com","port":27045,"enabled":true,"region":"us-east","cc":"us","latitude":33.753746,"longitude":-84.38633,"reserved":0,"last_update":"0001-01-01T00:00:00Z","name_a2s":"","protocol":0,"map":"","folder":"","game":"","app_id":0,"player_count":0,"max_players":0,"Bots":0,"server_type":"","server_os":"","password":false,"vac":false,"version":"","steam_id":0,"keywords":null,"game_id":0,"stv_port":0,"stv_name":"","players":null},{"server_id":2,"name":"Uncletopia | Chicago | 1 | All Maps","name_short":"chi-1","host":"chi-1.us.uncletopia.com","port":27015,"enabled":true,"region":"us-central","cc":"us","latitude":41.881832,"longitude":-87.62318,"reserved":0,"last_update":"0001-01-01T00:00:00Z","name_a2s":"Uncletopia | Chicago | 1 | All Maps","protocol":17,"map":"cp_snakewater_final1","folder":"tf","game":"Team Fortress","app_id":440,"player_count":24,"max_players":24,"Bots":0,"server_type":"Dedicated","server_os":"Linux","password":true,"vac":true,"version":"7882260","steam_id":85568392924469984,"keywords":["cp","nocrits","nodmgspread","uncletopia"],"game_id":440,"stv_port":27016,"stv_name":"Uncletopia | Chicago | 1 | All Maps | STV","players":[{"user_id":329,"name":"Architect","steam_id":76561198015242016,"connected_time":2417000000000,"state":"active","ping":41},{"user_id":347,"name":"Anal Seepage","steam_id":76561198060511851,"connected_time":598000000000,"state":"active","ping":91},{"user_id":352,"name":"Cedric","steam_id":76561198072090580,"connected_time":56000000000,"state":"active","ping":89},{"user_id":312,"name":"Voodo133","steam_id":76561198042670351,"connected_time":3682000000000,"state":"active","ping":87},{"user_id":338,"name":"Lock'd","steam_id":76561198170108230,"connected_time":1739000000000,"state":"active","ping":82},{"user_id":326,"name":"Dake","steam_id":76561199139182003,"connected_time":2520000000000,"state":"active","ping":65},{"user_id":344,"name":"Astoriae!","steam_id":76561199090168858,"connected_time":649000000000,"state":"active","ping":198},{"user_id":345,"name":"Witchings","steam_id":76561198247431254,"connected_time":647000000000,"state":"active","ping":60},{"user_id":318,"name":"Dr.BiohunterPHD","steam_id":76561198047023365,"connected_time":3339000000000,"state":"active","ping":87},{"user_id":294,"name":"Lalo Salamanca","steam_id":76561198319726270,"connected_time":4691000000000,"state":"active","ping":102},{"user_id":330,"name":"Blackbird","steam_id":76561198127818333,"connected_time":2132000000000,"state":"active","ping":55},{"user_id":285,"name":"[live] ttv/lilirouxxx","steam_id":76561198000522179,"connected_time":5449000000000,"state":"active","ping":69},{"user_id":331,"name":"Racoon.zip","steam_id":76561199023759321,"connected_time":2091000000000,"state":"active","ping":103},{"user_id":335,"name":"lexi","steam_id":76561198176299759,"connected_time":2070000000000,"state":"active","ping":86},{"user_id":323,"name":"Furry on main","steam_id":76561198371577822,"connected_time":2664000000000,"state":"active","ping":60},{"user_id":348,"name":"impractical jokers gaming","steam_id":76561198068167915,"connected_time":563000000000,"state":"active","ping":65},{"user_id":339,"name":"yeah","steam_id":76561198003214384,"connected_time":1063000000000,"state":"active","ping":59},{"user_id":341,"name":"09robcraft2","steam_id":76561199073189184,"connected_time":737000000000,"state":"active","ping":76},{"user_id":350,"name":"leboeufbn","steam_id":76561199228923100,"connected_time":393000000000,"state":"active","ping":81},{"user_id":270,"name":"corik","steam_id":76561198261748842,"connected_time":6669000000000,"state":"active","ping":66},{"user_id":305,"name":"gamerkid413","steam_id":76561198113716047,"connected_time":3978000000000,"state":"active","ping":70},{"user_id":340,"name":"PerliousFalcon","steam_id":76561198124801907,"connected_time":861000000000,"state":"active","ping":102},{"user_id":349,"name":"Its Dr.Stoned","steam_id":76561198079622791,"connected_time":560000000000,"state":"active","ping":79},{"user_id":246,"name":"picklejuice dealer","steam_id":76561198031675881,"connected_time":9286000000000,"state":"active","ping":42}]},{"server_id":106,"name":"Uncletopia | Chicago | 2 | All Maps","name_short":"chi-2","host":"chi-1.us.uncletopia.com","port":27025,"enabled":true,"region":"us-central","cc":"us","latitude":41.881832,"longitude":-87.62318,"reserved":0,"last_update":"0001-01-01T00:00:00Z","name_a2s":"Uncletopia | Chicago | 2 | All Maps","protocol":17,"map":"pl_badwater","folder":"tf","game":"Team Fortress","app_id":440,"player_count":24,"max_players":24,"Bots":0,"server_type":"Dedicated","server_os":"Linux","password":true,"vac":true,"version":"7882260","steam_id":85568392924469985,"keywords":["nocrits","nodmgspread","payload","uncletopia"],"game_id":440,"stv_port":27026,"stv_name":"Uncletopia | Chicago | 2 | All Maps | STV","players":[{"user_id":352,"name":"Pilot","steam_id":76561198323019632,"connected_time":3181000000000,"state":"active","ping":84},{"user_id":388,"name":"Riceguy","steam_id":76561199277204999,"connected_time":637000000000,"state":"active","ping":90},{"user_id":368,"name":"crayonnipple","steam_id":76561198070253331,"connected_time":2201000000000,"state":"active","ping":74},{"user_id":371,"name":"Mehman","steam_id":76561199020244051,"connected_time":1812000000000,"state":"active","ping":99},{"user_id":342,"name":"jstn","steam_id":76561198845283665,"connected_time":4032000000000,"state":"active","ping":68},{"user_id":373,"name":"Yonker","steam_id":76561198079473397,"connected_time":1304000000000,"state":"active","ping":62},{"user_id":369,"name":"[GUT] RiDiK¬Æ","steam_id":76561197969756446,"connected_time":1927000000000,"state":"active","ping":56},{"user_id":391,"name":"Kobrakiddmeow","steam_id":76561198080696266,"connected_time":443000000000,"state":"active","ping":98},{"user_id":379,"name":"Iggy6670","steam_id":76561198044994567,"connected_time":1028000000000,"state":"active","ping":64},{"user_id":395,"name":"gulch","steam_id":76561199227946025,"connected_time":309000000000,"state":"active","ping":71},{"user_id":334,"name":"waltuh","steam_id":76561198363541736,"connected_time":4312000000000,"state":"active","ping":97},{"user_id":383,"name":"Skipz","steam_id":76561198425244550,"connected_time":846000000000,"state":"active","ping":83},{"user_id":380,"name":"Famelegion","steam_id":76561198958341424,"connected_time":1013000000000,"state":"active","ping":98},{"user_id":375,"name":"crabapples","steam_id":76561198075818655,"connected_time":1158000000000,"state":"active","ping":59},{"user_id":385,"name":"Try Gardening","steam_id":76561198120311340,"connected_time":777000000000,"state":"active","ping":47},{"user_id":345,"name":"cj da man","steam_id":76561198303575607,"connected_time":3902000000000,"state":"active","ping":80},{"user_id":392,"name":"kite","steam_id":76561198346516392,"connected_time":441000000000,"state":"active","ping":70},{"user_id":381,"name":"(no monitor) ayylien","steam_id":76561198042127970,"connected_time":1007000000000,"state":"active","ping":75},{"user_id":382,"name":"mr.edderkopper","steam_id":76561198152614478,"connected_time":993000000000,"state":"active","ping":47},{"user_id":348,"name":"Dalvarious","steam_id":76561198052771928,"connected_time":3494000000000,"state":"active","ping":71},{"user_id":394,"name":"awesomebrololo","steam_id":76561198374283489,"connected_time":326000000000,"state":"active","ping":132},{"user_id":350,"name":"fireball","steam_id":76561198118224568,"connected_time":3413000000000,"state":"active","ping":59},{"user_id":384,"name":"üíõMercyüíõ","steam_id":76561198147095572,"connected_time":845000000000,"state":"active","ping":59},{"user_id":390,"name":"Loashes","steam_id":76561198119608299,"connected_time":535000000000,"state":"active","ping":82}]},{"server_id":402,"name":"Uncletopia | Chicago | 3 | All Maps","name_short":"chi-3","host":"chi-1.us.uncletopia.com","port":27035,"enabled":true,"region":"us-central","cc":"us","latitude":41.881832,"longitude":-87.62318,"reserved":0,"last_update":"0001-01-01T00:00:00Z","name_a2s":"Uncletopia | Chicago | 3 | All Maps","protocol":17,"map":"cp_coldfront","folder":"tf","game":"Team Fortress","app_id":440,"player_count":23,"max_players":24,"Bots":0,"server_type":"Dedicated","server_os":"Linux","password":true,"vac":true,"version":"7882260","steam_id":85568392924515191,"keywords":["cp","nocrits","nodmgspread","uncletopia"],"game_id":440,"stv_port":27036,"stv_name":"Uncletopia | Chicago | 3 | All Maps | STV","players":[{"user_id":450,"name":"MoonWolf","steam_id":76561198095735033,"connected_time":1942000000000,"state":"active","ping":70},{"user_id":461,"name":"Pagan min","steam_id":76561198065181538,"connected_time":949000000000,"state":"active","ping":56},{"user_id":476,"name":"El Portel","steam_id":76561198076108055,"connected_time":180000000000,"state":"active","ping":82},{"user_id":432,"name":"Hog Rider","steam_id":76561198270106555,"connected_time":3238000000000,"state":"active","ping":116},{"user_id":470,"name":":3","steam_id":76561198077449460,"connected_time":527000000000,"state":"active","ping":55},{"user_id":436,"name":"GardenOfStone","steam_id":76561199069870534,"connected_time":2868000000000,"state":"active","ping":87},{"user_id":478,"name":"scrotal recall","steam_id":76561198135945598,"connected_time":128000000000,"state":"active","ping":77},{"user_id":420,"name":"‚òÜNebula-Belt‚òÜ","steam_id":76561198151250806,"connected_time":4090000000000,"state":"active","ping":70},{"user_id":457,"name":"Zeek","steam_id":76561197987204351,"connected_time":1397000000000,"state":"active","ping":59},{"user_id":473,"name":"Thneed","steam_id":76561199267535506,"connected_time":380000000000,"state":"active","ping":77},{"user_id":467,"name":"DaMultiversalist","steam_id":76561198239552412,"connected_time":601000000000,"state":"active","ping":68},{"user_id":482,"name":"literail","steam_id":76561198843875320,"connected_time":20000000000,"state":"active","ping":47},{"user_id":410,"name":"Zixzs","steam_id":76561198055504126,"connected_time":4614000000000,"state":"active","ping":63},{"user_id":479,"name":"P.C. Baby","steam_id":76561198067011379,"connected_time":93000000000,"state":"active","ping":114},{"user_id":460,"name":"Butter Bunz","steam_id":76561198798567488,"connected_time":1021000000000,"state":"active","ping":71},{"user_id":480,"name":"Mitchinatr","steam_id":76561198065145561,"connected_time":89000000000,"state":"active","ping":85},{"user_id":468,"name":"frank","steam_id":76561198137777483,"connected_time":581000000000,"state":"active","ping":70},{"user_id":409,"name":"M4 Sherman","steam_id":76561198126990820,"connected_time":4877000000000,"state":"active","ping":95},{"user_id":481,"name":"TehDuck","steam_id":76561198172129394,"connected_time":77000000000,"state":"active","ping":66},{"user_id":458,"name":"k1tty","steam_id":76561198869348268,"connected_time":1321000000000,"state":"active","ping":104},{"user_id":440,"name":"HAIL SATAN","steam_id":76561198085906239,"connected_time":2689000000000,"state":"active","ping":61},{"user_id":471,"name":"ÕìÕìÃùÕôÃ†ÃùÕñÕâÃ•CÕÇÕëÕ¨ÕõÕãÃø","steam_id":76561198423390455,"connected_time":520000000000,"state":"active","ping":102},{"user_id":477,"name":"Green Icicle","steam_id":76561198069624529,"connected_time":178000000000,"state":"active","ping":95}]},{"server_id":403,"name":"Uncletopia | Chicago | 4 | All Maps","name_short":"chi-4","host":"chi-1.us.uncletopia.com","port":27045,"enabled":true,"region":"us-central","cc":"us","latitude":41.881832,"longitude":-87.62318,"reserved":0,"last_update":"0001-01-01T00:00:00Z","name_a2s":"Uncletopia | Chicago | 4 | All Maps","protocol":17,"map":"pl_borneo","folder":"tf","game":"Team Fortress","app_id":440,"player_count":24,"max_players":24,"Bots":0,"server_type":"Dedicated","server_os":"Linux","password":true,"vac":true,"version":"7882260","steam_id":85568392924515193,"keywords":["nocrits","nodmgspread","payload","uncletopia"],"game_id":440,"stv_port":27046,"stv_name":"Uncletopia | Chicago | 4 | All Maps | STV","players":[{"user_id":318,"name":"Nassu","steam_id":76561198147367577,"connected_time":4092000000000,"state":"active","ping":74},{"user_id":331,"name":"Bomber","steam_id":76561199013705323,"connected_time":3292000000000,"state":"active","ping":62},{"user_id":366,"name":"Okpar","steam_id":76561199221067945,"connected_time":1179000000000,"state":"active","ping":95},{"user_id":372,"name":"Retro Phoenix","steam_id":76561198077176271,"connected_time":587000000000,"state":"active","ping":61},{"user_id":350,"name":"Mug Moment Gaming","steam_id":76561198233098136,"connected_time":2030000000000,"state":"active","ping":54},{"user_id":359,"name":"heavyArmor","steam_id":76561198191056059,"connected_time":1297000000000,"state":"active","ping":70},{"user_id":362,"name":"MAXIMUM OVERDRIVE","steam_id":76561198113992547,"connected_time":1266000000000,"state":"active","ping":105},{"user_id":243,"name":"ÔºîÔºê Ôº¶Ôº∞Ôº≥","steam_id":76561198272394965,"connected_time":8636000000000,"state":"active","ping":136},{"user_id":355,"name":"Smittywerbenjager-manjenson","steam_id":76561198067060742,"connected_time":1582000000000,"state":"active","ping":60},{"user_id":358,"name":"meth ape","steam_id":76561199110579692,"connected_time":1470000000000,"state":"active","ping":88},{"user_id":373,"name":"Doubting Dave","steam_id":76561198066410749,"connected_time":311000000000,"state":"active","ping":108},{"user_id":375,"name":"Trusty","steam_id":76561198123441319,"connected_time":274000000000,"state":"active","ping":48},{"user_id":365,"name":"Mario","steam_id":76561198321794277,"connected_time":1233000000000,"state":"active","ping":55},{"user_id":381,"name":"El Bondin","steam_id":76561198820792434,"connected_time":225000000000,"state":"active","ping":102},{"user_id":369,"name":"Roguefluff","steam_id":76561198169269105,"connected_time":808000000000,"state":"active","ping":60},{"user_id":382,"name":"\"LET'S GO JUAN!\"","steam_id":76561198978797171,"connected_time":216000000000,"state":"active","ping":104},{"user_id":380,"name":"Uncle Dane Wannabe","steam_id":76561198851958868,"connected_time":247000000000,"state":"active","ping":102},{"user_id":383,"name":"DrStarBucksCoffee","steam_id":76561198037372470,"connected_time":213000000000,"state":"active","ping":75},{"user_id":384,"name":"Slippin' Jimmy","steam_id":76561198812921824,"connected_time":76000000000,"state":"active","ping":60},{"user_id":351,"name":"Cheese4Everyone","steam_id":76561198022333985,"connected_time":1775000000000,"state":"active","ping":76},{"user_id":376,"name":"Yunky","steam_id":76561197966495749,"connected_time":272000000000,"state":"active","ping":60},{"user_id":371,"name":"Super Ghoul","steam_id":76561198088810276,"connected_time":730000000000,"state":"active","ping":78},{"user_id":364,"name":"Kerbeh Klobbah","steam_id":76561198208885703,"connected_time":1246000000000,"state":"active","ping":61},{"user_id":378,"name":"‚ô•Bunny‚ô•Slut‚ô•","steam_id":76561198206376851,"connected_time":267000000000,"state":"active","ping":83}]},{"server_id":36,"name":"Uncletopia | Chicago | 5 | All Maps","name_short":"chi-5","host":"chi-2.us.uncletopia.com","port":27015,"enabled":true,"region":"us-central","cc":"us","latitude":41.881832,"longitude":-87.62318,"reserved":0,"last_update":"0001-01-01T00:00:00Z","name_a2s":"Uncletopia | Chicago | 5 | All Maps","protocol":17,"map":"cp_coldfront","folder":"tf","game":"Team Fortress","app_id":440,"player_count":23,"max_players":24,"Bots":0,"server_type":"Dedicated","server_os":"Linux","password":true,"vac":true,"version":"7882260","steam_id":85568392924866362,"keywords":["cp","nocrits","nodmgspread","uncletopia"],"game_id":440,"stv_port":27016,"stv_name":"Uncletopia | Chicago | 5 | All Maps | STV","players":[{"user_id":242,"name":"Noodles","steam_id":76561198446378419,"connected_time":1090000000000,"state":"active","ping":78},{"user_id":213,"name":"OpenDown","steam_id":76561198064132688,"connected_time":2738000000000,"state":"active","ping":68},{"user_id":249,"name":"twizted","steam_id":76561197960407274,"connected_time":526000000000,"state":"active","ping":70},{"user_id":237,"name":"pete_the_cat_2014","steam_id":76561198199266047,"connected_time":1286000000000,"state":"active","ping":55},{"user_id":212,"name":"bogus binted","steam_id":76561198203329842,"connected_time":2763000000000,"state":"active","ping":76},{"user_id":218,"name":"Camaleon","steam_id":76561198041329791,"connected_time":2510000000000,"state":"active","ping":94},{"user_id":253,"name":"CORGI.EXE","steam_id":76561198077093432,"connected_time":34000000000,"state":"spawning","ping":90},{"user_id":234,"name":"Brumpo Tungus","steam_id":76561198054669779,"connected_time":1454000000000,"state":"active","ping":53},{"user_id":239,"name":"1-800-GHOST-DANCE","steam_id":76561198835430429,"connected_time":1215000000000,"state":"active","ping":81},{"user_id":219,"name":"SCraig64","steam_id":76561198171251965,"connected_time":2507000000000,"state":"active","ping":65},{"user_id":244,"name":"Wengatang","steam_id":76561198021747059,"connected_time":966000000000,"state":"active","ping":59},{"user_id":240,"name":"Demoman With One Joke","steam_id":76561197993467034,"connected_time":1211000000000,"state":"active","ping":46},{"user_id":225,"name":"Prez Pineapple","steam_id":76561198253755258,"connected_time":2364000000000,"state":"active","ping":107},{"user_id":231,"name":"feliser","steam_id":76561198084336096,"connected_time":2079000000000,"state":"active","ping":50},{"user_id":241,"name":"Artgrenadier","steam_id":76561198063305359,"connected_time":1175000000000,"state":"active","ping":70},{"user_id":245,"name":"TanTacos","steam_id":76561198017274900,"connected_time":954000000000,"state":"active","ping":82},{"user_id":203,"name":"Venk","steam_id":76561198251131422,"connected_time":3489000000000,"state":"active","ping":71},{"user_id":142,"name":"Linksaver1","steam_id":76561198096312838,"connected_time":6471000000000,"state":"active","ping":102},{"user_id":252,"name":"HOODOO_LOVER_2007","steam_id":76561199087691214,"connected_time":204000000000,"state":"active","ping":96},{"user_id":227,"name":"Mr. Dick‚Ñ¢","steam_id":76561198047309044,"connected_time":2307000000000,"state":"active","ping":59},{"user_id":246,"name":"BARNACLE BOY","steam_id":76561199060575719,"connected_time":945000000000,"state":"active","ping":88},{"user_id":255,"name":"The local hobo","steam_id":76561198289650060,"connected_time":2000000000,"state":"spawning","ping":76},{"user_id":248,"name":"bean d eafs","steam_id":76561199480473421,"connected_time":922000000000,"state":"active","ping":78}]},{"server_id":37,"name":"Uncletopia | Chicago | 6 | All Maps","name_short":"chi-6","host":"chi-2.us.uncletopia.com","port":27025,"enabled":true,"region":"us-central","cc":"us","latitude":41.881832,"longitude":-87.62318,"reserved":0,"last_update":"0001-01-01T00:00:00Z","name_a2s":"Uncletopia | Chicago | 6 | All Maps","protocol":17,"map":"koth_cascade","folder":"tf","game":"Team Fortress","app_id":440,"player_count":0,"max_players":24,"Bots":0,"server_type":"Dedicated","server_os":"Linux","password":true,"vac":true,"version":"7882260","steam_id":85568392924866363,"keywords":["cp","nocrits","nodmgspread","uncletopia"],"game_id":440,"stv_port":27026,"stv_name":"Uncletopia | Chicago | 6 | All Maps | STV","players":null},{"server_id":38,"name":"Uncletopia | Chicago | 7 | Stopwatch Beta","name_short":"chi-7","host":"chi-2.us.uncletopia.com","port":27035,"enabled":true,"region":"us-central","cc":"us","latitude":41.881832,"longitude":-87.62318,"reserved":0,"last_update":"0001-01-01T00:00:00Z","name_a2s":"Uncletopia | Chicago | 7 | Stopwatch Beta","protocol":17,"map":"pl_borneo","folder":"tf","game":"Team Fortress","app_id":440,"player_count":0,"max_players":24,"Bots":0,"server_type":"Dedicated","server_os":"Linux","password":true,"vac":true,"version":"7882260","steam_id":85568392924866364,"keywords":["nocrits","nodmgspread","payload","uncletopia"],"game_id":440,"stv_port":27036,"stv_name":"Uncletopia | Chicago | 7 | Stopwatch Beta | STV","players":null},{"server_id":39,"name":"Uncletopia | Chicago | 8 | Community","name_short":"chi-8","host":"chi-2.us.uncletopia.com","port":27045,"enabled":true,"region":"us-central","cc":"us","latitude":41.881832,"longitude":-87.62318,"reserved":0,"last_update":"0001-01-01T00:00:00Z","name_a2s":"Uncletopia | Chicago | 8 | Community","protocol":17,"map":"workshop/cp_bruhstbowl_b5.ugc2878604990","folder":"tf","game":"Team Fortress","app_id":440,"player_count":9,"max_players":24,"Bots":0,"server_type":"Dedicated","server_os":"Linux","password":true,"vac":true,"version":"7882260","steam_id":85568392924866365,"keywords":["cp","nocrits","nodmgspread","uncletopia"],"game_id":440,"stv_port":27046,"stv_name":"Uncletopia | Chicago | 8 | Community | STV","players":[{"user_id":8,"name":"Cuttle's Fish","steam_id":76561198280483257,"connected_time":1841000000000,"state":"active","ping":52},{"user_id":15,"name":"SSC1300","steam_id":76561199008625940,"connected_time":632000000000,"state":"active","ping":74},{"user_id":16,"name":"Sexual Butt","steam_id":76561198102241399,"connected_time":383000000000,"state":"active","ping":62},{"user_id":11,"name":"GrapeGoodra","steam_id":76561198042141579,"connected_time":1421000000000,"state":"active","ping":53},{"user_id":12,"name":"Revenant","steam_id":76561198074139416,"connected_time":1402000000000,"state":"active","ping":81},{"user_id":13,"name":"00DoubleOh","steam_id":76561198105648819,"connected_time":1322000000000,"state":"active","ping":70},{"user_id":14,"name":"CronaTV","steam_id":76561198062956313,"connected_time":1276000000000,"state":"active","ping":70},{"user_id":17,"name":"‚ù§ pavizi ‚ù§","steam_id":76561198064828655,"connected_time":214000000000,"state":"active","ping":60},{"user_id":18,"name":"Gallowglass07","steam_id":76561199286102917,"connected_time":193000000000,"state":"active","ping":66}]},{"server_id":8,"name":"Uncletopia | Dallas | 1 | All Maps","name_short":"dal-1","host":"dal-1.us.uncletopia.com","port":27015,"enabled":true,"region":"us-central","cc":"us","latitude":32.779167,"longitude":-96.80889,"reserved":0,"last_update":"0001-01-01T00:00:00Z","name_a2s":"Uncletopia | Dallas | 1 | All Maps","protocol":17,"map":"koth_lakeside_final","folder":"tf","game":"Team Fortress","app_id":440,"player_count":24,"max_players":24,"Bots":0,"server_type":"Dedicated","server_os":"Linux","password":true,"vac":true,"version":"7882260","steam_id":85568392924469986,"keywords":["cp","nocrits","nodmgspread","uncletopia"],"game_id":440,"stv_port":27016,"stv_name":"Uncletopia | Dallas | 1 | All Maps | STV","players":[{"user_id":124,"name":"LUM","steam_id":76561198069976825,"connected_time":2610000000000,"state":"active","ping":91},{"user_id":116,"name":"Lapisüíõ ","steam_id":76561198009198502,"connected_time":3128000000000,"state":"active","ping":89},{"user_id":108,"name":"Doomagedden","steam_id":76561198272589475,"connected_time":3346000000000,"state":"active","ping":53},{"user_id":121,"name":"errant","steam_id":76561197961758410,"connected_time":2831000000000,"state":"active","ping":40},{"user_id":137,"name":"boof","steam_id":76561198053901968,"connected_time":962000000000,"state":"active","ping":60},{"user_id":53,"name":"vastrobotmax","steam_id":76561198417110724,"connected_time":5532000000000,"state":"active","ping":99},{"user_id":144,"name":"hybriD^o0","steam_id":76561197977313486,"connected_time":440000000000,"state":"active","ping":84},{"user_id":145,"name":"hippo mode","steam_id":76561198073455521,"connected_time":405000000000,"state":"active","ping":63},{"user_id":140,"name":"NOT Susie Deltarune (not real)","steam_id":76561199007365488,"connected_time":594000000000,"state":"active","ping":69},{"user_id":127,"name":"Lolxdloldx","steam_id":76561198136887125,"connected_time":1651000000000,"state":"active","ping":98},{"user_id":105,"name":"dinky little beanie baby","steam_id":76561197999318398,"connected_time":3406000000000,"state":"active","ping":115},{"user_id":132,"name":"Chunky Little Chongus","steam_id":76561199094873145,"connected_time":1421000000000,"state":"active","ping":102},{"user_id":126,"name":"Cardboardcoin","steam_id":76561199421284163,"connected_time":1670000000000,"state":"active","ping":116},{"user_id":139,"name":"Loaf  E¬≤r","steam_id":76561198174967027,"connected_time":691000000000,"state":"active","ping":72},{"user_id":142,"name":"Legit_Jaxer","steam_id":76561198172234053,"connected_time":577000000000,"state":"active","ping":106},{"user_id":146,"name":"„ÄéSpoo„Äè","steam_id":76561198141522554,"connected_time":269000000000,"state":"active","ping":71},{"user_id":135,"name":"Conclusion E¬≤","steam_id":76561198100017156,"connected_time":1132000000000,"state":"active","ping":85},{"user_id":101,"name":"Arrluk","steam_id":76561198396679452,"connected_time":3823000000000,"state":"active","ping":72},{"user_id":147,"name":"ShapedSilver","steam_id":76561199073305310,"connected_time":263000000000,"state":"active","ping":54},{"user_id":128,"name":"Bloodborne \u0026 rgs Lover","steam_id":76561198085981571,"connected_time":1642000000000,"state":"active","ping":96},{"user_id":136,"name":"Icarus the legend","steam_id":76561199013250091,"connected_time":1121000000000,"state":"active","ping":57},{"user_id":80,"name":"Chunk Stuffer","steam_id":76561198856508573,"connected_time":4776000000000,"state":"active","ping":35},{"user_id":88,"name":"Sup m8","steam_id":76561198081659121,"connected_time":4703000000000,"state":"active","ping":43},{"user_id":143,"name":"fujiwara zone","steam_id":76561198064903998,"connected_time":561000000000,"state":"active","ping":75}]},{"server_id":108,"name":"Uncletopia | Dallas | 2 | All Maps","name_short":"dal-2","host":"dal-1.us.uncletopia.com","port":27025,"enabled":true,"region":"us-central","cc":"us","latitude":32.779167,"longitude":-96.80889,"reserved":0,"last_update":"0001-01-01T00:00:00Z","name_a2s":"Uncletopia | Dallas | 2 | All Maps","protocol":17,"map":"koth_viaduct","folder":"tf","game":"Team Fortress","app_id":440,"player_count":2,"max_players":24,"Bots":0,"server_type":"Dedicated","server_os":"Linux","password":true,"vac":true,"version":"7882260","steam_id":85568392924469988,"keywords":["cp","nocrits","nodmgspread","uncletopia"],"game_id":440,"stv_port":27026,"stv_name":"Uncletopia | Dallas | 2 | All Maps | STV","players":[{"user_id":13,"name":"SentientKitKatBar(F2P)","steam_id":76561198842149924,"connected_time":68000000000,"state":"active","ping":202},{"user_id":11,"name":"Dumb Kid","steam_id":76561198304180941,"connected_time":444000000000,"state":"active","ping":59}]},{"server_id":5,"name":"Uncletopia | Frankfurt | 1 | All Maps","name_short":"frk-1","host":"frk-1.de.uncletopia.com","port":27015,"enabled":true,"region":"eu","cc":"de","latitude":50.110924,"longitude":8.682127,"reserved":0,"last_update":"0001-01-01T00:00:00Z","name_a2s":"Uncletopia | Frankfurt | 1 | All Maps","protocol":17,"map":"pl_badwater","folder":"tf","game":"Team Fortress","app_id":440,"player_count":23,"max_players":24,"Bots":0,"server_type":"Dedicated","server_os":"Linux","password":true,"vac":true,"version":"7882260","steam_id":85568392924469989,"keywords":["nocrits","nodmgspread","payload","uncletopia"],"game_id":440,"stv_port":27016,"stv_name":"Uncletopia | Frankfurt | 1 | All Maps | STV","players":[{"user_id":333,"name":"Repa24","steam_id":76561198033016390,"connected_time":731000000000,"state":"active","ping":70},{"user_id":326,"name":"Mr.killer","steam_id":76561198290584189,"connected_time":1048000000000,"state":"active","ping":97},{"user_id":334,"name":"Stealth_Rat","steam_id":76561199417569826,"connected_time":689000000000,"state":"active","ping":80},{"user_id":303,"name":"Toast","steam_id":76561199243331140,"connected_time":2363000000000,"state":"active","ping":179},{"user_id":292,"name":"Proud Jojo Fan #TF2SP","steam_id":76561198847327216,"connected_time":2570000000000,"state":"active","ping":66},{"user_id":319,"name":"christoph","steam_id":76561198862617811,"connected_time":1277000000000,"state":"active","ping":67},{"user_id":328,"name":"Fish 'n' Chips","steam_id":76561198033476886,"connected_time":966000000000,"state":"active","ping":46},{"user_id":320,"name":"–î–µ–Ω–∏—Å –ë–∞–∑—É–∫–∞","steam_id":76561198835849082,"connected_time":1271000000000,"state":"active","ping":88},{"user_id":302,"name":"Sjenok ‚ó¢‚ó§","steam_id":76561198054004883,"connected_time":2391000000000,"state":"active","ping":66},{"user_id":322,"name":"B.batt","steam_id":76561198998684199,"connected_time":1196000000000,"state":"active","ping":118},{"user_id":337,"name":"AVOID EVERYONE","steam_id":76561198051852765,"connected_time":114000000000,"state":"active","ping":60},{"user_id":287,"name":"quentu-","steam_id":76561198087457220,"connected_time":2792000000000,"state":"active","ping":62},{"user_id":324,"name":"Le bagutte","steam_id":76561198258504847,"connected_time":1172000000000,"state":"active","ping":84},{"user_id":331,"name":"CarBombEnthusiast","steam_id":76561199448185434,"connected_time":850000000000,"state":"active","ping":62},{"user_id":308,"name":"NerdyEnforcement","steam_id":76561198437710820,"connected_time":2314000000000,"state":"active","ping":166},{"user_id":332,"name":"Just Sed","steam_id":76561198066216346,"connected_time":825000000000,"state":"active","ping":75},{"user_id":335,"name":"rets","steam_id":76561198061551392,"connected_time":621000000000,"state":"active","ping":53},{"user_id":286,"name":"Goober","steam_id":76561198054795379,"connected_time":3177000000000,"state":"active","ping":55},{"user_id":309,"name":"Coyot","steam_id":76561198344502070,"connected_time":2299000000000,"state":"active","ping":81},{"user_id":310,"name":"TheRealLordDragon","steam_id":76561199130617814,"connected_time":2292000000000,"state":"active","ping":184},{"user_id":312,"name":"edw!","steam_id":76561198020141317,"connected_time":2247000000000,"state":"active","ping":90},{"user_id":281,"name":"stefanbejenari","steam_id":76561199466718294,"connected_time":4471000000000,"state":"active","ping":75},{"user_id":290,"name":"romos","steam_id":76561199123161420,"connected_time":2619000000000,"state":"active","ping":59}]},{"server_id":110,"name":"Uncletopia | Frankfurt | 2 | All Maps","name_short":"frk-2","host":"frk-1.de.uncletopia.com","port":27025,"enabled":true,"region":"eu","cc":"de","latitude":50.110924,"longitude":8.682127,"reserved":0,"last_update":"0001-01-01T00:00:00Z","name_a2s":"Uncletopia | Frankfurt | 2 | All Maps","protocol":17,"map":"pl_pier","folder":"tf","game":"Team Fortress","app_id":440,"player_count":24,"max_players":24,"Bots":0,"server_type":"Dedicated","server_os":"Linux","password":true,"vac":true,"version":"7882260","steam_id":85568392924469990,"keywords":["nocrits","nodmgspread","payload","uncletopia"],"game_id":440,"stv_port":27026,"stv_name":"Uncletopia | Frankfurt | 2 | All Maps | STV","players":[{"user_id":267,"name":"triple","steam_id":76561198119449463,"connected_time":316000000000,"state":"active","ping":61},{"user_id":212,"name":"grzybiarz2022","steam_id":76561199409218561,"connected_time":4221000000000,"state":"active","ping":86},{"user_id":250,"name":"Lord of Beans","steam_id":76561198283379801,"connected_time":1454000000000,"state":"active","ping":105},{"user_id":251,"name":"ereh","steam_id":76561198061239823,"connected_time":1371000000000,"state":"active","ping":67},{"user_id":255,"name":"Artificial.Ignorance","steam_id":76561198453090180,"connected_time":1082000000000,"state":"active","ping":176},{"user_id":259,"name":"\u003c blank \u003e","steam_id":76561198059375315,"connected_time":1015000000000,"state":"active","ping":68},{"user_id":264,"name":"Cinek","steam_id":76561198146494944,"connected_time":546000000000,"state":"active","ping":83},{"user_id":247,"name":"bunglar","steam_id":76561198027374166,"connected_time":1796000000000,"state":"active","ping":56},{"user_id":216,"name":"nizumi","steam_id":76561198375159043,"connected_time":4063000000000,"state":"active","ping":70},{"user_id":248,"name":"AwterSix","steam_id":76561198042561678,"connected_time":1692000000000,"state":"active","ping":55},{"user_id":260,"name":"Fallen Dog","steam_id":76561198851387188,"connected_time":971000000000,"state":"active","ping":66},{"user_id":256,"name":"997 N State Street, Orem, Utah","steam_id":76561198285931413,"connected_time":1068000000000,"state":"active","ping":138},{"user_id":263,"name":"etc","steam_id":76561197998394797,"connected_time":788000000000,"state":"active","ping":57},{"user_id":235,"name":"molderfaker","steam_id":76561199347900130,"connected_time":3098000000000,"state":"active","ping":93},{"user_id":233,"name":"WillyDrengen","steam_id":76561197971902025,"connected_time":3183000000000,"state":"active","ping":64},{"user_id":221,"name":"cream gravy","steam_id":76561198973069177,"connected_time":3985000000000,"state":"active","ping":47},{"user_id":265,"name":"bossievossie","steam_id":76561198836337543,"connected_time":444000000000,"state":"active","ping":73},{"user_id":223,"name":"Zygocact","steam_id":76561197990776598,"connected_time":3969000000000,"state":"active","ping":129},{"user_id":262,"name":"why rum gone","steam_id":76561198158484784,"connected_time":899000000000,"state":"active","ping":66},{"user_id":268,"name":"RedFog","steam_id":76561198284713081,"connected_time":311000000000,"state":"active","ping":43},{"user_id":257,"name":"lettuce out of stock","steam_id":76561199401283123,"connected_time":1059000000000,"state":"active","ping":67},{"user_id":244,"name":"EMES","steam_id":76561198046639824,"connected_time":2084000000000,"state":"active","ping":81},{"user_id":270,"name":"manKe","steam_id":76561198008564860,"connected_time":148000000000,"state":"active","ping":60},{"user_id":254,"name":"Irgend so n Trottel","steam_id":76561197997126444,"connected_time":1096000000000,"state":"active","ping":61}]},{"server_id":308,"name":"Uncletopia | Frankfurt | 3 | All Maps","name_short":"frk-3","host":"frk-1.de.uncletopia.com","port":27035,"enabled":true,"region":"eu","cc":"de","latitude":50.110924,"longitude":8.682127,"reserved":0,"last_update":"0001-01-01T00:00:00Z","name_a2s":"Uncletopia | Frankfurt | 3 | All Maps","protocol":17,"map":"cp_5gorge","folder":"tf","game":"Team Fortress","app_id":440,"player_count":24,"max_players":24,"Bots":0,"server_type":"Dedicated","server_os":"Linux","password":true,"vac":true,"version":"7882260","steam_id":85568392924504274,"keywords":["cp","nocrits","nodmgspread","uncletopia"],"game_id":440,"stv_port":27036,"stv_name":"Uncletopia | Frankfurt | 3 | All Maps | STV","players":[{"user_id":176,"name":"Niggi","steam_id":76561198039866494,"connected_time":376000000000,"state":"active","ping":58},{"user_id":111,"name":"Mr.O #deletesniper","steam_id":76561198039567498,"connected_time":3246000000000,"state":"active","ping":56},{"user_id":150,"name":"|Zomaxx|","steam_id":76561198138925802,"connected_time":1544000000000,"state":"active","ping":76},{"user_id":162,"name":"–ï–ú –î–ï–¢–ï–ô","steam_id":76561198132048681,"connected_time":760000000000,"state":"active","ping":111},{"user_id":125,"name":"hlug2340","steam_id":76561198087970118,"connected_time":2589000000000,"state":"active","ping":69},{"user_id":127,"name":"Jimmy","steam_id":76561198133680783,"connected_time":2421000000000,"state":"active","ping":57},{"user_id":184,"name":"Orbit","steam_id":76561198242999878,"connected_time":50000000000,"state":"active","ping":68},{"user_id":116,"name":"Jargo","steam_id":76561198064231790,"connected_time":3037000000000,"state":"active","ping":76},{"user_id":153,"name":"mun","steam_id":76561198256097786,"connected_time":1307000000000,"state":"active","ping":42},{"user_id":103,"name":"KeTlEr","steam_id":76561198100957443,"connected_time":3553000000000,"state":"active","ping":60},{"user_id":117,"name":"Akane","steam_id":76561197990407312,"connected_time":3000000000000,"state":"active","ping":72},{"user_id":178,"name":"Boomer Shooter Consoomer","steam_id":76561198079752648,"connected_time":286000000000,"state":"active","ping":60},{"user_id":182,"name":"LarsInABox","steam_id":76561198028329262,"connected_time":145000000000,"state":"active","ping":76},{"user_id":173,"name":"Nullsson","steam_id":76561199225929497,"connected_time":471000000000,"state":"active","ping":55},{"user_id":90,"name":"God's Goofiest Goober","steam_id":76561198103175187,"connected_time":4358000000000,"state":"active","ping":66},{"user_id":142,"name":"Officer Sandwich","steam_id":76561198306743311,"connected_time":1861000000000,"state":"active","ping":61},{"user_id":157,"name":"lo239","steam_id":76561198019757251,"connected_time":1201000000000,"state":"active","ping":76},{"user_id":146,"name":"no","steam_id":76561199232582956,"connected_time":1738000000000,"state":"active","ping":102},{"user_id":175,"name":"Kolanciasty ‚ô•","steam_id":76561198020042179,"connected_time":400000000000,"state":"active","ping":78},{"user_id":145,"name":"Cool Boy Coz","steam_id":76561198016973060,"connected_time":1748000000000,"state":"active","ping":63},{"user_id":121,"name":"smaller columbo","steam_id":76561198065516212,"connected_time":2893000000000,"state":"active","ping":83},{"user_id":152,"name":"gort","steam_id":76561198060339391,"connected_time":1436000000000,"state":"active","ping":45},{"user_id":181,"name":"guts2115/rip take","steam_id":76561198202741199,"connected_time":167000000000,"state":"active","ping":62},{"user_id":183,"name":"Engi-Nearing","steam_id":76561199221172552,"connected_time":99000000000,"state":"active","ping":62}]},{"server_id":309,"name":"Uncletopia | Frankfurt | 4 | All Maps","name_short":"frk-4","host":"frk-1.de.uncletopia.com","port":27045,"enabled":true,"region":"eu","cc":"de","latitude":50.110924,"longitude":8.682127,"reserved":0,"last_update":"0001-01-01T00:00:00Z","name_a2s":"Uncletopia | Frankfurt | 4 | All Maps","protocol":17,"map":"pl_borneo","folder":"tf","game":"Team Fortress","app_id":440,"player_count":24,"max_players":24,"Bots":0,"server_type":"Dedicated","server_os":"Linux","password":true,"vac":true,"version":"7882260","steam_id":85568392924504275,"keywords":["nocrits","nodmgspread","payload","uncletopia"],"game_id":440,"stv_port":27046,"stv_name":"Uncletopia | Frankfurt | 4 | All Maps | STV","players":[{"user_id":495,"name":"Tin","steam_id":76561198022201818,"connected_time":2301000000000,"state":"active","ping":56},{"user_id":455,"name":"mero","steam_id":76561198293147412,"connected_time":5177000000000,"state":"active","ping":99},{"user_id":529,"name":"godofredo62","steam_id":76561198142929710,"connected_time":421000000000,"state":"active","ping":87},{"user_id":448,"name":"dopamine enjoyer","steam_id":76561198140591983,"connected_time":5663000000000,"state":"active","ping":88},{"user_id":511,"name":"Pink","steam_id":76561198972047944,"connected_time":1146000000000,"state":"active","ping":66},{"user_id":530,"name":"KHEY","steam_id":76561198035380064,"connected_time":369000000000,"state":"active","ping":45},{"user_id":459,"name":"Lana Ev√∏l √Öttog","steam_id":76561198066287297,"connected_time":4796000000000,"state":"active","ping":55},{"user_id":496,"name":"Mka Kitty","steam_id":76561198070128785,"connected_time":2285000000000,"state":"active","ping":98},{"user_id":474,"name":"[P-roc] Cmm Bert","steam_id":76561198016658674,"connected_time":3810000000000,"state":"active","ping":72},{"user_id":481,"name":"dumdum","steam_id":76561198069430083,"connected_time":3613000000000,"state":"active","ping":86},{"user_id":508,"name":"Friendly Neighbourhood Femboy","steam_id":76561198058531305,"connected_time":1404000000000,"state":"active","ping":48},{"user_id":514,"name":"Chambersite","steam_id":76561198197022399,"connected_time":853000000000,"state":"active","ping":70},{"user_id":497,"name":"FlyMan","steam_id":76561198010560368,"connected_time":2284000000000,"state":"active","ping":91},{"user_id":516,"name":"vug","steam_id":76561198042227249,"connected_time":832000000000,"state":"active","ping":51},{"user_id":478,"name":"Mike","steam_id":76561198228455736,"connected_time":3694000000000,"state":"active","ping":64},{"user_id":531,"name":"Nils","steam_id":76561198254882979,"connected_time":367000000000,"state":"active","ping":62},{"user_id":437,"name":"Dr Sex","steam_id":76561198029044617,"connected_time":6698000000000,"state":"active","ping":60},{"user_id":494,"name":"Elud4","steam_id":76561198049072796,"connected_time":2344000000000,"state":"active","ping":164},{"user_id":491,"name":"crayon flashlight","steam_id":76561198036032168,"connected_time":2371000000000,"state":"active","ping":145},{"user_id":498,"name":"mr.MR","steam_id":76561198151980974,"connected_time":2206000000000,"state":"active","ping":62},{"user_id":512,"name":"Ott","steam_id":76561198276464481,"connected_time":954000000000,"state":"active","ping":67},{"user_id":524,"name":"Ecton","steam_id":76561198025103720,"connected_time":656000000000,"state":"active","ping":63},{"user_id":525,"name":"Suetolog","steam_id":76561199053090212,"connected_time":626000000000,"state":"active","ping":55},{"user_id":528,"name":"Smuggley","steam_id":76561198078130271,"connected_time":481000000000,"state":"active","ping":191}]},{"server_id":310,"name":"Uncletopia | Frankfurt | 5 | All Maps","name_short":"frk-5","host":"frk-1.de.uncletopia.com","port":27055,"enabled":true,"region":"eu","cc":"de","latitude":50.110924,"longitude":8.682127,"reserved":0,"last_update":"0001-01-01T00:00:00Z","name_a2s":"Uncletopia | Frankfurt | 5 | All Maps","protocol":17,"map":"pl_borneo","folder":"tf","game":"Team Fortress","app_id":440,"player_count":24,"max_players":24,"Bots":0,"server_type":"Dedicated","server_os":"Linux","password":true,"vac":true,"version":"7882260","steam_id":85568392924504277,"keywords":["nocrits","nodmgspread","payload","uncletopia"],"game_id":440,"stv_port":27056,"stv_name":"Uncletopia | Frankfurt | 5 | All Maps | STV","players":[{"user_id":256,"name":"YaUzBeK","steam_id":76561198105121641,"connected_time":1510000000000,"state":"active","ping":63},{"user_id":240,"name":"Caro","steam_id":76561198065506317,"connected_time":2387000000000,"state":"active","ping":67},{"user_id":224,"name":"Gh0uL002","steam_id":76561199122099196,"connected_time":3755000000000,"state":"active","ping":66},{"user_id":271,"name":"√Ñ√§rik ‚ô£","steam_id":76561198131871737,"connected_time":571000000000,"state":"active","ping":55},{"user_id":258,"name":"hello hi","steam_id":76561198148074472,"connected_time":1506000000000,"state":"active","ping":45},{"user_id":239,"name":"PashaVerti","steam_id":76561199013963024,"connected_time":2420000000000,"state":"active","ping":83},{"user_id":267,"name":"faze stock market hairline","steam_id":76561198256619964,"connected_time":963000000000,"state":"active","ping":75},{"user_id":192,"name":"Vershal Smershal","steam_id":76561198116223995,"connected_time":7512000000000,"state":"active","ping":60},{"user_id":269,"name":"xavier","steam_id":76561198076494034,"connected_time":896000000000,"state":"active","ping":54},{"user_id":226,"name":"wee woo","steam_id":76561198147277460,"connected_time":3696000000000,"state":"active","ping":57},{"user_id":227,"name":"smella fartois","steam_id":76561198023211417,"connected_time":3690000000000,"state":"active","ping":61},{"user_id":260,"name":"Sabi","steam_id":76561198202111522,"connected_time":1435000000000,"state":"active","ping":74},{"user_id":238,"name":"L1NTHALO","steam_id":76561198171001938,"connected_time":2503000000000,"state":"active","ping":50},{"user_id":185,"name":"big poo","steam_id":76561199088284199,"connected_time":8201000000000,"state":"active","ping":58},{"user_id":241,"name":"herbal tea","steam_id":76561197980736364,"connected_time":2334000000000,"state":"active","ping":75},{"user_id":230,"name":"Itai","steam_id":76561198804555329,"connected_time":3679000000000,"state":"active","ping":98},{"user_id":270,"name":"Ja sitten VIEL√Ñ HER√ÑTYYYYYS!!","steam_id":76561199011166455,"connected_time":761000000000,"state":"active","ping":63},{"user_id":244,"name":"no weed","steam_id":76561199024279010,"connected_time":2140000000000,"state":"active","ping":68},{"user_id":272,"name":"Supa","steam_id":76561197994280515,"connected_time":153000000000,"state":"active","ping":75},{"user_id":247,"name":"DobreStarachowickie","steam_id":76561198027126737,"connected_time":2078000000000,"state":"active","ping":74},{"user_id":188,"name":"agent youppii","steam_id":76561198055264447,"connected_time":7949000000000,"state":"active","ping":75},{"user_id":265,"name":"The‚òÜCops","steam_id":76561198146358073,"connected_time":1332000000000,"state":"active","ping":95},{"user_id":245,"name":"d u k k i","steam_id":76561198071807437,"connected_time":2130000000000,"state":"active","ping":86},{"user_id":250,"name":"FarbrorBarbro","steam_id":76561198044432289,"connected_time":1791000000000,"state":"active","ping":78}]},{"server_id":311,"name":"Uncletopia | Frankfurt | 6 | All Maps","name_short":"frk-6","host":"frk-1.de.uncletopia.com","port":27065,"enabled":true,"region":"eu","cc":"de","latitude":50.110924,"longitude":8.682127,"reserved":0,"last_update":"0001-01-01T00:00:00Z","name_a2s":"Uncletopia | Frankfurt | 6 | All Maps","protocol":17,"map":"cp_mountainlab","folder":"tf","game":"Team Fortress","app_id":440,"player_count":22,"max_players":24,"Bots":0,"server_type":"Dedicated","server_os":"Linux","password":true,"vac":true,"version":"7882260","steam_id":85568392924504278,"keywords":["cp","nocrits","nodmgspread","uncletopia"],"game_id":440,"stv_port":27066,"stv_name":"Uncletopia | Frankfurt | 6 | All Maps | STV","players":[{"user_id":404,"name":"üòà COCKDESTROYER üòà","steam_id":76561198042846999,"connected_time":1108000000000,"state":"spawning","ping":66},{"user_id":415,"name":"Turk Scout","steam_id":76561198975267711,"connected_time":408000000000,"state":"spawning","ping":85},{"user_id":418,"name":"Virx","steam_id":76561199384196253,"connected_time":246000000000,"state":"spawning","ping":154},{"user_id":423,"name":"MatesThePlayer","steam_id":76561198066156449,"connected_time":3000000000,"state":"spawning","ping":49},{"user_id":406,"name":"Ryter","steam_id":76561198396279597,"connected_time":885000000000,"state":"spawning","ping":61},{"user_id":357,"name":"Dr.Nefario","steam_id":76561198874586020,"connected_time":3862000000000,"state":"active","ping":152},{"user_id":410,"name":"Aleknat","steam_id":76561198055379857,"connected_time":619000000000,"state":"spawning","ping":219},{"user_id":389,"name":"m√®x","steam_id":76561197975951572,"connected_time":1946000000000,"state":"active","ping":112},{"user_id":420,"name":"Shadow Jesus","steam_id":76561198272980963,"connected_time":230000000000,"state":"spawning","ping":53},{"user_id":417,"name":"Kruthal","steam_id":76561198245726582,"connected_time":270000000000,"state":"spawning","ping":57},{"user_id":351,"name":"dagaminking","steam_id":76561198144209072,"connected_time":4672000000000,"state":"active","ping":50},{"user_id":409,"name":"Penguin Lord","steam_id":76561198398031813,"connected_time":653000000000,"state":"active","ping":54},{"user_id":393,"name":"Martin Freeman","steam_id":76561198021333922,"connected_time":1577000000000,"state":"spawning","ping":108},{"user_id":400,"name":"Average meme enjoyer","steam_id":76561199087566663,"connected_time":1376000000000,"state":"spawning","ping":82},{"user_id":395,"name":"Wake","steam_id":76561198873753505,"connected_time":1553000000000,"state":"spawning","ping":180},{"user_id":379,"name":"Der Herr Doktor","steam_id":76561198119476089,"connected_time":2624000000000,"state":"spawning","ping":61},{"user_id":411,"name":"b00m","steam_id":76561198095560087,"connected_time":610000000000,"state":"spawning","ping":278},{"user_id":419,"name":"Doctor Marijuana","steam_id":76561198288289879,"connected_time":239000000000,"state":"spawning","ping":63},{"user_id":412,"name":"End_Captain","steam_id":76561198984965056,"connected_time":607000000000,"state":"spawning","ping":66},{"user_id":421,"name":"mumbler","steam_id":76561197970641239,"connected_time":228000000000,"state":"spawning","ping":30},{"user_id":401,"name":"Eltriuqs","steam_id":76561198225771588,"connected_time":1346000000000,"state":"active","ping":106},{"user_id":384,"name":"Fuvuk","steam_id":76561198044458593,"connected_time":2173000000000,"state":"spawning","ping":77}]},{"server_id":23,"name":"Uncletopia | Frankfurt | 7 | Stopwatch Beta","name_short":"frk-7","host":"frk-1.de.uncletopia.com","port":27075,"enabled":true,"region":"eu","cc":"de","latitude":50.110924,"longitude":8.682127,"reserved":0,"last_update":"0001-01-01T00:00:00Z","name_a2s":"Uncletopia | Frankfurt | 7 | Stopwatch Beta","protocol":17,"map":"workshop/koth_clearcut_b15.ugc2107050255","folder":"tf","game":"Team Fortress","app_id":440,"player_count":0,"max_players":24,"Bots":0,"server_type":"Dedicated","server_os":"Linux","password":true,"vac":true,"version":"7882260","steam_id":85568392924742827,"keywords":["cp","nocrits","nodmgspread","uncletopia"],"game_id":440,"stv_port":27076,"stv_name":"Uncletopia | Frankfurt | 7 | Stopwatch Beta | STV","players":null},{"server_id":24,"name":"Uncletopia | Frankfurt | 8 | Community","name_short":"frk-8","host":"frk-1.de.uncletopia.com","port":27085,"enabled":true,"region":"eu","cc":"de","latitude":50.110924,"longitude":8.682127,"reserved":0,"last_update":"0001-01-01T00:00:00Z","name_a2s":"Uncletopia | Frankfurt | 8 | Community","protocol":17,"map":"workshop/cp_kalinka_rc6a.ugc1272700588","folder":"tf","game":"Team Fortress","app_id":440,"player_count":16,"max_players":24,"Bots":0,"server_type":"Dedicated","server_os":"Linux","password":true,"vac":true,"version":"7882260","steam_id":85568392924742828,"keywords":["cp","nocrits","nodmgspread","uncletopia"],"game_id":440,"stv_port":27086,"stv_name":"Uncletopia | Frankfurt | 8 | Community | STV","players":[{"user_id":206,"name":"MrDerp121","steam_id":76561198060827332,"connected_time":26000000000,"state":"active","ping":116},{"user_id":182,"name":"akakez","steam_id":76561198095432821,"connected_time":1314000000000,"state":"active","ping":135},{"user_id":175,"name":"hhhhhh","steam_id":76561198031982574,"connected_time":1742000000000,"state":"active","ping":46},{"user_id":159,"name":"bad farter","steam_id":76561198261853441,"connected_time":3135000000000,"state":"spawning","ping":138},{"user_id":205,"name":"yum‡πá","steam_id":76561198350053321,"connected_time":104000000000,"state":"spawning","ping":405},{"user_id":170,"name":"Nithle","steam_id":76561198025372740,"connected_time":2192000000000,"state":"active","ping":45},{"user_id":195,"name":"sHIFTINGvORTEX","steam_id":76561198231648332,"connected_time":758000000000,"state":"active","ping":77},{"user_id":196,"name":"Eddie","steam_id":76561198088199932,"connected_time":750000000000,"state":"active","ping":74},{"user_id":197,"name":"tracey stacks","steam_id":76561198885581544,"connected_time":740000000000,"state":"active","ping":51},{"user_id":171,"name":"Egor Pomidor","steam_id":76561199175688390,"connected_time":2133000000000,"state":"active","ping":75},{"user_id":125,"name":"Jonathan","steam_id":76561198087988880,"connected_time":5236000000000,"state":"active","ping":47},{"user_id":162,"name":"X-tis","steam_id":76561198043837480,"connected_time":2911000000000,"state":"active","ping":75},{"user_id":127,"name":"Fat Pigeon","steam_id":76561198817940142,"connected_time":5233000000000,"state":"active","ping":56},{"user_id":187,"name":"Bulczany","steam_id":76561198116469727,"connected_time":1070000000000,"state":"active","ping":72},{"user_id":100,"name":"rob","steam_id":76561198122211848,"connected_time":7114000000000,"state":"active","ping":99},{"user_id":201,"name":"Yahram Qiehpah","steam_id":76561198049533385,"connected_time":545000000000,"state":"spawning","ping":528}]},{"server_id":202,"name":"Uncletopia | Hong Kong | 1 | All Maps","name_short":"hgk-1","host":"hgk-1.hk.uncletopia.com","port":27015,"enabled":true,"region":"asia","cc":"hk","latitude":22.302711,"longitude":114.177216,"reserved":0,"last_update":"0001-01-01T00:00:00Z","name_a2s":"Uncletopia | Hong Kong | 1 | All Maps","protocol":17,"map":"pl_pier","folder":"tf","game":"Team Fortress","app_id":440,"player_count":0,"max_players":24,"Bots":0,"server_type":"Dedicated","server_os":"Linux","password":true,"vac":true,"version":"7882260","steam_id":85568392924494504,"keywords":["nocrits","nodmgspread","payload","uncletopia"],"game_id":440,"stv_port":27016,"stv_name":"Uncletopia | Hong Kong | 1 | All Maps | STV","players":null},{"server_id":1,"name":"Uncletopia | Los Angeles | 1 | All Maps","name_short":"lax-1","host":"lax-1.us.uncletopia.com","port":27015,"enabled":true,"region":"us-west","cc":"us","latitude":33.94279,"longitude":-118.41004,"reserved":0,"last_update":"0001-01-01T00:00:00Z","name_a2s":"Uncletopia | Los Angeles | 1 | All Maps","protocol":17,"map":"pl_badwater","folder":"tf","game":"Team Fortress","app_id":440,"player_count":22,"max_players":24,"Bots":0,"server_type":"Dedicated","server_os":"Linux","password":true,"vac":true,"version":"7882260","steam_id":85568392924469991,"keywords":["nocrits","nodmgspread","payload","uncletopia"],"game_id":440,"stv_port":27016,"stv_name":"Uncletopia | Los Angeles | 1 | All Maps | STV","players":[{"user_id":20,"name":"YouCantSpellNutritionW/OutNUT","steam_id":76561198060588059,"connected_time":2320000000000,"state":"active","ping":56},{"user_id":40,"name":"STENDO_CLIP","steam_id":76561198059570167,"connected_time":488000000000,"state":"active","ping":1720},{"user_id":52,"name":"b3afy","steam_id":76561198084208649,"connected_time":62000000000,"state":"active","ping":74},{"user_id":22,"name":"PianoDeep","steam_id":76561199182813963,"connected_time":2211000000000,"state":"active","ping":77},{"user_id":16,"name":"Nibotshooter","steam_id":76561199284825579,"connected_time":2676000000000,"state":"active","ping":75},{"user_id":23,"name":"Wendo K. Gogh","steam_id":76561198080999985,"connected_time":2078000000000,"state":"active","ping":98},{"user_id":41,"name":"the real jerusalem","steam_id":76561199094048718,"connected_time":415000000000,"state":"active","ping":68},{"user_id":25,"name":"Dr. Fast M.D.","steam_id":76561198871298539,"connected_time":1988000000000,"state":"active","ping":70},{"user_id":28,"name":"the man","steam_id":76561198798992000,"connected_time":1445000000000,"state":"active","ping":53},{"user_id":49,"name":"weasel","steam_id":76561198862713434,"connected_time":234000000000,"state":"active","ping":118},{"user_id":30,"name":"Horsecat","steam_id":76561198061653283,"connected_time":1289000000000,"state":"active","ping":134},{"user_id":44,"name":"wafflehamster2000","steam_id":76561198849161820,"connected_time":321000000000,"state":"active","ping":131},{"user_id":45,"name":"Cole Boye","steam_id":76561198282449106,"connected_time":306000000000,"state":"active","ping":75},{"user_id":34,"name":"FI LO","steam_id":76561198976530881,"connected_time":895000000000,"state":"active","ping":43},{"user_id":46,"name":"Scott_The_Bot","steam_id":76561199474825993,"connected_time":301000000000,"state":"active","ping":87},{"user_id":36,"name":"Rue","steam_id":76561198013135993,"connected_time":887000000000,"state":"active","ping":102},{"user_id":47,"name":"Drakeo","steam_id":76561198068214572,"connected_time":291000000000,"state":"active","ping":41},{"user_id":39,"name":"\u003c3","steam_id":76561199200574913,"connected_time":766000000000,"state":"active","ping":75},{"user_id":48,"name":"KaleScrooge","steam_id":76561199229442595,"connected_time":263000000000,"state":"active","ping":143},{"user_id":51,"name":"Mateo The Social Engineer","steam_id":76561199199772083,"connected_time":131000000000,"state":"active","ping":70},{"user_id":54,"name":"Solifuga","steam_id":76561198119569902,"connected_time":33000000000,"state":"active","ping":74},{"user_id":55,"name":"fartstreaks active","steam_id":76561198046073848,"connected_time":10000000000,"state":"active","ping":205}]},{"server_id":112,"name":"Uncletopia | Los Angeles | 2 | All Maps","name_short":"lax-2","host":"lax-1.us.uncletopia.com","port":27025,"enabled":true,"region":"us-west","cc":"us","latitude":33.94279,"longitude":-118.41004,"reserved":0,"last_update":"0001-01-01T00:00:00Z","name_a2s":"Uncletopia | Los Angeles | 2 | All Maps","protocol":17,"map":"koth_viaduct","folder":"tf","game":"Team Fortress","app_id":440,"player_count":0,"max_players":24,"Bots":0,"server_type":"Dedicated","server_os":"Linux","password":true,"vac":true,"version":"7882260","steam_id":85568392924469992,"keywords":["cp","nocrits","nodmgspread","uncletopia"],"game_id":440,"stv_port":27026,"stv_name":"Uncletopia | Los Angeles | 2 | All Maps | STV","players":null},{"server_id":324,"name":"Uncletopia | Los Angeles | 3 | All Maps","name_short":"lax-3","host":"lax-1.us.uncletopia.com","port":27035,"enabled":true,"region":"us-west","cc":"us","latitude":33.94279,"longitude":-118.41004,"reserved":0,"last_update":"0001-01-01T00:00:00Z","name_a2s":"Uncletopia | Los Angeles | 3 | All Maps","protocol":17,"map":"cp_snakewater_final1","folder":"tf","game":"Team Fortress","app_id":440,"player_count":0,"max_players":24,"Bots":0,"server_type":"Dedicated","server_os":"Linux","password":true,"vac":true,"version":"7882260","steam_id":85568392924510198,"keywords":["cp","nocrits","nodmgspread","uncletopia"],"game_id":440,"stv_port":27036,"stv_name":"Uncletopia | Los Angeles | 3 | All Maps | STV","players":null},{"server_id":25,"name":"Uncletopia | Los Angeles | 4 | Stopwatch Beta","name_short":"lax-4","host":"lax-1.us.uncletopia.com","port":27045,"enabled":true,"region":"us-west","cc":"us","latitude":33.94279,"longitude":-118.41004,"reserved":0,"last_update":"0001-01-01T00:00:00Z","name_a2s":"Uncletopia | Los Angeles | 4 | Stopwatch Beta","protocol":17,"map":"workshop/koth_ramjam_rc1.ugc459778887","folder":"tf","game":"Team Fortress","app_id":440,"player_count":0,"max_players":24,"Bots":0,"server_type":"Dedicated","server_os":"Linux","password":true,"vac":true,"version":"7882260","steam_id":85568392924510199,"keywords":["cp","nocrits","nodmgspread","uncletopia"],"game_id":440,"stv_port":27046,"stv_name":"Uncletopia | Los Angeles | 4 | Stopwatch Beta | STV","players":null},{"server_id":11,"name":"Uncletopia | London | 1 | All Maps","name_short":"lon-1","host":"lon-1.uk.uncletopia.com","port":27015,"enabled":true,"region":"eu","cc":"gb","latitude":51.509865,"longitude":-0.118092,"reserved":0,"last_update":"0001-01-01T00:00:00Z","name_a2s":"Uncletopia | London | 1 | All Maps","protocol":17,"map":"pl_badwater","folder":"tf","game":"Team Fortress","app_id":440,"player_count":24,"max_players":24,"Bots":0,"server_type":"Dedicated","server_os":"Linux","password":true,"vac":true,"version":"7882260","steam_id":85568392924367362,"keywords":["nocrits","nodmgspread","payload","uncletopia"],"game_id":440,"stv_port":27016,"stv_name":"Uncletopia | London | 1 | All Maps | STV","players":[{"user_id":658,"name":"Jugg","steam_id":76561198384417257,"connected_time":1007000000000,"state":"active","ping":58},{"user_id":619,"name":"Qwertuss","steam_id":76561198026305366,"connected_time":3223000000000,"state":"active","ping":58},{"user_id":663,"name":"astra","steam_id":76561198042980579,"connected_time":846000000000,"state":"active","ping":62},{"user_id":630,"name":"Mitrev","steam_id":76561198157124880,"connected_time":2525000000000,"state":"active","ping":75},{"user_id":653,"name":"Lazuli","steam_id":76561198058636964,"connected_time":1056000000000,"state":"active","ping":50},{"user_id":656,"name":"Volter","steam_id":76561198190304115,"connected_time":1023000000000,"state":"active","ping":85},{"user_id":594,"name":"Cosmetic brain","steam_id":76561198055936410,"connected_time":5206000000000,"state":"active","ping":76},{"user_id":602,"name":"generic alias","steam_id":76561198271607226,"connected_time":4529000000000,"state":"active","ping":76},{"user_id":655,"name":"Rizziologist","steam_id":76561198089003514,"connected_time":1026000000000,"state":"active","ping":59},{"user_id":657,"name":"flr","steam_id":76561198249327786,"connected_time":1020000000000,"state":"active","ping":75},{"user_id":659,"name":"Cars","steam_id":76561198173329977,"connected_time":990000000000,"state":"active","ping":48},{"user_id":670,"name":"Plep","steam_id":76561198840259819,"connected_time":4000000000,"state":"spawning","ping":46},{"user_id":624,"name":"congo","steam_id":76561198236836866,"connected_time":3002000000000,"state":"active","ping":90},{"user_id":667,"name":"Kahvi","steam_id":76561198723244199,"connected_time":283000000000,"state":"active","ping":74},{"user_id":669,"name":"Filleman","steam_id":76561198159386946,"connected_time":26000000000,"state":"spawning","ping":62},{"user_id":603,"name":"blurst of times","steam_id":76561197972325640,"connected_time":4406000000000,"state":"active","ping":48},{"user_id":661,"name":"Quiet Kid","steam_id":76561199134800446,"connected_time":973000000000,"state":"active","ping":105},{"user_id":614,"name":"The Sex Defender","steam_id":76561198165732391,"connected_time":3779000000000,"state":"active","ping":85},{"user_id":666,"name":"Zarden","steam_id":76561198080638451,"connected_time":380000000000,"state":"active","ping":41},{"user_id":664,"name":"ayadam","steam_id":76561198161515769,"connected_time":837000000000,"state":"active","ping":114},{"user_id":579,"name":"CottonPicker404","steam_id":76561199485020000,"connected_time":7295000000000,"state":"active","ping":88},{"user_id":651,"name":"Cagnus Marlsen","steam_id":76561198077859721,"connected_time":1135000000000,"state":"active","ping":64},{"user_id":668,"name":"Schwarzschild radius(Rg=2GM/c^2","steam_id":76561198179463343,"connected_time":35000000000,"state":"active","ping":45}]},{"server_id":114,"name":"Uncletopia | London | 2 | All Maps","name_short":"lon-2","host":"lon-1.uk.uncletopia.com","port":27025,"enabled":true,"region":"eu","cc":"gb","latitude":51.509865,"longitude":-0.118092,"reserved":0,"last_update":"0001-01-01T00:00:00Z","name_a2s":"Uncletopia | London | 2 | All Maps","protocol":17,"map":"pl_snowycoast","folder":"tf","game":"Team Fortress","app_id":440,"player_count":24,"max_players":24,"Bots":0,"server_type":"Dedicated","server_os":"Linux","password":true,"vac":true,"version":"7882260","steam_id":85568392924470941,"keywords":["nocrits","nodmgspread","payload","uncletopia"],"game_id":440,"stv_port":27026,"stv_name":"Uncletopia | London | 2 | All Maps | STV","players":[{"user_id":614,"name":"gamering","steam_id":76561198047359132,"connected_time":2666000000000,"state":"active","ping":70},{"user_id":637,"name":"Eqxd","steam_id":76561199055592635,"connected_time":402000000000,"state":"active","ping":147},{"user_id":557,"name":"Ran33","steam_id":76561197991474499,"connected_time":6455000000000,"state":"active","ping":84},{"user_id":623,"name":"gentlefard","steam_id":76561199098960193,"connected_time":1488000000000,"state":"active","ping":78},{"user_id":620,"name":"Mrbluuub","steam_id":76561199273847084,"connected_time":1772000000000,"state":"active","ping":86},{"user_id":581,"name":"Scikesr","steam_id":76561198105182357,"connected_time":4231000000000,"state":"active","ping":85},{"user_id":617,"name":"TheEventGuy","steam_id":76561197972797744,"connected_time":2031000000000,"state":"active","ping":69},{"user_id":626,"name":"Iountzul","steam_id":76561198956308470,"connected_time":1373000000000,"state":"active","ping":87},{"user_id":638,"name":"Caramelion","steam_id":76561198097429047,"connected_time":397000000000,"state":"active","ping":66},{"user_id":579,"name":"Acanda","steam_id":76561198123246537,"connected_time":4310000000000,"state":"active","ping":65},{"user_id":632,"name":"Sneaky boi","steam_id":76561199195985387,"connected_time":741000000000,"state":"active","ping":525},{"user_id":619,"name":"znunney","steam_id":76561199438501613,"connected_time":1778000000000,"state":"active","ping":58},{"user_id":634,"name":"Foly","steam_id":76561198379383694,"connected_time":669000000000,"state":"active","ping":68},{"user_id":630,"name":"alan","steam_id":76561198306947435,"connected_time":853000000000,"state":"active","ping":75},{"user_id":594,"name":"walluu","steam_id":76561198121830870,"connected_time":3942000000000,"state":"active","ping":75},{"user_id":597,"name":"skullhead289","steam_id":76561199086481600,"connected_time":3823000000000,"state":"active","ping":42},{"user_id":354,"name":"Lotto","steam_id":76561198012295174,"connected_time":17729000000000,"state":"active","ping":73},{"user_id":639,"name":"Falco","steam_id":76561199061187430,"connected_time":393000000000,"state":"active","ping":59},{"user_id":604,"name":"XPullaHiiri","steam_id":76561198031652375,"connected_time":3267000000000,"state":"active","ping":92},{"user_id":640,"name":"cazador","steam_id":76561198123096922,"connected_time":383000000000,"state":"active","ping":101},{"user_id":625,"name":"Cass","steam_id":76561198934205195,"connected_time":1459000000000,"state":"active","ping":53},{"user_id":517,"name":"dash.","steam_id":76561198084796149,"connected_time":7788000000000,"state":"active","ping":39},{"user_id":549,"name":"AmssoBador Spacelot","steam_id":76561197993444617,"connected_time":6936000000000,"state":"active","ping":78},{"user_id":641,"name":"Pomson 6000","steam_id":76561198344588858,"connected_time":383000000000,"state":"active","ping":56}]},{"server_id":320,"name":"Uncletopia | London | 3 | All Maps","name_short":"lon-3","host":"lon-1.uk.uncletopia.com","port":27035,"enabled":true,"region":"eu","cc":"gb","latitude":51.509865,"longitude":-0.118092,"reserved":0,"last_update":"0001-01-01T00:00:00Z","name_a2s":"Uncletopia | London | 3 | All Maps","protocol":17,"map":"pl_badwater","folder":"tf","game":"Team Fortress","app_id":440,"player_count":24,"max_players":24,"Bots":0,"server_type":"Dedicated","server_os":"Linux","password":true,"vac":true,"version":"7882260","steam_id":85568392924510192,"keywords":["nocrits","nodmgspread","payload","uncletopia"],"game_id":440,"stv_port":27036,"stv_name":"Uncletopia | London | 3 | All Maps | STV","players":[{"user_id":544,"name":"Mr_Pulse_","steam_id":76561198095001602,"connected_time":1390000000000,"state":"active","ping":105},{"user_id":542,"name":"Bounter","steam_id":76561198072614188,"connected_time":1645000000000,"state":"active","ping":66},{"user_id":530,"name":"‚ô¨ ·¥õ·¥á·¥ã…™·¥õ ‚ô¨","steam_id":76561198111704722,"connected_time":2192000000000,"state":"active","ping":104},{"user_id":541,"name":"denimchicken","steam_id":76561197989061982,"connected_time":1755000000000,"state":"active","ping":91},{"user_id":532,"name":"20BB Raxor","steam_id":76561198239927434,"connected_time":1946000000000,"state":"active","ping":77},{"user_id":550,"name":"John Noob","steam_id":76561197999170026,"connected_time":233000000000,"state":"active","ping":84},{"user_id":509,"name":"GMsU | Rebikas","steam_id":76561198077053764,"connected_time":3276000000000,"state":"active","ping":60},{"user_id":533,"name":"Yuval","steam_id":76561198241802390,"connected_time":1930000000000,"state":"active","ping":123},{"user_id":556,"name":"The Branded One","steam_id":76561198168368756,"connected_time":87000000000,"state":"active","ping":72},{"user_id":551,"name":"eva.","steam_id":76561198054474684,"connected_time":216000000000,"state":"active","ping":76},{"user_id":552,"name":"skill","steam_id":76561198106012909,"connected_time":195000000000,"state":"active","ping":83},{"user_id":535,"name":"hmscole09","steam_id":76561198811362788,"connected_time":1906000000000,"state":"active","ping":56},{"user_id":536,"name":"twitch.tv/deshio0","steam_id":76561198211863275,"connected_time":1899000000000,"state":"active","ping":62},{"user_id":545,"name":"Sir Cauterize","steam_id":76561198047079422,"connected_time":1093000000000,"state":"active","ping":51},{"user_id":513,"name":"Marmac","steam_id":76561198120033210,"connected_time":3204000000000,"state":"active","ping":78},{"user_id":521,"name":"GMsU | Acoul","steam_id":76561198229222992,"connected_time":2846000000000,"state":"active","ping":56},{"user_id":498,"name":"Townsend And Sons","steam_id":76561199072698153,"connected_time":4047000000000,"state":"active","ping":73},{"user_id":553,"name":"dunduu","steam_id":76561198875240717,"connected_time":191000000000,"state":"active","ping":79},{"user_id":507,"name":"Technic","steam_id":76561198128096130,"connected_time":3574000000000,"state":"active","ping":60},{"user_id":549,"name":"L BOZO","steam_id":76561198149157808,"connected_time":736000000000,"state":"active","ping":93},{"user_id":555,"name":"weedda","steam_id":76561198449953655,"connected_time":140000000000,"state":"active","ping":74},{"user_id":538,"name":"Kaishakunin","steam_id":76561198028123874,"connected_time":1894000000000,"state":"active","ping":96},{"user_id":495,"name":"tha virgin suicides","steam_id":76561198011155232,"connected_time":4264000000000,"state":"active","ping":70},{"user_id":540,"name":"RDM_ENJOYER","steam_id":76561198402543536,"connected_time":1879000000000,"state":"active","ping":80}]},{"server_id":321,"name":"Uncletopia | London | 4 | All Maps","name_short":"lon-4","host":"lon-1.uk.uncletopia.com","port":27045,"enabled":true,"region":"eu","cc":"gb","latitude":51.509865,"longitude":-0.118092,"reserved":0,"last_update":"0001-01-01T00:00:00Z","name_a2s":"Uncletopia | London | 4 | All Maps","protocol":17,"map":"cp_dustbowl","folder":"tf","game":"Team Fortress","app_id":440,"player_count":21,"max_players":24,"Bots":0,"server_type":"Dedicated","server_os":"Linux","password":true,"vac":true,"version":"7882260","steam_id":85568392924510193,"keywords":["cp","nocrits","nodmgspread","uncletopia"],"game_id":440,"stv_port":27046,"stv_name":"Uncletopia | London | 4 | All Maps | STV","players":[{"user_id":676,"name":"driz","steam_id":76561198069462235,"connected_time":2258000000000,"state":"active","ping":45},{"user_id":699,"name":"Mr. Enjoy da money","steam_id":76561198152681460,"connected_time":45000000000,"state":"active","ping":85},{"user_id":677,"name":"Sammy096","steam_id":76561198128167541,"connected_time":2247000000000,"state":"active","ping":72},{"user_id":683,"name":"Even R√º√ºd","steam_id":76561197981144291,"connected_time":2089000000000,"state":"active","ping":61},{"user_id":695,"name":"xqill | trade.tf","steam_id":76561198196258434,"connected_time":957000000000,"state":"active","ping":47},{"user_id":650,"name":"Refre35","steam_id":76561198971840738,"connected_time":3642000000000,"state":"active","ping":84},{"user_id":682,"name":"CryshireWithAK","steam_id":76561198857908089,"connected_time":2179000000000,"state":"active","ping":147},{"user_id":646,"name":"literallyjasonx","steam_id":76561198835895387,"connected_time":3801000000000,"state":"active","ping":70},{"user_id":700,"name":"IONYCH","steam_id":76561198378350040,"connected_time":13000000000,"state":"spawning","ping":128},{"user_id":694,"name":"Jara.","steam_id":76561197992207165,"connected_time":986000000000,"state":"active","ping":102},{"user_id":620,"name":"Pacyfista Feminista Frutarianin","steam_id":76561198435883762,"connected_time":5897000000000,"state":"active","ping":85},{"user_id":696,"name":"8 Ball","steam_id":76561197960988736,"connected_time":922000000000,"state":"active","ping":46},{"user_id":691,"name":"Nobody","steam_id":76561199113947978,"connected_time":1707000000000,"state":"active","ping":90},{"user_id":697,"name":"Beef Stewart","steam_id":76561197987115316,"connected_time":619000000000,"state":"active","ping":53},{"user_id":657,"name":"DDA","steam_id":76561199481496697,"connected_time":3523000000000,"state":"active","ping":66},{"user_id":698,"name":"S_ApplePie","steam_id":76561198106947669,"connected_time":296000000000,"state":"active","ping":70},{"user_id":660,"name":"DeanAdamFry","steam_id":76561198054153160,"connected_time":3310000000000,"state":"active","ping":53},{"user_id":671,"name":"L4gman","steam_id":76561198048227040,"connected_time":2629000000000,"state":"active","ping":90},{"user_id":686,"name":"COTHuK","steam_id":76561198330633932,"connected_time":2024000000000,"state":"active","ping":89},{"user_id":688,"name":"randompixel","steam_id":76561198003941207,"connected_time":1908000000000,"state":"active","ping":57},{"user_id":693,"name":"[1stA]Zap Rowsdower","steam_id":76561197976656272,"connected_time":1243000000000,"state":"active","ping":68}]},{"server_id":21,"name":"Uncletopia | London | 5 | All Maps","name_short":"lon-5","host":"lon-1.uk.uncletopia.com","port":27055,"enabled":true,"region":"eu","cc":"gb","latitude":51.509865,"longitude":-0.118092,"reserved":0,"last_update":"0001-01-01T00:00:00Z","name_a2s":"Uncletopia | London | 5 | All Maps","protocol":17,"map":"ctf_2fort","folder":"tf","game":"Team Fortress","app_id":440,"player_count":24,"max_players":24,"Bots":0,"server_type":"Dedicated","server_os":"Linux","password":true,"vac":true,"version":"7882260","steam_id":85568392924742829,"keywords":["ctf","nocrits","nodmgspread","uncletopia"],"game_id":440,"stv_port":27056,"stv_name":"Uncletopia | London | 5 | All Maps | STV","players":[{"user_id":317,"name":"Dr. Funkenstein","steam_id":76561197977816210,"connected_time":4603000000000,"state":"active","ping":47},{"user_id":359,"name":"Egg","steam_id":76561199360189459,"connected_time":2251000000000,"state":"active","ping":63},{"user_id":318,"name":"Mr. Oak","steam_id":76561198331315713,"connected_time":4602000000000,"state":"active","ping":53},{"user_id":209,"name":"Caliban","steam_id":76561197999696839,"connected_time":11380000000000,"state":"active","ping":117},{"user_id":362,"name":"r06u3","steam_id":76561198254099253,"connected_time":2043000000000,"state":"active","ping":180},{"user_id":389,"name":"maybe blw.tf","steam_id":76561199028670732,"connected_time":165000000000,"state":"active","ping":61},{"user_id":372,"name":"JAZZ COMMANDO","steam_id":76561198031766068,"connected_time":1004000000000,"state":"active","ping":53},{"user_id":391,"name":"midlpsyzl47","steam_id":76561199475972637,"connected_time":106000000000,"state":"active","ping":67},{"user_id":294,"name":"Providence","steam_id":76561198003920270,"connected_time":6289000000000,"state":"active","ping":80},{"user_id":386,"name":"axalotly-gaming","steam_id":76561199131971501,"connected_time":419000000000,"state":"active","ping":84},{"user_id":336,"name":"Finn","steam_id":76561198179960193,"connected_time":3112000000000,"state":"active","ping":38},{"user_id":385,"name":"Ketich","steam_id":76561198021772703,"connected_time":429000000000,"state":"active","ping":81},{"user_id":279,"name":"omony","steam_id":76561197983750025,"connected_time":6825000000000,"state":"active","ping":94},{"user_id":323,"name":"Whimsical Gear","steam_id":76561198315957953,"connected_time":4102000000000,"state":"active","ping":72},{"user_id":390,"name":"[O\u0026O]YaboiDucki","steam_id":76561198195976589,"connected_time":154000000000,"state":"active","ping":76},{"user_id":376,"name":"sarii ‚òÜ","steam_id":76561199155102111,"connected_time":808000000000,"state":"active","ping":80},{"user_id":377,"name":"Frank","steam_id":76561198086672774,"connected_time":806000000000,"state":"active","ping":54},{"user_id":379,"name":"Minimi","steam_id":76561198873850443,"connected_time":778000000000,"state":"active","ping":43},{"user_id":380,"name":"Pinkchup","steam_id":76561198106802803,"connected_time":774000000000,"state":"active","ping":75},{"user_id":387,"name":"Druid5333","steam_id":76561198348066287,"connected_time":346000000000,"state":"active","ping":68},{"user_id":388,"name":"divine dingus","steam_id":76561199045286801,"connected_time":262000000000,"state":"active","ping":60},{"user_id":358,"name":"xX_DogWater-Gaming69_Xx","steam_id":76561198335486000,"connected_time":2292000000000,"state":"active","ping":72},{"user_id":392,"name":"HentaiEnjoyer","steam_id":76561198148361982,"connected_time":66000000000,"state":"active","ping":65},{"user_id":382,"name":"Peppino Spaghetti","steam_id":76561198416527370,"connected_time":661000000000,"state":"active","ping":74}]},{"server_id":22,"name":"Uncletopia | London | 6 | All Maps","name_short":"lon-6","host":"lon-1.uk.uncletopia.com","port":27065,"enabled":true,"region":"eu","cc":"gb","latitude":51.509865,"longitude":-0.118092,"reserved":0,"last_update":"0001-01-01T00:00:00Z","name_a2s":"Uncletopia | London | 6 | All Maps","protocol":17,"map":"cp_sunshine","folder":"tf","game":"Team Fortress","app_id":440,"player_count":24,"max_players":24,"Bots":0,"server_type":"Dedicated","server_os":"Linux","password":true,"vac":true,"version":"7882260","steam_id":85568392924742830,"keywords":["cp","nocrits","nodmgspread","uncletopia"],"game_id":440,"stv_port":27066,"stv_name":"Uncletopia | London | 6 | All Maps | STV","players":[{"user_id":144,"name":"mt","steam_id":76561197961319303,"connected_time":64000000000,"state":"active","ping":50},{"user_id":132,"name":"FATTY","steam_id":76561198087962709,"connected_time":752000000000,"state":"active","ping":75},{"user_id":117,"name":"Miss Bari","steam_id":76561198365286092,"connected_time":1520000000000,"state":"active","ping":36},{"user_id":120,"name":"ThatSiegeKid","steam_id":76561198368037656,"connected_time":1324000000000,"state":"active","ping":30},{"user_id":119,"name":"Doctor_BalderdashTTV","steam_id":76561198171109398,"connected_time":1364000000000,"state":"active","ping":55},{"user_id":133,"name":"Swayfire","steam_id":76561198071586356,"connected_time":751000000000,"state":"active","ping":57},{"user_id":102,"name":"Senor Ding Dong","steam_id":76561198102702616,"connected_time":2102000000000,"state":"active","ping":78},{"user_id":134,"name":"flange","steam_id":76561198040182692,"connected_time":746000000000,"state":"active","ping":35},{"user_id":143,"name":"Emma","steam_id":76561198076724979,"connected_time":143000000000,"state":"active","ping":60},{"user_id":103,"name":"Fbafroguy","steam_id":76561199113010473,"connected_time":2049000000000,"state":"active","ping":57},{"user_id":127,"name":"Kodutah","steam_id":76561198203405574,"connected_time":1184000000000,"state":"active","ping":73},{"user_id":108,"name":"‚ú™ m_br3","steam_id":76561198044981990,"connected_time":1856000000000,"state":"active","ping":75},{"user_id":62,"name":"imarko2927","steam_id":76561199467000846,"connected_time":4477000000000,"state":"active","ping":93},{"user_id":69,"name":"medick","steam_id":76561199380849468,"connected_time":4298000000000,"state":"active","ping":63},{"user_id":75,"name":"hipster_doofus","steam_id":76561197970902697,"connected_time":3702000000000,"state":"active","ping":56},{"user_id":135,"name":"vurtun","steam_id":76561198857395274,"connected_time":725000000000,"state":"active","ping":58},{"user_id":138,"name":"FoOzTV","steam_id":76561197998636728,"connected_time":650000000000,"state":"active","ping":69},{"user_id":33,"name":"zorze supreme.exe","steam_id":76561198996333022,"connected_time":6992000000000,"state":"active","ping":67},{"user_id":61,"name":"frosty","steam_id":76561198094560834,"connected_time":4756000000000,"state":"active","ping":53},{"user_id":111,"name":"Grumtsior","steam_id":76561198043563111,"connected_time":1826000000000,"state":"active","ping":75},{"user_id":136,"name":"vadr","steam_id":76561198334528186,"connected_time":718000000000,"state":"active","ping":47},{"user_id":70,"name":"Spurt","steam_id":76561198078523852,"connected_time":3988000000000,"state":"active","ping":53},{"user_id":128,"name":"Tarte","steam_id":76561198801472157,"connected_time":1083000000000,"state":"active","ping":39},{"user_id":124,"name":"ItzLousassin","steam_id":76561198180425909,"connected_time":1294000000000,"state":"active","ping":68}]},{"server_id":40,"name":"Uncletopia | London | 7 | No Payload","name_short":"lon-7","host":"lon-1.uk.uncletopia.com","port":27075,"enabled":true,"region":"eu","cc":"gb","latitude":51.509865,"longitude":-0.118092,"reserved":0,"last_update":"0001-01-01T00:00:00Z","name_a2s":"Uncletopia | London | 7 | No Payload","protocol":17,"map":"koth_harvest_final","folder":"tf","game":"Team Fortress","app_id":440,"player_count":15,"max_players":24,"Bots":0,"server_type":"Dedicated","server_os":"Linux","password":true,"vac":true,"version":"7882260","steam_id":85568392924964314,"keywords":["cp","nocrits","nodmgspread","uncletopia"],"game_id":440,"stv_port":27076,"stv_name":"Uncletopia | London | 7 | No Payload | STV","players":[{"user_id":35,"name":"truebosnianking","steam_id":76561199440060597,"connected_time":1811000000000,"state":"active","ping":91},{"user_id":49,"name":"grissaly","steam_id":76561198882642923,"connected_time":335000000000,"state":"active","ping":56},{"user_id":37,"name":"ALEXSPUDMAN","steam_id":76561198804885423,"connected_time":1216000000000,"state":"active","ping":138},{"user_id":38,"name":"FATRAT","steam_id":76561198319338299,"connected_time":971000000000,"state":"active","ping":65},{"user_id":50,"name":"Lazy","steam_id":76561198171748427,"connected_time":243000000000,"state":"active","ping":54},{"user_id":40,"name":"Quack","steam_id":76561198048712219,"connected_time":599000000000,"state":"active","ping":59},{"user_id":53,"name":"Clark","steam_id":76561198120498831,"connected_time":39000000000,"state":"spawning","ping":47},{"user_id":34,"name":"Jeerven","steam_id":76561198259189841,"connected_time":1957000000000,"state":"active","ping":62},{"user_id":42,"name":"FliturbiousRex","steam_id":76561199217583334,"connected_time":519000000000,"state":"active","ping":146},{"user_id":43,"name":"quickfast","steam_id":76561199438900919,"connected_time":506000000000,"state":"active","ping":39},{"user_id":45,"name":"Banatical Bean","steam_id":76561198122356617,"connected_time":458000000000,"state":"active","ping":57},{"user_id":52,"name":"Rihito YL","steam_id":76561198091864790,"connected_time":132000000000,"state":"active","ping":53},{"user_id":47,"name":"Raine","steam_id":76561198098860903,"connected_time":414000000000,"state":"active","ping":61},{"user_id":48,"name":"Happygamer","steam_id":76561198309248699,"connected_time":400000000000,"state":"active","ping":44},{"user_id":54,"name":"Falling Apples","steam_id":76561198122762346,"connected_time":2000000000,"state":"spawning","ping":43}]},{"server_id":41,"name":"Uncletopia | London | 8 | Community","name_short":"lon-8","host":"lon-1.uk.uncletopia.com","port":27085,"enabled":true,"region":"eu","cc":"gb","latitude":51.509865,"longitude":-0.118092,"reserved":0,"last_update":"0001-01-01T00:00:00Z","name_a2s":"Uncletopia | London | 8 | Community","protocol":17,"map":"workshop/koth_synthetic_rc6a.ugc1549817316","folder":"tf","game":"Team Fortress","app_id":440,"player_count":0,"max_players":24,"Bots":0,"server_type":"Dedicated","server_os":"Linux","password":true,"vac":true,"version":"7882260","steam_id":85568392924964315,"keywords":["cp","nocrits","nodmgspread","uncletopia"],"game_id":440,"stv_port":27086,"stv_name":"Uncletopia | London | 8 | Community | STV","players":null},{"server_id":300,"name":"Uncletopia | Montr√©al | 1 | All Maps","name_short":"mtl-1","host":"mtl-1.ca.uncletopia.com","port":27015,"enabled":true,"region":"us-east","cc":"ca","latitude":45.50889,"longitude":-73.56167,"reserved":0,"last_update":"0001-01-01T00:00:00Z","name_a2s":"Uncletopia | Montr√©al | 1 | All Maps","protocol":17,"map":"cp_process_final","folder":"tf","game":"Team Fortress","app_id":440,"player_count":0,"max_players":24,"Bots":0,"server_type":"Dedicated","server_os":"Linux","password":true,"vac":true,"version":"7882260","steam_id":85568392924500087,"keywords":["cp","nocrits","nodmgspread","uncletopia"],"game_id":440,"stv_port":27016,"stv_name":"Uncletopia | Montr√©al | 1 | All Maps | STV","players":null},{"server_id":301,"name":"Uncletopia | Montr√©al | 2 | All Maps","name_short":"mtl-2","host":"mtl-1.ca.uncletopia.com","port":27025,"enabled":true,"region":"us-east","cc":"ca","latitude":45.50889,"longitude":-73.56167,"reserved":0,"last_update":"0001-01-01T00:00:00Z","name_a2s":"Uncletopia | Montr√©al | 2 | All Maps","protocol":17,"map":"pl_swiftwater_final1","folder":"tf","game":"Team Fortress","app_id":440,"player_count":0,"max_players":24,"Bots":0,"server_type":"Dedicated","server_os":"Linux","password":true,"vac":true,"version":"7882260","steam_id":85568392924500088,"keywords":["nocrits","nodmgspread","payload","uncletopia"],"game_id":440,"stv_port":27026,"stv_name":"Uncletopia | Montr√©al | 2 | All Maps | STV","players":null},{"server_id":302,"name":"Uncletopia | Montr√©al | 3 | All Maps","name_short":"mtl-3","host":"mtl-1.ca.uncletopia.com","port":27035,"enabled":true,"region":"us-east","cc":"ca","latitude":45.50889,"longitude":-73.56167,"reserved":0,"last_update":"0001-01-01T00:00:00Z","name_a2s":"Uncletopia | Montr√©al | 3 | All Maps","protocol":17,"map":"pl_borneo","folder":"tf","game":"Team Fortress","app_id":440,"player_count":0,"max_players":24,"Bots":0,"server_type":"Dedicated","server_os":"Linux","password":true,"vac":true,"version":"7882260","steam_id":85568392924500089,"keywords":["nocrits","nodmgspread","payload","uncletopia"],"game_id":440,"stv_port":27036,"stv_name":"Uncletopia | Montr√©al | 3 | All Maps | STV","players":null},{"server_id":303,"name":"Uncletopia | Montr√©al | 4 | No Payload","name_short":"mtl-4","host":"mtl-1.ca.uncletopia.com","port":27045,"enabled":true,"region":"us-east","cc":"ca","latitude":45.50889,"longitude":-73.56167,"reserved":0,"last_update":"0001-01-01T00:00:00Z","name_a2s":"Uncletopia | Montr√©al | 4 | No Payload","protocol":17,"map":"cp_altitude","folder":"tf","game":"Team Fortress","app_id":440,"player_count":0,"max_players":24,"Bots":0,"server_type":"Dedicated","server_os":"Linux","password":true,"vac":true,"version":"7882260","steam_id":85568392924500090,"keywords":["cp","nocrits","nodmgspread","uncletopia"],"game_id":440,"stv_port":27046,"stv_name":"Uncletopia | Montr√©al | 4 | No Payload | STV","players":null},{"server_id":13,"name":"Uncletopia | New York City | 1 | All Maps","name_short":"nyc-1","host":"nyc-1.us.uncletopia.com","port":27015,"enabled":true,"region":"us-east","cc":"us","latitude":40.73061,"longitude":-73.93524,"reserved":0,"last_update":"0001-01-01T00:00:00Z","name_a2s":"Uncletopia | New York City | 1 | All Maps","protocol":17,"map":"pl_badwater","folder":"tf","game":"Team Fortress","app_id":440,"player_count":24,"max_players":24,"Bots":0,"server_type":"Dedicated","server_os":"Linux","password":true,"vac":true,"version":"7882260","steam_id":85568392924469993,"keywords":["nocrits","nodmgspread","payload","uncletopia"],"game_id":440,"stv_port":27016,"stv_name":"Uncletopia | New York City | 1 | All Maps | STV","players":[{"user_id":234,"name":"cool safe name","steam_id":76561198237827742,"connected_time":6950000000000,"state":"active","ping":54},{"user_id":254,"name":"Aeris","steam_id":76561198287271028,"connected_time":4769000000000,"state":"active","ping":75},{"user_id":304,"name":"Junkfish","steam_id":76561199168630846,"connected_time":500000000000,"state":"active","ping":64},{"user_id":306,"name":"marge","steam_id":76561198064823861,"connected_time":492000000000,"state":"active","ping":55},{"user_id":288,"name":"Lord Razor","steam_id":76561198373286283,"connected_time":1734000000000,"state":"active","ping":79},{"user_id":287,"name":"Herdez Hot Salsa","steam_id":76561197991740906,"connected_time":1756000000000,"state":"active","ping":67},{"user_id":289,"name":"Pa-Py-ro-ni","steam_id":76561198139054162,"connected_time":1726000000000,"state":"active","ping":65},{"user_id":307,"name":"leumas","steam_id":76561198240408540,"connected_time":454000000000,"state":"active","ping":53},{"user_id":280,"name":"whoopsydoodle","steam_id":76561198045145360,"connected_time":2433000000000,"state":"active","ping":47},{"user_id":290,"name":"ArrSayingPirate","steam_id":76561197997567278,"connected_time":1723000000000,"state":"active","ping":68},{"user_id":267,"name":"gabaghoulio","steam_id":76561198013650292,"connected_time":3589000000000,"state":"active","ping":104},{"user_id":262,"name":"(Maj) Dr Freak","steam_id":76561198046450332,"connected_time":3917000000000,"state":"active","ping":92},{"user_id":302,"name":"HarryjusttHarry","steam_id":76561198982810452,"connected_time":723000000000,"state":"active","ping":79},{"user_id":300,"name":"Aqua","steam_id":76561198136989701,"connected_time":824000000000,"state":"active","ping":54},{"user_id":299,"name":"the_willy12","steam_id":76561199145029672,"connected_time":832000000000,"state":"active","ping":72},{"user_id":291,"name":"Adpayet","steam_id":76561198398918486,"connected_time":1718000000000,"state":"active","ping":72},{"user_id":279,"name":"Wattle","steam_id":76561198036756626,"connected_time":2513000000000,"state":"active","ping":55},{"user_id":294,"name":"SHADY SWEATER SALESMAN","steam_id":76561198014616865,"connected_time":1096000000000,"state":"active","ping":49},{"user_id":276,"name":"FooFLit","steam_id":76561198236967080,"connected_time":2944000000000,"state":"active","ping":70},{"user_id":305,"name":"Megumin","steam_id":76561198115278249,"connected_time":497000000000,"state":"active","ping":81},{"user_id":301,"name":"Nerrrd_","steam_id":76561198870129960,"connected_time":818000000000,"state":"active","ping":46},{"user_id":308,"name":"Brunch","steam_id":76561198045933938,"connected_time":125000000000,"state":"active","ping":44},{"user_id":292,"name":"lofile","steam_id":76561198083798918,"connected_time":1701000000000,"state":"active","ping":53},{"user_id":293,"name":"rivera","steam_id":76561198051058706,"connected_time":1698000000000,"state":"active","ping":38}]},{"server_id":14,"name":"Uncletopia | New York City | 2 | All Maps","name_short":"nyc-2","host":"nyc-1.us.uncletopia.com","port":27025,"enabled":true,"region":"us-east","cc":"us","latitude":40.73061,"longitude":-73.93524,"reserved":0,"last_update":"0001-01-01T00:00:00Z","name_a2s":"Uncletopia | New York City | 2 | All Maps","protocol":17,"map":"koth_harvest_final","folder":"tf","game":"Team Fortress","app_id":440,"player_count":25,"max_players":24,"Bots":0,"server_type":"Dedicated","server_os":"Linux","password":true,"vac":true,"version":"7882260","steam_id":85568392924469994,"keywords":["cp","nocrits","nodmgspread","uncletopia"],"game_id":440,"stv_port":27026,"stv_name":"Uncletopia | New York City | 2 | All Maps | STV","players":[{"user_id":49,"name":"KnightRider5000","steam_id":76561198150044298,"connected_time":1428000000000,"state":"active","ping":86},{"user_id":57,"name":"xxa","steam_id":76561197984735021,"connected_time":827000000000,"state":"active","ping":93},{"user_id":50,"name":"Suez","steam_id":76561198034642980,"connected_time":1410000000000,"state":"active","ping":93},{"user_id":15,"name":"Mr.noob","steam_id":76561199200442395,"connected_time":3056000000000,"state":"active","ping":144},{"user_id":55,"name":"Jango","steam_id":76561198121922413,"connected_time":900000000000,"state":"active","ping":115},{"user_id":28,"name":"Metapod","steam_id":76561198008725465,"connected_time":2120000000000,"state":"active","ping":68},{"user_id":38,"name":"dr peppah chug!","steam_id":76561198068835693,"connected_time":1908000000000,"state":"active","ping":82},{"user_id":19,"name":"Spectre","steam_id":76561198025652246,"connected_time":2489000000000,"state":"active","ping":56},{"user_id":20,"name":"KCritical","steam_id":76561198036988728,"connected_time":2329000000000,"state":"active","ping":69},{"user_id":43,"name":"JHLO","steam_id":76561198074359967,"connected_time":1810000000000,"state":"active","ping":78},{"user_id":22,"name":"Oni","steam_id":76561198112066584,"connected_time":2258000000000,"state":"active","ping":73},{"user_id":23,"name":"Funny Valentine 2024","steam_id":76561198132086688,"connected_time":2256000000000,"state":"active","ping":61},{"user_id":24,"name":"Al Cabone","steam_id":76561198956823243,"connected_time":2249000000000,"state":"active","ping":63},{"user_id":53,"name":"Horrizan","steam_id":76561197965028480,"connected_time":970000000000,"state":"active","ping":110},{"user_id":48,"name":"desertcamila","steam_id":76561198249331208,"connected_time":1504000000000,"state":"active","ping":72},{"user_id":34,"name":"felalewhpre","steam_id":76561198123056791,"connected_time":1967000000000,"state":"active","ping":51},{"user_id":56,"name":"peee pee man","steam_id":76561198044979205,"connected_time":891000000000,"state":"active","ping":55},{"user_id":41,"name":"Ian","steam_id":76561199078852180,"connected_time":1855000000000,"state":"active","ping":76},{"user_id":33,"name":"mkl","steam_id":76561197986401685,"connected_time":1980000000000,"state":"active","ping":98},{"user_id":35,"name":"Peepster","steam_id":76561198297854733,"connected_time":1955000000000,"state":"active","ping":90},{"user_id":52,"name":"frizzle fried","steam_id":76561198062991744,"connected_time":1375000000000,"state":"active","ping":56},{"user_id":105,"name":"map tr_ctap_practice","steam_id":76561198249206656,"connected_time":2000000000,"state":"spawning","ping":67},{"user_id":44,"name":"space mann","steam_id":76561198174447043,"connected_time":1639000000000,"state":"active","ping":33},{"user_id":40,"name":"DEQUAVIS","steam_id":76561198843060075,"connected_time":1897000000000,"state":"active","ping":116},{"user_id":46,"name":"Chilidestroy","steam_id":76561199101551797,"connected_time":1587000000000,"state":"active","ping":78}]},{"server_id":15,"name":"Uncletopia | New York City | 3 | Stopwatch Beta","name_short":"nyc-3","host":"nyc-1.us.uncletopia.com","port":27035,"enabled":true,"region":"us-east","cc":"us","latitude":40.73061,"longitude":-73.93524,"reserved":0,"last_update":"0001-01-01T00:00:00Z","name_a2s":"Uncletopia | New York City | 3 | Stopwatch Beta","protocol":17,"map":"pl_borneo","folder":"tf","game":"Team Fortress","app_id":440,"player_count":0,"max_players":24,"Bots":0,"server_type":"Dedicated","server_os":"Linux","password":true,"vac":true,"version":"7882260","steam_id":85568392924742820,"keywords":["nocrits","nodmgspread","payload","uncletopia"],"game_id":440,"stv_port":27036,"stv_name":"Uncletopia | New York City | 3 | Stopwatch Beta | STV","players":null},{"server_id":16,"name":"Uncletopia | New York City | 4 | Community","name_short":"nyc-4","host":"nyc-1.us.uncletopia.com","port":27045,"enabled":true,"region":"us-east","cc":"us","latitude":40.73061,"longitude":-73.93524,"reserved":0,"last_update":"0001-01-01T00:00:00Z","name_a2s":"Uncletopia | New York City | 4 | Community","protocol":17,"map":"pl_badwater","folder":"tf","game":"Team Fortress","app_id":440,"player_count":0,"max_players":24,"Bots":0,"server_type":"Dedicated","server_os":"Linux","password":true,"vac":true,"version":"7882260","steam_id":85568392924742821,"keywords":["nocrits","nodmgspread","payload","uncletopia"],"game_id":440,"stv_port":27046,"stv_name":"Uncletopia | New York City | 4 | Community | STV","players":null},{"server_id":142,"name":"Uncletopia | S√£o Paulo | 1 | All Maps","name_short":"sao-1","host":"sao-1.br.uncletopia.com","port":27015,"enabled":true,"region":"sa","cc":"br","latitude":-23.533773,"longitude":-46.62529,"reserved":0,"last_update":"0001-01-01T00:00:00Z","name_a2s":"Uncletopia | S√£o Paulo | 1 | All Maps","protocol":17,"map":"koth_cascade","folder":"tf","game":"Team Fortress","app_id":440,"player_count":9,"max_players":24,"Bots":0,"server_type":"Dedicated","server_os":"Linux","password":true,"vac":true,"version":"7882260","steam_id":85568392924469996,"keywords":["cp","nocrits","nodmgspread","uncletopia"],"game_id":440,"stv_port":27016,"stv_name":"Uncletopia | S√£o Paulo | 1 | All Maps | STV","players":[{"user_id":3,"name":"agiota interestelar","steam_id":76561199110940098,"connected_time":2536000000000,"state":"active","ping":60},{"user_id":4,"name":"Granemann","steam_id":76561198086827008,"connected_time":2480000000000,"state":"active","ping":58},{"user_id":5,"name":"francotirador","steam_id":76561199177055367,"connected_time":1469000000000,"state":"active","ping":81},{"user_id":6,"name":"Vitinho Games","steam_id":76561198805893728,"connected_time":1142000000000,"state":"active","ping":42},{"user_id":7,"name":"La'caca","steam_id":76561199047860229,"connected_time":966000000000,"state":"active","ping":64},{"user_id":8,"name":"ArielGuer #SaveTF2","steam_id":76561198824250184,"connected_time":892000000000,"state":"active","ping":71},{"user_id":12,"name":"Dysc","steam_id":76561198960139858,"connected_time":274000000000,"state":"active","ping":44},{"user_id":10,"name":"A CABRA ;D","steam_id":76561199226216626,"connected_time":699000000000,"state":"active","ping":111},{"user_id":14,"name":"Luxuria","steam_id":76561198832195686,"connected_time":36000000000,"state":"active","ping":51}]},{"server_id":143,"name":"Uncletopia | S√£o Paulo | 2 | All Maps","name_short":"sao-2","host":"sao-2.br.uncletopia.com","port":27015,"enabled":true,"region":"sa","cc":"br","latitude":-23.533773,"longitude":-46.62529,"reserved":0,"last_update":"0001-01-01T00:00:00Z","name_a2s":"Uncletopia | S√£o Paulo | 2 | All Maps","protocol":17,"map":"pl_upward","folder":"tf","game":"Team Fortress","app_id":440,"player_count":0,"max_players":24,"Bots":0,"server_type":"Dedicated","server_os":"Linux","password":true,"vac":true,"version":"7882260","steam_id":85568392924485349,"keywords":["nocrits","nodmgspread","payload","uncletopia"],"game_id":440,"stv_port":27016,"stv_name":"Uncletopia | S√£o Paulo | 2 | All Maps | STV","players":null},{"server_id":7,"name":"Uncletopia | Seattle | 1 | All Maps","name_short":"sea-1","host":"sea-1.us.uncletopia.com","port":27015,"enabled":true,"region":"us-west","cc":"us","latitude":47.608013,"longitude":-122.33517,"reserved":0,"last_update":"0001-01-01T00:00:00Z","name_a2s":"Uncletopia | Seattle | 1 | All Maps","protocol":17,"map":"koth_viaduct","folder":"tf","game":"Team Fortress","app_id":440,"player_count":24,"max_players":24,"Bots":0,"server_type":"Dedicated","server_os":"Linux","password":true,"vac":true,"version":"7882260","steam_id":85568392924469997,"keywords":["cp","nocrits","nodmgspread","uncletopia"],"game_id":440,"stv_port":27016,"stv_name":"Uncletopia | Seattle | 1 | All Maps | STV","players":[{"user_id":320,"name":"Lieutenant Lazybones","steam_id":76561198317647978,"connected_time":881000000000,"state":"active","ping":99},{"user_id":321,"name":"FreehandBlock51","steam_id":76561198993505645,"connected_time":730000000000,"state":"active","ping":55},{"user_id":329,"name":"lukamine","steam_id":76561198166827208,"connected_time":378000000000,"state":"active","ping":46},{"user_id":319,"name":"D0VE","steam_id":76561198151618566,"connected_time":897000000000,"state":"active","ping":56},{"user_id":286,"name":"Fh","steam_id":76561198000903511,"connected_time":3977000000000,"state":"active","ping":66},{"user_id":288,"name":"Pneumo.","steam_id":76561197987911883,"connected_time":3654000000000,"state":"active","ping":68},{"user_id":322,"name":"thorn648","steam_id":76561198012565777,"connected_time":594000000000,"state":"active","ping":114},{"user_id":333,"name":"Dev","steam_id":76561198388276870,"connected_time":254000000000,"state":"active","ping":120},{"user_id":328,"name":"Taylor Swift","steam_id":76561198078130694,"connected_time":436000000000,"state":"active","ping":81},{"user_id":323,"name":"paolobuts","steam_id":76561199047108638,"connected_time":579000000000,"state":"active","ping":74},{"user_id":314,"name":"Pebberoni","steam_id":76561199261321326,"connected_time":1108000000000,"state":"active","ping":77},{"user_id":310,"name":"Teddy","steam_id":76561198048106221,"connected_time":1275000000000,"state":"active","ping":60},{"user_id":331,"name":"Pudsla","steam_id":76561198258974036,"connected_time":374000000000,"state":"active","ping":68},{"user_id":332,"name":"ira","steam_id":76561198120360801,"connected_time":363000000000,"state":"active","ping":72},{"user_id":334,"name":"Apollo","steam_id":76561198162364702,"connected_time":86000000000,"state":"active","ping":49},{"user_id":281,"name":"„Åµ„Çè„Åµ„ÇèÊØõÂ∏É","steam_id":76561198088403016,"connected_time":4510000000000,"state":"active","ping":183},{"user_id":316,"name":"Little Linguine","steam_id":76561198816986370,"connected_time":985000000000,"state":"active","ping":56},{"user_id":305,"name":"Manchurian Bandit","steam_id":76561198072410042,"connected_time":2066000000000,"state":"active","ping":82},{"user_id":311,"name":"shy guy","steam_id":76561198151246059,"connected_time":1260000000000,"state":"active","ping":74},{"user_id":283,"name":"spiderland","steam_id":76561198335992132,"connected_time":4484000000000,"state":"active","ping":55},{"user_id":292,"name":"Jolly","steam_id":76561198116357972,"connected_time":3442000000000,"state":"active","ping":72},{"user_id":301,"name":"ursa","steam_id":76561198025394298,"connected_time":2281000000000,"state":"active","ping":103},{"user_id":326,"name":"GKumo","steam_id":76561198023175868,"connected_time":467000000000,"state":"active","ping":73},{"user_id":308,"name":"Quarter Cheese","steam_id":76561198115814588,"connected_time":1574000000000,"state":"active","ping":47}]},{"server_id":119,"name":"Uncletopia | Seattle | 2 | All Maps","name_short":"sea-2","host":"sea-1.us.uncletopia.com","port":27025,"enabled":true,"region":"us-west","cc":"us","latitude":47.608013,"longitude":-122.33517,"reserved":0,"last_update":"0001-01-01T00:00:00Z","name_a2s":"Uncletopia | Seattle | 2 | All Maps","protocol":17,"map":"pl_upward","folder":"tf","game":"Team Fortress","app_id":440,"player_count":23,"max_players":24,"Bots":0,"server_type":"Dedicated","server_os":"Linux","password":true,"vac":true,"version":"7882260","steam_id":85568392924469998,"keywords":["nocrits","nodmgspread","payload","uncletopia"],"game_id":440,"stv_port":27026,"stv_name":"Uncletopia | Seattle | 2 | All Maps | STV","players":[{"user_id":184,"name":"Jacob Hornberger 2016","steam_id":76561198204549723,"connected_time":0,"state":"spawning","ping":0},{"user_id":140,"name":"Hemorrhoid Harry","steam_id":76561198092494136,"connected_time":3075000000000,"state":"active","ping":106},{"user_id":182,"name":"streamguyepic","steam_id":76561199389467750,"connected_time":152000000000,"state":"active","ping":195},{"user_id":183,"name":"Chocc","steam_id":76561198068070211,"connected_time":70000000000,"state":"active","ping":81},{"user_id":121,"name":"PeesTi2","steam_id":76561199016865192,"connected_time":3861000000000,"state":"active","ping":155},{"user_id":171,"name":"tub of butter","steam_id":76561198970014265,"connected_time":1407000000000,"state":"active","ping":87},{"user_id":172,"name":"ilikeballs","steam_id":76561198249980016,"connected_time":1389000000000,"state":"active","ping":95},{"user_id":166,"name":"super mario in fake life","steam_id":76561198035015260,"connected_time":2056000000000,"state":"active","ping":83},{"user_id":169,"name":"I throw a lot","steam_id":76561198209650964,"connected_time":1643000000000,"state":"active","ping":80},{"user_id":139,"name":"The Legolord","steam_id":76561199101367611,"connected_time":3089000000000,"state":"active","ping":111},{"user_id":150,"name":"JawnyMac","steam_id":76561198179529599,"connected_time":2891000000000,"state":"active","ping":90},{"user_id":142,"name":"JasonTheUnicorn","steam_id":76561198294216368,"connected_time":3059000000000,"state":"active","ping":115},{"user_id":179,"name":"ez$ 6'5\"","steam_id":76561198094027709,"connected_time":634000000000,"state":"active","ping":123},{"user_id":162,"name":"JacobPepperonis","steam_id":76561199227578713,"connected_time":2277000000000,"state":"active","ping":69},{"user_id":144,"name":"clammy egg","steam_id":76561198151876384,"connected_time":3035000000000,"state":"active","ping":90},{"user_id":170,"name":"NASA PEEPO","steam_id":76561198024982267,"connected_time":1588000000000,"state":"active","ping":71},{"user_id":181,"name":"Keamy","steam_id":76561199471434875,"connected_time":408000000000,"state":"active","ping":45},{"user_id":168,"name":"float","steam_id":76561198363371528,"connected_time":1776000000000,"state":"active","ping":53},{"user_id":148,"name":"bladees saddest, realest verse","steam_id":76561198098099826,"connected_time":2964000000000,"state":"active","ping":82},{"user_id":180,"name":"AimlessPixel","steam_id":76561199018278507,"connected_time":544000000000,"state":"active","ping":163},{"user_id":173,"name":"kentuckyfriedsocks","steam_id":76561198311122883,"connected_time":1260000000000,"state":"active","ping":128},{"user_id":159,"name":"Xiphor","steam_id":76561199236537212,"connected_time":2647000000000,"state":"active","ping":116},{"user_id":176,"name":"jorts","steam_id":76561199041179985,"connected_time":826000000000,"state":"active","ping":57}]},{"server_id":406,"name":"Uncletopia | Seattle | 3 | Stopwatch Beta","name_short":"sea-3","host":"sea-1.us.uncletopia.com","port":27035,"enabled":true,"region":"us-west","cc":"us","latitude":47.608013,"longitude":-122.33517,"reserved":0,"last_update":"0001-01-01T00:00:00Z","name_a2s":"Uncletopia | Seattle | 3 | Stopwatch Beta","protocol":17,"map":"pl_swiftwater_final1","folder":"tf","game":"Team Fortress","app_id":440,"player_count":0,"max_players":24,"Bots":0,"server_type":"Dedicated","server_os":"Linux","password":true,"vac":true,"version":"7882260","steam_id":85568392924515217,"keywords":["nocrits","nodmgspread","payload","uncletopia"],"game_id":440,"stv_port":27036,"stv_name":"Uncletopia | Seattle | 3 | Stopwatch Beta | STV","players":null},{"server_id":17,"name":"Uncletopia | San Francisco | 1 | All Maps","name_short":"sfo-1","host":"sfo-1.us.uncletopia.com","port":27015,"enabled":true,"region":"us-west","cc":"us","latitude":37.77397,"longitude":-122.4313,"reserved":0,"last_update":"0001-01-01T00:00:00Z","name_a2s":"Uncletopia | San Francisco | 1 | All Maps","protocol":17,"map":"cp_process_final","folder":"tf","game":"Team Fortress","app_id":440,"player_count":0,"max_players":24,"Bots":0,"server_type":"Dedicated","server_os":"Linux","password":true,"vac":true,"version":"7757534","steam_id":85568392924469999,"keywords":["cp","nocrits","nodmgspread","uncletopia"],"game_id":440,"stv_port":27016,"stv_name":"Uncletopia | San Francisco | 1 | All Maps | STV","players":null},{"server_id":18,"name":"Uncletopia | San Francisco | 2 | All Maps","name_short":"sfo-2","host":"sfo-1.us.uncletopia.com","port":27025,"enabled":true,"region":"us-west","cc":"us","latitude":37.77397,"longitude":-122.4313,"reserved":0,"last_update":"0001-01-01T00:00:00Z","name_a2s":"Uncletopia | San Francisco | 2 | All Maps","protocol":17,"map":"koth_highpass","folder":"tf","game":"Team Fortress","app_id":440,"player_count":0,"max_players":24,"Bots":0,"server_type":"Dedicated","server_os":"Linux","password":true,"vac":true,"version":"7757534","steam_id":85568392924470000,"keywords":["cp","nocrits","nodmgspread","uncletopia"],"game_id":440,"stv_port":27026,"stv_name":"Uncletopia | San Francisco | 2 | All Maps | STV","players":null},{"server_id":19,"name":"Uncletopia | San Francisco | 3 | Stopwatch Beta","name_short":"sfo-3","host":"sfo-1.us.uncletopia.com","port":27035,"enabled":true,"region":"us-west","cc":"us","latitude":37.77397,"longitude":-122.4313,"reserved":0,"last_update":"0001-01-01T00:00:00Z","name_a2s":"Uncletopia | San Francisco | 3 | Stopwatch Beta","protocol":17,"map":"koth_lakeside_final","folder":"tf","game":"Team Fortress","app_id":440,"player_count":0,"max_players":24,"Bots":0,"server_type":"Dedicated","server_os":"Linux","password":true,"vac":true,"version":"7757534","steam_id":85568392924742824,"keywords":["cp","nocrits","nodmgspread","uncletopia"],"game_id":440,"stv_port":27036,"stv_name":"Uncletopia | San Francisco | 3 | Stopwatch Beta | STV","players":null},{"server_id":20,"name":"Uncletopia | San Francisco | 4 | Community","name_short":"sfo-4","host":"sfo-1.us.uncletopia.com","port":27045,"enabled":true,"region":"us-west","cc":"us","latitude":37.77397,"longitude":-122.4313,"reserved":0,"last_update":"0001-01-01T00:00:00Z","name_a2s":"Uncletopia | San Francisco | 4 | Community","protocol":17,"map":"cp_altitude","folder":"tf","game":"Team Fortress","app_id":440,"player_count":0,"max_players":24,"Bots":0,"server_type":"Dedicated","server_os":"Linux","password":true,"vac":true,"version":"7757534","steam_id":85568392924742826,"keywords":["cp","nocrits","nodmgspread","uncletopia"],"game_id":440,"stv_port":27046,"stv_name":"Uncletopia | San Francisco | 4 | Community | STV","players":null},{"server_id":141,"name":"Uncletopia | Sydney | 1 | All Maps","name_short":"syd-1","host":"syd-1.au.uncletopia.com","port":27015,"enabled":true,"region":"au","cc":"au","latitude":-33.865143,"longitude":151.2099,"reserved":0,"last_update":"0001-01-01T00:00:00Z","name_a2s":"Uncletopia | Sydney | 1 | All Maps","protocol":17,"map":"cp_dustbowl","folder":"tf","game":"Team Fortress","app_id":440,"player_count":0,"max_players":24,"Bots":0,"server_type":"Dedicated","server_os":"Linux","password":true,"vac":true,"version":"7882260","steam_id":85568392924470001,"keywords":["cp","nocrits","nodmgspread","uncletopia"],"game_id":440,"stv_port":27016,"stv_name":"Uncletopia | Sydney | 1 | All Maps | STV","players":null},{"server_id":123,"name":"Uncletopia | Sydney | 2 | All Maps","name_short":"syd-2","host":"syd-1.au.uncletopia.com","port":27025,"enabled":true,"region":"au","cc":"au","latitude":-33.865143,"longitude":151.2099,"reserved":0,"last_update":"0001-01-01T00:00:00Z","name_a2s":"Uncletopia | Sydney | 2 | All Maps","protocol":17,"map":"cp_altitude","folder":"tf","game":"Team Fortress","app_id":440,"player_count":18,"max_players":24,"Bots":0,"server_type":"Dedicated","server_os":"Linux","password":true,"vac":true,"version":"7882260","steam_id":85568392924470002,"keywords":["cp","nocrits","nodmgspread","uncletopia"],"game_id":440,"stv_port":27026,"stv_name":"Uncletopia | Sydney | 2 | All Maps | STV","players":[{"user_id":6,"name":"¬Ø\\_(„ÉÑ)_/¬Ø","steam_id":76561199206182584,"connected_time":1290000000000,"state":"active","ping":59},{"user_id":31,"name":"bandi598","steam_id":76561198982382743,"connected_time":102000000000,"state":"active","ping":309},{"user_id":29,"name":"xuaa","steam_id":76561199083479692,"connected_time":173000000000,"state":"active","ping":317},{"user_id":19,"name":"Sgetty","steam_id":76561198308484080,"connected_time":963000000000,"state":"active","ping":51},{"user_id":11,"name":"ae","steam_id":76561198030431368,"connected_time":1214000000000,"state":"active","ping":90},{"user_id":34,"name":"SlightlyToastedCheesecake","steam_id":76561199053620041,"connected_time":89000000000,"state":"active","ping":329},{"user_id":13,"name":"BruceWillis235","steam_id":76561198884324029,"connected_time":1194000000000,"state":"active","ping":85},{"user_id":32,"name":"Achlys","steam_id":76561199403177574,"connected_time":100000000000,"state":"active","ping":276},{"user_id":33,"name":"Tolstofey","steam_id":76561198273685326,"connected_time":98000000000,"state":"active","ping":331},{"user_id":35,"name":"toksykpl","steam_id":76561198969847536,"connected_time":88000000000,"state":"active","ping":325},{"user_id":39,"name":"Datenegassie","steam_id":76561198089417032,"connected_time":0,"state":"spawning","ping":210},{"user_id":21,"name":"ZaccyMC","steam_id":76561199179449049,"connected_time":888000000000,"state":"active","ping":76},{"user_id":22,"name":"Minimindd","steam_id":76561199006274892,"connected_time":806000000000,"state":"active","ping":45},{"user_id":23,"name":"Rat Pope","steam_id":76561199059450243,"connected_time":803000000000,"state":"active","ping":68},{"user_id":24,"name":"Jontohil2","steam_id":76561198114091810,"connected_time":780000000000,"state":"active","ping":104},{"user_id":28,"name":"Mr. Game \u0026 Watch","steam_id":76561198985044367,"connected_time":370000000000,"state":"active","ping":68},{"user_id":37,"name":"Jeffery Jitterson","steam_id":76561199021400714,"connected_time":52000000000,"state":"active","ping":307},{"user_id":38,"name":"MrvicaKing69","steam_id":76561199268407840,"connected_time":50000000000,"state":"active","ping":310}]},{"server_id":395,"name":"Uncletopia | Sydney | 3 | All Maps","name_short":"syd-3","host":"syd-1.au.uncletopia.com","port":27035,"enabled":true,"region":"au","cc":"au","latitude":-33.865143,"longitude":151.2099,"reserved":0,"last_update":"0001-01-01T00:00:00Z","name_a2s":"Uncletopia | Sydney | 3 | All Maps","protocol":17,"map":"pl_badwater","folder":"tf","game":"Team Fortress","app_id":440,"player_count":0,"max_players":24,"Bots":0,"server_type":"Dedicated","server_os":"Linux","password":true,"vac":true,"version":"7882260","steam_id":85568392925194467,"keywords":["nocrits","nodmgspread","payload","uncletopia"],"game_id":440,"stv_port":27036,"stv_name":"Uncletopia | Sydney | 3 | All Maps | STV","players":null},{"server_id":396,"name":"Uncletopia | Sydney | 4 | All Maps","name_short":"syd-4","host":"syd-1.au.uncletopia.com","port":27045,"enabled":true,"region":"au","cc":"au","latitude":-33.865143,"longitude":151.2099,"reserved":0,"last_update":"0001-01-01T00:00:00Z","name_a2s":"Uncletopia | Sydney | 4 | All Maps","protocol":17,"map":"cp_dustbowl","folder":"tf","game":"Team Fortress","app_id":440,"player_count":0,"max_players":24,"Bots":0,"server_type":"Dedicated","server_os":"Linux","password":true,"vac":true,"version":"7882260","steam_id":85568392925397958,"keywords":["cp","nocrits","nodmgspread","uncletopia"],"game_id":440,"stv_port":27046,"stv_name":"Uncletopia | Sydney | 4 | All Maps | STV","players":null},{"server_id":58,"name":"Uncletopia | Sydney | 5 | Stopwatch Beta","name_short":"syd-5","host":"syd-1.au.uncletopia.com","port":27055,"enabled":true,"region":"au","cc":"au","latitude":-33.865143,"longitude":151.2099,"reserved":0,"last_update":"0001-01-01T00:00:00Z","name_a2s":"Uncletopia | Sydney | 5 | Stopwatch Beta","protocol":17,"map":"cp_snakewater_final1","folder":"tf","game":"Team Fortress","app_id":440,"player_count":0,"max_players":24,"Bots":0,"server_type":"Dedicated","server_os":"Linux","password":true,"vac":true,"version":"7882260","steam_id":85568392925397959,"keywords":["cp","nocrits","nodmgspread","uncletopia"],"game_id":440,"stv_port":27056,"stv_name":"Uncletopia | Sydney | 5 | Stopwatch Beta | STV","players":null},{"server_id":59,"name":"Uncletopia | Sydney | 6 | Community","name_short":"syd-6","host":"syd-1.au.uncletopia.com","port":27065,"enabled":true,"region":"au","cc":"au","latitude":-33.865143,"longitude":151.2099,"reserved":0,"last_update":"0001-01-01T00:00:00Z","name_a2s":"Uncletopia | Sydney | 6 | Community","protocol":17,"map":"pl_snowycoast","folder":"tf","game":"Team Fortress","app_id":440,"player_count":0,"max_players":24,"Bots":0,"server_type":"Dedicated","server_os":"Linux","password":true,"vac":true,"version":"7882260","steam_id":85568392925397960,"keywords":["nocrits","nodmgspread","payload","uncletopia"],"game_id":440,"stv_port":27066,"stv_name":"Uncletopia | Sydney | 6 | Community | STV","players":null},{"server_id":49,"name":"Uncletopia | Warsaw | 1 | All Maps","name_short":"waw-1","host":"waw-1.pl.uncletopia.com","port":27015,"enabled":true,"region":"eu","cc":"pl","latitude":52.2297,"longitude":21.017532,"reserved":0,"last_update":"0001-01-01T00:00:00Z","name_a2s":"","protocol":0,"map":"","folder":"","game":"","app_id":0,"player_count":0,"max_players":0,"Bots":0,"server_type":"","server_os":"","password":false,"vac":false,"version":"","steam_id":0,"keywords":null,"game_id":0,"stv_port":0,"stv_name":"","players":null},{"server_id":50,"name":"Uncletopia | Warsaw | 2 | All Maps","name_short":"waw-2","host":"waw-1.pl.uncletopia.com","port":27025,"enabled":true,"region":"eu","cc":"pl","latitude":52.2297,"longitude":21.017532,"reserved":0,"last_update":"0001-01-01T00:00:00Z","name_a2s":"Uncletopia | Warsaw | 2 | All Maps","protocol":17,"map":"pl_snowycoast","folder":"tf","game":"Team Fortress","app_id":440,"player_count":0,"max_players":24,"Bots":0,"server_type":"Dedicated","server_os":"Linux","password":true,"vac":true,"version":"7882260","steam_id":85568392925397851,"keywords":["nocrits","nodmgspread","payload","uncletopia"],"game_id":440,"stv_port":27026,"stv_name":"Uncletopia | Warsaw | 2 | All Maps | STV","players":null},{"server_id":51,"name":"Uncletopia | Warsaw | 3 | All Maps","name_short":"waw-3","host":"waw-1.pl.uncletopia.com","port":27035,"enabled":true,"region":"eu","cc":"pl","latitude":52.2297,"longitude":21.017532,"reserved":0,"last_update":"0001-01-01T00:00:00Z","name_a2s":"Uncletopia | Warsaw | 3 | All Maps","protocol":17,"map":"koth_viaduct","folder":"tf","game":"Team Fortress","app_id":440,"player_count":4,"max_players":24,"Bots":0,"server_type":"Dedicated","server_os":"Linux","password":true,"vac":true,"version":"7882260","steam_id":85568392925397852,"keywords":["cp","nocrits","nodmgspread","uncletopia"],"game_id":440,"stv_port":27036,"stv_name":"Uncletopia | Warsaw | 3 | All Maps | STV","players":[{"user_id":8,"name":"DeSepp","steam_id":76561198063149086,"connected_time":365000000000,"state":"active","ping":76},{"user_id":9,"name":"Marin","steam_id":76561198062444723,"connected_time":345000000000,"state":"active","ping":61},{"user_id":10,"name":"SpaceCake","steam_id":76561198151394497,"connected_time":240000000000,"state":"active","ping":48},{"user_id":11,"name":"Ewelinka Zniszczenia","steam_id":76561198307374456,"connected_time":235000000000,"state":"active","ping":43}]},{"server_id":52,"name":"Uncletopia | Warsaw | 4 | All Maps","name_short":"waw-4","host":"waw-1.pl.uncletopia.com","port":27045,"enabled":true,"region":"eu","cc":"pl","latitude":52.2297,"longitude":21.017532,"reserved":0,"last_update":"0001-01-01T00:00:00Z","name_a2s":"Uncletopia | Warsaw | 4 | All Maps","protocol":17,"map":"pl_upward","folder":"tf","game":"Team Fortress","app_id":440,"player_count":6,"max_players":24,"Bots":0,"server_type":"Dedicated","server_os":"Linux","password":true,"vac":true,"version":"7882260","steam_id":85568392925397853,"keywords":["nocrits","nodmgspread","payload","uncletopia"],"game_id":440,"stv_port":27046,"stv_name":"Uncletopia | Warsaw | 4 | All Maps | STV","players":[{"user_id":23,"name":"–ù–£ –ò –ß–¢–û –ß–¢–û –Ø –¢–ê–õ","steam_id":76561198105300504,"connected_time":568000000000,"state":"active","ping":115},{"user_id":24,"name":"koncicvladislav","steam_id":76561199481202719,"connected_time":568000000000,"state":"active","ping":79},{"user_id":25,"name":"arinanebylova","steam_id":76561199387168759,"connected_time":567000000000,"state":"active","ping":42},{"user_id":26,"name":"Koka","steam_id":76561198419519811,"connected_time":520000000000,"state":"active","ping":126},{"user_id":27,"name":"Jesse Fatcoc","steam_id":76561199004942770,"connected_time":377000000000,"state":"active","ping":75},{"user_id":28,"name":"YOU ARE SHITTING YOUR SELF","steam_id":76561198371719058,"connected_time":293000000000,"state":"active","ping":44}]},{"server_id":53,"name":"Uncletopia | Warsaw | 5 | Stopwatch Beta","name_short":"waw-5","host":"waw-1.pl.uncletopia.com","port":27055,"enabled":true,"region":"eu","cc":"pl","latitude":52.2297,"longitude":21.017532,"reserved":0,"last_update":"0001-01-01T00:00:00Z","name_a2s":"Uncletopia | Warsaw | 5 | Stopwatch Beta","protocol":17,"map":"cp_mountainlab","folder":"tf","game":"Team Fortress","app_id":440,"player_count":0,"max_players":24,"Bots":0,"server_type":"Dedicated","server_os":"Linux","password":true,"vac":true,"version":"7882260","steam_id":85568392925397854,"keywords":["cp","nocrits","nodmgspread","uncletopia"],"game_id":440,"stv_port":27056,"stv_name":"Uncletopia | Warsaw | 5 | Stopwatch Beta | STV","players":null},{"server_id":54,"name":"Uncletopia | Warsaw | 6 | Community","name_short":"waw-6","host":"waw-1.pl.uncletopia.com","port":27065,"enabled":true,"region":"eu","cc":"pl","latitude":52.2297,"longitude":21.017532,"reserved":0,"last_update":"0001-01-01T00:00:00Z","name_a2s":"Uncletopia | Warsaw | 6 | Community","protocol":17,"map":"workshop/cp_sulfur_rc2.ugc619869471","folder":"tf","game":"Team Fortress","app_id":440,"player_count":0,"max_players":24,"Bots":0,"server_type":"Dedicated","server_os":"Linux","password":true,"vac":true,"version":"7882260","steam_id":85568392925397856,"keywords":["cp","nocrits","nodmgspread","uncletopia"],"game_id":440,"stv_port":27066,"stv_name":"Uncletopia | Warsaw | 6 | Community | STV","players":null}]}