{"status":true,"message":"","result":[{"server_id":9,"name":"Uncletopia | Atlanta | 1 | All Maps","name_short":"atl-1","host":"atl-1.us.uncletopia.com","port":27015,"enabled":true,"region":"us-east","cc":"us","latitude":33.753746,"longitude":-84.38633,"reserved":0,"last_update":"0001-01-01T00:00:00Z","name_a2s":"Uncletopia | Atlanta | 1 | All Maps","protocol":17,"map":"pl_pier","folder":"tf","game":"Team Fortress","app_id":440,"player_count":24,"max_players":24,"Bots":0,"server_type":"Dedicated","server_os":"Linux","password":true,"vac":true,"version":"7882260","steam_id":85568392924469982,"keywords":["nocrits","nodmgspread","payload","uncletopia"],"game_id":440,"stv_port":27016,"stv_name":"Uncletopia | Atlanta | 1 | All Maps | STV","players":[{"user_id":206,"name":"Captain Chicken","steam_id":76561198398677744,"connected_time":7830000000000,"state":"active","ping":96},{"user_id":272,"name":"reallyfriendly","steam_id":76561197996819313,"connected_time":1171000000000,"state":"active","ping":57},{"user_id":277,"name":"Dev","steam_id":76561198388276870,"connected_time":678000000000,"state":"active","ping":87},{"user_id":280,"name":"sexsexsexsexsexsexsexsexsexsexs","steam_id":76561197993353322,"connected_time":224000000000,"state":"active","ping":81},{"user_id":276,"name":"DFR DeezNoodlez","steam_id":76561198246700372,"connected_time":874000000000,"state":"active","ping":60},{"user_id":264,"name":"Paul Blart","steam_id":76561198068110623,"connected_time":2711000000000,"state":"active","ping":112},{"user_id":265,"name":"Satori Komeiji","steam_id":76561198158211423,"connected_time":2697000000000,"state":"active","ping":95},{"user_id":253,"name":"Brian","steam_id":76561198089908485,"connected_time":3495000000000,"state":"active","ping":65},{"user_id":247,"name":"J O V A","steam_id":76561198090333536,"connected_time":4157000000000,"state":"active","ping":76},{"user_id":270,"name":"xX_HimboSwallower_Xx","steam_id":76561198016029965,"connected_time":1850000000000,"state":"active","ping":74},{"user_id":275,"name":"morphine","steam_id":76561198072124799,"connected_time":1040000000000,"state":"active","ping":91},{"user_id":129,"name":"wG deez","steam_id":76561198277163301,"connected_time":13348000000000,"state":"active","ping":83},{"user_id":252,"name":"Sophie","steam_id":76561198170408057,"connected_time":3538000000000,"state":"active","ping":50},{"user_id":267,"name":"Albino Jellyfish","steam_id":76561198208561097,"connected_time":2335000000000,"state":"active","ping":69},{"user_id":222,"name":"Daniel Craig Fan","steam_id":76561198053467923,"connected_time":6547000000000,"state":"active","ping":84},{"user_id":266,"name":"lwyr","steam_id":76561198007982579,"connected_time":2621000000000,"state":"active","ping":54},{"user_id":183,"name":"noobkiller420","steam_id":76561198079416036,"connected_time":9832000000000,"state":"active","ping":76},{"user_id":192,"name":"lynt","steam_id":76561198988333976,"connected_time":9067000000000,"state":"active","ping":44},{"user_id":281,"name":"shaun0201","steam_id":76561198277115258,"connected_time":222000000000,"state":"active","ping":95},{"user_id":254,"name":"Broadsword","steam_id":76561198011160411,"connected_time":3204000000000,"state":"active","ping":66},{"user_id":268,"name":"[txc] garf","steam_id":76561198083078030,"connected_time":2146000000000,"state":"active","ping":50},{"user_id":251,"name":"Crystron","steam_id":76561198880437428,"connected_time":3819000000000,"state":"active","ping":85},{"user_id":260,"name":"(no monitor) ayylien","steam_id":76561198042127970,"connected_time":3107000000000,"state":"active","ping":60},{"user_id":282,"name":"Tony","steam_id":76561198040602075,"connected_time":222000000000,"state":"active","ping":98}]},{"server_id":104,"name":"Uncletopia | Atlanta | 2 | All Maps","name_short":"atl-2","host":"atl-1.us.uncletopia.com","port":27025,"enabled":true,"region":"us-east","cc":"us","latitude":33.753746,"longitude":-84.38633,"reserved":0,"last_update":"0001-01-01T00:00:00Z","name_a2s":"Uncletopia | Atlanta | 2 | All Maps","protocol":17,"map":"pl_pier","folder":"tf","game":"Team Fortress","app_id":440,"player_count":24,"max_players":24,"Bots":0,"server_type":"Dedicated","server_os":"Linux","password":true,"vac":true,"version":"7882260","steam_id":85568392924469983,"keywords":["nocrits","nodmgspread","payload","uncletopia"],"game_id":440,"stv_port":27026,"stv_name":"Uncletopia | Atlanta | 2 | All Maps | STV","players":[{"user_id":447,"name":"KennytheHedgehog","steam_id":76561198094607721,"connected_time":1244000000000,"state":"active","ping":70},{"user_id":388,"name":"Notation","steam_id":76561198119509319,"connected_time":7087000000000,"state":"active","ping":45},{"user_id":418,"name":"Batsy","steam_id":76561198044767185,"connected_time":4689000000000,"state":"active","ping":46},{"user_id":461,"name":"ƒ†1 ‚ô¶ Synth","steam_id":76561198058660228,"connected_time":510000000000,"state":"active","ping":39},{"user_id":465,"name":"Axities","steam_id":76561198278008225,"connected_time":259000000000,"state":"active","ping":51},{"user_id":450,"name":"frizzle fried","steam_id":76561198062991744,"connected_time":1136000000000,"state":"active","ping":61},{"user_id":462,"name":"Maverick","steam_id":76561198322829814,"connected_time":507000000000,"state":"active","ping":78},{"user_id":463,"name":"Mr. Sun","steam_id":76561198081338822,"connected_time":354000000000,"state":"active","ping":34},{"user_id":454,"name":"Captain Underbelly","steam_id":76561198811270935,"connected_time":898000000000,"state":"active","ping":133},{"user_id":424,"name":"nothing burger eater","steam_id":76561198046201690,"connected_time":4491000000000,"state":"active","ping":150},{"user_id":402,"name":"Obelisk","steam_id":76561198049416866,"connected_time":5745000000000,"state":"active","ping":55},{"user_id":456,"name":"King Col","steam_id":76561198033384990,"connected_time":880000000000,"state":"active","ping":57},{"user_id":445,"name":"EskiM0JOJ0","steam_id":76561199130877402,"connected_time":1617000000000,"state":"active","ping":74},{"user_id":452,"name":"^_^","steam_id":76561198971354161,"connected_time":980000000000,"state":"active","ping":56},{"user_id":433,"name":"Wallet","steam_id":76561198081067377,"connected_time":3127000000000,"state":"active","ping":61},{"user_id":466,"name":"Mammik","steam_id":76561198062790171,"connected_time":88000000000,"state":"active","ping":84},{"user_id":356,"name":"ThatGamingKiwi","steam_id":76561199170522237,"connected_time":8379000000000,"state":"active","ping":94},{"user_id":460,"name":"Oopsie Daisy ‚ùã","steam_id":76561198042144492,"connected_time":634000000000,"state":"active","ping":58},{"user_id":457,"name":"amaz","steam_id":76561198386233160,"connected_time":825000000000,"state":"active","ping":85},{"user_id":449,"name":"Cahootles","steam_id":76561198056407485,"connected_time":1164000000000,"state":"active","ping":71},{"user_id":393,"name":"Stakie","steam_id":76561198401556657,"connected_time":6658000000000,"state":"active","ping":165},{"user_id":412,"name":"tubby","steam_id":76561198174982661,"connected_time":4980000000000,"state":"active","ping":70},{"user_id":434,"name":"A Can of Arizona Green Tea","steam_id":76561198062481133,"connected_time":2934000000000,"state":"active","ping":96},{"user_id":430,"name":"rgb keyboard","steam_id":76561198814096380,"connected_time":3561000000000,"state":"active","ping":77}]},{"server_id":400,"name":"Uncletopia | Atlanta | 3 | Community","name_short":"atl-3","host":"atl-1.us.uncletopia.com","port":27035,"enabled":true,"region":"us-east","cc":"us","latitude":33.753746,"longitude":-84.38633,"reserved":0,"last_update":"0001-01-01T00:00:00Z","name_a2s":"Uncletopia | Atlanta | 3 | Community","protocol":17,"map":"workshop/cp_propaganda_b18.ugc1603743849","folder":"tf","game":"Team Fortress","app_id":440,"player_count":0,"max_players":24,"Bots":0,"server_type":"Dedicated","server_os":"Linux","password":true,"vac":true,"version":"7882260","steam_id":85568392924515187,"keywords":["cp","nocrits","nodmgspread","uncletopia"],"game_id":440,"stv_port":27036,"stv_name":"Uncletopia | Atlanta | 3 | Community | STV","players":null},{"server_id":401,"name":"Uncletopia | Atlanta | 4 | No Payload","name_short":"atl-4","host":"atl-1.us.uncletopia.com","port":27045,"enabled":true,"region":"us-east","cc":"us","latitude":33.753746,"longitude":-84.38633,"reserved":0,"last_update":"0001-01-01T00:00:00Z","name_a2s":"","protocol":0,"map":"","folder":"","game":"","app_id":0,"player_count":0,"max_players":0,"Bots":0,"server_type":"","server_os":"","password":false,"vac":false,"version":"","steam_id":0,"keywords":null,"game_id":0,"stv_port":0,"stv_name":"","players":null},{"server_id":2,"name":"Uncletopia | Chicago | 1 | All Maps","name_short":"chi-1","host":"chi-1.us.uncletopia.com","port":27015,"enabled":true,"region":"us-central","cc":"us","latitude":41.881832,"longitude":-87.62318,"reserved":0,"last_update":"0001-01-01T00:00:00Z","name_a2s":"Uncletopia | Chicago | 1 | All Maps","protocol":17,"map":"pl_goldrush","folder":"tf","game":"Team Fortress","app_id":440,"player_count":24,"max_players":24,"Bots":0,"server_type":"Dedicated","server_os":"Linux","password":true,"vac":true,"version":"7882260","steam_id":85568392924469984,"keywords":["nocrits","nodmgspread","payload","uncletopia"],"game_id":440,"stv_port":27016,"stv_name":"Uncletopia | Chicago | 1 | All Maps | STV","players":[{"user_id":295,"name":"R.Y.","steam_id":76561199384459715,"connected_time":4272000000000,"state":"active","ping":101},{"user_id":275,"name":"Antifa Alligator","steam_id":76561197988170816,"connected_time":5339000000000,"state":"active","ping":56},{"user_id":333,"name":"Rein","steam_id":76561198300340427,"connected_time":235000000000,"state":"active","ping":63},{"user_id":309,"name":"Tito","steam_id":76561198041702529,"connected_time":2776000000000,"state":"active","ping":82},{"user_id":330,"name":"Pop","steam_id":76561199012562851,"connected_time":270000000000,"state":"active","ping":74},{"user_id":277,"name":"cringe","steam_id":76561198104086771,"connected_time":5306000000000,"state":"active","ping":102},{"user_id":331,"name":"BigNugs","steam_id":76561198056402610,"connected_time":244000000000,"state":"active","ping":67},{"user_id":287,"name":"kermitcreeper(ZAZA)","steam_id":76561199222829972,"connected_time":4606000000000,"state":"active","ping":52},{"user_id":252,"name":"richard clock","steam_id":76561198048455671,"connected_time":7360000000000,"state":"active","ping":56},{"user_id":338,"name":"stungoperation","steam_id":76561199162409918,"connected_time":57000000000,"state":"active","ping":100},{"user_id":312,"name":"c64guy","steam_id":76561198023022744,"connected_time":2331000000000,"state":"active","ping":61},{"user_id":315,"name":"nines","steam_id":76561198078992548,"connected_time":1864000000000,"state":"active","ping":75},{"user_id":323,"name":"A Rhino with Coronavirus","steam_id":76561197999451366,"connected_time":932000000000,"state":"active","ping":85},{"user_id":328,"name":"Wardin","steam_id":76561198096881855,"connected_time":444000000000,"state":"active","ping":68},{"user_id":200,"name":"vv","steam_id":76561198134813102,"connected_time":12167000000000,"state":"active","ping":54},{"user_id":324,"name":"Victor Skull","steam_id":76561198352212864,"connected_time":895000000000,"state":"active","ping":60},{"user_id":329,"name":"Wild_Rumpus","steam_id":76561198066393719,"connected_time":338000000000,"state":"active","ping":73},{"user_id":311,"name":"AviiCream ‚ô°","steam_id":76561199186721860,"connected_time":2489000000000,"state":"active","ping":49},{"user_id":335,"name":"Quark","steam_id":76561198328155605,"connected_time":155000000000,"state":"active","ping":53},{"user_id":337,"name":"Slippin' Jimmy","steam_id":76561198875469297,"connected_time":82000000000,"state":"active","ping":61},{"user_id":293,"name":"Schmingus","steam_id":76561199476148332,"connected_time":4389000000000,"state":"active","ping":116},{"user_id":336,"name":"kshowtime","steam_id":76561198196769297,"connected_time":131000000000,"state":"active","ping":62},{"user_id":320,"name":"LVL 4 Dispenser Gaming","steam_id":76561198044244547,"connected_time":1653000000000,"state":"active","ping":73},{"user_id":294,"name":"[UHS] K24A4 2.4","steam_id":76561199072970627,"connected_time":4372000000000,"state":"active","ping":47}]},{"server_id":106,"name":"Uncletopia | Chicago | 2 | All Maps","name_short":"chi-2","host":"chi-1.us.uncletopia.com","port":27025,"enabled":true,"region":"us-central","cc":"us","latitude":41.881832,"longitude":-87.62318,"reserved":0,"last_update":"0001-01-01T00:00:00Z","name_a2s":"Uncletopia | Chicago | 2 | All Maps","protocol":17,"map":"pl_borneo","folder":"tf","game":"Team Fortress","app_id":440,"player_count":24,"max_players":24,"Bots":0,"server_type":"Dedicated","server_os":"Linux","password":true,"vac":true,"version":"7882260","steam_id":85568392924469985,"keywords":["nocrits","nodmgspread","payload","uncletopia"],"game_id":440,"stv_port":27026,"stv_name":"Uncletopia | Chicago | 2 | All Maps | STV","players":[{"user_id":127,"name":"gun spy (real)","steam_id":76561198057374871,"connected_time":404000000000,"state":"active","ping":61},{"user_id":100,"name":"SCraig64","steam_id":76561198171251965,"connected_time":2247000000000,"state":"active","ping":70},{"user_id":129,"name":"Jho-oh","steam_id":76561198062473436,"connected_time":154000000000,"state":"active","ping":72},{"user_id":120,"name":"Mega","steam_id":76561198121258379,"connected_time":1448000000000,"state":"active","ping":70},{"user_id":117,"name":"Jak(i)","steam_id":76561198076823144,"connected_time":1473000000000,"state":"active","ping":61},{"user_id":125,"name":"Rec","steam_id":76561198022813906,"connected_time":484000000000,"state":"active","ping":50},{"user_id":35,"name":"Get Beaned","steam_id":76561198391590820,"connected_time":6042000000000,"state":"active","ping":109},{"user_id":112,"name":"Tony Pajamas","steam_id":76561198102299438,"connected_time":1573000000000,"state":"active","ping":61},{"user_id":104,"name":"goooot","steam_id":76561198155591052,"connected_time":2213000000000,"state":"active","ping":80},{"user_id":70,"name":"Rustyorion","steam_id":76561198439186347,"connected_time":3669000000000,"state":"active","ping":100},{"user_id":107,"name":"Soupman_Official","steam_id":76561198314308732,"connected_time":2035000000000,"state":"active","ping":83},{"user_id":115,"name":"Cutie","steam_id":76561198126686695,"connected_time":1511000000000,"state":"active","ping":67},{"user_id":118,"name":"MoldyCoffee936","steam_id":76561198099061153,"connected_time":1467000000000,"state":"active","ping":101},{"user_id":113,"name":"ChaoticSony","steam_id":76561198288624642,"connected_time":1552000000000,"state":"active","ping":73},{"user_id":94,"name":"VALENCE","steam_id":76561198118492031,"connected_time":2353000000000,"state":"active","ping":84},{"user_id":121,"name":"quint","steam_id":76561198046797995,"connected_time":1444000000000,"state":"active","ping":57},{"user_id":56,"name":"Mburesh","steam_id":76561198137460717,"connected_time":4644000000000,"state":"active","ping":89},{"user_id":106,"name":"The King","steam_id":76561198117344758,"connected_time":2115000000000,"state":"active","ping":95},{"user_id":89,"name":"3-13","steam_id":76561198063929021,"connected_time":2655000000000,"state":"active","ping":75},{"user_id":99,"name":"remonjules","steam_id":76561198070547748,"connected_time":2298000000000,"state":"active","ping":68},{"user_id":110,"name":"Splader79","steam_id":76561198112495101,"connected_time":2001000000000,"state":"active","ping":65},{"user_id":122,"name":"AYAYA!!!","steam_id":76561198992102180,"connected_time":1419000000000,"state":"active","ping":45},{"user_id":123,"name":"Chezaus","steam_id":76561198317397837,"connected_time":1141000000000,"state":"active","ping":82},{"user_id":126,"name":"WilsonWeave","steam_id":76561198287998551,"connected_time":484000000000,"state":"active","ping":56}]},{"server_id":402,"name":"Uncletopia | Chicago | 3 | All Maps","name_short":"chi-3","host":"chi-1.us.uncletopia.com","port":27035,"enabled":true,"region":"us-central","cc":"us","latitude":41.881832,"longitude":-87.62318,"reserved":0,"last_update":"0001-01-01T00:00:00Z","name_a2s":"Uncletopia | Chicago | 3 | All Maps","protocol":17,"map":"pl_borneo","folder":"tf","game":"Team Fortress","app_id":440,"player_count":0,"max_players":24,"Bots":0,"server_type":"Dedicated","server_os":"Linux","password":true,"vac":true,"version":"7882260","steam_id":85568392924515191,"keywords":["nocrits","nodmgspread","payload","uncletopia"],"game_id":440,"stv_port":27036,"stv_name":"Uncletopia | Chicago | 3 | All Maps | STV","players":null},{"server_id":403,"name":"Uncletopia | Chicago | 4 | All Maps","name_short":"chi-4","host":"chi-1.us.uncletopia.com","port":27045,"enabled":true,"region":"us-central","cc":"us","latitude":41.881832,"longitude":-87.62318,"reserved":0,"last_update":"0001-01-01T00:00:00Z","name_a2s":"Uncletopia | Chicago | 4 | All Maps","protocol":17,"map":"koth_cascade","folder":"tf","game":"Team Fortress","app_id":440,"player_count":0,"max_players":24,"Bots":0,"server_type":"Dedicated","server_os":"Linux","password":true,"vac":true,"version":"7882260","steam_id":85568392924515193,"keywords":["cp","nocrits","nodmgspread","uncletopia"],"game_id":440,"stv_port":27046,"stv_name":"Uncletopia | Chicago | 4 | All Maps | STV","players":null},{"server_id":36,"name":"Uncletopia | Chicago | 5 | All Maps","name_short":"chi-5","host":"chi-2.us.uncletopia.com","port":27015,"enabled":true,"region":"us-central","cc":"us","latitude":41.881832,"longitude":-87.62318,"reserved":0,"last_update":"0001-01-01T00:00:00Z","name_a2s":"Uncletopia | Chicago | 5 | All Maps","protocol":17,"map":"pl_snowycoast","folder":"tf","game":"Team Fortress","app_id":440,"player_count":9,"max_players":24,"Bots":0,"server_type":"Dedicated","server_os":"Linux","password":true,"vac":true,"version":"7882260","steam_id":85568392924866362,"keywords":["nocrits","nodmgspread","payload","uncletopia"],"game_id":440,"stv_port":27016,"stv_name":"Uncletopia | Chicago | 5 | All Maps | STV","players":[{"user_id":8,"name":"mothpuke","steam_id":76561199083669739,"connected_time":450000000000,"state":"active","ping":68},{"user_id":9,"name":"Momazos Jos√©","steam_id":76561198259352185,"connected_time":407000000000,"state":"active","ping":46},{"user_id":10,"name":"Spimtmot733","steam_id":76561199029189825,"connected_time":372000000000,"state":"active","ping":75},{"user_id":11,"name":"scranhop","steam_id":76561198870797767,"connected_time":292000000000,"state":"active","ping":74},{"user_id":12,"name":"mepng","steam_id":76561199018758598,"connected_time":239000000000,"state":"active","ping":75},{"user_id":13,"name":"The Ghost of Jay Leno","steam_id":76561198058938897,"connected_time":131000000000,"state":"active","ping":66},{"user_id":14,"name":"Dask","steam_id":76561198043385839,"connected_time":81000000000,"state":"active","ping":32},{"user_id":15,"name":"Extinct","steam_id":76561199013696367,"connected_time":45000000000,"state":"active","ping":66},{"user_id":16,"name":"[WRST] One Winged Kong","steam_id":76561199110430036,"connected_time":7000000000,"state":"spawning","ping":74}]},{"server_id":37,"name":"Uncletopia | Chicago | 6 | All Maps","name_short":"chi-6","host":"chi-2.us.uncletopia.com","port":27025,"enabled":true,"region":"us-central","cc":"us","latitude":41.881832,"longitude":-87.62318,"reserved":0,"last_update":"0001-01-01T00:00:00Z","name_a2s":"Uncletopia | Chicago | 6 | All Maps","protocol":17,"map":"koth_cascade","folder":"tf","game":"Team Fortress","app_id":440,"player_count":0,"max_players":24,"Bots":0,"server_type":"Dedicated","server_os":"Linux","password":true,"vac":true,"version":"7882260","steam_id":85568392924866363,"keywords":["cp","nocrits","nodmgspread","uncletopia"],"game_id":440,"stv_port":27026,"stv_name":"Uncletopia | Chicago | 6 | All Maps | STV","players":null},{"server_id":38,"name":"Uncletopia | Chicago | 7 | Stopwatch Beta","name_short":"chi-7","host":"chi-2.us.uncletopia.com","port":27035,"enabled":true,"region":"us-central","cc":"us","latitude":41.881832,"longitude":-87.62318,"reserved":0,"last_update":"0001-01-01T00:00:00Z","name_a2s":"Uncletopia | Chicago | 7 | Stopwatch Beta","protocol":17,"map":"workshop/cp_process_f12.ugc2302948105","folder":"tf","game":"Team Fortress","app_id":440,"player_count":0,"max_players":24,"Bots":0,"server_type":"Dedicated","server_os":"Linux","password":true,"vac":true,"version":"7882260","steam_id":85568392924866364,"keywords":["cp","nocrits","nodmgspread","uncletopia"],"game_id":440,"stv_port":27036,"stv_name":"Uncletopia | Chicago | 7 | Stopwatch Beta | STV","players":null},{"server_id":39,"name":"Uncletopia | Chicago | 8 | Community","name_short":"chi-8","host":"chi-2.us.uncletopia.com","port":27045,"enabled":true,"region":"us-central","cc":"us","latitude":41.881832,"longitude":-87.62318,"reserved":0,"last_update":"0001-01-01T00:00:00Z","name_a2s":"Uncletopia | Chicago | 8 | Community","protocol":17,"map":"workshop/cp_kalinka_rc6a.ugc1272700588","folder":"tf","game":"Team Fortress","app_id":440,"player_count":0,"max_players":24,"Bots":0,"server_type":"Dedicated","server_os":"Linux","password":true,"vac":true,"version":"7882260","steam_id":85568392924866365,"keywords":["cp","nocrits","nodmgspread","uncletopia"],"game_id":440,"stv_port":27046,"stv_name":"Uncletopia | Chicago | 8 | Community | STV","players":null},{"server_id":8,"name":"Uncletopia | Dallas | 1 | All Maps","name_short":"dal-1","host":"dal-1.us.uncletopia.com","port":27015,"enabled":true,"region":"us-central","cc":"us","latitude":32.779167,"longitude":-96.80889,"reserved":0,"last_update":"0001-01-01T00:00:00Z","name_a2s":"Uncletopia | Dallas | 1 | All Maps","protocol":17,"map":"pl_frontier_final","folder":"tf","game":"Team Fortress","app_id":440,"player_count":24,"max_players":24,"Bots":0,"server_type":"Dedicated","server_os":"Linux","password":true,"vac":true,"version":"7882260","steam_id":85568392924469986,"keywords":["nocrits","nodmgspread","payload","uncletopia"],"game_id":440,"stv_port":27016,"stv_name":"Uncletopia | Dallas | 1 | All Maps | STV","players":[{"user_id":170,"name":"Shamrock Shake Oct.10.2020 @8pm","steam_id":76561198833313201,"connected_time":2598000000000,"state":"active","ping":184},{"user_id":207,"name":"SneekiCheekiQbone","steam_id":76561198045077980,"connected_time":579000000000,"state":"active","ping":74},{"user_id":157,"name":"epicsauce guy 9491","steam_id":76561198414336279,"connected_time":3726000000000,"state":"active","ping":60},{"user_id":214,"name":"Tyler\u0026Fingers","steam_id":76561198085154485,"connected_time":151000000000,"state":"active","ping":91},{"user_id":211,"name":"üå∏MelWormüå∏","steam_id":76561198084145814,"connected_time":454000000000,"state":"active","ping":63},{"user_id":155,"name":"rawrie","steam_id":76561198005371178,"connected_time":3781000000000,"state":"active","ping":71},{"user_id":194,"name":"Smittywerbenjager-manjenson","steam_id":76561198067060742,"connected_time":1985000000000,"state":"active","ping":55},{"user_id":206,"name":"RileyNiko","steam_id":76561198162093639,"connected_time":587000000000,"state":"active","ping":113},{"user_id":203,"name":"Sly Marbo","steam_id":76561198056476987,"connected_time":1175000000000,"state":"active","ping":73},{"user_id":184,"name":"Icarus the legend","steam_id":76561199013250091,"connected_time":2203000000000,"state":"active","ping":43},{"user_id":208,"name":"STENDO_CLIP","steam_id":76561198059570167,"connected_time":578000000000,"state":"active","ping":138},{"user_id":164,"name":"HighJingo","steam_id":76561198846814390,"connected_time":3588000000000,"state":"active","ping":50},{"user_id":149,"name":"Jacob Hornberger 2016","steam_id":76561198204549723,"connected_time":4162000000000,"state":"active","ping":141},{"user_id":173,"name":"Antwan","steam_id":76561198246200638,"connected_time":2535000000000,"state":"active","ping":45},{"user_id":199,"name":"Rukh","steam_id":76561197999361315,"connected_time":1930000000000,"state":"active","ping":100},{"user_id":200,"name":"portal2trollin","steam_id":76561198046869828,"connected_time":1930000000000,"state":"active","ping":76},{"user_id":202,"name":"mann","steam_id":76561199406261605,"connected_time":1759000000000,"state":"active","ping":47},{"user_id":209,"name":"fatnuts87","steam_id":76561198119689085,"connected_time":575000000000,"state":"active","ping":70},{"user_id":204,"name":"Sticky Nuts","steam_id":76561198259797939,"connected_time":765000000000,"state":"active","ping":92},{"user_id":210,"name":"Cedric","steam_id":76561198072090580,"connected_time":555000000000,"state":"active","ping":97},{"user_id":193,"name":"DragonHunter994","steam_id":76561199076203907,"connected_time":1999000000000,"state":"active","ping":66},{"user_id":167,"name":"Sir Coreden","steam_id":76561198008430589,"connected_time":3512000000000,"state":"active","ping":89},{"user_id":215,"name":"Fastest Spycrab in The West","steam_id":76561198345326844,"connected_time":98000000000,"state":"active","ping":67},{"user_id":179,"name":"VerseG","steam_id":76561198059246919,"connected_time":2348000000000,"state":"active","ping":91}]},{"server_id":108,"name":"Uncletopia | Dallas | 2 | All Maps","name_short":"dal-2","host":"dal-1.us.uncletopia.com","port":27025,"enabled":true,"region":"us-central","cc":"us","latitude":32.779167,"longitude":-96.80889,"reserved":0,"last_update":"0001-01-01T00:00:00Z","name_a2s":"Uncletopia | Dallas | 2 | All Maps","protocol":17,"map":"cp_dustbowl","folder":"tf","game":"Team Fortress","app_id":440,"player_count":24,"max_players":24,"Bots":0,"server_type":"Dedicated","server_os":"Linux","password":true,"vac":true,"version":"7882260","steam_id":85568392924469988,"keywords":["cp","nocrits","nodmgspread","uncletopia"],"game_id":440,"stv_port":27026,"stv_name":"Uncletopia | Dallas | 2 | All Maps | STV","players":[{"user_id":78,"name":"hempa!","steam_id":76561198159477619,"connected_time":1767000000000,"state":"active","ping":61},{"user_id":11,"name":"god gamer","steam_id":76561198168149434,"connected_time":6824000000000,"state":"active","ping":112},{"user_id":67,"name":"bachphong760","steam_id":76561199433780443,"connected_time":2741000000000,"state":"active","ping":112},{"user_id":70,"name":"Sea raider","steam_id":76561198123982355,"connected_time":2246000000000,"state":"active","ping":80},{"user_id":68,"name":"Gaiduk","steam_id":76561198112323877,"connected_time":2256000000000,"state":"active","ping":112},{"user_id":72,"name":"big shmoka","steam_id":76561198050768962,"connected_time":2236000000000,"state":"active","ping":81},{"user_id":29,"name":"milk master","steam_id":76561198127851014,"connected_time":4830000000000,"state":"active","ping":48},{"user_id":81,"name":"Humon Player","steam_id":76561198013593178,"connected_time":1271000000000,"state":"active","ping":60},{"user_id":80,"name":"Pombley","steam_id":76561198141227263,"connected_time":1546000000000,"state":"active","ping":57},{"user_id":52,"name":"KingKata","steam_id":76561198289610011,"connected_time":3748000000000,"state":"active","ping":126},{"user_id":85,"name":"mkl","steam_id":76561197986401685,"connected_time":152000000000,"state":"active","ping":59},{"user_id":71,"name":"2JZ_","steam_id":76561198064027289,"connected_time":2246000000000,"state":"active","ping":69},{"user_id":84,"name":"Boomer Gaming","steam_id":76561198037803087,"connected_time":439000000000,"state":"active","ping":63},{"user_id":69,"name":"A BIG YUMMY PIZZA","steam_id":76561198169315998,"connected_time":2256000000000,"state":"active","ping":90},{"user_id":79,"name":"SleepyJackdaw","steam_id":76561198053520098,"connected_time":1766000000000,"state":"active","ping":69},{"user_id":88,"name":"BIG HOG","steam_id":76561198079923652,"connected_time":21000000000,"state":"active","ping":60},{"user_id":46,"name":"rice","steam_id":76561198119326733,"connected_time":3933000000000,"state":"active","ping":82},{"user_id":49,"name":"Crabby Patty","steam_id":76561198071150936,"connected_time":3870000000000,"state":"active","ping":71},{"user_id":53,"name":"Big Jon","steam_id":76561198402285099,"connected_time":3730000000000,"state":"active","ping":101},{"user_id":74,"name":"Yoru","steam_id":76561198119698950,"connected_time":2178000000000,"state":"active","ping":115},{"user_id":56,"name":"Auggy","steam_id":76561198041816037,"connected_time":3670000000000,"state":"active","ping":107},{"user_id":75,"name":"Soyuna","steam_id":76561199198717725,"connected_time":2100000000000,"state":"active","ping":82},{"user_id":58,"name":"Deltaco","steam_id":76561198094572694,"connected_time":3651000000000,"state":"active","ping":122},{"user_id":59,"name":"lycoris","steam_id":76561199113965768,"connected_time":3615000000000,"state":"active","ping":86}]},{"server_id":5,"name":"Uncletopia | Frankfurt | 1 | All Maps","name_short":"frk-1","host":"frk-1.de.uncletopia.com","port":27015,"enabled":true,"region":"eu","cc":"de","latitude":50.110924,"longitude":8.682127,"reserved":0,"last_update":"0001-01-01T00:00:00Z","name_a2s":"Uncletopia | Frankfurt | 1 | All Maps","protocol":17,"map":"pl_barnblitz","folder":"tf","game":"Team Fortress","app_id":440,"player_count":24,"max_players":24,"Bots":0,"server_type":"Dedicated","server_os":"Linux","password":true,"vac":true,"version":"7882260","steam_id":85568392924469989,"keywords":["nocrits","nodmgspread","payload","uncletopia"],"game_id":440,"stv_port":27016,"stv_name":"Uncletopia | Frankfurt | 1 | All Maps | STV","players":[{"user_id":397,"name":"oscar","steam_id":76561198079636127,"connected_time":6383000000000,"state":"active","ping":82},{"user_id":372,"name":"SpaceNut","steam_id":76561198059198302,"connected_time":7759000000000,"state":"active","ping":66},{"user_id":400,"name":"Rainbow Sapling","steam_id":76561198127682941,"connected_time":5912000000000,"state":"active","ping":83},{"user_id":454,"name":"Kildon","steam_id":76561198134661558,"connected_time":628000000000,"state":"active","ping":89},{"user_id":402,"name":"Lugialf","steam_id":76561198069050794,"connected_time":5690000000000,"state":"active","ping":80},{"user_id":433,"name":"Luuk","steam_id":76561198088266026,"connected_time":3661000000000,"state":"active","ping":53},{"user_id":422,"name":"Sh1n","steam_id":76561199012155377,"connected_time":4259000000000,"state":"active","ping":45},{"user_id":453,"name":"Tonne","steam_id":76561197970856766,"connected_time":671000000000,"state":"active","ping":57},{"user_id":442,"name":"Plants vs Zombies","steam_id":76561198354960567,"connected_time":2789000000000,"state":"active","ping":52},{"user_id":446,"name":"BrotherPotato","steam_id":76561198049948120,"connected_time":2215000000000,"state":"active","ping":75},{"user_id":427,"name":"Boki","steam_id":76561198044553351,"connected_time":3773000000000,"state":"active","ping":76},{"user_id":445,"name":"Mr.O #deletesniper","steam_id":76561198039567498,"connected_time":2504000000000,"state":"active","ping":64},{"user_id":388,"name":"PiN hEaD","steam_id":76561198834713682,"connected_time":7039000000000,"state":"active","ping":78},{"user_id":460,"name":"Rosguard","steam_id":76561198030984263,"connected_time":518000000000,"state":"active","ping":58},{"user_id":452,"name":"Armix","steam_id":76561198079373642,"connected_time":783000000000,"state":"active","ping":66},{"user_id":447,"name":"Petight","steam_id":76561197999438798,"connected_time":2021000000000,"state":"active","ping":57},{"user_id":461,"name":"Ketich","steam_id":76561198021772703,"connected_time":365000000000,"state":"active","ping":71},{"user_id":458,"name":"Galzra87","steam_id":76561198063414443,"connected_time":583000000000,"state":"active","ping":72},{"user_id":448,"name":"Pablo","steam_id":76561198119600486,"connected_time":1750000000000,"state":"active","ping":73},{"user_id":429,"name":"·É¶_JeffyVR_·É¶","steam_id":76561198932558520,"connected_time":3755000000000,"state":"active","ping":66},{"user_id":459,"name":"Majima Gaming HD","steam_id":76561198365750503,"connected_time":578000000000,"state":"active","ping":50},{"user_id":439,"name":"Better Call Medic","steam_id":76561198939711234,"connected_time":2809000000000,"state":"active","ping":118},{"user_id":440,"name":"Bobo","steam_id":76561198052308399,"connected_time":2808000000000,"state":"active","ping":57}]},{"server_id":110,"name":"Uncletopia | Frankfurt | 2 | All Maps","name_short":"frk-2","host":"frk-1.de.uncletopia.com","port":27025,"enabled":true,"region":"eu","cc":"de","latitude":50.110924,"longitude":8.682127,"reserved":0,"last_update":"0001-01-01T00:00:00Z","name_a2s":"Uncletopia | Frankfurt | 2 | All Maps","protocol":17,"map":"pl_swiftwater_final1","folder":"tf","game":"Team Fortress","app_id":440,"player_count":24,"max_players":24,"Bots":0,"server_type":"Dedicated","server_os":"Linux","password":true,"vac":true,"version":"7882260","steam_id":85568392924469990,"keywords":["nocrits","nodmgspread","payload","uncletopia"],"game_id":440,"stv_port":27026,"stv_name":"Uncletopia | Frankfurt | 2 | All Maps | STV","players":[{"user_id":535,"name":"Klifton","steam_id":76561198803743443,"connected_time":6371000000000,"state":"active","ping":71},{"user_id":632,"name":"ÀêmissingÀê","steam_id":76561198080541279,"connected_time":7000000000,"state":"spawning","ping":368},{"user_id":624,"name":"Lukeyboi","steam_id":76561197966556337,"connected_time":717000000000,"state":"active","ping":155},{"user_id":628,"name":"Yuzu","steam_id":76561198121694613,"connected_time":388000000000,"state":"active","ping":58},{"user_id":611,"name":"Flint","steam_id":76561197995920776,"connected_time":945000000000,"state":"active","ping":42},{"user_id":631,"name":"Haha?","steam_id":76561198056882245,"connected_time":123000000000,"state":"active","ping":54},{"user_id":630,"name":"syms","steam_id":76561198066679812,"connected_time":164000000000,"state":"active","ping":70},{"user_id":629,"name":"Cotton Eye Joe","steam_id":76561198080594207,"connected_time":248000000000,"state":"active","ping":69},{"user_id":614,"name":"Burger King Dante","steam_id":76561198390314734,"connected_time":850000000000,"state":"active","ping":67},{"user_id":615,"name":"Per√§miehen√§","steam_id":76561197968945306,"connected_time":827000000000,"state":"active","ping":70},{"user_id":601,"name":"Daperlin","steam_id":76561198091299113,"connected_time":1877000000000,"state":"active","ping":169},{"user_id":603,"name":"Der Herr Doktor","steam_id":76561198119476089,"connected_time":1450000000000,"state":"active","ping":52},{"user_id":618,"name":"ohio.lottery.contestant4004","steam_id":76561198051852765,"connected_time":770000000000,"state":"active","ping":60},{"user_id":619,"name":"hananamanna","steam_id":76561198006570285,"connected_time":768000000000,"state":"active","ping":118},{"user_id":620,"name":"Miles","steam_id":76561198084891833,"connected_time":761000000000,"state":"active","ping":50},{"user_id":598,"name":"Slifer the Sky Dragon","steam_id":76561198062255803,"connected_time":2093000000000,"state":"active","ping":66},{"user_id":621,"name":"dotdotdot","steam_id":76561198057628751,"connected_time":759000000000,"state":"active","ping":60},{"user_id":627,"name":"Matteo Besho","steam_id":76561199159657855,"connected_time":407000000000,"state":"active","ping":71},{"user_id":623,"name":"Wacky","steam_id":76561199016522187,"connected_time":754000000000,"state":"active","ping":159},{"user_id":545,"name":"Sniper is poorly designed","steam_id":76561198357107806,"connected_time":6076000000000,"state":"active","ping":62},{"user_id":569,"name":"Ruvix","steam_id":76561198239689346,"connected_time":4376000000000,"state":"active","ping":75},{"user_id":626,"name":"Benzo Fury","steam_id":76561198025259336,"connected_time":443000000000,"state":"active","ping":59},{"user_id":596,"name":"WATANG!","steam_id":76561198040478926,"connected_time":2551000000000,"state":"active","ping":62},{"user_id":625,"name":"Furno","steam_id":76561197999723047,"connected_time":704000000000,"state":"active","ping":49}]},{"server_id":308,"name":"Uncletopia | Frankfurt | 3 | All Maps","name_short":"frk-3","host":"frk-1.de.uncletopia.com","port":27035,"enabled":true,"region":"eu","cc":"de","latitude":50.110924,"longitude":8.682127,"reserved":0,"last_update":"0001-01-01T00:00:00Z","name_a2s":"Uncletopia | Frankfurt | 3 | All Maps","protocol":17,"map":"cp_sunshine","folder":"tf","game":"Team Fortress","app_id":440,"player_count":24,"max_players":24,"Bots":0,"server_type":"Dedicated","server_os":"Linux","password":true,"vac":true,"version":"7882260","steam_id":85568392924504274,"keywords":["cp","nocrits","nodmgspread","uncletopia"],"game_id":440,"stv_port":27036,"stv_name":"Uncletopia | Frankfurt | 3 | All Maps | STV","players":[{"user_id":1005,"name":"Ramzus","steam_id":76561198012385070,"connected_time":2006000000000,"state":"active","ping":86},{"user_id":1000,"name":"Piteras","steam_id":76561198858532207,"connected_time":2301000000000,"state":"active","ping":71},{"user_id":982,"name":"Testicular torsion","steam_id":76561198119547399,"connected_time":4052000000000,"state":"active","ping":55},{"user_id":1012,"name":"\u003c  \u003e #savetf2","steam_id":76561199213338939,"connected_time":691000000000,"state":"active","ping":152},{"user_id":1013,"name":"mtdrewski gaming","steam_id":76561198033408919,"connected_time":651000000000,"state":"active","ping":39},{"user_id":1018,"name":"noodlehairronaldoprime","steam_id":76561199471954402,"connected_time":562000000000,"state":"active","ping":64},{"user_id":1020,"name":"Majami","steam_id":76561198054365738,"connected_time":509000000000,"state":"active","ping":73},{"user_id":1014,"name":"Pogmanson","steam_id":76561198919953445,"connected_time":636000000000,"state":"active","ping":57},{"user_id":1015,"name":"Fofenho","steam_id":76561198436817109,"connected_time":627000000000,"state":"active","ping":71},{"user_id":959,"name":"F.Fazbear","steam_id":76561198406606196,"connected_time":5246000000000,"state":"active","ping":84},{"user_id":995,"name":"Spectral Sloth","steam_id":76561198170083139,"connected_time":2928000000000,"state":"active","ping":84},{"user_id":1016,"name":"dimitrij_6ix_god","steam_id":76561199023275543,"connected_time":620000000000,"state":"active","ping":75},{"user_id":1017,"name":"Trebox78","steam_id":76561198071963357,"connected_time":586000000000,"state":"active","ping":84},{"user_id":1030,"name":"Smith","steam_id":76561197993946455,"connected_time":95000000000,"state":"active","ping":70},{"user_id":1031,"name":"Zinney","steam_id":76561198170997706,"connected_time":6000000000,"state":"spawning","ping":44},{"user_id":1027,"name":"Connie","steam_id":76561198068661013,"connected_time":384000000000,"state":"active","ping":164},{"user_id":1023,"name":"Lario","steam_id":76561199194109193,"connected_time":475000000000,"state":"active","ping":73},{"user_id":1028,"name":"ZePequenio","steam_id":76561197968506094,"connected_time":327000000000,"state":"active","ping":69},{"user_id":898,"name":"Charmedelf","steam_id":76561197993611881,"connected_time":9833000000000,"state":"active","ping":60},{"user_id":994,"name":"feed and seed","steam_id":76561199088046420,"connected_time":2992000000000,"state":"active","ping":57},{"user_id":1002,"name":"Rizziologist","steam_id":76561198089003514,"connected_time":2255000000000,"state":"active","ping":45},{"user_id":1029,"name":"Raulca25","steam_id":76561199068256964,"connected_time":253000000000,"state":"active","ping":79},{"user_id":971,"name":"boofing prozac","steam_id":76561198851157897,"connected_time":4756000000000,"state":"active","ping":74},{"user_id":1026,"name":"edgof","steam_id":76561198118939325,"connected_time":432000000000,"state":"active","ping":52}]},{"server_id":309,"name":"Uncletopia | Frankfurt | 4 | All Maps","name_short":"frk-4","host":"frk-1.de.uncletopia.com","port":27045,"enabled":true,"region":"eu","cc":"de","latitude":50.110924,"longitude":8.682127,"reserved":0,"last_update":"0001-01-01T00:00:00Z","name_a2s":"Uncletopia | Frankfurt | 4 | All Maps","protocol":17,"map":"pl_upward","folder":"tf","game":"Team Fortress","app_id":440,"player_count":24,"max_players":24,"Bots":0,"server_type":"Dedicated","server_os":"Linux","password":true,"vac":true,"version":"7882260","steam_id":85568392924504275,"keywords":["nocrits","nodmgspread","payload","uncletopia"],"game_id":440,"stv_port":27046,"stv_name":"Uncletopia | Frankfurt | 4 | All Maps | STV","players":[{"user_id":158,"name":"Û†Ä°Û†Ä°","steam_id":76561198290817537,"connected_time":1313000000000,"state":"active","ping":72},{"user_id":187,"name":"juni","steam_id":76561198036504214,"connected_time":180000000000,"state":"active","ping":55},{"user_id":186,"name":"Bambi","steam_id":76561198166972711,"connected_time":210000000000,"state":"active","ping":66},{"user_id":154,"name":"farrapo","steam_id":76561198031088039,"connected_time":1447000000000,"state":"active","ping":88},{"user_id":173,"name":"Skrbi‚ù§","steam_id":76561198393866042,"connected_time":682000000000,"state":"active","ping":76},{"user_id":167,"name":"Cosmetic brain","steam_id":76561198055936410,"connected_time":1111000000000,"state":"active","ping":89},{"user_id":181,"name":"lugi","steam_id":76561198121971994,"connected_time":440000000000,"state":"active","ping":81},{"user_id":185,"name":"Genuine","steam_id":76561197966295765,"connected_time":346000000000,"state":"active","ping":39},{"user_id":125,"name":"‚ôõ„Ç∏„Éß„Éº„Ç§‚ôõ","steam_id":76561198238984788,"connected_time":2822000000000,"state":"active","ping":60},{"user_id":141,"name":"ba-loo-loo","steam_id":76561198965894854,"connected_time":2194000000000,"state":"active","ping":70},{"user_id":143,"name":"NxTh23","steam_id":76561198796638527,"connected_time":2133000000000,"state":"active","ping":85},{"user_id":131,"name":"Kamanie","steam_id":76561198135448255,"connected_time":2651000000000,"state":"active","ping":52},{"user_id":172,"name":"Kenlaboss","steam_id":76561198022848412,"connected_time":715000000000,"state":"active","ping":67},{"user_id":134,"name":"zoinks!","steam_id":76561198068645362,"connected_time":2544000000000,"state":"active","ping":54},{"user_id":160,"name":"breedable","steam_id":76561198010300032,"connected_time":1304000000000,"state":"active","ping":73},{"user_id":171,"name":"Ë™∞„Åã„ÅåË¶ã„Å¶„ÅÑ„Çã","steam_id":76561198834913692,"connected_time":732000000000,"state":"active","ping":74},{"user_id":148,"name":"skill","steam_id":76561198106012909,"connected_time":1957000000000,"state":"active","ping":68},{"user_id":178,"name":"frikandel speciaal","steam_id":76561198137997056,"connected_time":598000000000,"state":"active","ping":60},{"user_id":162,"name":"isaku","steam_id":76561198092648865,"connected_time":1286000000000,"state":"active","ping":75},{"user_id":153,"name":"jerry (:","steam_id":76561198205668108,"connected_time":1623000000000,"state":"active","ping":47},{"user_id":176,"name":"Xi Jingping","steam_id":76561198000958139,"connected_time":642000000000,"state":"active","ping":72},{"user_id":164,"name":"OskiMoss","steam_id":76561198355224908,"connected_time":1285000000000,"state":"active","ping":74},{"user_id":179,"name":"Captain Scrumpe","steam_id":76561198032206577,"connected_time":597000000000,"state":"active","ping":82},{"user_id":166,"name":"Peep","steam_id":76561198132508552,"connected_time":1240000000000,"state":"active","ping":73}]},{"server_id":310,"name":"Uncletopia | Frankfurt | 5 | All Maps","name_short":"frk-5","host":"frk-1.de.uncletopia.com","port":27055,"enabled":true,"region":"eu","cc":"de","latitude":50.110924,"longitude":8.682127,"reserved":0,"last_update":"0001-01-01T00:00:00Z","name_a2s":"Uncletopia | Frankfurt | 5 | All Maps","protocol":17,"map":"pl_frontier_final","folder":"tf","game":"Team Fortress","app_id":440,"player_count":0,"max_players":24,"Bots":0,"server_type":"Dedicated","server_os":"Linux","password":true,"vac":true,"version":"7882260","steam_id":85568392924504277,"keywords":["nocrits","nodmgspread","payload","uncletopia"],"game_id":440,"stv_port":27056,"stv_name":"Uncletopia | Frankfurt | 5 | All Maps | STV","players":null},{"server_id":311,"name":"Uncletopia | Frankfurt | 6 | All Maps","name_short":"frk-6","host":"frk-1.de.uncletopia.com","port":27065,"enabled":true,"region":"eu","cc":"de","latitude":50.110924,"longitude":8.682127,"reserved":0,"last_update":"0001-01-01T00:00:00Z","name_a2s":"Uncletopia | Frankfurt | 6 | All Maps","protocol":17,"map":"koth_lakeside_final","folder":"tf","game":"Team Fortress","app_id":440,"player_count":17,"max_players":24,"Bots":0,"server_type":"Dedicated","server_os":"Linux","password":true,"vac":true,"version":"7882260","steam_id":85568392924504278,"keywords":["cp","nocrits","nodmgspread","uncletopia"],"game_id":440,"stv_port":27066,"stv_name":"Uncletopia | Frankfurt | 6 | All Maps | STV","players":[{"user_id":119,"name":"A Succulent Chinese Meal","steam_id":76561198069472440,"connected_time":3620000000000,"state":"active","ping":79},{"user_id":181,"name":"snorrbrod","steam_id":76561198142389396,"connected_time":254000000000,"state":"active","ping":65},{"user_id":173,"name":"—É–≤—ã–Ω—Å–∫","steam_id":76561198172046813,"connected_time":408000000000,"state":"active","ping":71},{"user_id":185,"name":"Summer ‚ô•","steam_id":76561198047723907,"connected_time":151000000000,"state":"active","ping":48},{"user_id":166,"name":"Rolloden","steam_id":76561198069414404,"connected_time":1675000000000,"state":"active","ping":53},{"user_id":182,"name":"Dawu","steam_id":76561198060418376,"connected_time":231000000000,"state":"active","ping":92},{"user_id":141,"name":"Cataleptic","steam_id":76561197997966949,"connected_time":3226000000000,"state":"active","ping":64},{"user_id":175,"name":"mumbler","steam_id":76561197970641239,"connected_time":393000000000,"state":"active","ping":50},{"user_id":177,"name":"Kamikrazy","steam_id":76561198044254918,"connected_time":353000000000,"state":"active","ping":69},{"user_id":179,"name":"mud","steam_id":76561198141497461,"connected_time":303000000000,"state":"active","ping":65},{"user_id":180,"name":"dum","steam_id":76561198053386482,"connected_time":295000000000,"state":"active","ping":156},{"user_id":79,"name":"KeTlEr","steam_id":76561198100957443,"connected_time":7770000000000,"state":"active","ping":72},{"user_id":183,"name":"TravIS","steam_id":76561198202115036,"connected_time":225000000000,"state":"active","ping":73},{"user_id":186,"name":"Iceeagle","steam_id":76561198056328858,"connected_time":142000000000,"state":"active","ping":57},{"user_id":188,"name":"minkirol","steam_id":76561198413595736,"connected_time":24000000000,"state":"spawning","ping":69},{"user_id":86,"name":"hlug2340","steam_id":76561198087970118,"connected_time":7137000000000,"state":"active","ping":68},{"user_id":154,"name":"meriones","steam_id":76561198034234373,"connected_time":2421000000000,"state":"active","ping":54}]},{"server_id":23,"name":"Uncletopia | Frankfurt | 7 | Stopwatch Beta","name_short":"frk-7","host":"frk-1.de.uncletopia.com","port":27075,"enabled":true,"region":"eu","cc":"de","latitude":50.110924,"longitude":8.682127,"reserved":0,"last_update":"0001-01-01T00:00:00Z","name_a2s":"Uncletopia | Frankfurt | 7 | Stopwatch Beta","protocol":17,"map":"cp_dustbowl","folder":"tf","game":"Team Fortress","app_id":440,"player_count":0,"max_players":24,"Bots":0,"server_type":"Dedicated","server_os":"Linux","password":true,"vac":true,"version":"7882260","steam_id":85568392924742827,"keywords":["cp","nocrits","nodmgspread","uncletopia"],"game_id":440,"stv_port":27076,"stv_name":"Uncletopia | Frankfurt | 7 | Stopwatch Beta | STV","players":null},{"server_id":24,"name":"Uncletopia | Frankfurt | 8 | Community","name_short":"frk-8","host":"frk-1.de.uncletopia.com","port":27085,"enabled":true,"region":"eu","cc":"de","latitude":50.110924,"longitude":8.682127,"reserved":0,"last_update":"0001-01-01T00:00:00Z","name_a2s":"Uncletopia | Frankfurt | 8 | Community","protocol":17,"map":"koth_cascade","folder":"tf","game":"Team Fortress","app_id":440,"player_count":0,"max_players":24,"Bots":0,"server_type":"Dedicated","server_os":"Linux","password":true,"vac":true,"version":"7882260","steam_id":85568392924742828,"keywords":["cp","nocrits","nodmgspread","uncletopia"],"game_id":440,"stv_port":27086,"stv_name":"Uncletopia | Frankfurt | 8 | Community | STV","players":null},{"server_id":202,"name":"Uncletopia | Hong Kong | 1 | All Maps","name_short":"hgk-1","host":"hgk-1.hk.uncletopia.com","port":27015,"enabled":true,"region":"asia","cc":"hk","latitude":22.302711,"longitude":114.177216,"reserved":0,"last_update":"0001-01-01T00:00:00Z","name_a2s":"Uncletopia | Hong Kong | 1 | All Maps","protocol":17,"map":"koth_highpass","folder":"tf","game":"Team Fortress","app_id":440,"player_count":0,"max_players":24,"Bots":0,"server_type":"Dedicated","server_os":"Linux","password":true,"vac":true,"version":"7882260","steam_id":85568392924494504,"keywords":["cp","nocrits","nodmgspread","uncletopia"],"game_id":440,"stv_port":27016,"stv_name":"Uncletopia | Hong Kong | 1 | All Maps | STV","players":null},{"server_id":1,"name":"Uncletopia | Los Angeles | 1 | All Maps","name_short":"lax-1","host":"lax-1.us.uncletopia.com","port":27015,"enabled":true,"region":"us-west","cc":"us","latitude":33.94279,"longitude":-118.41004,"reserved":0,"last_update":"0001-01-01T00:00:00Z","name_a2s":"Uncletopia | Los Angeles | 1 | All Maps","protocol":17,"map":"pl_pier","folder":"tf","game":"Team Fortress","app_id":440,"player_count":4,"max_players":24,"Bots":0,"server_type":"Dedicated","server_os":"Linux","password":true,"vac":true,"version":"7882260","steam_id":85568392924469991,"keywords":["nocrits","nodmgspread","payload","uncletopia"],"game_id":440,"stv_port":27016,"stv_name":"Uncletopia | Los Angeles | 1 | All Maps | STV","players":[{"user_id":16,"name":"La Papa Sovietica","steam_id":76561199148380434,"connected_time":286000000000,"state":"active","ping":189},{"user_id":9,"name":"PJROCK101","steam_id":76561198070616561,"connected_time":890000000000,"state":"active","ping":75},{"user_id":10,"name":"Doggo","steam_id":76561198313355373,"connected_time":832000000000,"state":"active","ping":59},{"user_id":11,"name":"TastyWheat","steam_id":76561198855061918,"connected_time":608000000000,"state":"active","ping":86}]},{"server_id":112,"name":"Uncletopia | Los Angeles | 2 | All Maps","name_short":"lax-2","host":"lax-1.us.uncletopia.com","port":27025,"enabled":true,"region":"us-west","cc":"us","latitude":33.94279,"longitude":-118.41004,"reserved":0,"last_update":"0001-01-01T00:00:00Z","name_a2s":"Uncletopia | Los Angeles | 2 | All Maps","protocol":17,"map":"koth_suijin","folder":"tf","game":"Team Fortress","app_id":440,"player_count":24,"max_players":24,"Bots":0,"server_type":"Dedicated","server_os":"Linux","password":true,"vac":true,"version":"7882260","steam_id":85568392924469992,"keywords":["cp","nocrits","nodmgspread","uncletopia"],"game_id":440,"stv_port":27026,"stv_name":"Uncletopia | Los Angeles | 2 | All Maps | STV","players":[{"user_id":370,"name":"Guns Blazing","steam_id":76561198379461118,"connected_time":1183000000000,"state":"active","ping":127},{"user_id":393,"name":"sassy loli","steam_id":76561198402316065,"connected_time":493000000000,"state":"active","ping":104},{"user_id":395,"name":"SAD MOSCOVIA","steam_id":76561198101081520,"connected_time":191000000000,"state":"active","ping":89},{"user_id":293,"name":"Drakon","steam_id":76561198078210822,"connected_time":6274000000000,"state":"active","ping":55},{"user_id":373,"name":"M9 Shyamalan","steam_id":76561198149425560,"connected_time":1039000000000,"state":"active","ping":86},{"user_id":349,"name":"GlossyBat","steam_id":76561198929313869,"connected_time":2217000000000,"state":"active","ping":56},{"user_id":390,"name":"Thequirka","steam_id":76561198968058652,"connected_time":603000000000,"state":"active","ping":73},{"user_id":368,"name":"Ga Blun","steam_id":76561198865908327,"connected_time":1315000000000,"state":"active","ping":101},{"user_id":399,"name":"Conniver's Crutchnai","steam_id":76561198046526036,"connected_time":34000000000,"state":"active","ping":49},{"user_id":314,"name":"Rave Cat","steam_id":76561198026369683,"connected_time":5085000000000,"state":"active","ping":64},{"user_id":388,"name":"Zesty Italian","steam_id":76561198117835053,"connected_time":694000000000,"state":"active","ping":71},{"user_id":396,"name":"CopperBox","steam_id":76561198068217248,"connected_time":170000000000,"state":"active","ping":57},{"user_id":391,"name":"Intruder","steam_id":76561198799578901,"connected_time":591000000000,"state":"active","ping":160},{"user_id":384,"name":"[El Fail] MR.BadassMCLee","steam_id":76561198043787818,"connected_time":772000000000,"state":"active","ping":60},{"user_id":397,"name":"kips","steam_id":76561198047171706,"connected_time":70000000000,"state":"active","ping":75},{"user_id":357,"name":"nfseskimo","steam_id":76561198078745666,"connected_time":1771000000000,"state":"active","ping":69},{"user_id":351,"name":"SesataPomang","steam_id":76561198145133059,"connected_time":1958000000000,"state":"active","ping":79},{"user_id":387,"name":"MattJettskie","steam_id":76561199229493583,"connected_time":697000000000,"state":"active","ping":118},{"user_id":372,"name":"Snapcaster","steam_id":76561199127590316,"connected_time":1143000000000,"state":"active","ping":62},{"user_id":352,"name":"DeathSushi","steam_id":76561199156131540,"connected_time":1932000000000,"state":"active","ping":85},{"user_id":385,"name":"robertJMP","steam_id":76561199066260919,"connected_time":752000000000,"state":"active","ping":35},{"user_id":392,"name":"Ernbergler","steam_id":76561198042583426,"connected_time":570000000000,"state":"active","ping":73},{"user_id":381,"name":"evil jesus 05","steam_id":76561198419315893,"connected_time":842000000000,"state":"active","ping":60},{"user_id":398,"name":"sound","steam_id":76561199053033603,"connected_time":64000000000,"state":"active","ping":181}]},{"server_id":324,"name":"Uncletopia | Los Angeles | 3 | All Maps","name_short":"lax-3","host":"lax-1.us.uncletopia.com","port":27035,"enabled":true,"region":"us-west","cc":"us","latitude":33.94279,"longitude":-118.41004,"reserved":0,"last_update":"0001-01-01T00:00:00Z","name_a2s":"Uncletopia | Los Angeles | 3 | All Maps","protocol":17,"map":"koth_suijin","folder":"tf","game":"Team Fortress","app_id":440,"player_count":24,"max_players":24,"Bots":0,"server_type":"Dedicated","server_os":"Linux","password":true,"vac":true,"version":"7882260","steam_id":85568392924510198,"keywords":["cp","nocrits","nodmgspread","uncletopia"],"game_id":440,"stv_port":27036,"stv_name":"Uncletopia | Los Angeles | 3 | All Maps | STV","players":[{"user_id":357,"name":"a chicken","steam_id":76561198313121580,"connected_time":369000000000,"state":"active","ping":50},{"user_id":339,"name":"Locked in the bathroom","steam_id":76561198206394503,"connected_time":1402000000000,"state":"active","ping":88},{"user_id":361,"name":"Recursive Gamer","steam_id":76561198042102952,"connected_time":252000000000,"state":"active","ping":97},{"user_id":322,"name":"Blitzo (the O is silent)","steam_id":76561198065781694,"connected_time":1939000000000,"state":"active","ping":105},{"user_id":359,"name":"eredyn lft rgb","steam_id":76561198868116439,"connected_time":325000000000,"state":"active","ping":96},{"user_id":323,"name":"WildRose","steam_id":76561199198872694,"connected_time":1929000000000,"state":"active","ping":115},{"user_id":362,"name":"paiso","steam_id":76561198297775034,"connected_time":222000000000,"state":"active","ping":114},{"user_id":356,"name":"MajorGeneral","steam_id":76561198096725670,"connected_time":398000000000,"state":"active","ping":70},{"user_id":335,"name":"[chef] iron","steam_id":76561197970888616,"connected_time":1470000000000,"state":"active","ping":85},{"user_id":330,"name":"Ferrin","steam_id":76561198071757444,"connected_time":1690000000000,"state":"active","ping":102},{"user_id":360,"name":"Pyrovision","steam_id":76561198377839127,"connected_time":309000000000,"state":"active","ping":110},{"user_id":364,"name":"Sire Salty","steam_id":76561198079639072,"connected_time":173000000000,"state":"active","ping":107},{"user_id":334,"name":"Moffein","steam_id":76561198016739296,"connected_time":1492000000000,"state":"active","ping":63},{"user_id":350,"name":"carp","steam_id":76561198042865147,"connected_time":1044000000000,"state":"active","ping":99},{"user_id":338,"name":"Mini Sentry","steam_id":76561198151531499,"connected_time":1446000000000,"state":"active","ping":77},{"user_id":363,"name":"Racist(in Minecraft)","steam_id":76561198117206414,"connected_time":187000000000,"state":"active","ping":83},{"user_id":342,"name":"Et_1113","steam_id":76561199199558343,"connected_time":1355000000000,"state":"active","ping":141},{"user_id":343,"name":"Ôº≥Ôº∞ÔºØÔºØÔº´Ôºπ","steam_id":76561198044188237,"connected_time":1319000000000,"state":"active","ping":75},{"user_id":344,"name":"Dogcherry","steam_id":76561198044785775,"connected_time":1309000000000,"state":"active","ping":74},{"user_id":365,"name":"Renota","steam_id":76561198058224488,"connected_time":163000000000,"state":"active","ping":130},{"user_id":354,"name":"Pathetic","steam_id":76561198347660282,"connected_time":640000000000,"state":"active","ping":106},{"user_id":351,"name":"Musica Universalis","steam_id":76561198184794174,"connected_time":1034000000000,"state":"active","ping":122},{"user_id":352,"name":"Sideways Whoopi Goldberg","steam_id":76561198003736560,"connected_time":1009000000000,"state":"active","ping":66},{"user_id":353,"name":"The Cool Man","steam_id":76561198096420556,"connected_time":1003000000000,"state":"active","ping":107}]},{"server_id":25,"name":"Uncletopia | Los Angeles | 4 | Stopwatch Beta","name_short":"lax-4","host":"lax-1.us.uncletopia.com","port":27045,"enabled":true,"region":"us-west","cc":"us","latitude":33.94279,"longitude":-118.41004,"reserved":0,"last_update":"0001-01-01T00:00:00Z","name_a2s":"Uncletopia | Los Angeles | 4 | Stopwatch Beta","protocol":17,"map":"cp_snakewater_final1","folder":"tf","game":"Team Fortress","app_id":440,"player_count":0,"max_players":24,"Bots":0,"server_type":"Dedicated","server_os":"Linux","password":true,"vac":true,"version":"7882260","steam_id":85568392924510199,"keywords":["cp","nocrits","nodmgspread","uncletopia"],"game_id":440,"stv_port":27046,"stv_name":"Uncletopia | Los Angeles | 4 | Stopwatch Beta | STV","players":null},{"server_id":11,"name":"Uncletopia | London | 1 | All Maps","name_short":"lon-1","host":"lon-1.uk.uncletopia.com","port":27015,"enabled":true,"region":"eu","cc":"gb","latitude":51.509865,"longitude":-0.118092,"reserved":0,"last_update":"0001-01-01T00:00:00Z","name_a2s":"Uncletopia | London | 1 | All Maps","protocol":17,"map":"ctf_2fort","folder":"tf","game":"Team Fortress","app_id":440,"player_count":23,"max_players":24,"Bots":0,"server_type":"Dedicated","server_os":"Linux","password":true,"vac":true,"version":"7882260","steam_id":85568392924367362,"keywords":["ctf","nocrits","nodmgspread","uncletopia"],"game_id":440,"stv_port":27016,"stv_name":"Uncletopia | London | 1 | All Maps | STV","players":[{"user_id":679,"name":"Loaf","steam_id":76561198148290115,"connected_time":4310000000000,"state":"active","ping":66},{"user_id":689,"name":"üÉî Nugg1t(she/they)","steam_id":76561198065652251,"connected_time":2759000000000,"state":"active","ping":49},{"user_id":713,"name":"cooler bones","steam_id":76561199480942903,"connected_time":809000000000,"state":"active","ping":76},{"user_id":685,"name":"Sakari","steam_id":76561197997811299,"connected_time":3778000000000,"state":"active","ping":74},{"user_id":712,"name":"Cheese pizza connoisseur","steam_id":76561199062160061,"connected_time":830000000000,"state":"active","ping":49},{"user_id":677,"name":"Son Goku","steam_id":76561199383437138,"connected_time":4473000000000,"state":"active","ping":125},{"user_id":697,"name":"REN","steam_id":76561198000596385,"connected_time":2131000000000,"state":"spawning","ping":103},{"user_id":717,"name":"Joy","steam_id":76561198155314925,"connected_time":149000000000,"state":"active","ping":60},{"user_id":709,"name":"rev up the bugatti wahey","steam_id":76561198079589665,"connected_time":1611000000000,"state":"active","ping":51},{"user_id":690,"name":"Minimi","steam_id":76561198873850443,"connected_time":2682000000000,"state":"active","ping":47},{"user_id":711,"name":"Milk","steam_id":76561198125876588,"connected_time":1120000000000,"state":"active","ping":45},{"user_id":683,"name":"DED (CEO of Jar-A-Tea)","steam_id":76561198110469231,"connected_time":3997000000000,"state":"active","ping":52},{"user_id":715,"name":"Mega Saturn","steam_id":76561198024750500,"connected_time":417000000000,"state":"active","ping":82},{"user_id":682,"name":"SOPHIIEE","steam_id":76561198443798981,"connected_time":4038000000000,"state":"active","ping":54},{"user_id":651,"name":"Wiwiff_","steam_id":76561199164255561,"connected_time":6395000000000,"state":"active","ping":70},{"user_id":691,"name":"porngamer","steam_id":76561198204620491,"connected_time":2595000000000,"state":"active","ping":43},{"user_id":710,"name":"‚ô• aura ‚ô•","steam_id":76561198066258544,"connected_time":1358000000000,"state":"active","ping":60},{"user_id":620,"name":"goff","steam_id":76561198118989010,"connected_time":8159000000000,"state":"active","ping":45},{"user_id":688,"name":"DrunkHungarian","steam_id":76561198853346540,"connected_time":2823000000000,"state":"active","ping":60},{"user_id":665,"name":"dec","steam_id":76561198009660168,"connected_time":5352000000000,"state":"active","ping":45},{"user_id":645,"name":"chazza","steam_id":76561199076124858,"connected_time":6844000000000,"state":"active","ping":45},{"user_id":704,"name":"-_-Steve-_-","steam_id":76561198318786687,"connected_time":1799000000000,"state":"active","ping":45},{"user_id":708,"name":"Harry the Wizard","steam_id":76561198128345843,"connected_time":1712000000000,"state":"active","ping":58}]},{"server_id":114,"name":"Uncletopia | London | 2 | All Maps","name_short":"lon-2","host":"lon-1.uk.uncletopia.com","port":27025,"enabled":true,"region":"eu","cc":"gb","latitude":51.509865,"longitude":-0.118092,"reserved":0,"last_update":"0001-01-01T00:00:00Z","name_a2s":"Uncletopia | London | 2 | All Maps","protocol":17,"map":"pl_goldrush","folder":"tf","game":"Team Fortress","app_id":440,"player_count":21,"max_players":24,"Bots":0,"server_type":"Dedicated","server_os":"Linux","password":true,"vac":true,"version":"7882260","steam_id":85568392924470941,"keywords":["nocrits","nodmgspread","payload","uncletopia"],"game_id":440,"stv_port":27026,"stv_name":"Uncletopia | London | 2 | All Maps | STV","players":[{"user_id":224,"name":"Gnarville","steam_id":76561198006373329,"connected_time":2204000000000,"state":"active","ping":45},{"user_id":274,"name":"sirsmit1","steam_id":76561199129778001,"connected_time":40000000000,"state":"active","ping":134},{"user_id":270,"name":"„É†GeRmAn |√óUA√ó„É†","steam_id":76561199044754898,"connected_time":103000000000,"state":"active","ping":83},{"user_id":222,"name":"Meddler","steam_id":76561198033001402,"connected_time":2565000000000,"state":"active","ping":35},{"user_id":234,"name":"Shearman360","steam_id":76561198193909685,"connected_time":1945000000000,"state":"active","ping":64},{"user_id":269,"name":"Boil em mash em","steam_id":76561198026508026,"connected_time":149000000000,"state":"active","ping":66},{"user_id":235,"name":"Markein","steam_id":76561198360754280,"connected_time":1894000000000,"state":"active","ping":60},{"user_id":276,"name":"FunnyFungusMan","steam_id":76561198885583082,"connected_time":6000000000,"state":"spawning","ping":48},{"user_id":228,"name":"Juiceydough","steam_id":76561197997323419,"connected_time":2159000000000,"state":"active","ping":86},{"user_id":263,"name":"owlsie","steam_id":76561198094883280,"connected_time":235000000000,"state":"active","ping":64},{"user_id":229,"name":"gnarly business","steam_id":76561198832688767,"connected_time":2159000000000,"state":"active","ping":57},{"user_id":264,"name":"TrixStudio","steam_id":76561198162376523,"connected_time":186000000000,"state":"active","ping":73},{"user_id":265,"name":"shh... tiny carrots r sleeping","steam_id":76561198069649097,"connected_time":184000000000,"state":"active","ping":288},{"user_id":266,"name":"Xipheria","steam_id":76561198077414706,"connected_time":180000000000,"state":"active","ping":74},{"user_id":214,"name":"IndigoJones","steam_id":76561198050284262,"connected_time":3468000000000,"state":"active","ping":49},{"user_id":268,"name":"Carpetspill","steam_id":76561198240023406,"connected_time":159000000000,"state":"active","ping":159},{"user_id":272,"name":"lullers","steam_id":76561198119470669,"connected_time":81000000000,"state":"active","ping":60},{"user_id":273,"name":"Providence","steam_id":76561198003920270,"connected_time":79000000000,"state":"active","ping":58},{"user_id":252,"name":"TheKingDuck","steam_id":76561198058389343,"connected_time":1117000000000,"state":"active","ping":72},{"user_id":254,"name":"dont K*LL john oliver","steam_id":76561198015918787,"connected_time":712000000000,"state":"active","ping":71},{"user_id":275,"name":"putrid weasel","steam_id":76561198012955043,"connected_time":18000000000,"state":"active","ping":62}]},{"server_id":320,"name":"Uncletopia | London | 3 | All Maps","name_short":"lon-3","host":"lon-1.uk.uncletopia.com","port":27035,"enabled":true,"region":"eu","cc":"gb","latitude":51.509865,"longitude":-0.118092,"reserved":0,"last_update":"0001-01-01T00:00:00Z","name_a2s":"Uncletopia | London | 3 | All Maps","protocol":17,"map":"koth_cascade","folder":"tf","game":"Team Fortress","app_id":440,"player_count":0,"max_players":24,"Bots":0,"server_type":"Dedicated","server_os":"Linux","password":true,"vac":true,"version":"7882260","steam_id":85568392924510192,"keywords":["cp","nocrits","nodmgspread","uncletopia"],"game_id":440,"stv_port":27036,"stv_name":"Uncletopia | London | 3 | All Maps | STV","players":null},{"server_id":321,"name":"Uncletopia | London | 4 | All Maps","name_short":"lon-4","host":"lon-1.uk.uncletopia.com","port":27045,"enabled":true,"region":"eu","cc":"gb","latitude":51.509865,"longitude":-0.118092,"reserved":0,"last_update":"0001-01-01T00:00:00Z","name_a2s":"Uncletopia | London | 4 | All Maps","protocol":17,"map":"cp_steel","folder":"tf","game":"Team Fortress","app_id":440,"player_count":24,"max_players":24,"Bots":0,"server_type":"Dedicated","server_os":"Linux","password":true,"vac":true,"version":"7882260","steam_id":85568392924510193,"keywords":["cp","nocrits","nodmgspread","uncletopia"],"game_id":440,"stv_port":27046,"stv_name":"Uncletopia | London | 4 | All Maps | STV","players":[{"user_id":646,"name":"One Shiny Boi‚Ñ¢","steam_id":76561198199193627,"connected_time":1728000000000,"state":"active","ping":75},{"user_id":648,"name":"desnot","steam_id":76561198862581894,"connected_time":1580000000000,"state":"active","ping":73},{"user_id":679,"name":"Locke","steam_id":76561198339408300,"connected_time":163000000000,"state":"active","ping":57},{"user_id":675,"name":"bozo player","steam_id":76561198126762760,"connected_time":245000000000,"state":"active","ping":60},{"user_id":677,"name":"Economic crisis","steam_id":76561198063562843,"connected_time":238000000000,"state":"active","ping":62},{"user_id":647,"name":"Max Andrew","steam_id":76561198158955194,"connected_time":1657000000000,"state":"active","ping":55},{"user_id":649,"name":"Noosie","steam_id":76561198108612349,"connected_time":1548000000000,"state":"active","ping":60},{"user_id":667,"name":"Balkespower","steam_id":76561198024869299,"connected_time":873000000000,"state":"active","ping":60},{"user_id":676,"name":"I sell exotic parrots","steam_id":76561199192434258,"connected_time":244000000000,"state":"active","ping":96},{"user_id":680,"name":"Voks_","steam_id":76561198159687785,"connected_time":135000000000,"state":"active","ping":80},{"user_id":671,"name":"Sylvanas","steam_id":76561198154904165,"connected_time":287000000000,"state":"active","ping":112},{"user_id":678,"name":"6'3 horny aroused male with gun","steam_id":76561199042470246,"connected_time":212000000000,"state":"active","ping":56},{"user_id":645,"name":"General Petrov","steam_id":76561198027204104,"connected_time":2587000000000,"state":"active","ping":87},{"user_id":655,"name":"Seal","steam_id":76561197997492434,"connected_time":1345000000000,"state":"active","ping":62},{"user_id":656,"name":"Birgerz","steam_id":76561198034565424,"connected_time":1342000000000,"state":"active","ping":76},{"user_id":657,"name":"hoovy gaming","steam_id":76561199230153761,"connected_time":1342000000000,"state":"active","ping":67},{"user_id":665,"name":"xavier","steam_id":76561198076494034,"connected_time":1127000000000,"state":"active","ping":49},{"user_id":681,"name":"Carrotcracker","steam_id":76561198034862396,"connected_time":125000000000,"state":"active","ping":81},{"user_id":659,"name":"McNuggleton","steam_id":76561198041607294,"connected_time":1334000000000,"state":"active","ping":67},{"user_id":669,"name":"Burpman","steam_id":76561198022897937,"connected_time":834000000000,"state":"active","ping":47},{"user_id":661,"name":"Bajas","steam_id":76561198179339326,"connected_time":1320000000000,"state":"active","ping":75},{"user_id":662,"name":"Araragi Koyomi","steam_id":76561198133660491,"connected_time":1316000000000,"state":"active","ping":49},{"user_id":670,"name":"PonytailFC","steam_id":76561198082155283,"connected_time":725000000000,"state":"active","ping":62},{"user_id":664,"name":"Vershal Smershal","steam_id":76561198116223995,"connected_time":1273000000000,"state":"active","ping":57}]},{"server_id":21,"name":"Uncletopia | London | 5 | All Maps","name_short":"lon-5","host":"lon-1.uk.uncletopia.com","port":27055,"enabled":true,"region":"eu","cc":"gb","latitude":51.509865,"longitude":-0.118092,"reserved":0,"last_update":"0001-01-01T00:00:00Z","name_a2s":"Uncletopia | London | 5 | All Maps","protocol":17,"map":"pl_swiftwater_final1","folder":"tf","game":"Team Fortress","app_id":440,"player_count":24,"max_players":24,"Bots":0,"server_type":"Dedicated","server_os":"Linux","password":true,"vac":true,"version":"7882260","steam_id":85568392924742829,"keywords":["nocrits","nodmgspread","payload","uncletopia"],"game_id":440,"stv_port":27056,"stv_name":"Uncletopia | London | 5 | All Maps | STV","players":[{"user_id":233,"name":"Critless","steam_id":76561198133968184,"connected_time":42000000000,"state":"spawning","ping":49},{"user_id":179,"name":"Teecho","steam_id":76561197995269610,"connected_time":4015000000000,"state":"active","ping":54},{"user_id":224,"name":"Pyrolander","steam_id":76561198050785450,"connected_time":636000000000,"state":"active","ping":48},{"user_id":231,"name":"hud_saytext_time 0","steam_id":76561198010327228,"connected_time":521000000000,"state":"active","ping":76},{"user_id":197,"name":"Baron","steam_id":76561198021901783,"connected_time":2876000000000,"state":"active","ping":61},{"user_id":226,"name":"pijacka","steam_id":76561198103899658,"connected_time":616000000000,"state":"active","ping":60},{"user_id":234,"name":"Nope","steam_id":76561198069066522,"connected_time":14000000000,"state":"spawning","ping":66},{"user_id":201,"name":"Woa","steam_id":76561198345683201,"connected_time":2315000000000,"state":"active","ping":46},{"user_id":220,"name":"GoatLord1","steam_id":76561198157964544,"connected_time":829000000000,"state":"active","ping":47},{"user_id":155,"name":"Vanilla","steam_id":76561198073933435,"connected_time":4815000000000,"state":"active","ping":48},{"user_id":212,"name":"410 E Walnut Ave, Dawson, Iowa","steam_id":76561198285931413,"connected_time":1818000000000,"state":"active","ping":131},{"user_id":202,"name":"your mum","steam_id":76561198047828651,"connected_time":2305000000000,"state":"active","ping":58},{"user_id":157,"name":"radek","steam_id":76561197998883721,"connected_time":4807000000000,"state":"active","ping":84},{"user_id":158,"name":"Micha≈Ç","steam_id":76561198320346362,"connected_time":4781000000000,"state":"active","ping":73},{"user_id":203,"name":"Toofy","steam_id":76561197989727907,"connected_time":2301000000000,"state":"active","ping":40},{"user_id":214,"name":"Quill","steam_id":76561198348124998,"connected_time":1438000000000,"state":"active","ping":78},{"user_id":223,"name":"hooters","steam_id":76561198068022595,"connected_time":642000000000,"state":"active","ping":119},{"user_id":183,"name":"Horo","steam_id":76561198009504508,"connected_time":3751000000000,"state":"active","ping":53},{"user_id":228,"name":"Alfred","steam_id":76561198348799252,"connected_time":599000000000,"state":"active","ping":47},{"user_id":232,"name":"my_lilac","steam_id":76561198086293715,"connected_time":100000000000,"state":"active","ping":71},{"user_id":229,"name":"nickname 123","steam_id":76561198080234033,"connected_time":598000000000,"state":"active","ping":141},{"user_id":191,"name":"ScarredPixel123","steam_id":76561199165112703,"connected_time":3432000000000,"state":"active","ping":80},{"user_id":230,"name":"randompixel","steam_id":76561198003941207,"connected_time":597000000000,"state":"active","ping":57},{"user_id":219,"name":"fanyul","steam_id":76561198030894721,"connected_time":899000000000,"state":"active","ping":85}]},{"server_id":22,"name":"Uncletopia | London | 6 | All Maps","name_short":"lon-6","host":"lon-1.uk.uncletopia.com","port":27065,"enabled":true,"region":"eu","cc":"gb","latitude":51.509865,"longitude":-0.118092,"reserved":0,"last_update":"0001-01-01T00:00:00Z","name_a2s":"Uncletopia | London | 6 | All Maps","protocol":17,"map":"koth_highpass","folder":"tf","game":"Team Fortress","app_id":440,"player_count":0,"max_players":24,"Bots":0,"server_type":"Dedicated","server_os":"Linux","password":true,"vac":true,"version":"7882260","steam_id":85568392924742830,"keywords":["cp","nocrits","nodmgspread","uncletopia"],"game_id":440,"stv_port":27066,"stv_name":"Uncletopia | London | 6 | All Maps | STV","players":null},{"server_id":40,"name":"Uncletopia | London | 7 | No Payload","name_short":"lon-7","host":"lon-1.uk.uncletopia.com","port":27075,"enabled":true,"region":"eu","cc":"gb","latitude":51.509865,"longitude":-0.118092,"reserved":0,"last_update":"0001-01-01T00:00:00Z","name_a2s":"Uncletopia | London | 7 | No Payload","protocol":17,"map":"plr_nightfall_final","folder":"tf","game":"Team Fortress","app_id":440,"player_count":0,"max_players":24,"Bots":0,"server_type":"Dedicated","server_os":"Linux","password":true,"vac":true,"version":"7882260","steam_id":85568392924964314,"keywords":["nocrits","nodmgspread","payload","uncletopia"],"game_id":440,"stv_port":27076,"stv_name":"Uncletopia | London | 7 | No Payload | STV","players":null},{"server_id":41,"name":"Uncletopia | London | 8 | Community","name_short":"lon-8","host":"lon-1.uk.uncletopia.com","port":27085,"enabled":true,"region":"eu","cc":"gb","latitude":51.509865,"longitude":-0.118092,"reserved":0,"last_update":"0001-01-01T00:00:00Z","name_a2s":"Uncletopia | London | 8 | Community","protocol":17,"map":"workshop/koth_trenchfoot_b1a.ugc731436616","folder":"tf","game":"Team Fortress","app_id":440,"player_count":0,"max_players":24,"Bots":0,"server_type":"Dedicated","server_os":"Linux","password":true,"vac":true,"version":"7882260","steam_id":85568392924964315,"keywords":["cp","nocrits","nodmgspread","uncletopia"],"game_id":440,"stv_port":27086,"stv_name":"Uncletopia | London | 8 | Community | STV","players":null},{"server_id":300,"name":"Uncletopia | Montr√©al | 1 | All Maps","name_short":"mtl-1","host":"mtl-1.ca.uncletopia.com","port":27015,"enabled":true,"region":"us-east","cc":"ca","latitude":45.50889,"longitude":-73.56167,"reserved":0,"last_update":"0001-01-01T00:00:00Z","name_a2s":"Uncletopia | Montr√©al | 1 | All Maps","protocol":17,"map":"cp_snakewater_final1","folder":"tf","game":"Team Fortress","app_id":440,"player_count":0,"max_players":24,"Bots":0,"server_type":"Dedicated","server_os":"Linux","password":true,"vac":true,"version":"7882260","steam_id":85568392924500087,"keywords":["cp","nocrits","nodmgspread","uncletopia"],"game_id":440,"stv_port":27016,"stv_name":"Uncletopia | Montr√©al | 1 | All Maps | STV","players":null},{"server_id":301,"name":"Uncletopia | Montr√©al | 2 | All Maps","name_short":"mtl-2","host":"mtl-1.ca.uncletopia.com","port":27025,"enabled":true,"region":"us-east","cc":"ca","latitude":45.50889,"longitude":-73.56167,"reserved":0,"last_update":"0001-01-01T00:00:00Z","name_a2s":"Uncletopia | Montr√©al | 2 | All Maps","protocol":17,"map":"pl_barnblitz","folder":"tf","game":"Team Fortress","app_id":440,"player_count":0,"max_players":24,"Bots":0,"server_type":"Dedicated","server_os":"Linux","password":true,"vac":true,"version":"7882260","steam_id":85568392924500088,"keywords":["nocrits","nodmgspread","payload","uncletopia"],"game_id":440,"stv_port":27026,"stv_name":"Uncletopia | Montr√©al | 2 | All Maps | STV","players":null},{"server_id":302,"name":"Uncletopia | Montr√©al | 3 | All Maps","name_short":"mtl-3","host":"mtl-1.ca.uncletopia.com","port":27035,"enabled":true,"region":"us-east","cc":"ca","latitude":45.50889,"longitude":-73.56167,"reserved":0,"last_update":"0001-01-01T00:00:00Z","name_a2s":"Uncletopia | Montr√©al | 3 | All Maps","protocol":17,"map":"pl_borneo","folder":"tf","game":"Team Fortress","app_id":440,"player_count":0,"max_players":24,"Bots":0,"server_type":"Dedicated","server_os":"Linux","password":true,"vac":true,"version":"7882260","steam_id":85568392924500089,"keywords":["nocrits","nodmgspread","payload","uncletopia"],"game_id":440,"stv_port":27036,"stv_name":"Uncletopia | Montr√©al | 3 | All Maps | STV","players":null},{"server_id":303,"name":"Uncletopia | Montr√©al | 4 | No Payload","name_short":"mtl-4","host":"mtl-1.ca.uncletopia.com","port":27045,"enabled":true,"region":"us-east","cc":"ca","latitude":45.50889,"longitude":-73.56167,"reserved":0,"last_update":"0001-01-01T00:00:00Z","name_a2s":"Uncletopia | Montr√©al | 4 | No Payload","protocol":17,"map":"cp_altitude","folder":"tf","game":"Team Fortress","app_id":440,"player_count":0,"max_players":24,"Bots":0,"server_type":"Dedicated","server_os":"Linux","password":true,"vac":true,"version":"7882260","steam_id":85568392924500090,"keywords":["cp","nocrits","nodmgspread","uncletopia"],"game_id":440,"stv_port":27046,"stv_name":"Uncletopia | Montr√©al | 4 | No Payload | STV","players":null},{"server_id":13,"name":"Uncletopia | New York City | 1 | All Maps","name_short":"nyc-1","host":"nyc-1.us.uncletopia.com","port":27015,"enabled":true,"region":"us-east","cc":"us","latitude":40.73061,"longitude":-73.93524,"reserved":0,"last_update":"0001-01-01T00:00:00Z","name_a2s":"Uncletopia | New York City | 1 | All Maps","protocol":17,"map":"pl_badwater","folder":"tf","game":"Team Fortress","app_id":440,"player_count":24,"max_players":24,"Bots":0,"server_type":"Dedicated","server_os":"Linux","password":true,"vac":true,"version":"7882260","steam_id":85568392924469993,"keywords":["nocrits","nodmgspread","payload","uncletopia"],"game_id":440,"stv_port":27016,"stv_name":"Uncletopia | New York City | 1 | All Maps | STV","players":[{"user_id":222,"name":"Caffeine Queen","steam_id":76561199042221198,"connected_time":100000000000,"state":"active","ping":57},{"user_id":202,"name":"ùô¥ ùö° ùöå ùöé ùöï ùöï \ufffd","steam_id":76561198011887958,"connected_time":1137000000000,"state":"active","ping":48},{"user_id":203,"name":"scarecrow (evil)","steam_id":76561198082979347,"connected_time":1131000000000,"state":"active","ping":59},{"user_id":189,"name":"painting4","steam_id":76561198067554256,"connected_time":2414000000000,"state":"active","ping":123},{"user_id":210,"name":"Gamer Girl Meth","steam_id":76561199276295259,"connected_time":954000000000,"state":"active","ping":68},{"user_id":175,"name":"Arceus","steam_id":76561199146716278,"connected_time":3639000000000,"state":"active","ping":62},{"user_id":216,"name":"eve","steam_id":76561198209455624,"connected_time":219000000000,"state":"active","ping":65},{"user_id":201,"name":"carnal wizard","steam_id":76561198052431073,"connected_time":1517000000000,"state":"active","ping":75},{"user_id":218,"name":"Jolly","steam_id":76561198193323247,"connected_time":185000000000,"state":"active","ping":60},{"user_id":199,"name":"Stardustry","steam_id":76561198090010107,"connected_time":1793000000000,"state":"active","ping":56},{"user_id":191,"name":"Drapph","steam_id":76561199384213314,"connected_time":2390000000000,"state":"active","ping":81},{"user_id":176,"name":"average rust player","steam_id":76561198047627340,"connected_time":3637000000000,"state":"active","ping":55},{"user_id":221,"name":"leumas","steam_id":76561198240408540,"connected_time":161000000000,"state":"active","ping":49},{"user_id":184,"name":"bonehead","steam_id":76561198090002944,"connected_time":2633000000000,"state":"active","ping":67},{"user_id":153,"name":"Adonut","steam_id":76561198805858184,"connected_time":4760000000000,"state":"active","ping":102},{"user_id":214,"name":"wwhg","steam_id":76561198140658919,"connected_time":462000000000,"state":"active","ping":65},{"user_id":204,"name":"Tea Enthusiast","steam_id":76561198185583925,"connected_time":1109000000000,"state":"active","ping":42},{"user_id":219,"name":"littlebigguyef","steam_id":76561199234437400,"connected_time":182000000000,"state":"active","ping":53},{"user_id":185,"name":"‡πñ√êiestow","steam_id":76561198046662484,"connected_time":2449000000000,"state":"active","ping":63},{"user_id":198,"name":"emilee (evil)","steam_id":76561198061455664,"connected_time":2032000000000,"state":"active","ping":42},{"user_id":209,"name":"Model CHP-3Y","steam_id":76561198107806145,"connected_time":981000000000,"state":"active","ping":57},{"user_id":220,"name":"bendera","steam_id":76561197965486503,"connected_time":171000000000,"state":"active","ping":77},{"user_id":158,"name":"nerd gaming","steam_id":76561198066018972,"connected_time":4590000000000,"state":"active","ping":86},{"user_id":180,"name":"gobbie FASTNESS","steam_id":76561198026865054,"connected_time":3473000000000,"state":"active","ping":59}]},{"server_id":14,"name":"Uncletopia | New York City | 2 | All Maps","name_short":"nyc-2","host":"nyc-1.us.uncletopia.com","port":27025,"enabled":true,"region":"us-east","cc":"us","latitude":40.73061,"longitude":-73.93524,"reserved":0,"last_update":"0001-01-01T00:00:00Z","name_a2s":"Uncletopia | New York City | 2 | All Maps","protocol":17,"map":"pl_barnblitz","folder":"tf","game":"Team Fortress","app_id":440,"player_count":24,"max_players":24,"Bots":0,"server_type":"Dedicated","server_os":"Linux","password":true,"vac":true,"version":"7882260","steam_id":85568392924469994,"keywords":["nocrits","nodmgspread","payload","uncletopia"],"game_id":440,"stv_port":27026,"stv_name":"Uncletopia | New York City | 2 | All Maps | STV","players":[{"user_id":79,"name":"lactose father","steam_id":76561199408853457,"connected_time":456000000000,"state":"active","ping":156},{"user_id":61,"name":"Smug Pug","steam_id":76561198059423334,"connected_time":1643000000000,"state":"active","ping":80},{"user_id":81,"name":"Ignatius J. Reilly","steam_id":76561198066958868,"connected_time":146000000000,"state":"active","ping":60},{"user_id":52,"name":"Nycto","steam_id":76561198050032617,"connected_time":2273000000000,"state":"active","ping":87},{"user_id":68,"name":"mineblast99","steam_id":76561199065648954,"connected_time":1403000000000,"state":"active","ping":77},{"user_id":46,"name":"Effie","steam_id":76561198261842068,"connected_time":2704000000000,"state":"active","ping":62},{"user_id":73,"name":"Peptoabysmal","steam_id":76561198950211127,"connected_time":1108000000000,"state":"active","ping":73},{"user_id":71,"name":"Mightyjoo","steam_id":76561198078725263,"connected_time":1212000000000,"state":"active","ping":115},{"user_id":65,"name":"he was forced to play scout","steam_id":76561198170381402,"connected_time":1540000000000,"state":"active","ping":45},{"user_id":74,"name":"cyclops","steam_id":76561197970370198,"connected_time":928000000000,"state":"active","ping":83},{"user_id":58,"name":"gabaghoulio","steam_id":76561198013650292,"connected_time":1829000000000,"state":"active","ping":108},{"user_id":50,"name":"-W3E- grim10465","steam_id":76561198045698581,"connected_time":2443000000000,"state":"active","ping":32},{"user_id":56,"name":"BigDeac","steam_id":76561198091237274,"connected_time":1929000000000,"state":"active","ping":73},{"user_id":76,"name":"Ursus Ludius","steam_id":76561198025470722,"connected_time":569000000000,"state":"active","ping":66},{"user_id":70,"name":"mini-sentry menace","steam_id":76561198070380404,"connected_time":1220000000000,"state":"active","ping":45},{"user_id":59,"name":"night.light","steam_id":76561198014557455,"connected_time":1821000000000,"state":"active","ping":88},{"user_id":82,"name":"flappyflap2","steam_id":76561198285048973,"connected_time":103000000000,"state":"active","ping":46},{"user_id":53,"name":"Bojo Kojo","steam_id":76561198141703138,"connected_time":2267000000000,"state":"active","ping":112},{"user_id":55,"name":"Nesster","steam_id":76561198071688242,"connected_time":2105000000000,"state":"active","ping":68},{"user_id":80,"name":"Lexabyte","steam_id":76561198065032237,"connected_time":408000000000,"state":"active","ping":63},{"user_id":41,"name":"beleaguered harlot","steam_id":76561198036884600,"connected_time":2778000000000,"state":"active","ping":59},{"user_id":44,"name":"ttv/Muenstier","steam_id":76561198312153623,"connected_time":2739000000000,"state":"active","ping":88},{"user_id":49,"name":"CupOJo","steam_id":76561198067153390,"connected_time":2677000000000,"state":"active","ping":69},{"user_id":78,"name":"MEATBALL","steam_id":76561198028499312,"connected_time":543000000000,"state":"active","ping":81}]},{"server_id":15,"name":"Uncletopia | New York City | 3 | Stopwatch Beta","name_short":"nyc-3","host":"nyc-1.us.uncletopia.com","port":27035,"enabled":true,"region":"us-east","cc":"us","latitude":40.73061,"longitude":-73.93524,"reserved":0,"last_update":"0001-01-01T00:00:00Z","name_a2s":"Uncletopia | New York City | 3 | Stopwatch Beta","protocol":17,"map":"cp_sunshine","folder":"tf","game":"Team Fortress","app_id":440,"player_count":0,"max_players":24,"Bots":0,"server_type":"Dedicated","server_os":"Linux","password":true,"vac":true,"version":"7882260","steam_id":85568392924742820,"keywords":["cp","nocrits","nodmgspread","uncletopia"],"game_id":440,"stv_port":27036,"stv_name":"Uncletopia | New York City | 3 | Stopwatch Beta | STV","players":null},{"server_id":16,"name":"Uncletopia | New York City | 4 | Community","name_short":"nyc-4","host":"nyc-1.us.uncletopia.com","port":27045,"enabled":true,"region":"us-east","cc":"us","latitude":40.73061,"longitude":-73.93524,"reserved":0,"last_update":"0001-01-01T00:00:00Z","name_a2s":"Uncletopia | New York City | 4 | Community","protocol":17,"map":"workshop/pl_barnblitz_pro7.ugc582280235","folder":"tf","game":"Team Fortress","app_id":440,"player_count":2,"max_players":24,"Bots":0,"server_type":"Dedicated","server_os":"Linux","password":true,"vac":true,"version":"7882260","steam_id":85568392924742821,"keywords":["nocrits","nodmgspread","payload","uncletopia"],"game_id":440,"stv_port":27046,"stv_name":"Uncletopia | New York City | 4 | Community | STV","players":[{"user_id":14,"name":"bdefg","steam_id":76561199422915609,"connected_time":84000000000,"state":"active","ping":95},{"user_id":15,"name":"waffleiron692","steam_id":76561199202145798,"connected_time":19000000000,"state":"spawning","ping":224}]},{"server_id":142,"name":"Uncletopia | S√£o Paulo | 1 | All Maps","name_short":"sao-1","host":"sao-1.br.uncletopia.com","port":27015,"enabled":true,"region":"sa","cc":"br","latitude":-23.533773,"longitude":-46.62529,"reserved":0,"last_update":"0001-01-01T00:00:00Z","name_a2s":"Uncletopia | S√£o Paulo | 1 | All Maps","protocol":17,"map":"koth_cascade","folder":"tf","game":"Team Fortress","app_id":440,"player_count":2,"max_players":24,"Bots":0,"server_type":"Dedicated","server_os":"Linux","password":true,"vac":true,"version":"7882260","steam_id":85568392924469996,"keywords":["cp","nocrits","nodmgspread","uncletopia"],"game_id":440,"stv_port":27016,"stv_name":"Uncletopia | S√£o Paulo | 1 | All Maps | STV","players":[{"user_id":5,"name":"GamireXD","steam_id":76561198927748948,"connected_time":3045000000000,"state":"active","ping":103},{"user_id":7,"name":"Abbysx","steam_id":76561199201525381,"connected_time":2827000000000,"state":"active","ping":110}]},{"server_id":143,"name":"Uncletopia | S√£o Paulo | 2 | All Maps","name_short":"sao-2","host":"sao-2.br.uncletopia.com","port":27015,"enabled":true,"region":"sa","cc":"br","latitude":-23.533773,"longitude":-46.62529,"reserved":0,"last_update":"0001-01-01T00:00:00Z","name_a2s":"Uncletopia | S√£o Paulo | 2 | All Maps","protocol":17,"map":"pl_borneo","folder":"tf","game":"Team Fortress","app_id":440,"player_count":0,"max_players":24,"Bots":0,"server_type":"Dedicated","server_os":"Linux","password":true,"vac":true,"version":"7882260","steam_id":85568392924485349,"keywords":["nocrits","nodmgspread","payload","uncletopia"],"game_id":440,"stv_port":27016,"stv_name":"Uncletopia | S√£o Paulo | 2 | All Maps | STV","players":null},{"server_id":7,"name":"Uncletopia | Seattle | 1 | All Maps","name_short":"sea-1","host":"sea-1.us.uncletopia.com","port":27015,"enabled":true,"region":"us-west","cc":"us","latitude":47.608013,"longitude":-122.33517,"reserved":0,"last_update":"0001-01-01T00:00:00Z","name_a2s":"Uncletopia | Seattle | 1 | All Maps","protocol":17,"map":"pl_upward","folder":"tf","game":"Team Fortress","app_id":440,"player_count":24,"max_players":24,"Bots":0,"server_type":"Dedicated","server_os":"Linux","password":true,"vac":true,"version":"7882260","steam_id":85568392924469997,"keywords":["nocrits","nodmgspread","payload","uncletopia"],"game_id":440,"stv_port":27016,"stv_name":"Uncletopia | Seattle | 1 | All Maps | STV","players":[{"user_id":173,"name":"duddlee","steam_id":76561198030052564,"connected_time":2530000000000,"state":"active","ping":61},{"user_id":197,"name":"ngoomie","steam_id":76561199028250710,"connected_time":267000000000,"state":"active","ping":60},{"user_id":175,"name":"AmiableNebula","steam_id":76561198094306627,"connected_time":2451000000000,"state":"active","ping":75},{"user_id":183,"name":"Resh420","steam_id":76561198066619792,"connected_time":1832000000000,"state":"active","ping":76},{"user_id":142,"name":"Fallen","steam_id":76561198206490352,"connected_time":6203000000000,"state":"active","ping":74},{"user_id":174,"name":"ror!","steam_id":76561198021227843,"connected_time":2497000000000,"state":"active","ping":83},{"user_id":145,"name":"SibilantSerpent","steam_id":76561198154488754,"connected_time":5980000000000,"state":"active","ping":57},{"user_id":186,"name":"mega","steam_id":76561198089520959,"connected_time":1704000000000,"state":"active","ping":98},{"user_id":194,"name":"voidpuppy","steam_id":76561198799922000,"connected_time":493000000000,"state":"active","ping":79},{"user_id":163,"name":"AceSea","steam_id":76561198851176490,"connected_time":3665000000000,"state":"active","ping":64},{"user_id":199,"name":"SecondCarpet","steam_id":76561199008323078,"connected_time":147000000000,"state":"active","ping":121},{"user_id":168,"name":"Mignyanne :3","steam_id":76561198048754056,"connected_time":3380000000000,"state":"active","ping":67},{"user_id":192,"name":"forest (girldick)","steam_id":76561198157960257,"connected_time":523000000000,"state":"active","ping":36},{"user_id":193,"name":"Fachedin","steam_id":76561198041850415,"connected_time":499000000000,"state":"active","ping":89},{"user_id":176,"name":"S Q U I S H E  T H A T  C A T","steam_id":76561198293865429,"connected_time":2444000000000,"state":"active","ping":45},{"user_id":147,"name":"toes","steam_id":76561198221151676,"connected_time":5274000000000,"state":"active","ping":57},{"user_id":181,"name":"COOL master_9","steam_id":76561198073041151,"connected_time":2283000000000,"state":"active","ping":100},{"user_id":139,"name":"shiadyne","steam_id":76561198271939793,"connected_time":7035000000000,"state":"active","ping":52},{"user_id":141,"name":"camp3r","steam_id":76561197992870439,"connected_time":6215000000000,"state":"active","ping":36},{"user_id":188,"name":"p i n e ‚Üü ‚Üü","steam_id":76561198058199952,"connected_time":536000000000,"state":"active","ping":52},{"user_id":172,"name":"RagingBagon","steam_id":76561198255453127,"connected_time":2733000000000,"state":"active","ping":77},{"user_id":161,"name":"liliLovesUnicorns83","steam_id":76561199391478575,"connected_time":3682000000000,"state":"active","ping":75},{"user_id":170,"name":"Nico The Cheese","steam_id":76561199065272792,"connected_time":2789000000000,"state":"active","ping":91},{"user_id":191,"name":"The Horselords and Animal Gods","steam_id":76561197975094050,"connected_time":524000000000,"state":"active","ping":81}]},{"server_id":119,"name":"Uncletopia | Seattle | 2 | All Maps","name_short":"sea-2","host":"sea-1.us.uncletopia.com","port":27025,"enabled":true,"region":"us-west","cc":"us","latitude":47.608013,"longitude":-122.33517,"reserved":0,"last_update":"0001-01-01T00:00:00Z","name_a2s":"Uncletopia | Seattle | 2 | All Maps","protocol":17,"map":"pl_frontier_final","folder":"tf","game":"Team Fortress","app_id":440,"player_count":0,"max_players":24,"Bots":0,"server_type":"Dedicated","server_os":"Linux","password":true,"vac":true,"version":"7882260","steam_id":85568392924469998,"keywords":["nocrits","nodmgspread","payload","uncletopia"],"game_id":440,"stv_port":27026,"stv_name":"Uncletopia | Seattle | 2 | All Maps | STV","players":null},{"server_id":406,"name":"Uncletopia | Seattle | 3 | Stopwatch Beta","name_short":"sea-3","host":"sea-1.us.uncletopia.com","port":27035,"enabled":true,"region":"us-west","cc":"us","latitude":47.608013,"longitude":-122.33517,"reserved":0,"last_update":"0001-01-01T00:00:00Z","name_a2s":"Uncletopia | Seattle | 3 | Stopwatch Beta","protocol":17,"map":"cp_snakewater_final1","folder":"tf","game":"Team Fortress","app_id":440,"player_count":0,"max_players":24,"Bots":0,"server_type":"Dedicated","server_os":"Linux","password":true,"vac":true,"version":"7882260","steam_id":85568392924515217,"keywords":["cp","nocrits","nodmgspread","uncletopia"],"game_id":440,"stv_port":27036,"stv_name":"Uncletopia | Seattle | 3 | Stopwatch Beta | STV","players":null},{"server_id":17,"name":"Uncletopia | San Francisco | 1 | All Maps","name_short":"sfo-1","host":"sfo-1.us.uncletopia.com","port":27015,"enabled":true,"region":"us-west","cc":"us","latitude":37.77397,"longitude":-122.4313,"reserved":0,"last_update":"0001-01-01T00:00:00Z","name_a2s":"Uncletopia | San Francisco | 1 | All Maps","protocol":17,"map":"cp_process_final","folder":"tf","game":"Team Fortress","app_id":440,"player_count":0,"max_players":24,"Bots":0,"server_type":"Dedicated","server_os":"Linux","password":true,"vac":true,"version":"7757534","steam_id":85568392924469999,"keywords":["cp","nocrits","nodmgspread","uncletopia"],"game_id":440,"stv_port":27016,"stv_name":"Uncletopia | San Francisco | 1 | All Maps | STV","players":null},{"server_id":18,"name":"Uncletopia | San Francisco | 2 | All Maps","name_short":"sfo-2","host":"sfo-1.us.uncletopia.com","port":27025,"enabled":true,"region":"us-west","cc":"us","latitude":37.77397,"longitude":-122.4313,"reserved":0,"last_update":"0001-01-01T00:00:00Z","name_a2s":"Uncletopia | San Francisco | 2 | All Maps","protocol":17,"map":"koth_highpass","folder":"tf","game":"Team Fortress","app_id":440,"player_count":0,"max_players":24,"Bots":0,"server_type":"Dedicated","server_os":"Linux","password":true,"vac":true,"version":"7757534","steam_id":85568392924470000,"keywords":["cp","nocrits","nodmgspread","uncletopia"],"game_id":440,"stv_port":27026,"stv_name":"Uncletopia | San Francisco | 2 | All Maps | STV","players":null},{"server_id":19,"name":"Uncletopia | San Francisco | 3 | Stopwatch Beta","name_short":"sfo-3","host":"sfo-1.us.uncletopia.com","port":27035,"enabled":true,"region":"us-west","cc":"us","latitude":37.77397,"longitude":-122.4313,"reserved":0,"last_update":"0001-01-01T00:00:00Z","name_a2s":"Uncletopia | San Francisco | 3 | Stopwatch Beta","protocol":17,"map":"koth_lakeside_final","folder":"tf","game":"Team Fortress","app_id":440,"player_count":0,"max_players":24,"Bots":0,"server_type":"Dedicated","server_os":"Linux","password":true,"vac":true,"version":"7757534","steam_id":85568392924742824,"keywords":["cp","nocrits","nodmgspread","uncletopia"],"game_id":440,"stv_port":27036,"stv_name":"Uncletopia | San Francisco | 3 | Stopwatch Beta | STV","players":null},{"server_id":20,"name":"Uncletopia | San Francisco | 4 | Community","name_short":"sfo-4","host":"sfo-1.us.uncletopia.com","port":27045,"enabled":true,"region":"us-west","cc":"us","latitude":37.77397,"longitude":-122.4313,"reserved":0,"last_update":"0001-01-01T00:00:00Z","name_a2s":"Uncletopia | San Francisco | 4 | Community","protocol":17,"map":"cp_altitude","folder":"tf","game":"Team Fortress","app_id":440,"player_count":0,"max_players":24,"Bots":0,"server_type":"Dedicated","server_os":"Linux","password":true,"vac":true,"version":"7757534","steam_id":85568392924742826,"keywords":["cp","nocrits","nodmgspread","uncletopia"],"game_id":440,"stv_port":27046,"stv_name":"Uncletopia | San Francisco | 4 | Community | STV","players":null},{"server_id":141,"name":"Uncletopia | Sydney | 1 | All Maps","name_short":"syd-1","host":"syd-1.au.uncletopia.com","port":27015,"enabled":true,"region":"au","cc":"au","latitude":-33.865143,"longitude":151.2099,"reserved":0,"last_update":"0001-01-01T00:00:00Z","name_a2s":"Uncletopia | Sydney | 1 | All Maps","protocol":17,"map":"cp_snakewater_final1","folder":"tf","game":"Team Fortress","app_id":440,"player_count":0,"max_players":24,"Bots":0,"server_type":"Dedicated","server_os":"Linux","password":true,"vac":true,"version":"7882260","steam_id":85568392924470001,"keywords":["cp","nocrits","nodmgspread","uncletopia"],"game_id":440,"stv_port":27016,"stv_name":"Uncletopia | Sydney | 1 | All Maps | STV","players":null},{"server_id":123,"name":"Uncletopia | Sydney | 2 | All Maps","name_short":"syd-2","host":"syd-1.au.uncletopia.com","port":27025,"enabled":true,"region":"au","cc":"au","latitude":-33.865143,"longitude":151.2099,"reserved":0,"last_update":"0001-01-01T00:00:00Z","name_a2s":"Uncletopia | Sydney | 2 | All Maps","protocol":17,"map":"pl_barnblitz","folder":"tf","game":"Team Fortress","app_id":440,"player_count":0,"max_players":24,"Bots":0,"server_type":"Dedicated","server_os":"Linux","password":true,"vac":true,"version":"7882260","steam_id":85568392924470002,"keywords":["nocrits","nodmgspread","payload","uncletopia"],"game_id":440,"stv_port":27026,"stv_name":"Uncletopia | Sydney | 2 | All Maps | STV","players":null},{"server_id":395,"name":"Uncletopia | Sydney | 3 | All Maps","name_short":"syd-3","host":"syd-1.au.uncletopia.com","port":27035,"enabled":true,"region":"au","cc":"au","latitude":-33.865143,"longitude":151.2099,"reserved":0,"last_update":"0001-01-01T00:00:00Z","name_a2s":"Uncletopia | Sydney | 3 | All Maps","protocol":17,"map":"pl_badwater","folder":"tf","game":"Team Fortress","app_id":440,"player_count":0,"max_players":24,"Bots":0,"server_type":"Dedicated","server_os":"Linux","password":true,"vac":true,"version":"7882260","steam_id":85568392925194467,"keywords":["nocrits","nodmgspread","payload","uncletopia"],"game_id":440,"stv_port":27036,"stv_name":"Uncletopia | Sydney | 3 | All Maps | STV","players":null},{"server_id":396,"name":"Uncletopia | Sydney | 4 | All Maps","name_short":"syd-4","host":"syd-1.au.uncletopia.com","port":27045,"enabled":true,"region":"au","cc":"au","latitude":-33.865143,"longitude":151.2099,"reserved":0,"last_update":"0001-01-01T00:00:00Z","name_a2s":"Uncletopia | Sydney | 4 | All Maps","protocol":17,"map":"cp_dustbowl","folder":"tf","game":"Team Fortress","app_id":440,"player_count":0,"max_players":24,"Bots":0,"server_type":"Dedicated","server_os":"Linux","password":true,"vac":true,"version":"7882260","steam_id":85568392925397958,"keywords":["cp","nocrits","nodmgspread","uncletopia"],"game_id":440,"stv_port":27046,"stv_name":"Uncletopia | Sydney | 4 | All Maps | STV","players":null},{"server_id":58,"name":"Uncletopia | Sydney | 5 | Stopwatch Beta","name_short":"syd-5","host":"syd-1.au.uncletopia.com","port":27055,"enabled":true,"region":"au","cc":"au","latitude":-33.865143,"longitude":151.2099,"reserved":0,"last_update":"0001-01-01T00:00:00Z","name_a2s":"Uncletopia | Sydney | 5 | Stopwatch Beta","protocol":17,"map":"workshop/pl_barnblitz_pro7.ugc582280235","folder":"tf","game":"Team Fortress","app_id":440,"player_count":0,"max_players":24,"Bots":0,"server_type":"Dedicated","server_os":"Linux","password":true,"vac":true,"version":"7882260","steam_id":85568392925397959,"keywords":["nocrits","nodmgspread","payload","uncletopia"],"game_id":440,"stv_port":27056,"stv_name":"Uncletopia | Sydney | 5 | Stopwatch Beta | STV","players":null},{"server_id":59,"name":"Uncletopia | Sydney | 6 | Community","name_short":"syd-6","host":"syd-1.au.uncletopia.com","port":27065,"enabled":true,"region":"au","cc":"au","latitude":-33.865143,"longitude":151.2099,"reserved":0,"last_update":"0001-01-01T00:00:00Z","name_a2s":"Uncletopia | Sydney | 6 | Community","protocol":17,"map":"pl_snowycoast","folder":"tf","game":"Team Fortress","app_id":440,"player_count":0,"max_players":24,"Bots":0,"server_type":"Dedicated","server_os":"Linux","password":true,"vac":true,"version":"7882260","steam_id":85568392925397960,"keywords":["nocrits","nodmgspread","payload","uncletopia"],"game_id":440,"stv_port":27066,"stv_name":"Uncletopia | Sydney | 6 | Community | STV","players":null},{"server_id":49,"name":"Uncletopia | Warsaw | 1 | All Maps","name_short":"waw-1","host":"waw-1.pl.uncletopia.com","port":27015,"enabled":true,"region":"eu","cc":"pl","latitude":52.2297,"longitude":21.017532,"reserved":0,"last_update":"0001-01-01T00:00:00Z","name_a2s":"","protocol":0,"map":"","folder":"","game":"","app_id":0,"player_count":0,"max_players":0,"Bots":0,"server_type":"","server_os":"","password":false,"vac":false,"version":"","steam_id":0,"keywords":null,"game_id":0,"stv_port":0,"stv_name":"","players":null},{"server_id":50,"name":"Uncletopia | Warsaw | 2 | All Maps","name_short":"waw-2","host":"waw-1.pl.uncletopia.com","port":27025,"enabled":true,"region":"eu","cc":"pl","latitude":52.2297,"longitude":21.017532,"reserved":0,"last_update":"0001-01-01T00:00:00Z","name_a2s":"Uncletopia | Warsaw | 2 | All Maps","protocol":17,"map":"koth_lakeside_final","folder":"tf","game":"Team Fortress","app_id":440,"player_count":0,"max_players":24,"Bots":0,"server_type":"Dedicated","server_os":"Linux","password":true,"vac":true,"version":"7882260","steam_id":85568392925397851,"keywords":["cp","nocrits","nodmgspread","uncletopia"],"game_id":440,"stv_port":27026,"stv_name":"Uncletopia | Warsaw | 2 | All Maps | STV","players":null},{"server_id":51,"name":"Uncletopia | Warsaw | 3 | All Maps","name_short":"waw-3","host":"waw-1.pl.uncletopia.com","port":27035,"enabled":true,"region":"eu","cc":"pl","latitude":52.2297,"longitude":21.017532,"reserved":0,"last_update":"0001-01-01T00:00:00Z","name_a2s":"Uncletopia | Warsaw | 3 | All Maps","protocol":17,"map":"koth_viaduct","folder":"tf","game":"Team Fortress","app_id":440,"player_count":0,"max_players":24,"Bots":0,"server_type":"Dedicated","server_os":"Linux","password":true,"vac":true,"version":"7882260","steam_id":85568392925397852,"keywords":["cp","nocrits","nodmgspread","uncletopia"],"game_id":440,"stv_port":27036,"stv_name":"Uncletopia | Warsaw | 3 | All Maps | STV","players":null},{"server_id":52,"name":"Uncletopia | Warsaw | 4 | All Maps","name_short":"waw-4","host":"waw-1.pl.uncletopia.com","port":27045,"enabled":true,"region":"eu","cc":"pl","latitude":52.2297,"longitude":21.017532,"reserved":0,"last_update":"0001-01-01T00:00:00Z","name_a2s":"Uncletopia | Warsaw | 4 | All Maps","protocol":17,"map":"koth_highpass","folder":"tf","game":"Team Fortress","app_id":440,"player_count":0,"max_players":24,"Bots":0,"server_type":"Dedicated","server_os":"Linux","password":true,"vac":true,"version":"7882260","steam_id":85568392925397853,"keywords":["cp","nocrits","nodmgspread","uncletopia"],"game_id":440,"stv_port":27046,"stv_name":"Uncletopia | Warsaw | 4 | All Maps | STV","players":null},{"server_id":53,"name":"Uncletopia | Warsaw | 5 | Stopwatch Beta","name_short":"waw-5","host":"waw-1.pl.uncletopia.com","port":27055,"enabled":true,"region":"eu","cc":"pl","latitude":52.2297,"longitude":21.017532,"reserved":0,"last_update":"0001-01-01T00:00:00Z","name_a2s":"Uncletopia | Warsaw | 5 | Stopwatch Beta","protocol":17,"map":"cp_mountainlab","folder":"tf","game":"Team Fortress","app_id":440,"player_count":0,"max_players":24,"Bots":0,"server_type":"Dedicated","server_os":"Linux","password":true,"vac":true,"version":"7882260","steam_id":85568392925397854,"keywords":["cp","nocrits","nodmgspread","uncletopia"],"game_id":440,"stv_port":27056,"stv_name":"Uncletopia | Warsaw | 5 | Stopwatch Beta | STV","players":null},{"server_id":54,"name":"Uncletopia | Warsaw | 6 | Community","name_short":"waw-6","host":"waw-1.pl.uncletopia.com","port":27065,"enabled":true,"region":"eu","cc":"pl","latitude":52.2297,"longitude":21.017532,"reserved":0,"last_update":"0001-01-01T00:00:00Z","name_a2s":"Uncletopia | Warsaw | 6 | Community","protocol":17,"map":"koth_viaduct","folder":"tf","game":"Team Fortress","app_id":440,"player_count":0,"max_players":24,"Bots":0,"server_type":"Dedicated","server_os":"Linux","password":true,"vac":true,"version":"7882260","steam_id":85568392925397856,"keywords":["cp","nocrits","nodmgspread","uncletopia"],"game_id":440,"stv_port":27066,"stv_name":"Uncletopia | Warsaw | 6 | Community | STV","players":null}]}