{"status":true,"message":"","result":[{"server_id":9,"name":"Uncletopia | Atlanta | 1 | All Maps","name_short":"atl-1","host":"atl-1.us.uncletopia.com","port":27015,"enabled":true,"region":"us-east","cc":"us","latitude":33.753746,"longitude":-84.38633,"reserved":0,"last_update":"0001-01-01T00:00:00Z","name_a2s":"Uncletopia | Atlanta | 1 | All Maps","protocol":17,"map":"cp_mountainlab","folder":"tf","game":"Team Fortress","app_id":440,"player_count":24,"max_players":24,"Bots":0,"server_type":"Dedicated","server_os":"Linux","password":true,"vac":true,"version":"7757534","steam_id":85568392924469982,"keywords":["cp","nocrits","nodmgspread","uncletopia"],"game_id":440,"stv_port":27016,"stv_name":"Uncletopia | Atlanta | 1 | All Maps | STV","players":[{"user_id":60,"name":"The Undead Knight","steam_id":76561198010654500,"connected_time":1568000000000,"state":"active","ping":70},{"user_id":26,"name":"Uung","steam_id":76561198183956731,"connected_time":4031000000000,"state":"active","ping":46},{"user_id":65,"name":"Jin Gulilo","steam_id":76561198065151242,"connected_time":816000000000,"state":"active","ping":69},{"user_id":68,"name":"ShredMaan","steam_id":76561198429982138,"connected_time":786000000000,"state":"active","ping":118},{"user_id":34,"name":"-Joker-","steam_id":76561198865501612,"connected_time":2455000000000,"state":"active","ping":75},{"user_id":70,"name":"MSIBoys","steam_id":76561198213692935,"connected_time":781000000000,"state":"active","ping":114},{"user_id":66,"name":"Yvng Lean","steam_id":76561198229509056,"connected_time":805000000000,"state":"active","ping":52},{"user_id":67,"name":"Whoa","steam_id":76561197970353496,"connected_time":793000000000,"state":"active","ping":74},{"user_id":71,"name":"crippling fumo addiction","steam_id":76561198115874625,"connected_time":732000000000,"state":"active","ping":61},{"user_id":40,"name":"Good Mudkip","steam_id":76561198439784449,"connected_time":2205000000000,"state":"active","ping":118},{"user_id":72,"name":"Junpei","steam_id":76561198045726378,"connected_time":666000000000,"state":"active","ping":53},{"user_id":73,"name":"SyberBunn","steam_id":76561198287851222,"connected_time":630000000000,"state":"active","ping":69},{"user_id":43,"name":"Mus Cogitabat","steam_id":76561198141578759,"connected_time":2128000000000,"state":"active","ping":92},{"user_id":45,"name":"Mara Roo","steam_id":76561198279341789,"connected_time":2099000000000,"state":"active","ping":90},{"user_id":74,"name":"1920","steam_id":76561198111669774,"connected_time":601000000000,"state":"active","ping":61},{"user_id":51,"name":"B-Side Babies","steam_id":76561197992591984,"connected_time":2003000000000,"state":"active","ping":83},{"user_id":48,"name":"Red","steam_id":76561199087284519,"connected_time":2078000000000,"state":"active","ping":174},{"user_id":49,"name":"Protoshake","steam_id":76561198840276176,"connected_time":2076000000000,"state":"active","ping":70},{"user_id":64,"name":"barbara","steam_id":76561198072417792,"connected_time":882000000000,"state":"active","ping":109},{"user_id":77,"name":"SamFec","steam_id":76561198414538682,"connected_time":405000000000,"state":"active","ping":98},{"user_id":53,"name":"Drako","steam_id":76561198331980026,"connected_time":1980000000000,"state":"active","ping":83},{"user_id":63,"name":"BLU1 l Epifiny","steam_id":76561198027958086,"connected_time":1016000000000,"state":"active","ping":90},{"user_id":78,"name":"MyamE","steam_id":76561198133278462,"connected_time":396000000000,"state":"active","ping":72},{"user_id":76,"name":"Bobby","steam_id":76561198164004939,"connected_time":517000000000,"state":"active","ping":147}]},{"server_id":400,"name":"Uncletopia | Atlanta | 3 | Stopwatch Beta","name_short":"atl-3","host":"atl-1.us.uncletopia.com","port":27035,"enabled":true,"region":"us-east","cc":"us","latitude":33.753746,"longitude":-84.38633,"reserved":0,"last_update":"0001-01-01T00:00:00Z","name_a2s":"Uncletopia | Atlanta | 3 | Stopwatch Beta","protocol":17,"map":"pl_upward","folder":"tf","game":"Team Fortress","app_id":440,"player_count":0,"max_players":24,"Bots":0,"server_type":"Dedicated","server_os":"Linux","password":true,"vac":true,"version":"7757534","steam_id":85568392924515187,"keywords":["nocrits","nodmgspread","payload","uncletopia"],"game_id":440,"stv_port":27036,"stv_name":"Uncletopia | Atlanta | 3 | Stopwatch Beta | STV","players":null},{"server_id":401,"name":"Uncletopia | Atlanta | 4 | No Payload","name_short":"atl-4","host":"atl-1.us.uncletopia.com","port":27045,"enabled":true,"region":"us-east","cc":"us","latitude":33.753746,"longitude":-84.38633,"reserved":0,"last_update":"0001-01-01T00:00:00Z","name_a2s":"Uncletopia | Atlanta | 4 | No Payload","protocol":17,"map":"pl_pier","folder":"tf","game":"Team Fortress","app_id":440,"player_count":0,"max_players":24,"Bots":0,"server_type":"Dedicated","server_os":"Linux","password":true,"vac":true,"version":"7723704","steam_id":85568392924515188,"keywords":["nocrits","nodmgspread","payload","uncletopia"],"game_id":440,"stv_port":27046,"stv_name":"Uncletopia | Atlanta | 4 | No Payload | STV","players":null},{"server_id":2,"name":"Uncletopia | Chicago | 1 | All Maps","name_short":"chi-1","host":"chi-1.us.uncletopia.com","port":27015,"enabled":true,"region":"us-central","cc":"us","latitude":41.881832,"longitude":-87.62318,"reserved":0,"last_update":"0001-01-01T00:00:00Z","name_a2s":"Uncletopia | Chicago | 1 | All Maps","protocol":17,"map":"pl_barnblitz","folder":"tf","game":"Team Fortress","app_id":440,"player_count":24,"max_players":24,"Bots":0,"server_type":"Dedicated","server_os":"Linux","password":true,"vac":true,"version":"7757534","steam_id":85568392924469984,"keywords":["nocrits","nodmgspread","payload","uncletopia"],"game_id":440,"stv_port":27016,"stv_name":"Uncletopia | Chicago | 1 | All Maps | STV","players":[{"user_id":183,"name":"Astoriae!","steam_id":76561199090168858,"connected_time":5783000000000,"state":"active","ping":65},{"user_id":222,"name":"Iggy Dogg","steam_id":76561198059602545,"connected_time":2545000000000,"state":"active","ping":53},{"user_id":239,"name":"MeatBag","steam_id":76561198010204565,"connected_time":1067000000000,"state":"active","ping":67},{"user_id":230,"name":"SenTreats","steam_id":76561198085835841,"connected_time":1741000000000,"state":"active","ping":117},{"user_id":193,"name":"Nnyllazxz","steam_id":76561198247797436,"connected_time":4876000000000,"state":"active","ping":90},{"user_id":232,"name":"I Swear I'm not a furry","steam_id":76561198078902125,"connected_time":1577000000000,"state":"active","ping":105},{"user_id":229,"name":"capybara","steam_id":76561198798828328,"connected_time":1774000000000,"state":"active","ping":49},{"user_id":225,"name":"Omni-S","steam_id":76561198082396372,"connected_time":2197000000000,"state":"active","ping":76},{"user_id":243,"name":"Overduecat","steam_id":76561198092452824,"connected_time":263000000000,"state":"active","ping":70},{"user_id":240,"name":"THRILLHO","steam_id":76561198371663047,"connected_time":1057000000000,"state":"active","ping":63},{"user_id":180,"name":"Turbo Sun Geyser","steam_id":76561198013975080,"connected_time":5788000000000,"state":"active","ping":73},{"user_id":208,"name":"Ras","steam_id":76561198123546775,"connected_time":3235000000000,"state":"active","ping":73},{"user_id":218,"name":"Dietrich","steam_id":76561198028163840,"connected_time":2786000000000,"state":"active","ping":90},{"user_id":236,"name":"Yongle","steam_id":76561198068591156,"connected_time":1288000000000,"state":"active","ping":54},{"user_id":237,"name":"TeeTree","steam_id":76561198862307874,"connected_time":1169000000000,"state":"active","ping":61},{"user_id":245,"name":"tasty","steam_id":76561198083839061,"connected_time":249000000000,"state":"active","ping":60},{"user_id":200,"name":"ZofoJackson","steam_id":76561197998366861,"connected_time":4161000000000,"state":"active","ping":60},{"user_id":233,"name":"Niterux","steam_id":76561198101291574,"connected_time":1574000000000,"state":"active","ping":85},{"user_id":241,"name":"Guidry Gamer","steam_id":76561198946458082,"connected_time":354000000000,"state":"active","ping":109},{"user_id":132,"name":"Rornir","steam_id":76561198081829615,"connected_time":9233000000000,"state":"active","ping":36},{"user_id":246,"name":"three three","steam_id":76561198177354155,"connected_time":53000000000,"state":"active","ping":61},{"user_id":242,"name":"ZeFizzyPop‚Ñ¢","steam_id":76561198258104981,"connected_time":338000000000,"state":"active","ping":45},{"user_id":217,"name":"nalezinik","steam_id":76561198030026119,"connected_time":3005000000000,"state":"active","ping":61},{"user_id":235,"name":"octanyl","steam_id":76561199239926014,"connected_time":1350000000000,"state":"active","ping":68}]},{"server_id":106,"name":"Uncletopia | Chicago | 2 | All Maps","name_short":"chi-2","host":"chi-1.us.uncletopia.com","port":27025,"enabled":true,"region":"us-central","cc":"us","latitude":41.881832,"longitude":-87.62318,"reserved":0,"last_update":"0001-01-01T00:00:00Z","name_a2s":"Uncletopia | Chicago | 2 | All Maps","protocol":17,"map":"pl_barnblitz","folder":"tf","game":"Team Fortress","app_id":440,"player_count":24,"max_players":24,"Bots":0,"server_type":"Dedicated","server_os":"Linux","password":true,"vac":true,"version":"7757534","steam_id":85568392924469985,"keywords":["nocrits","nodmgspread","payload","uncletopia"],"game_id":440,"stv_port":27026,"stv_name":"Uncletopia | Chicago | 2 | All Maps | STV","players":[{"user_id":435,"name":"ToastyBish","steam_id":76561198185327309,"connected_time":7000000000,"state":"active","ping":111},{"user_id":368,"name":"mae","steam_id":76561198425739511,"connected_time":4691000000000,"state":"active","ping":70},{"user_id":369,"name":"mmmmmmmmmmmmmmmmmmmmmmmmmm","steam_id":76561198044443985,"connected_time":4222000000000,"state":"active","ping":90},{"user_id":419,"name":"minihoog","steam_id":76561198102156780,"connected_time":604000000000,"state":"active","ping":68},{"user_id":429,"name":"heimdall","steam_id":76561198069380992,"connected_time":79000000000,"state":"active","ping":89},{"user_id":433,"name":"KirriLuv","steam_id":76561199152138301,"connected_time":44000000000,"state":"spawning","ping":77},{"user_id":431,"name":"Animal Slices","steam_id":76561198137545511,"connected_time":71000000000,"state":"active","ping":60},{"user_id":396,"name":"Hipp-Dip","steam_id":76561199027874633,"connected_time":1439000000000,"state":"active","ping":59},{"user_id":397,"name":"CerisaCo","steam_id":76561198082526720,"connected_time":1431000000000,"state":"active","ping":68},{"user_id":412,"name":"CykoCI","steam_id":76561199069161030,"connected_time":1232000000000,"state":"active","ping":98},{"user_id":400,"name":"hayo","steam_id":76561198101672397,"connected_time":1377000000000,"state":"active","ping":83},{"user_id":422,"name":"Wug","steam_id":76561198084112264,"connected_time":568000000000,"state":"active","ping":75},{"user_id":403,"name":"The Boy Who Fibbed","steam_id":76561197967264952,"connected_time":1349000000000,"state":"active","ping":74},{"user_id":404,"name":"Platinum","steam_id":76561198052463484,"connected_time":1321000000000,"state":"active","ping":106},{"user_id":426,"name":"PrinceGrotle","steam_id":76561198206131603,"connected_time":320000000000,"state":"active","ping":76},{"user_id":407,"name":"bathroom floor taste tester","steam_id":76561199077613614,"connected_time":1297000000000,"state":"active","ping":199},{"user_id":408,"name":"Admiral Angry","steam_id":76561198058199206,"connected_time":1277000000000,"state":"active","ping":54},{"user_id":418,"name":"Marky Mark","steam_id":76561198019954835,"connected_time":678000000000,"state":"active","ping":70},{"user_id":415,"name":"tim-","steam_id":76561199119101315,"connected_time":824000000000,"state":"active","ping":76},{"user_id":417,"name":"‚ñ≤‚ñº‚ñ≤ Paul Atreideeznuts","steam_id":76561198015714075,"connected_time":701000000000,"state":"active","ping":80},{"user_id":424,"name":"Sturt","steam_id":76561198418100672,"connected_time":409000000000,"state":"active","ping":58},{"user_id":391,"name":"Warzard","steam_id":76561199154051413,"connected_time":1584000000000,"state":"active","ping":110},{"user_id":432,"name":"SewerNinja","steam_id":76561198015268145,"connected_time":58000000000,"state":"spawning","ping":88},{"user_id":434,"name":"xXshrek_jrXx","steam_id":76561199241882759,"connected_time":43000000000,"state":"active","ping":110}]},{"server_id":402,"name":"Uncletopia | Chicago | 3 | All Maps","name_short":"chi-3","host":"chi-1.us.uncletopia.com","port":27035,"enabled":true,"region":"us-central","cc":"us","latitude":41.881832,"longitude":-87.62318,"reserved":0,"last_update":"0001-01-01T00:00:00Z","name_a2s":"Uncletopia | Chicago | 3 | All Maps","protocol":17,"map":"koth_viaduct","folder":"tf","game":"Team Fortress","app_id":440,"player_count":0,"max_players":24,"Bots":0,"server_type":"Dedicated","server_os":"Linux","password":true,"vac":true,"version":"7757534","steam_id":85568392924515191,"keywords":["cp","nocrits","nodmgspread","uncletopia"],"game_id":440,"stv_port":27036,"stv_name":"Uncletopia | Chicago | 3 | All Maps | STV","players":null},{"server_id":403,"name":"Uncletopia | Chicago | 4 | All Maps","name_short":"chi-4","host":"chi-1.us.uncletopia.com","port":27045,"enabled":true,"region":"us-central","cc":"us","latitude":41.881832,"longitude":-87.62318,"reserved":0,"last_update":"0001-01-01T00:00:00Z","name_a2s":"Uncletopia | Chicago | 4 | All Maps","protocol":17,"map":"pl_frontier_final","folder":"tf","game":"Team Fortress","app_id":440,"player_count":4,"max_players":24,"Bots":0,"server_type":"Dedicated","server_os":"Linux","password":true,"vac":true,"version":"7757534","steam_id":85568392924515193,"keywords":["nocrits","nodmgspread","payload","uncletopia"],"game_id":440,"stv_port":27046,"stv_name":"Uncletopia | Chicago | 4 | All Maps | STV","players":[{"user_id":9,"name":"volta","steam_id":76561199214283884,"connected_time":476000000000,"state":"active","ping":95},{"user_id":10,"name":"Digio","steam_id":76561199065101964,"connected_time":408000000000,"state":"active","ping":179},{"user_id":11,"name":"twinkluvr69","steam_id":76561198068712028,"connected_time":186000000000,"state":"active","ping":61},{"user_id":13,"name":"The_Gilded_Warrior","steam_id":76561199055082197,"connected_time":87000000000,"state":"active","ping":119}]},{"server_id":36,"name":"Uncletopia | Chicago | 5 | All Maps","name_short":"chi-5","host":"chi-2.us.uncletopia.com","port":27015,"enabled":true,"region":"us-central","cc":"us","latitude":41.881832,"longitude":-87.62318,"reserved":0,"last_update":"0001-01-01T00:00:00Z","name_a2s":"Uncletopia | Chicago | 5 | All Maps","protocol":17,"map":"koth_cascade","folder":"tf","game":"Team Fortress","app_id":440,"player_count":0,"max_players":24,"Bots":0,"server_type":"Dedicated","server_os":"Linux","password":true,"vac":true,"version":"7757534","steam_id":85568392924866362,"keywords":["cp","nocrits","nodmgspread","uncletopia"],"game_id":440,"stv_port":27016,"stv_name":"Uncletopia | Chicago | 5 | All Maps | STV","players":null},{"server_id":37,"name":"Uncletopia | Chicago | 6 | All Maps","name_short":"chi-6","host":"chi-2.us.uncletopia.com","port":27025,"enabled":true,"region":"us-central","cc":"us","latitude":41.881832,"longitude":-87.62318,"reserved":0,"last_update":"0001-01-01T00:00:00Z","name_a2s":"Uncletopia | Chicago | 6 | All Maps","protocol":17,"map":"pl_upward","folder":"tf","game":"Team Fortress","app_id":440,"player_count":24,"max_players":24,"Bots":0,"server_type":"Dedicated","server_os":"Linux","password":true,"vac":true,"version":"7757534","steam_id":85568392924866363,"keywords":["nocrits","nodmgspread","payload","uncletopia"],"game_id":440,"stv_port":27026,"stv_name":"Uncletopia | Chicago | 6 | All Maps | STV","players":[{"user_id":61,"name":"Johnny Lawrence #JohnnyMaxxing","steam_id":76561199367141671,"connected_time":681000000000,"state":"active","ping":60},{"user_id":66,"name":"Herr Doktor","steam_id":76561198025473302,"connected_time":339000000000,"state":"active","ping":86},{"user_id":6,"name":"Josh Diddily","steam_id":76561198286957487,"connected_time":4340000000000,"state":"active","ping":112},{"user_id":46,"name":"YHH COZY","steam_id":76561198310880776,"connected_time":2157000000000,"state":"active","ping":72},{"user_id":19,"name":"JustCoffee","steam_id":76561199389473180,"connected_time":3240000000000,"state":"active","ping":68},{"user_id":10,"name":"CitrusFizz","steam_id":76561198071157189,"connected_time":3727000000000,"state":"active","ping":107},{"user_id":16,"name":"Watatsuki no Yorihime","steam_id":76561198063315650,"connected_time":3491000000000,"state":"active","ping":79},{"user_id":65,"name":"dave strider","steam_id":76561198065112186,"connected_time":453000000000,"state":"active","ping":76},{"user_id":63,"name":"McNamJam","steam_id":76561198028128686,"connected_time":647000000000,"state":"active","ping":94},{"user_id":64,"name":"Cypher","steam_id":76561197996967254,"connected_time":574000000000,"state":"active","ping":139},{"user_id":67,"name":"Eric","steam_id":76561198057717934,"connected_time":208000000000,"state":"active","ping":45},{"user_id":42,"name":"[Mar] Green","steam_id":76561198002192142,"connected_time":2361000000000,"state":"active","ping":53},{"user_id":48,"name":"Captain Red","steam_id":76561198191587983,"connected_time":1568000000000,"state":"active","ping":75},{"user_id":50,"name":"I Lead MLB In \"Bats Eaten\"","steam_id":76561198034079853,"connected_time":1456000000000,"state":"active","ping":71},{"user_id":56,"name":"fapasaurusrex","steam_id":76561197994951255,"connected_time":1090000000000,"state":"active","ping":43},{"user_id":36,"name":"iamoctopii","steam_id":76561198876901076,"connected_time":2606000000000,"state":"active","ping":127},{"user_id":29,"name":"j4miecl4rk","steam_id":76561198404312721,"connected_time":2691000000000,"state":"active","ping":54},{"user_id":58,"name":"Atlas","steam_id":76561198127975050,"connected_time":927000000000,"state":"active","ping":65},{"user_id":31,"name":"300 Ping Gaming [WLP]","steam_id":76561199042160997,"connected_time":2648000000000,"state":"active","ping":142},{"user_id":32,"name":"Divine Kitty","steam_id":76561198293490689,"connected_time":2643000000000,"state":"active","ping":116},{"user_id":53,"name":"Queen Frau the Round","steam_id":76561197999942134,"connected_time":1357000000000,"state":"active","ping":47},{"user_id":34,"name":"DJ Taj Mahal","steam_id":76561198024504491,"connected_time":2619000000000,"state":"active","ping":59},{"user_id":41,"name":"TheAceDefiant","steam_id":76561198133264734,"connected_time":2388000000000,"state":"active","ping":58},{"user_id":60,"name":"Meh","steam_id":76561198078187920,"connected_time":851000000000,"state":"active","ping":89}]},{"server_id":38,"name":"Uncletopia | Chicago | 7 | Stopwatch Beta","name_short":"chi-7","host":"chi-2.us.uncletopia.com","port":27035,"enabled":true,"region":"us-central","cc":"us","latitude":41.881832,"longitude":-87.62318,"reserved":0,"last_update":"0001-01-01T00:00:00Z","name_a2s":"Uncletopia | Chicago | 7 | Stopwatch Beta","protocol":17,"map":"pl_borneo","folder":"tf","game":"Team Fortress","app_id":440,"player_count":0,"max_players":24,"Bots":0,"server_type":"Dedicated","server_os":"Linux","password":true,"vac":true,"version":"7757534","steam_id":85568392924866364,"keywords":["nocrits","nodmgspread","payload","uncletopia"],"game_id":440,"stv_port":27036,"stv_name":"Uncletopia | Chicago | 7 | Stopwatch Beta | STV","players":null},{"server_id":39,"name":"Uncletopia | Chicago | 8 | Community","name_short":"chi-8","host":"chi-2.us.uncletopia.com","port":27045,"enabled":true,"region":"us-central","cc":"us","latitude":41.881832,"longitude":-87.62318,"reserved":0,"last_update":"0001-01-01T00:00:00Z","name_a2s":"Uncletopia | Chicago | 8 | Community","protocol":17,"map":"workshop/cp_logjam_rc12.ugc454812035","folder":"tf","game":"Team Fortress","app_id":440,"player_count":0,"max_players":24,"Bots":0,"server_type":"Dedicated","server_os":"Linux","password":true,"vac":true,"version":"7757534","steam_id":85568392924866365,"keywords":["cp","nocrits","nodmgspread","uncletopia"],"game_id":440,"stv_port":27046,"stv_name":"Uncletopia | Chicago | 8 | Community | STV","players":null},{"server_id":8,"name":"Uncletopia | Dallas | 1 | All Maps","name_short":"dal-1","host":"dal-1.us.uncletopia.com","port":27015,"enabled":true,"region":"us-central","cc":"us","latitude":32.779167,"longitude":-96.80889,"reserved":0,"last_update":"0001-01-01T00:00:00Z","name_a2s":"Uncletopia | Dallas | 1 | All Maps","protocol":17,"map":"pl_badwater","folder":"tf","game":"Team Fortress","app_id":440,"player_count":24,"max_players":24,"Bots":0,"server_type":"Dedicated","server_os":"Linux","password":true,"vac":true,"version":"7757534","steam_id":85568392924469986,"keywords":["nocrits","nodmgspread","payload","uncletopia"],"game_id":440,"stv_port":27016,"stv_name":"Uncletopia | Dallas | 1 | All Maps | STV","players":[{"user_id":102,"name":"Goldbug","steam_id":76561198025221202,"connected_time":411000000000,"state":"active","ping":89},{"user_id":99,"name":"OwlOddity","steam_id":76561198389068053,"connected_time":820000000000,"state":"active","ping":48},{"user_id":82,"name":"NyanDragon","steam_id":76561198067854858,"connected_time":1856000000000,"state":"active","ping":87},{"user_id":47,"name":"Fablor","steam_id":76561198175644926,"connected_time":4271000000000,"state":"active","ping":89},{"user_id":58,"name":"yitz","steam_id":76561198375575841,"connected_time":3533000000000,"state":"active","ping":75},{"user_id":96,"name":"scrapheap","steam_id":76561198202407087,"connected_time":1010000000000,"state":"active","ping":97},{"user_id":101,"name":"Xeno","steam_id":76561198089138085,"connected_time":605000000000,"state":"active","ping":88},{"user_id":23,"name":"fuckterry","steam_id":76561198271957738,"connected_time":5672000000000,"state":"active","ping":65},{"user_id":30,"name":"Dinn","steam_id":76561198159566867,"connected_time":5478000000000,"state":"active","ping":108},{"user_id":77,"name":"Jello","steam_id":76561198890633732,"connected_time":2557000000000,"state":"active","ping":60},{"user_id":83,"name":"Lego B1 Battle Droid","steam_id":76561198321571518,"connected_time":1815000000000,"state":"active","ping":102},{"user_id":100,"name":"Tyrone","steam_id":76561198189429665,"connected_time":688000000000,"state":"active","ping":67},{"user_id":85,"name":"lukamine","steam_id":76561198166827208,"connected_time":1769000000000,"state":"active","ping":91},{"user_id":86,"name":"‚ò∞vil ‚ÜÉood  ‚∏∏üíÄ‚∏∏","steam_id":76561197963666090,"connected_time":1765000000000,"state":"active","ping":69},{"user_id":87,"name":"Sh3ba Spaniel","steam_id":76561198047412394,"connected_time":1701000000000,"state":"active","ping":83},{"user_id":33,"name":"SKIN IS WHERE THE FLAVOR IS","steam_id":76561198115842661,"connected_time":5460000000000,"state":"active","ping":91},{"user_id":64,"name":"pearly","steam_id":76561198017274978,"connected_time":3357000000000,"state":"active","ping":95},{"user_id":103,"name":"-TL- $W4RM","steam_id":76561198019435762,"connected_time":244000000000,"state":"active","ping":88},{"user_id":78,"name":"Caoticaos","steam_id":76561198114800227,"connected_time":2542000000000,"state":"active","ping":142},{"user_id":89,"name":"BurnN8or101","steam_id":76561198132668224,"connected_time":1685000000000,"state":"active","ping":84},{"user_id":90,"name":"LightBulbGlue #SaveTF2","steam_id":76561198329573529,"connected_time":1677000000000,"state":"active","ping":87},{"user_id":66,"name":"The Horselords and Animal Gods","steam_id":76561197975094050,"connected_time":3260000000000,"state":"active","ping":85},{"user_id":97,"name":"Dr. Bonair","steam_id":76561198129237487,"connected_time":878000000000,"state":"active","ping":66},{"user_id":80,"name":"Certified Hood Classic","steam_id":76561199086159354,"connected_time":1969000000000,"state":"active","ping":56}]},{"server_id":108,"name":"Uncletopia | Dallas | 2 | All Maps","name_short":"dal-2","host":"dal-1.us.uncletopia.com","port":27025,"enabled":true,"region":"us-central","cc":"us","latitude":32.779167,"longitude":-96.80889,"reserved":0,"last_update":"0001-01-01T00:00:00Z","name_a2s":"Uncletopia | Dallas | 2 | All Maps","protocol":17,"map":"cp_altitude","folder":"tf","game":"Team Fortress","app_id":440,"player_count":0,"max_players":24,"Bots":0,"server_type":"Dedicated","server_os":"Linux","password":true,"vac":true,"version":"7757534","steam_id":85568392924469988,"keywords":["cp","nocrits","nodmgspread","uncletopia"],"game_id":440,"stv_port":27026,"stv_name":"Uncletopia | Dallas | 2 | All Maps | STV","players":null},{"server_id":5,"name":"Uncletopia | Frankfurt | 1 | All Maps","name_short":"frk-1","host":"frk-1.de.uncletopia.com","port":27015,"enabled":true,"region":"eu","cc":"de","latitude":50.110924,"longitude":8.682127,"reserved":0,"last_update":"0001-01-01T00:00:00Z","name_a2s":"Uncletopia | Frankfurt | 1 | All Maps","protocol":17,"map":"cp_snakewater_final1","folder":"tf","game":"Team Fortress","app_id":440,"player_count":24,"max_players":24,"Bots":0,"server_type":"Dedicated","server_os":"Linux","password":true,"vac":true,"version":"7757534","steam_id":85568392924469989,"keywords":["cp","nocrits","nodmgspread","uncletopia"],"game_id":440,"stv_port":27016,"stv_name":"Uncletopia | Frankfurt | 1 | All Maps | STV","players":[{"user_id":397,"name":"Solid","steam_id":76561198357049292,"connected_time":863000000000,"state":"active","ping":91},{"user_id":380,"name":"NiNY√É","steam_id":76561197995685294,"connected_time":1864000000000,"state":"active","ping":59},{"user_id":345,"name":"Zethos","steam_id":76561198103851330,"connected_time":3589000000000,"state":"active","ping":70},{"user_id":286,"name":"Miss Bari","steam_id":76561198365286092,"connected_time":7822000000000,"state":"active","ping":49},{"user_id":300,"name":"Vosteria","steam_id":76561198290253884,"connected_time":6956000000000,"state":"active","ping":88},{"user_id":390,"name":"Yessirskiii","steam_id":76561198179324075,"connected_time":1310000000000,"state":"active","ping":71},{"user_id":398,"name":"LarsInABox","steam_id":76561198028329262,"connected_time":718000000000,"state":"active","ping":74},{"user_id":382,"name":"I-I","steam_id":76561198267969436,"connected_time":1791000000000,"state":"active","ping":61},{"user_id":337,"name":"CRWND","steam_id":76561198329810027,"connected_time":3926000000000,"state":"active","ping":56},{"user_id":392,"name":"Albino Jellyfish","steam_id":76561198208561097,"connected_time":1210000000000,"state":"active","ping":135},{"user_id":371,"name":"Fat Pigeon","steam_id":76561198817940142,"connected_time":2544000000000,"state":"active","ping":59},{"user_id":399,"name":"[003]","steam_id":76561198076832148,"connected_time":421000000000,"state":"active","ping":88},{"user_id":388,"name":"mt","steam_id":76561197961319303,"connected_time":1676000000000,"state":"active","ping":54},{"user_id":288,"name":"V·¥Ä ü·¥ÄÍú∞·¥Ä Ä","steam_id":76561198069723799,"connected_time":7606000000000,"state":"active","ping":47},{"user_id":351,"name":"Brick Top","steam_id":76561198035586064,"connected_time":3383000000000,"state":"active","ping":73},{"user_id":343,"name":"John Bovril","steam_id":76561198067774895,"connected_time":3598000000000,"state":"active","ping":72},{"user_id":401,"name":"Mach |=|20BB|)","steam_id":76561198952487564,"connected_time":361000000000,"state":"active","ping":80},{"user_id":386,"name":"you now breathe by manual","steam_id":76561198808819694,"connected_time":1742000000000,"state":"active","ping":36},{"user_id":252,"name":"X-tis","steam_id":76561198043837480,"connected_time":10627000000000,"state":"active","ping":75},{"user_id":321,"name":"LasagnaLarry22","steam_id":76561198089478290,"connected_time":5890000000000,"state":"active","ping":52},{"user_id":353,"name":"Jonathan","steam_id":76561198087988880,"connected_time":3137000000000,"state":"active","ping":55},{"user_id":347,"name":"Gooeycornet","steam_id":76561198267710345,"connected_time":3581000000000,"state":"active","ping":86},{"user_id":378,"name":"Caliban","steam_id":76561197999696839,"connected_time":2394000000000,"state":"active","ping":101},{"user_id":396,"name":"Makasim:)","steam_id":76561198816061842,"connected_time":1039000000000,"state":"active","ping":71}]},{"server_id":110,"name":"Uncletopia | Frankfurt | 2 | All Maps","name_short":"frk-2","host":"frk-1.de.uncletopia.com","port":27025,"enabled":true,"region":"eu","cc":"de","latitude":50.110924,"longitude":8.682127,"reserved":0,"last_update":"0001-01-01T00:00:00Z","name_a2s":"Uncletopia | Frankfurt | 2 | All Maps","protocol":17,"map":"pl_barnblitz","folder":"tf","game":"Team Fortress","app_id":440,"player_count":24,"max_players":24,"Bots":0,"server_type":"Dedicated","server_os":"Linux","password":true,"vac":true,"version":"7757534","steam_id":85568392924469990,"keywords":["nocrits","nodmgspread","payload","uncletopia"],"game_id":440,"stv_port":27026,"stv_name":"Uncletopia | Frankfurt | 2 | All Maps | STV","players":[{"user_id":333,"name":"Œªambda","steam_id":76561197960888721,"connected_time":1031000000000,"state":"active","ping":49},{"user_id":314,"name":"kuroblakka","steam_id":76561198260700096,"connected_time":1678000000000,"state":"active","ping":98},{"user_id":334,"name":"JohnarasGamer1","steam_id":76561198365929872,"connected_time":1005000000000,"state":"active","ping":82},{"user_id":336,"name":"Syll","steam_id":76561198040736202,"connected_time":444000000000,"state":"active","ping":101},{"user_id":279,"name":"Nomad994","steam_id":76561198051908201,"connected_time":3759000000000,"state":"active","ping":94},{"user_id":330,"name":"reik","steam_id":76561198075239099,"connected_time":1179000000000,"state":"active","ping":58},{"user_id":280,"name":"Tynnyri","steam_id":76561198075516541,"connected_time":3755000000000,"state":"active","ping":100},{"user_id":337,"name":"Guardsman Alex","steam_id":76561198000094686,"connected_time":147000000000,"state":"active","ping":69},{"user_id":335,"name":"WolfmanCZ","steam_id":76561199157141414,"connected_time":548000000000,"state":"active","ping":71},{"user_id":282,"name":"EastmoreRandoms.","steam_id":76561198048921203,"connected_time":3737000000000,"state":"active","ping":69},{"user_id":339,"name":"tob:ias","steam_id":76561198832146626,"connected_time":139000000000,"state":"active","ping":50},{"user_id":338,"name":"Dakkafex","steam_id":76561198020254869,"connected_time":147000000000,"state":"active","ping":51},{"user_id":303,"name":"SpaX","steam_id":76561198077751359,"connected_time":2360000000000,"state":"active","ping":90},{"user_id":319,"name":"F","steam_id":76561199149462792,"connected_time":1494000000000,"state":"active","ping":64},{"user_id":321,"name":"benifis163","steam_id":76561198420973492,"connected_time":1428000000000,"state":"active","ping":104},{"user_id":320,"name":"Parapluie","steam_id":76561197971640301,"connected_time":1483000000000,"state":"active","ping":44},{"user_id":331,"name":"[ALT_F4]dottor_cacabula_m8","steam_id":76561198173192267,"connected_time":1117000000000,"state":"active","ping":73},{"user_id":323,"name":"Sch","steam_id":76561198071341689,"connected_time":1379000000000,"state":"active","ping":55},{"user_id":266,"name":"mordecai.nmc","steam_id":76561197997223851,"connected_time":4514000000000,"state":"active","ping":60},{"user_id":324,"name":"robitamoft","steam_id":76561198315903156,"connected_time":1370000000000,"state":"active","ping":87},{"user_id":325,"name":"^1Che e","steam_id":76561198440909486,"connected_time":1342000000000,"state":"active","ping":112},{"user_id":340,"name":"Miton","steam_id":76561197970323209,"connected_time":135000000000,"state":"active","ping":85},{"user_id":328,"name":"Despair","steam_id":76561198259487481,"connected_time":1259000000000,"state":"active","ping":71},{"user_id":246,"name":"jebac disa","steam_id":76561197995572935,"connected_time":6267000000000,"state":"active","ping":80}]},{"server_id":308,"name":"Uncletopia | Frankfurt | 3 | All Maps","name_short":"frk-3","host":"frk-1.de.uncletopia.com","port":27035,"enabled":true,"region":"eu","cc":"de","latitude":50.110924,"longitude":8.682127,"reserved":0,"last_update":"0001-01-01T00:00:00Z","name_a2s":"Uncletopia | Frankfurt | 3 | All Maps","protocol":17,"map":"pl_pier","folder":"tf","game":"Team Fortress","app_id":440,"player_count":24,"max_players":24,"Bots":0,"server_type":"Dedicated","server_os":"Linux","password":true,"vac":true,"version":"7757534","steam_id":85568392924504274,"keywords":["nocrits","nodmgspread","payload","uncletopia"],"game_id":440,"stv_port":27036,"stv_name":"Uncletopia | Frankfurt | 3 | All Maps | STV","players":[{"user_id":266,"name":"etc","steam_id":76561197998394797,"connected_time":1456000000000,"state":"active","ping":59},{"user_id":105,"name":"—Ç—É–∫–∫—É –∏—Ä–º–∞","steam_id":76561197998715016,"connected_time":11946000000000,"state":"active","ping":56},{"user_id":283,"name":"TheEventGuy","steam_id":76561197972797744,"connected_time":434000000000,"state":"active","ping":62},{"user_id":269,"name":"waluigi","steam_id":76561198215809251,"connected_time":899000000000,"state":"active","ping":52},{"user_id":248,"name":"Senator Armstrong","steam_id":76561198984346408,"connected_time":3106000000000,"state":"active","ping":70},{"user_id":273,"name":"Santa","steam_id":76561198242149036,"connected_time":619000000000,"state":"active","ping":155},{"user_id":250,"name":"C L 1 Q","steam_id":76561198363021979,"connected_time":2954000000000,"state":"active","ping":57},{"user_id":268,"name":"bigwish | bmod.tf","steam_id":76561197997859723,"connected_time":1032000000000,"state":"active","ping":78},{"user_id":270,"name":"Innocent Bystander","steam_id":76561198259885007,"connected_time":794000000000,"state":"active","ping":57},{"user_id":271,"name":"Fallen Dog","steam_id":76561198851387188,"connected_time":771000000000,"state":"active","ping":75},{"user_id":274,"name":"Amon Gus","steam_id":76561199094540960,"connected_time":600000000000,"state":"active","ping":64},{"user_id":275,"name":"Z4p4d","steam_id":76561198011755675,"connected_time":563000000000,"state":"active","ping":72},{"user_id":276,"name":"blizz gamming","steam_id":76561198253692868,"connected_time":563000000000,"state":"active","ping":69},{"user_id":282,"name":"Minimi","steam_id":76561198873850443,"connected_time":452000000000,"state":"active","ping":54},{"user_id":278,"name":"pain","steam_id":76561198047359132,"connected_time":545000000000,"state":"active","ping":71},{"user_id":279,"name":"Dodoshka","steam_id":76561198093464840,"connected_time":539000000000,"state":"active","ping":95},{"user_id":182,"name":"Pabs :D","steam_id":76561198000016962,"connected_time":4862000000000,"state":"active","ping":60},{"user_id":257,"name":"walking plane","steam_id":76561198146779559,"connected_time":2207000000000,"state":"active","ping":89},{"user_id":175,"name":"ZOMBINŒ£","steam_id":76561198151057964,"connected_time":5833000000000,"state":"active","ping":78},{"user_id":176,"name":"[G.E.W.P.] | Gr0t0s","steam_id":76561198157368331,"connected_time":5832000000000,"state":"active","ping":70},{"user_id":267,"name":"Calmedy","steam_id":76561198295310457,"connected_time":1449000000000,"state":"active","ping":66},{"user_id":280,"name":"pike","steam_id":76561198149046527,"connected_time":521000000000,"state":"active","ping":71},{"user_id":251,"name":"KajaStorm","steam_id":76561199215842872,"connected_time":2471000000000,"state":"active","ping":131},{"user_id":281,"name":"Lon-Kazakh","steam_id":76561198237739168,"connected_time":508000000000,"state":"active","ping":75}]},{"server_id":309,"name":"Uncletopia | Frankfurt | 4 | All Maps","name_short":"frk-4","host":"frk-1.de.uncletopia.com","port":27045,"enabled":true,"region":"eu","cc":"de","latitude":50.110924,"longitude":8.682127,"reserved":0,"last_update":"0001-01-01T00:00:00Z","name_a2s":"Uncletopia | Frankfurt | 4 | All Maps","protocol":17,"map":"koth_harvest_final","folder":"tf","game":"Team Fortress","app_id":440,"player_count":24,"max_players":24,"Bots":0,"server_type":"Dedicated","server_os":"Linux","password":true,"vac":true,"version":"7757534","steam_id":85568392924504275,"keywords":["cp","nocrits","nodmgspread","uncletopia"],"game_id":440,"stv_port":27046,"stv_name":"Uncletopia | Frankfurt | 4 | All Maps | STV","players":[{"user_id":209,"name":"Fish","steam_id":76561198182278770,"connected_time":1593000000000,"state":"active","ping":73},{"user_id":224,"name":"Dark ^^","steam_id":76561198036241064,"connected_time":1165000000000,"state":"active","ping":53},{"user_id":191,"name":"Sweat Plantation","steam_id":76561198025086883,"connected_time":2829000000000,"state":"active","ping":85},{"user_id":218,"name":"GogsCrunchyNuts","steam_id":76561198150599213,"connected_time":1331000000000,"state":"active","ping":113},{"user_id":196,"name":"Lord of the Lockerroom","steam_id":76561198080619697,"connected_time":2295000000000,"state":"active","ping":86},{"user_id":230,"name":"Mi Manchi","steam_id":76561198171573129,"connected_time":743000000000,"state":"active","ping":52},{"user_id":241,"name":"JohaTG","steam_id":76561198804468284,"connected_time":81000000000,"state":"active","ping":64},{"user_id":234,"name":"Bgm_","steam_id":76561198056452044,"connected_time":727000000000,"state":"active","ping":61},{"user_id":237,"name":"mespe","steam_id":76561198121530649,"connected_time":339000000000,"state":"active","ping":61},{"user_id":226,"name":"WE DID IT REDDIT","steam_id":76561198418538887,"connected_time":943000000000,"state":"active","ping":97},{"user_id":238,"name":"Ineluctable Sex Predator","steam_id":76561197995971061,"connected_time":329000000000,"state":"active","ping":89},{"user_id":157,"name":"KLAMA  ‚ù§","steam_id":76561198351549661,"connected_time":4804000000000,"state":"active","ping":68},{"user_id":193,"name":"SgtRookie","steam_id":76561198030230427,"connected_time":2617000000000,"state":"active","ping":89},{"user_id":195,"name":"Clorox Consumer","steam_id":76561198120949216,"connected_time":2504000000000,"state":"active","ping":59},{"user_id":197,"name":"Dimitri_612","steam_id":76561199223984137,"connected_time":2238000000000,"state":"active","ping":50},{"user_id":232,"name":":3","steam_id":76561198301481739,"connected_time":736000000000,"state":"active","ping":45},{"user_id":233,"name":"Germanium_Ge","steam_id":76561198130561775,"connected_time":734000000000,"state":"active","ping":57},{"user_id":165,"name":"The Wolf Leader","steam_id":76561198038007462,"connected_time":4402000000000,"state":"active","ping":63},{"user_id":236,"name":"snowii","steam_id":76561198836246326,"connected_time":417000000000,"state":"active","ping":59},{"user_id":239,"name":"SODA!!!!!!!","steam_id":76561198107362485,"connected_time":320000000000,"state":"active","ping":53},{"user_id":240,"name":"Tsar Bombastic","steam_id":76561198185444307,"connected_time":274000000000,"state":"active","ping":52},{"user_id":235,"name":"Pinhers","steam_id":76561198291077862,"connected_time":667000000000,"state":"active","ping":101},{"user_id":225,"name":"Carry Krypl","steam_id":76561198136938121,"connected_time":1074000000000,"state":"active","ping":60},{"user_id":161,"name":"certified caber enjoyer","steam_id":76561199012488416,"connected_time":4784000000000,"state":"active","ping":74}]},{"server_id":310,"name":"Uncletopia | Frankfurt | 5 | All Maps","name_short":"frk-5","host":"frk-1.de.uncletopia.com","port":27055,"enabled":true,"region":"eu","cc":"de","latitude":50.110924,"longitude":8.682127,"reserved":0,"last_update":"0001-01-01T00:00:00Z","name_a2s":"Uncletopia | Frankfurt | 5 | All Maps","protocol":17,"map":"pl_pier","folder":"tf","game":"Team Fortress","app_id":440,"player_count":24,"max_players":24,"Bots":0,"server_type":"Dedicated","server_os":"Linux","password":true,"vac":true,"version":"7757534","steam_id":85568392924504277,"keywords":["nocrits","nodmgspread","payload","uncletopia"],"game_id":440,"stv_port":27056,"stv_name":"Uncletopia | Frankfurt | 5 | All Maps | STV","players":[{"user_id":102,"name":"yush","steam_id":76561198121688934,"connected_time":5057000000000,"state":"active","ping":75},{"user_id":129,"name":"‚úß Luigi Time ‚úß","steam_id":76561198026903673,"connected_time":3599000000000,"state":"active","ping":56},{"user_id":146,"name":"The Tomfooler","steam_id":76561198167986695,"connected_time":1801000000000,"state":"active","ping":49},{"user_id":160,"name":"Unbreakable Patches","steam_id":76561198040182692,"connected_time":1521000000000,"state":"active","ping":49},{"user_id":162,"name":"SAGWA","steam_id":76561197994015581,"connected_time":1463000000000,"state":"active","ping":70},{"user_id":185,"name":"Nyoelle","steam_id":76561198041717890,"connected_time":0,"state":"spawning","ping":50},{"user_id":184,"name":"jaime8D","steam_id":76561197980590671,"connected_time":72000000000,"state":"active","ping":87},{"user_id":168,"name":"eggs","steam_id":76561198061298804,"connected_time":1271000000000,"state":"active","ping":57},{"user_id":150,"name":"r/sonofelicenellafece","steam_id":76561198262231733,"connected_time":1708000000000,"state":"active","ping":76},{"user_id":86,"name":"KarlRanzeier","steam_id":76561198066281337,"connected_time":6213000000000,"state":"active","ping":54},{"user_id":158,"name":"Fasj.","steam_id":76561198049975379,"connected_time":1545000000000,"state":"active","ping":54},{"user_id":157,"name":"Penis Contortionist","steam_id":76561198073663784,"connected_time":1558000000000,"state":"active","ping":54},{"user_id":176,"name":"leo","steam_id":76561198088016140,"connected_time":751000000000,"state":"active","ping":122},{"user_id":177,"name":"Dom.","steam_id":76561199065917088,"connected_time":677000000000,"state":"active","ping":70},{"user_id":154,"name":"Mehrtelb","steam_id":76561198054162669,"connected_time":1648000000000,"state":"active","ping":56},{"user_id":170,"name":"Dzan50","steam_id":76561198059758591,"connected_time":1254000000000,"state":"active","ping":82},{"user_id":159,"name":"Rubi","steam_id":76561198139410003,"connected_time":1531000000000,"state":"active","ping":81},{"user_id":161,"name":"Pain","steam_id":76561198106997949,"connected_time":1498000000000,"state":"active","ping":74},{"user_id":156,"name":"ALARM","steam_id":76561198120686521,"connected_time":1626000000000,"state":"active","ping":60},{"user_id":164,"name":"_zipfile","steam_id":76561198066133808,"connected_time":1436000000000,"state":"active","ping":66},{"user_id":110,"name":"triangle","steam_id":76561198046838168,"connected_time":4529000000000,"state":"active","ping":51},{"user_id":181,"name":"Simoh The Swoob","steam_id":76561198058078322,"connected_time":221000000000,"state":"active","ping":84},{"user_id":166,"name":"E","steam_id":76561198166340115,"connected_time":1404000000000,"state":"active","ping":77},{"user_id":178,"name":"Solymr ibn Wali Barad","steam_id":76561198044008976,"connected_time":606000000000,"state":"active","ping":74}]},{"server_id":311,"name":"Uncletopia | Frankfurt | 6 | All Maps","name_short":"frk-6","host":"frk-1.de.uncletopia.com","port":27065,"enabled":true,"region":"eu","cc":"de","latitude":50.110924,"longitude":8.682127,"reserved":0,"last_update":"0001-01-01T00:00:00Z","name_a2s":"Uncletopia | Frankfurt | 6 | All Maps","protocol":17,"map":"pl_frontier_final","folder":"tf","game":"Team Fortress","app_id":440,"player_count":24,"max_players":24,"Bots":0,"server_type":"Dedicated","server_os":"Linux","password":true,"vac":true,"version":"7757534","steam_id":85568392924504278,"keywords":["nocrits","nodmgspread","payload","uncletopia"],"game_id":440,"stv_port":27066,"stv_name":"Uncletopia | Frankfurt | 6 | All Maps | STV","players":[{"user_id":182,"name":"F1-M","steam_id":76561198198409875,"connected_time":1045000000000,"state":"active","ping":130},{"user_id":157,"name":"Stepoface","steam_id":76561198091569863,"connected_time":3200000000000,"state":"active","ping":59},{"user_id":190,"name":"sork","steam_id":76561198082446459,"connected_time":501000000000,"state":"active","ping":66},{"user_id":183,"name":"MyFirstTimeeeeelel","steam_id":76561199235376543,"connected_time":820000000000,"state":"active","ping":66},{"user_id":174,"name":"scarecrowshelper","steam_id":76561198072260553,"connected_time":1698000000000,"state":"active","ping":43},{"user_id":191,"name":"dgz","steam_id":76561197979345019,"connected_time":355000000000,"state":"active","ping":97},{"user_id":193,"name":"LF Savozi","steam_id":76561198118006754,"connected_time":230000000000,"state":"active","ping":72},{"user_id":131,"name":"Paul Penix","steam_id":76561197996941396,"connected_time":5104000000000,"state":"active","ping":59},{"user_id":181,"name":"Mor'du","steam_id":76561198274105878,"connected_time":1077000000000,"state":"active","ping":79},{"user_id":99,"name":"Lopata","steam_id":76561198820264239,"connected_time":7919000000000,"state":"active","ping":201},{"user_id":194,"name":"Chambersite","steam_id":76561198197022399,"connected_time":208000000000,"state":"active","ping":69},{"user_id":195,"name":"[Insert Oneshot refrence here]","steam_id":76561198951206047,"connected_time":201000000000,"state":"active","ping":93},{"user_id":165,"name":"Lux","steam_id":76561198060417740,"connected_time":2749000000000,"state":"active","ping":55},{"user_id":196,"name":"Bond","steam_id":76561198070654906,"connected_time":87000000000,"state":"active","ping":58},{"user_id":52,"name":"Owlet","steam_id":76561198065613974,"connected_time":10240000000000,"state":"active","ping":75},{"user_id":184,"name":"GEP Gun","steam_id":76561197981821003,"connected_time":816000000000,"state":"active","ping":73},{"user_id":192,"name":"LF GOUD","steam_id":76561198071823072,"connected_time":309000000000,"state":"active","ping":91},{"user_id":112,"name":"xenia","steam_id":76561198062107879,"connected_time":6858000000000,"state":"active","ping":85},{"user_id":180,"name":"Christmas Ham","steam_id":76561198119601623,"connected_time":1118000000000,"state":"active","ping":77},{"user_id":154,"name":"/hm/","steam_id":76561199213268288,"connected_time":3583000000000,"state":"active","ping":81},{"user_id":155,"name":"tiiyama","steam_id":76561198046196005,"connected_time":3580000000000,"state":"active","ping":45},{"user_id":178,"name":"mana","steam_id":76561198031516485,"connected_time":1456000000000,"state":"active","ping":69},{"user_id":175,"name":"Daddy Myers","steam_id":76561198206971777,"connected_time":1595000000000,"state":"active","ping":64},{"user_id":188,"name":"raymanm2","steam_id":76561198129804657,"connected_time":609000000000,"state":"active","ping":60}]},{"server_id":23,"name":"Uncletopia | Frankfurt | 7 | Stopwatch Beta","name_short":"frk-7","host":"frk-1.de.uncletopia.com","port":27075,"enabled":true,"region":"eu","cc":"de","latitude":50.110924,"longitude":8.682127,"reserved":0,"last_update":"0001-01-01T00:00:00Z","name_a2s":"Uncletopia | Frankfurt | 7 | Stopwatch Beta","protocol":17,"map":"pl_borneo","folder":"tf","game":"Team Fortress","app_id":440,"player_count":1,"max_players":24,"Bots":0,"server_type":"Dedicated","server_os":"Linux","password":true,"vac":true,"version":"7757534","steam_id":85568392924742827,"keywords":["nocrits","nodmgspread","payload","uncletopia"],"game_id":440,"stv_port":27076,"stv_name":"Uncletopia | Frankfurt | 7 | Stopwatch Beta | STV","players":[{"user_id":12,"name":"AwterSix","steam_id":76561198042561678,"connected_time":234000000000,"state":"active","ping":49}]},{"server_id":24,"name":"Uncletopia | Frankfurt | 8 | Community","name_short":"frk-8","host":"frk-1.de.uncletopia.com","port":27085,"enabled":true,"region":"eu","cc":"de","latitude":50.110924,"longitude":8.682127,"reserved":0,"last_update":"0001-01-01T00:00:00Z","name_a2s":"Uncletopia | Frankfurt | 8 | Community","protocol":17,"map":"workshop/pl_barnblitz_pro7.ugc582280235","folder":"tf","game":"Team Fortress","app_id":440,"player_count":24,"max_players":24,"Bots":0,"server_type":"Dedicated","server_os":"Linux","password":true,"vac":true,"version":"7757534","steam_id":85568392924742828,"keywords":["nocrits","nodmgspread","payload","uncletopia"],"game_id":440,"stv_port":27086,"stv_name":"Uncletopia | Frankfurt | 8 | Community | STV","players":[{"user_id":174,"name":"wlg ‚úø","steam_id":76561198971840184,"connected_time":2006000000000,"state":"active","ping":45},{"user_id":157,"name":"game","steam_id":76561199111169960,"connected_time":3175000000000,"state":"active","ping":74},{"user_id":175,"name":"robbob","steam_id":76561198137375391,"connected_time":1959000000000,"state":"active","ping":76},{"user_id":150,"name":"Jaggy Snake","steam_id":76561197972779231,"connected_time":3287000000000,"state":"active","ping":58},{"user_id":183,"name":"thia","steam_id":76561198186366599,"connected_time":1407000000000,"state":"active","ping":72},{"user_id":176,"name":"Livestorm","steam_id":76561198366470072,"connected_time":1897000000000,"state":"active","ping":71},{"user_id":194,"name":"MovingIsOverRated","steam_id":76561198385633292,"connected_time":896000000000,"state":"active","ping":98},{"user_id":135,"name":"silly little guy","steam_id":76561198995121468,"connected_time":3719000000000,"state":"active","ping":165},{"user_id":180,"name":"emil","steam_id":76561198267694601,"connected_time":1706000000000,"state":"active","ping":66},{"user_id":179,"name":"Duke Fishlord","steam_id":76561198079928327,"connected_time":1818000000000,"state":"active","ping":69},{"user_id":154,"name":"Irbynx","steam_id":76561197980421195,"connected_time":3216000000000,"state":"active","ping":84},{"user_id":184,"name":"laughing_psycho","steam_id":76561199146866410,"connected_time":1386000000000,"state":"active","ping":103},{"user_id":155,"name":"Sleepyguy","steam_id":76561198008520542,"connected_time":3199000000000,"state":"active","ping":70},{"user_id":156,"name":"nep-nep","steam_id":76561198303149838,"connected_time":3195000000000,"state":"active","ping":59},{"user_id":197,"name":"Crash_Override","steam_id":76561198419795680,"connected_time":799000000000,"state":"active","ping":146},{"user_id":195,"name":"Chimera","steam_id":76561198079575986,"connected_time":877000000000,"state":"active","ping":64},{"user_id":125,"name":"juicymangoes.2011","steam_id":76561198131670413,"connected_time":4176000000000,"state":"active","ping":63},{"user_id":187,"name":"Bostrash641","steam_id":76561199447225685,"connected_time":1259000000000,"state":"active","ping":82},{"user_id":189,"name":"The Box","steam_id":76561198096390904,"connected_time":1095000000000,"state":"active","ping":151},{"user_id":145,"name":"Magirby","steam_id":76561198818777390,"connected_time":3548000000000,"state":"active","ping":122},{"user_id":199,"name":"AYE","steam_id":76561198181368101,"connected_time":589000000000,"state":"active","ping":50},{"user_id":192,"name":"the real lancer from deltarune","steam_id":76561199078505144,"connected_time":1051000000000,"state":"active","ping":73},{"user_id":193,"name":"pablo","steam_id":76561198089285014,"connected_time":1039000000000,"state":"active","ping":74},{"user_id":198,"name":"I.C-0wl","steam_id":76561199162852922,"connected_time":673000000000,"state":"active","ping":87}]},{"server_id":202,"name":"Uncletopia | Hong Kong | 1 | All Maps","name_short":"hgk-1","host":"hgk-1.hk.uncletopia.com","port":27015,"enabled":true,"region":"asia","cc":"hk","latitude":22.302711,"longitude":114.177216,"reserved":0,"last_update":"0001-01-01T00:00:00Z","name_a2s":"Uncletopia | Hong Kong | 1 | All Maps","protocol":17,"map":"cp_dustbowl","folder":"tf","game":"Team Fortress","app_id":440,"player_count":0,"max_players":24,"Bots":0,"server_type":"Dedicated","server_os":"Linux","password":true,"vac":true,"version":"7757534","steam_id":85568392924494504,"keywords":["cp","nocrits","nodmgspread","uncletopia"],"game_id":440,"stv_port":27016,"stv_name":"Uncletopia | Hong Kong | 1 | All Maps | STV","players":null},{"server_id":1,"name":"Uncletopia | Los Angeles | 1 | All Maps","name_short":"lax-1","host":"lax-1.us.uncletopia.com","port":27015,"enabled":true,"region":"us-west","cc":"us","latitude":33.94279,"longitude":-118.41004,"reserved":0,"last_update":"0001-01-01T00:00:00Z","name_a2s":"Uncletopia | Los Angeles | 1 | All Maps","protocol":17,"map":"cp_mountainlab","folder":"tf","game":"Team Fortress","app_id":440,"player_count":0,"max_players":24,"Bots":0,"server_type":"Dedicated","server_os":"Linux","password":true,"vac":true,"version":"7757534","steam_id":85568392924469991,"keywords":["cp","nocrits","nodmgspread","uncletopia"],"game_id":440,"stv_port":27016,"stv_name":"Uncletopia | Los Angeles | 1 | All Maps | STV","players":null},{"server_id":112,"name":"Uncletopia | Los Angeles | 2 | All Maps","name_short":"lax-2","host":"lax-1.us.uncletopia.com","port":27025,"enabled":true,"region":"us-west","cc":"us","latitude":33.94279,"longitude":-118.41004,"reserved":0,"last_update":"0001-01-01T00:00:00Z","name_a2s":"Uncletopia | Los Angeles | 2 | All Maps","protocol":17,"map":"koth_cascade","folder":"tf","game":"Team Fortress","app_id":440,"player_count":0,"max_players":24,"Bots":0,"server_type":"Dedicated","server_os":"Linux","password":true,"vac":true,"version":"7757534","steam_id":85568392924469992,"keywords":["cp","nocrits","nodmgspread","uncletopia"],"game_id":440,"stv_port":27026,"stv_name":"Uncletopia | Los Angeles | 2 | All Maps | STV","players":null},{"server_id":324,"name":"Uncletopia | Los Angeles | 3 | All Maps","name_short":"lax-3","host":"lax-1.us.uncletopia.com","port":27035,"enabled":true,"region":"us-west","cc":"us","latitude":33.94279,"longitude":-118.41004,"reserved":0,"last_update":"0001-01-01T00:00:00Z","name_a2s":"Uncletopia | Los Angeles | 3 | All Maps","protocol":17,"map":"koth_highpass","folder":"tf","game":"Team Fortress","app_id":440,"player_count":0,"max_players":24,"Bots":0,"server_type":"Dedicated","server_os":"Linux","password":true,"vac":true,"version":"7757534","steam_id":85568392924510198,"keywords":["cp","nocrits","nodmgspread","uncletopia"],"game_id":440,"stv_port":27036,"stv_name":"Uncletopia | Los Angeles | 3 | All Maps | STV","players":null},{"server_id":25,"name":"Uncletopia | Los Angeles | 4 | Stopwatch Beta","name_short":"lax-4","host":"lax-1.us.uncletopia.com","port":27045,"enabled":true,"region":"us-west","cc":"us","latitude":33.94279,"longitude":-118.41004,"reserved":0,"last_update":"0001-01-01T00:00:00Z","name_a2s":"Uncletopia | Los Angeles | 4 | Stopwatch Beta","protocol":17,"map":"koth_viaduct","folder":"tf","game":"Team Fortress","app_id":440,"player_count":0,"max_players":24,"Bots":0,"server_type":"Dedicated","server_os":"Linux","password":true,"vac":true,"version":"7757534","steam_id":85568392924510199,"keywords":["cp","nocrits","nodmgspread","uncletopia"],"game_id":440,"stv_port":27046,"stv_name":"Uncletopia | Los Angeles | 4 | Stopwatch Beta | STV","players":null},{"server_id":11,"name":"Uncletopia | London | 1 | All Maps","name_short":"lon-1","host":"lon-1.uk.uncletopia.com","port":27015,"enabled":true,"region":"eu","cc":"gb","latitude":51.509865,"longitude":-0.118092,"reserved":0,"last_update":"0001-01-01T00:00:00Z","name_a2s":"Uncletopia | London | 1 | All Maps","protocol":17,"map":"pl_frontier_final","folder":"tf","game":"Team Fortress","app_id":440,"player_count":24,"max_players":24,"Bots":0,"server_type":"Dedicated","server_os":"Linux","password":true,"vac":true,"version":"7757534","steam_id":85568392924367362,"keywords":["nocrits","nodmgspread","payload","uncletopia"],"game_id":440,"stv_port":27016,"stv_name":"Uncletopia | London | 1 | All Maps | STV","players":[{"user_id":225,"name":"MarioThePlumber","steam_id":76561198314229530,"connected_time":2360000000000,"state":"active","ping":78},{"user_id":229,"name":"VolcanicArts","steam_id":76561198063453246,"connected_time":2345000000000,"state":"active","ping":52},{"user_id":209,"name":"G6 sherlock","steam_id":76561198802967796,"connected_time":3703000000000,"state":"active","ping":112},{"user_id":252,"name":"Bagels","steam_id":76561198389646406,"connected_time":146000000000,"state":"active","ping":57},{"user_id":237,"name":"Bits\u0026Peices","steam_id":76561199225453607,"connected_time":2136000000000,"state":"active","ping":120},{"user_id":236,"name":"peshay studio set 1996","steam_id":76561199026097466,"connected_time":2224000000000,"state":"active","ping":76},{"user_id":251,"name":"Pepegi","steam_id":76561198001230113,"connected_time":506000000000,"state":"active","ping":76},{"user_id":231,"name":"Acanda","steam_id":76561198123246537,"connected_time":2323000000000,"state":"active","ping":68},{"user_id":204,"name":"‚ú™ J","steam_id":76561198094911581,"connected_time":3715000000000,"state":"active","ping":55},{"user_id":244,"name":"blue mean-eyes","steam_id":76561198060105180,"connected_time":937000000000,"state":"active","ping":61},{"user_id":239,"name":"Cave","steam_id":76561198423147900,"connected_time":2016000000000,"state":"active","ping":47},{"user_id":250,"name":"dec","steam_id":76561198009660168,"connected_time":538000000000,"state":"active","ping":56},{"user_id":232,"name":"Joy","steam_id":76561198155314925,"connected_time":2319000000000,"state":"active","ping":57},{"user_id":238,"name":"Jeikku","steam_id":76561198078651679,"connected_time":2101000000000,"state":"active","ping":45},{"user_id":168,"name":"After8","steam_id":76561198090750865,"connected_time":7346000000000,"state":"active","ping":74},{"user_id":190,"name":"halcyon","steam_id":76561198169859157,"connected_time":5596000000000,"state":"active","ping":46},{"user_id":211,"name":"goktwoxd","steam_id":76561198065114415,"connected_time":3494000000000,"state":"active","ping":75},{"user_id":249,"name":"SHADOW WIZARD MONEY GANG","steam_id":76561198914610283,"connected_time":667000000000,"state":"active","ping":81},{"user_id":233,"name":"doodgie","steam_id":76561198264934115,"connected_time":2315000000000,"state":"active","ping":57},{"user_id":242,"name":"wag wag lids","steam_id":76561198259668029,"connected_time":1275000000000,"state":"active","ping":47},{"user_id":234,"name":"Videogamer","steam_id":76561198106012909,"connected_time":2312000000000,"state":"active","ping":75},{"user_id":246,"name":"Aaron","steam_id":76561197990046953,"connected_time":769000000000,"state":"active","ping":72},{"user_id":248,"name":"Pedrick Dinwiddie","steam_id":76561198423902979,"connected_time":753000000000,"state":"active","ping":47},{"user_id":228,"name":"Swedish Vegan","steam_id":76561198042775020,"connected_time":2359000000000,"state":"active","ping":66}]},{"server_id":114,"name":"Uncletopia | London | 2 | All Maps","name_short":"lon-2","host":"lon-1.uk.uncletopia.com","port":27025,"enabled":true,"region":"eu","cc":"gb","latitude":51.509865,"longitude":-0.118092,"reserved":0,"last_update":"0001-01-01T00:00:00Z","name_a2s":"Uncletopia | London | 2 | All Maps","protocol":17,"map":"plr_hightower","folder":"tf","game":"Team Fortress","app_id":440,"player_count":22,"max_players":24,"Bots":0,"server_type":"Dedicated","server_os":"Linux","password":true,"vac":true,"version":"7757534","steam_id":85568392924470941,"keywords":["nocrits","nodmgspread","payload","uncletopia"],"game_id":440,"stv_port":27026,"stv_name":"Uncletopia | London | 2 | All Maps | STV","players":[{"user_id":224,"name":"SausageRoll","steam_id":76561197994072622,"connected_time":1058000000000,"state":"active","ping":47},{"user_id":193,"name":"average f2p","steam_id":76561199136308055,"connected_time":3009000000000,"state":"active","ping":58},{"user_id":181,"name":"Fluffy","steam_id":76561198084447725,"connected_time":3706000000000,"state":"active","ping":46},{"user_id":210,"name":"Jan005","steam_id":76561198410047633,"connected_time":1754000000000,"state":"active","ping":57},{"user_id":211,"name":"Jimortal","steam_id":76561198342426856,"connected_time":1730000000000,"state":"active","ping":55},{"user_id":230,"name":"opaacic","steam_id":76561199158514501,"connected_time":142000000000,"state":"active","ping":72},{"user_id":165,"name":"Xydran","steam_id":76561198042397402,"connected_time":4211000000000,"state":"active","ping":66},{"user_id":152,"name":"i am bread","steam_id":76561199180277321,"connected_time":4647000000000,"state":"active","ping":64},{"user_id":236,"name":"Lichy","steam_id":76561198310682841,"connected_time":61000000000,"state":"active","ping":105},{"user_id":232,"name":"KFC Enjoyer","steam_id":76561198840259819,"connected_time":124000000000,"state":"active","ping":48},{"user_id":222,"name":"imma slap you","steam_id":76561198063965879,"connected_time":1253000000000,"state":"active","ping":74},{"user_id":233,"name":"Skemly","steam_id":76561199224399948,"connected_time":116000000000,"state":"active","ping":58},{"user_id":160,"name":"tactical783","steam_id":76561199051688560,"connected_time":4328000000000,"state":"active","ping":83},{"user_id":234,"name":"le baGATO","steam_id":76561199066143041,"connected_time":94000000000,"state":"active","ping":73},{"user_id":227,"name":"Robzy","steam_id":76561198082387972,"connected_time":915000000000,"state":"active","ping":70},{"user_id":216,"name":"micros43","steam_id":76561197987859657,"connected_time":1615000000000,"state":"active","ping":74},{"user_id":167,"name":"Grandma","steam_id":76561198042593027,"connected_time":4173000000000,"state":"active","ping":95},{"user_id":217,"name":"Washed up medic main","steam_id":76561198347336086,"connected_time":1611000000000,"state":"active","ping":45},{"user_id":186,"name":"Economic crisis","steam_id":76561198063562843,"connected_time":3490000000000,"state":"active","ping":65},{"user_id":196,"name":"AndroKing","steam_id":76561198840591678,"connected_time":2963000000000,"state":"active","ping":89},{"user_id":203,"name":"sPork","steam_id":76561198056880331,"connected_time":2760000000000,"state":"active","ping":74},{"user_id":229,"name":"foo","steam_id":76561198042000263,"connected_time":673000000000,"state":"active","ping":71}]},{"server_id":320,"name":"Uncletopia | London | 3 | All Maps","name_short":"lon-3","host":"lon-1.uk.uncletopia.com","port":27035,"enabled":true,"region":"eu","cc":"gb","latitude":51.509865,"longitude":-0.118092,"reserved":0,"last_update":"0001-01-01T00:00:00Z","name_a2s":"Uncletopia | London | 3 | All Maps","protocol":17,"map":"pl_barnblitz","folder":"tf","game":"Team Fortress","app_id":440,"player_count":24,"max_players":24,"Bots":0,"server_type":"Dedicated","server_os":"Linux","password":true,"vac":true,"version":"7757534","steam_id":85568392924510192,"keywords":["nocrits","nodmgspread","payload","uncletopia"],"game_id":440,"stv_port":27036,"stv_name":"Uncletopia | London | 3 | All Maps | STV","players":[{"user_id":153,"name":"Duke","steam_id":76561198046536854,"connected_time":28000000000,"state":"spawning","ping":122},{"user_id":112,"name":"Palex","steam_id":76561198093219465,"connected_time":3096000000000,"state":"active","ping":43},{"user_id":149,"name":"Komissar Kettle","steam_id":76561198230556240,"connected_time":394000000000,"state":"active","ping":49},{"user_id":103,"name":"Chaine","steam_id":76561198088660956,"connected_time":4408000000000,"state":"active","ping":96},{"user_id":150,"name":"JŒîI","steam_id":76561198043806578,"connected_time":388000000000,"state":"active","ping":33},{"user_id":140,"name":"aksu","steam_id":76561198083955517,"connected_time":705000000000,"state":"active","ping":75},{"user_id":141,"name":"Áå™Ê≠¶ËÄÖ","steam_id":76561198085080008,"connected_time":699000000000,"state":"active","ping":82},{"user_id":142,"name":"SocialistBacon","steam_id":76561198055872267,"connected_time":698000000000,"state":"active","ping":94},{"user_id":119,"name":"PASTAMANIA!","steam_id":76561197967858558,"connected_time":2808000000000,"state":"active","ping":44},{"user_id":74,"name":"TSx* Naxer","steam_id":76561198011986779,"connected_time":5822000000000,"state":"active","ping":75},{"user_id":128,"name":"Seail_M","steam_id":76561198002405605,"connected_time":1868000000000,"state":"active","ping":69},{"user_id":143,"name":"Key Lyor Selph","steam_id":76561198256704286,"connected_time":690000000000,"state":"active","ping":63},{"user_id":144,"name":"deathinjune","steam_id":76561198076388927,"connected_time":655000000000,"state":"active","ping":56},{"user_id":124,"name":"Andy","steam_id":76561198046918834,"connected_time":1974000000000,"state":"active","ping":63},{"user_id":76,"name":"Unfortunate ‚ù§","steam_id":76561198125500777,"connected_time":5804000000000,"state":"active","ping":104},{"user_id":129,"name":"abigail","steam_id":76561198132932617,"connected_time":1865000000000,"state":"active","ping":62},{"user_id":78,"name":"TSx* Osa__PL","steam_id":76561198027016799,"connected_time":5797000000000,"state":"active","ping":81},{"user_id":92,"name":"TSx* Bargal","steam_id":76561198040266872,"connected_time":5183000000000,"state":"active","ping":79},{"user_id":131,"name":"Thorley","steam_id":76561199053031344,"connected_time":1039000000000,"state":"active","ping":44},{"user_id":145,"name":"redlix-AA-","steam_id":76561198119413461,"connected_time":651000000000,"state":"active","ping":75},{"user_id":151,"name":"Sniffz_2","steam_id":76561199433459491,"connected_time":363000000000,"state":"active","ping":81},{"user_id":136,"name":"Mannequin","steam_id":76561198128833974,"connected_time":881000000000,"state":"active","ping":54},{"user_id":146,"name":"Floyd","steam_id":76561198125333672,"connected_time":639000000000,"state":"active","ping":92},{"user_id":132,"name":"Revo","steam_id":76561198046021202,"connected_time":1039000000000,"state":"active","ping":55}]},{"server_id":321,"name":"Uncletopia | London | 4 | All Maps","name_short":"lon-4","host":"lon-1.uk.uncletopia.com","port":27045,"enabled":true,"region":"eu","cc":"gb","latitude":51.509865,"longitude":-0.118092,"reserved":0,"last_update":"0001-01-01T00:00:00Z","name_a2s":"Uncletopia | London | 4 | All Maps","protocol":17,"map":"pl_barnblitz","folder":"tf","game":"Team Fortress","app_id":440,"player_count":24,"max_players":24,"Bots":0,"server_type":"Dedicated","server_os":"Linux","password":true,"vac":true,"version":"7757534","steam_id":85568392924510193,"keywords":["nocrits","nodmgspread","payload","uncletopia"],"game_id":440,"stv_port":27046,"stv_name":"Uncletopia | London | 4 | All Maps | STV","players":[{"user_id":606,"name":"Deva Path","steam_id":76561198085763542,"connected_time":2475000000000,"state":"active","ping":84},{"user_id":608,"name":"British Disapproval","steam_id":76561198001375260,"connected_time":2440000000000,"state":"active","ping":57},{"user_id":628,"name":"lark","steam_id":76561198091724522,"connected_time":769000000000,"state":"active","ping":49},{"user_id":637,"name":"Ablativus","steam_id":76561198025698470,"connected_time":517000000000,"state":"active","ping":76},{"user_id":610,"name":"Dinges360","steam_id":76561198042032834,"connected_time":2062000000000,"state":"active","ping":48},{"user_id":644,"name":"Uncle Owen","steam_id":76561198157999291,"connected_time":346000000000,"state":"active","ping":84},{"user_id":640,"name":"The one True Mads","steam_id":76561197999204692,"connected_time":432000000000,"state":"active","ping":66},{"user_id":645,"name":"‚Ä¢stepbro‚Ä¢","steam_id":76561198119607160,"connected_time":259000000000,"state":"active","ping":84},{"user_id":538,"name":"WMW","steam_id":76561198837706438,"connected_time":8124000000000,"state":"active","ping":57},{"user_id":642,"name":"Denialman (Muted)","steam_id":76561198309182092,"connected_time":406000000000,"state":"active","ping":117},{"user_id":514,"name":"Frazzle","steam_id":76561198262577951,"connected_time":10623000000000,"state":"active","ping":65},{"user_id":617,"name":"PoteR","steam_id":76561198109289648,"connected_time":1960000000000,"state":"active","ping":75},{"user_id":648,"name":"ùôøringleùöÜings","steam_id":76561198355221367,"connected_time":61000000000,"state":"active","ping":54},{"user_id":443,"name":"Brass beast heavy","steam_id":76561198274197623,"connected_time":14783000000000,"state":"active","ping":72},{"user_id":641,"name":"Med","steam_id":76561198380893653,"connected_time":419000000000,"state":"active","ping":185},{"user_id":539,"name":"FELHEEE","steam_id":76561197987151150,"connected_time":8016000000000,"state":"active","ping":81},{"user_id":635,"name":"Teffg","steam_id":76561198274386094,"connected_time":593000000000,"state":"active","ping":95},{"user_id":624,"name":"mo","steam_id":76561198029399151,"connected_time":921000000000,"state":"active","ping":67},{"user_id":647,"name":"RAONICALIAS","steam_id":76561198847048146,"connected_time":99000000000,"state":"active","ping":65},{"user_id":583,"name":"Ducc","steam_id":76561198030677425,"connected_time":3436000000000,"state":"active","ping":63},{"user_id":646,"name":"Wattseyy","steam_id":76561198248567360,"connected_time":196000000000,"state":"active","ping":40},{"user_id":623,"name":"Saken","steam_id":76561198049075295,"connected_time":1168000000000,"state":"active","ping":65},{"user_id":587,"name":"Caro-Kann","steam_id":76561198065506317,"connected_time":3412000000000,"state":"active","ping":74},{"user_id":636,"name":"SaltyCupcakes","steam_id":76561198256386417,"connected_time":583000000000,"state":"active","ping":45}]},{"server_id":21,"name":"Uncletopia | London | 5 | All Maps","name_short":"lon-5","host":"lon-1.uk.uncletopia.com","port":27055,"enabled":true,"region":"eu","cc":"gb","latitude":51.509865,"longitude":-0.118092,"reserved":0,"last_update":"0001-01-01T00:00:00Z","name_a2s":"Uncletopia | London | 5 | All Maps","protocol":17,"map":"cp_powerhouse","folder":"tf","game":"Team Fortress","app_id":440,"player_count":24,"max_players":24,"Bots":0,"server_type":"Dedicated","server_os":"Linux","password":true,"vac":true,"version":"7757534","steam_id":85568392924742829,"keywords":["cp","nocrits","nodmgspread","uncletopia"],"game_id":440,"stv_port":27056,"stv_name":"Uncletopia | London | 5 | All Maps | STV","players":[{"user_id":710,"name":"Allereinan","steam_id":76561198342239906,"connected_time":1612000000000,"state":"active","ping":101},{"user_id":721,"name":"New","steam_id":76561198402195911,"connected_time":717000000000,"state":"active","ping":114},{"user_id":700,"name":"Tree","steam_id":76561198150045340,"connected_time":2228000000000,"state":"active","ping":71},{"user_id":722,"name":"astralscr","steam_id":76561199090360946,"connected_time":678000000000,"state":"active","ping":55},{"user_id":723,"name":"$b","steam_id":76561198118412910,"connected_time":610000000000,"state":"active","ping":84},{"user_id":724,"name":"Cosmetic brain","steam_id":76561198055936410,"connected_time":447000000000,"state":"active","ping":81},{"user_id":725,"name":"Corrupted","steam_id":76561198066165991,"connected_time":422000000000,"state":"active","ping":71},{"user_id":689,"name":"ijustsmokeandcry","steam_id":76561198044189114,"connected_time":2531000000000,"state":"active","ping":70},{"user_id":726,"name":"kotamine","steam_id":76561198068907991,"connected_time":331000000000,"state":"active","ping":76},{"user_id":712,"name":"kag","steam_id":76561198059813166,"connected_time":1555000000000,"state":"active","ping":44},{"user_id":690,"name":"antman","steam_id":76561198017352695,"connected_time":2512000000000,"state":"active","ping":118},{"user_id":693,"name":"glorbert","steam_id":76561198007792525,"connected_time":2396000000000,"state":"active","ping":41},{"user_id":696,"name":"big hoops","steam_id":76561198004703799,"connected_time":2301000000000,"state":"active","ping":45},{"user_id":697,"name":"poopcorn","steam_id":76561198435246575,"connected_time":2296000000000,"state":"active","ping":56},{"user_id":727,"name":"Melster","steam_id":76561198113946823,"connected_time":315000000000,"state":"active","ping":54},{"user_id":728,"name":"catboy trickster","steam_id":76561198075665211,"connected_time":294000000000,"state":"active","ping":48},{"user_id":717,"name":"obliteratedthenaho","steam_id":76561198127441800,"connected_time":1182000000000,"state":"active","ping":62},{"user_id":708,"name":"Laxslow","steam_id":76561198065361846,"connected_time":1830000000000,"state":"active","ping":65},{"user_id":713,"name":"invertO","steam_id":76561198142244174,"connected_time":1390000000000,"state":"active","ping":57},{"user_id":729,"name":"LSKi","steam_id":76561198215470228,"connected_time":272000000000,"state":"active","ping":58},{"user_id":681,"name":"plaier123457","steam_id":76561198993969194,"connected_time":2782000000000,"state":"active","ping":88},{"user_id":730,"name":"Pasta sauce","steam_id":76561198232919072,"connected_time":261000000000,"state":"active","ping":41},{"user_id":719,"name":"paprika","steam_id":76561198029771708,"connected_time":849000000000,"state":"active","ping":118},{"user_id":715,"name":"ReVerb","steam_id":76561198024949870,"connected_time":1244000000000,"state":"active","ping":45}]},{"server_id":22,"name":"Uncletopia | London | 6 | All Maps","name_short":"lon-6","host":"lon-1.uk.uncletopia.com","port":27065,"enabled":true,"region":"eu","cc":"gb","latitude":51.509865,"longitude":-0.118092,"reserved":0,"last_update":"0001-01-01T00:00:00Z","name_a2s":"Uncletopia | London | 6 | All Maps","protocol":17,"map":"pl_barnblitz","folder":"tf","game":"Team Fortress","app_id":440,"player_count":2,"max_players":24,"Bots":0,"server_type":"Dedicated","server_os":"Linux","password":true,"vac":true,"version":"7757534","steam_id":85568392924742830,"keywords":["nocrits","nodmgspread","payload","uncletopia"],"game_id":440,"stv_port":27066,"stv_name":"Uncletopia | London | 6 | All Maps | STV","players":[{"user_id":18,"name":"m3m3d_","steam_id":76561198304014206,"connected_time":73000000000,"state":"active","ping":60},{"user_id":17,"name":"MeBandae","steam_id":76561198910770432,"connected_time":103000000000,"state":"active","ping":85}]},{"server_id":40,"name":"Uncletopia | London | 7 | No Payload","name_short":"lon-7","host":"lon-1.uk.uncletopia.com","port":27075,"enabled":true,"region":"eu","cc":"gb","latitude":51.509865,"longitude":-0.118092,"reserved":0,"last_update":"0001-01-01T00:00:00Z","name_a2s":"Uncletopia | London | 7 | No Payload","protocol":17,"map":"cp_granary","folder":"tf","game":"Team Fortress","app_id":440,"player_count":0,"max_players":24,"Bots":0,"server_type":"Dedicated","server_os":"Linux","password":true,"vac":true,"version":"7757534","steam_id":85568392924964314,"keywords":["cp","nocrits","nodmgspread","uncletopia"],"game_id":440,"stv_port":27076,"stv_name":"Uncletopia | London | 7 | No Payload | STV","players":null},{"server_id":41,"name":"Uncletopia | London | 8 | Community","name_short":"lon-8","host":"lon-1.uk.uncletopia.com","port":27085,"enabled":true,"region":"eu","cc":"gb","latitude":51.509865,"longitude":-0.118092,"reserved":0,"last_update":"0001-01-01T00:00:00Z","name_a2s":"Uncletopia | London | 8 | Community","protocol":17,"map":"workshop/pl_fifthcurve_rc1.ugc648227046","folder":"tf","game":"Team Fortress","app_id":440,"player_count":0,"max_players":24,"Bots":0,"server_type":"Dedicated","server_os":"Linux","password":true,"vac":true,"version":"7757534","steam_id":85568392924964315,"keywords":["nocrits","nodmgspread","payload","uncletopia"],"game_id":440,"stv_port":27086,"stv_name":"Uncletopia | London | 8 | Community | STV","players":null},{"server_id":300,"name":"Uncletopia | Montr√©al | 1 | All Maps","name_short":"mtl-1","host":"mtl-1.ca.uncletopia.com","port":27015,"enabled":true,"region":"us-east","cc":"ca","latitude":45.50889,"longitude":-73.56167,"reserved":0,"last_update":"0001-01-01T00:00:00Z","name_a2s":"Uncletopia | Montr√©al | 1 | All Maps","protocol":17,"map":"koth_cascade","folder":"tf","game":"Team Fortress","app_id":440,"player_count":0,"max_players":24,"Bots":0,"server_type":"Dedicated","server_os":"Linux","password":true,"vac":true,"version":"7757534","steam_id":85568392924500087,"keywords":["cp","nocrits","nodmgspread","uncletopia"],"game_id":440,"stv_port":27016,"stv_name":"Uncletopia | Montr√©al | 1 | All Maps | STV","players":null},{"server_id":301,"name":"Uncletopia | Montr√©al | 2 | All Maps","name_short":"mtl-2","host":"mtl-1.ca.uncletopia.com","port":27025,"enabled":true,"region":"us-east","cc":"ca","latitude":45.50889,"longitude":-73.56167,"reserved":0,"last_update":"0001-01-01T00:00:00Z","name_a2s":"Uncletopia | Montr√©al | 2 | All Maps","protocol":17,"map":"pl_borneo","folder":"tf","game":"Team Fortress","app_id":440,"player_count":0,"max_players":24,"Bots":0,"server_type":"Dedicated","server_os":"Linux","password":true,"vac":true,"version":"7757534","steam_id":85568392924500088,"keywords":["nocrits","nodmgspread","payload","uncletopia"],"game_id":440,"stv_port":27026,"stv_name":"Uncletopia | Montr√©al | 2 | All Maps | STV","players":null},{"server_id":302,"name":"Uncletopia | Montr√©al | 3 | All Maps","name_short":"mtl-3","host":"mtl-1.ca.uncletopia.com","port":27035,"enabled":true,"region":"us-east","cc":"ca","latitude":45.50889,"longitude":-73.56167,"reserved":0,"last_update":"0001-01-01T00:00:00Z","name_a2s":"Uncletopia | Montr√©al | 3 | All Maps","protocol":17,"map":"koth_viaduct","folder":"tf","game":"Team Fortress","app_id":440,"player_count":0,"max_players":24,"Bots":0,"server_type":"Dedicated","server_os":"Linux","password":true,"vac":true,"version":"7757534","steam_id":85568392924500089,"keywords":["cp","nocrits","nodmgspread","uncletopia"],"game_id":440,"stv_port":27036,"stv_name":"Uncletopia | Montr√©al | 3 | All Maps | STV","players":null},{"server_id":303,"name":"Uncletopia | Montr√©al | 4 | No Payload","name_short":"mtl-4","host":"mtl-1.ca.uncletopia.com","port":27045,"enabled":true,"region":"us-east","cc":"ca","latitude":45.50889,"longitude":-73.56167,"reserved":0,"last_update":"0001-01-01T00:00:00Z","name_a2s":"Uncletopia | Montr√©al | 4 | No Payload","protocol":17,"map":"koth_lakeside_final","folder":"tf","game":"Team Fortress","app_id":440,"player_count":0,"max_players":24,"Bots":0,"server_type":"Dedicated","server_os":"Linux","password":true,"vac":true,"version":"7757534","steam_id":85568392924500090,"keywords":["cp","nocrits","nodmgspread","uncletopia"],"game_id":440,"stv_port":27046,"stv_name":"Uncletopia | Montr√©al | 4 | No Payload | STV","players":null},{"server_id":13,"name":"Uncletopia | New York City | 1 | All Maps","name_short":"nyc-1","host":"nyc-1.us.uncletopia.com","port":27015,"enabled":true,"region":"us-east","cc":"us","latitude":40.73061,"longitude":-73.93524,"reserved":0,"last_update":"0001-01-01T00:00:00Z","name_a2s":"Uncletopia | New York City | 1 | All Maps","protocol":17,"map":"pl_barnblitz","folder":"tf","game":"Team Fortress","app_id":440,"player_count":23,"max_players":24,"Bots":0,"server_type":"Dedicated","server_os":"Linux","password":true,"vac":true,"version":"7757534","steam_id":85568392924469993,"keywords":["nocrits","nodmgspread","payload","uncletopia"],"game_id":440,"stv_port":27016,"stv_name":"Uncletopia | New York City | 1 | All Maps | STV","players":[{"user_id":160,"name":"Remy with a scarf","steam_id":76561198845811181,"connected_time":1651000000000,"state":"active","ping":55},{"user_id":133,"name":"Lilac Lulamoon","steam_id":76561198111402757,"connected_time":3498000000000,"state":"active","ping":58},{"user_id":129,"name":"SalamenceFury","steam_id":76561198054585848,"connected_time":3819000000000,"state":"active","ping":137},{"user_id":120,"name":"The Rambler","steam_id":76561198109648603,"connected_time":4390000000000,"state":"active","ping":86},{"user_id":149,"name":"Quansen","steam_id":76561198151594550,"connected_time":2527000000000,"state":"active","ping":57},{"user_id":141,"name":"lu","steam_id":76561198080731872,"connected_time":3276000000000,"state":"active","ping":73},{"user_id":150,"name":"Owned","steam_id":76561198426350355,"connected_time":2517000000000,"state":"active","ping":87},{"user_id":161,"name":"Saturn","steam_id":76561198139681845,"connected_time":1631000000000,"state":"active","ping":75},{"user_id":165,"name":"Cassini","steam_id":76561198318526294,"connected_time":1290000000000,"state":"active","ping":46},{"user_id":122,"name":"Dip-Shit Dave","steam_id":76561198357468325,"connected_time":4216000000000,"state":"active","ping":64},{"user_id":164,"name":"joyeuxnoelle","steam_id":76561198062423120,"connected_time":1464000000000,"state":"active","ping":60},{"user_id":170,"name":"Militant Pacifist","steam_id":76561198290691432,"connected_time":514000000000,"state":"active","ping":114},{"user_id":152,"name":"Deltaco","steam_id":76561198094572694,"connected_time":2461000000000,"state":"active","ping":117},{"user_id":108,"name":"wetnails","steam_id":76561198263271697,"connected_time":4923000000000,"state":"active","ping":55},{"user_id":157,"name":"Just Luke","steam_id":76561198072134257,"connected_time":2044000000000,"state":"active","ping":57},{"user_id":146,"name":"MR DADDY","steam_id":76561198350794663,"connected_time":2590000000000,"state":"active","ping":55},{"user_id":172,"name":"Aster","steam_id":76561198037920420,"connected_time":420000000000,"state":"active","ping":142},{"user_id":140,"name":"FellowGamer","steam_id":76561198089600392,"connected_time":3426000000000,"state":"active","ping":68},{"user_id":166,"name":"Sour Idiot","steam_id":76561198138185255,"connected_time":964000000000,"state":"active","ping":102},{"user_id":143,"name":"white ray","steam_id":76561198026664629,"connected_time":3154000000000,"state":"active","ping":52},{"user_id":115,"name":"Fives","steam_id":76561199199863275,"connected_time":4752000000000,"state":"active","ping":106},{"user_id":168,"name":"Sapphireblitz","steam_id":76561198272635379,"connected_time":938000000000,"state":"active","ping":66},{"user_id":171,"name":"Stomp","steam_id":76561198167765748,"connected_time":510000000000,"state":"active","ping":73}]},{"server_id":14,"name":"Uncletopia | New York City | 2 | All Maps","name_short":"nyc-2","host":"nyc-1.us.uncletopia.com","port":27025,"enabled":true,"region":"us-east","cc":"us","latitude":40.73061,"longitude":-73.93524,"reserved":0,"last_update":"0001-01-01T00:00:00Z","name_a2s":"Uncletopia | New York City | 2 | All Maps","protocol":17,"map":"cp_mountainlab","folder":"tf","game":"Team Fortress","app_id":440,"player_count":0,"max_players":24,"Bots":0,"server_type":"Dedicated","server_os":"Linux","password":true,"vac":true,"version":"7757534","steam_id":85568392924469994,"keywords":["cp","nocrits","nodmgspread","uncletopia"],"game_id":440,"stv_port":27026,"stv_name":"Uncletopia | New York City | 2 | All Maps | STV","players":null},{"server_id":15,"name":"Uncletopia | New York City | 3 | Stopwatch Beta","name_short":"nyc-3","host":"nyc-1.us.uncletopia.com","port":27035,"enabled":true,"region":"us-east","cc":"us","latitude":40.73061,"longitude":-73.93524,"reserved":0,"last_update":"0001-01-01T00:00:00Z","name_a2s":"Uncletopia | New York City | 3 | Stopwatch Beta","protocol":17,"map":"koth_lakeside_final","folder":"tf","game":"Team Fortress","app_id":440,"player_count":0,"max_players":24,"Bots":0,"server_type":"Dedicated","server_os":"Linux","password":true,"vac":true,"version":"7757534","steam_id":85568392924742820,"keywords":["cp","nocrits","nodmgspread","uncletopia"],"game_id":440,"stv_port":27036,"stv_name":"Uncletopia | New York City | 3 | Stopwatch Beta | STV","players":null},{"server_id":16,"name":"Uncletopia | New York City | 4 | Community","name_short":"nyc-4","host":"nyc-1.us.uncletopia.com","port":27045,"enabled":true,"region":"us-east","cc":"us","latitude":40.73061,"longitude":-73.93524,"reserved":0,"last_update":"0001-01-01T00:00:00Z","name_a2s":"Uncletopia | New York City | 4 | Community","protocol":17,"map":"workshop/pl_eruption_b9a.ugc2807898013","folder":"tf","game":"Team Fortress","app_id":440,"player_count":0,"max_players":24,"Bots":0,"server_type":"Dedicated","server_os":"Linux","password":true,"vac":true,"version":"7757534","steam_id":85568392924742821,"keywords":["nocrits","nodmgspread","payload","uncletopia"],"game_id":440,"stv_port":27046,"stv_name":"Uncletopia | New York City | 4 | Community | STV","players":null},{"server_id":142,"name":"Uncletopia | S√£o Paulo | 1 | All Maps","name_short":"sao-1","host":"sao-1.br.uncletopia.com","port":27015,"enabled":true,"region":"sa","cc":"br","latitude":-23.533773,"longitude":-46.62529,"reserved":0,"last_update":"0001-01-01T00:00:00Z","name_a2s":"Uncletopia | S√£o Paulo | 1 | All Maps","protocol":17,"map":"koth_highpass","folder":"tf","game":"Team Fortress","app_id":440,"player_count":0,"max_players":24,"Bots":0,"server_type":"Dedicated","server_os":"Linux","password":true,"vac":true,"version":"7757534","steam_id":85568392924469996,"keywords":["cp","nocrits","nodmgspread","uncletopia"],"game_id":440,"stv_port":27016,"stv_name":"Uncletopia | S√£o Paulo | 1 | All Maps | STV","players":null},{"server_id":143,"name":"Uncletopia | S√£o Paulo | 2 | All Maps","name_short":"sao-2","host":"sao-2.br.uncletopia.com","port":27015,"enabled":true,"region":"sa","cc":"br","latitude":-23.533773,"longitude":-46.62529,"reserved":0,"last_update":"0001-01-01T00:00:00Z","name_a2s":"Uncletopia | S√£o Paulo | 2 | All Maps","protocol":17,"map":"pl_upward","folder":"tf","game":"Team Fortress","app_id":440,"player_count":0,"max_players":24,"Bots":0,"server_type":"Dedicated","server_os":"Linux","password":true,"vac":true,"version":"7757534","steam_id":85568392924485349,"keywords":["nocrits","nodmgspread","payload","uncletopia"],"game_id":440,"stv_port":27016,"stv_name":"Uncletopia | S√£o Paulo | 2 | All Maps | STV","players":null},{"server_id":7,"name":"Uncletopia | Seattle | 1 | All Maps","name_short":"sea-1","host":"sea-1.us.uncletopia.com","port":27015,"enabled":true,"region":"us-west","cc":"us","latitude":47.608013,"longitude":-122.33517,"reserved":0,"last_update":"0001-01-01T00:00:00Z","name_a2s":"Uncletopia | Seattle | 1 | All Maps","protocol":17,"map":"cp_steel","folder":"tf","game":"Team Fortress","app_id":440,"player_count":24,"max_players":24,"Bots":0,"server_type":"Dedicated","server_os":"Linux","password":true,"vac":true,"version":"7757534","steam_id":85568392924469997,"keywords":["cp","nocrits","nodmgspread","uncletopia"],"game_id":440,"stv_port":27016,"stv_name":"Uncletopia | Seattle | 1 | All Maps | STV","players":[{"user_id":239,"name":"BooG","steam_id":76561198879345384,"connected_time":2562000000000,"state":"active","ping":179},{"user_id":231,"name":"Defeat","steam_id":76561198065203818,"connected_time":3153000000000,"state":"active","ping":116},{"user_id":265,"name":"aon135","steam_id":76561197966931637,"connected_time":476000000000,"state":"spawning","ping":52},{"user_id":262,"name":"AmiableNebula","steam_id":76561198094306627,"connected_time":753000000000,"state":"active","ping":113},{"user_id":216,"name":"Mario Trapped in a Piano","steam_id":76561198116765135,"connected_time":4324000000000,"state":"active","ping":322},{"user_id":244,"name":"Mignyanne :3","steam_id":76561198048754056,"connected_time":1871000000000,"state":"spawning","ping":133},{"user_id":258,"name":"jello","steam_id":76561198149683030,"connected_time":990000000000,"state":"active","ping":143},{"user_id":264,"name":"nappyzappy","steam_id":76561198095118953,"connected_time":529000000000,"state":"spawning","ping":67},{"user_id":212,"name":"Seru","steam_id":76561199219827214,"connected_time":4819000000000,"state":"spawning","ping":124},{"user_id":266,"name":"raku","steam_id":76561198124069038,"connected_time":39000000000,"state":"connecting","ping":61},{"user_id":259,"name":"Lepo","steam_id":76561198383509659,"connected_time":981000000000,"state":"spawning","ping":151},{"user_id":205,"name":"C U Next Tuesday","steam_id":76561198058493492,"connected_time":5099000000000,"state":"spawning","ping":48},{"user_id":263,"name":"TheMagicMrWaffle","steam_id":76561198104357256,"connected_time":723000000000,"state":"spawning","ping":199},{"user_id":261,"name":"ZackPlay3r","steam_id":76561198416075558,"connected_time":896000000000,"state":"spawning","ping":122},{"user_id":253,"name":"DK360","steam_id":76561198796783094,"connected_time":1087000000000,"state":"spawning","ping":58},{"user_id":206,"name":"Julien","steam_id":76561199389584938,"connected_time":5067000000000,"state":"spawning","ping":48},{"user_id":256,"name":"„Ä£dust„Ä£ -she/her-","steam_id":76561198045218909,"connected_time":1041000000000,"state":"active","ping":164},{"user_id":203,"name":"Fh","steam_id":76561198000903511,"connected_time":5698000000000,"state":"spawning","ping":43},{"user_id":46,"name":"THE NUT","steam_id":76561198067813626,"connected_time":16931000000000,"state":"spawning","ping":33},{"user_id":255,"name":"Skabbety","steam_id":76561198168044257,"connected_time":1043000000000,"state":"spawning","ping":33},{"user_id":222,"name":"Prankless","steam_id":76561198070678366,"connected_time":4165000000000,"state":"active","ping":225},{"user_id":236,"name":"Lily Thorn","steam_id":76561198305488625,"connected_time":2949000000000,"state":"spawning","ping":57},{"user_id":250,"name":"spacetoven","steam_id":76561198115821131,"connected_time":1363000000000,"state":"spawning","ping":224},{"user_id":252,"name":"dep","steam_id":76561198044106812,"connected_time":1350000000000,"state":"spawning","ping":110}]},{"server_id":119,"name":"Uncletopia | Seattle | 2 | All Maps","name_short":"sea-2","host":"sea-1.us.uncletopia.com","port":27025,"enabled":true,"region":"us-west","cc":"us","latitude":47.608013,"longitude":-122.33517,"reserved":0,"last_update":"0001-01-01T00:00:00Z","name_a2s":"Uncletopia | Seattle | 2 | All Maps","protocol":17,"map":"cp_process_final","folder":"tf","game":"Team Fortress","app_id":440,"player_count":0,"max_players":24,"Bots":0,"server_type":"Dedicated","server_os":"Linux","password":true,"vac":true,"version":"7757534","steam_id":85568392924469998,"keywords":["cp","nocrits","nodmgspread","uncletopia"],"game_id":440,"stv_port":27026,"stv_name":"Uncletopia | Seattle | 2 | All Maps | STV","players":null},{"server_id":406,"name":"Uncletopia | Seattle | 3 | Stopwatch Beta","name_short":"sea-3","host":"sea-1.us.uncletopia.com","port":27035,"enabled":true,"region":"us-west","cc":"us","latitude":47.608013,"longitude":-122.33517,"reserved":0,"last_update":"0001-01-01T00:00:00Z","name_a2s":"Uncletopia | Seattle | 3 | Stopwatch Beta","protocol":17,"map":"workshop/pl_summercoast_rc8e.ugc1761528829","folder":"tf","game":"Team Fortress","app_id":440,"player_count":0,"max_players":24,"Bots":0,"server_type":"Dedicated","server_os":"Linux","password":true,"vac":true,"version":"7757534","steam_id":85568392924515217,"keywords":["nocrits","nodmgspread","payload","uncletopia"],"game_id":440,"stv_port":27036,"stv_name":"Uncletopia | Seattle | 3 | Stopwatch Beta | STV","players":null},{"server_id":17,"name":"Uncletopia | San Francisco | 1 | All Maps","name_short":"sfo-1","host":"sfo-1.us.uncletopia.com","port":27015,"enabled":true,"region":"us-west","cc":"us","latitude":37.77397,"longitude":-122.4313,"reserved":0,"last_update":"0001-01-01T00:00:00Z","name_a2s":"Uncletopia | San Francisco | 1 | All Maps","protocol":17,"map":"pl_pier","folder":"tf","game":"Team Fortress","app_id":440,"player_count":0,"max_players":24,"Bots":0,"server_type":"Dedicated","server_os":"Linux","password":true,"vac":true,"version":"7757534","steam_id":85568392924469999,"keywords":["nocrits","nodmgspread","payload","uncletopia"],"game_id":440,"stv_port":27016,"stv_name":"Uncletopia | San Francisco | 1 | All Maps | STV","players":null},{"server_id":18,"name":"Uncletopia | San Francisco | 2 | All Maps","name_short":"sfo-2","host":"sfo-1.us.uncletopia.com","port":27025,"enabled":true,"region":"us-west","cc":"us","latitude":37.77397,"longitude":-122.4313,"reserved":0,"last_update":"0001-01-01T00:00:00Z","name_a2s":"Uncletopia | San Francisco | 2 | All Maps","protocol":17,"map":"cp_mountainlab","folder":"tf","game":"Team Fortress","app_id":440,"player_count":0,"max_players":24,"Bots":0,"server_type":"Dedicated","server_os":"Linux","password":true,"vac":true,"version":"7757534","steam_id":85568392924470000,"keywords":["cp","nocrits","nodmgspread","uncletopia"],"game_id":440,"stv_port":27026,"stv_name":"Uncletopia | San Francisco | 2 | All Maps | STV","players":null},{"server_id":19,"name":"Uncletopia | San Francisco | 3 | Stopwatch Beta","name_short":"sfo-3","host":"sfo-1.us.uncletopia.com","port":27035,"enabled":true,"region":"us-west","cc":"us","latitude":37.77397,"longitude":-122.4313,"reserved":0,"last_update":"0001-01-01T00:00:00Z","name_a2s":"Uncletopia | San Francisco | 3 | Stopwatch Beta","protocol":17,"map":"koth_viaduct","folder":"tf","game":"Team Fortress","app_id":440,"player_count":0,"max_players":24,"Bots":0,"server_type":"Dedicated","server_os":"Linux","password":true,"vac":true,"version":"7757534","steam_id":85568392924742824,"keywords":["cp","nocrits","nodmgspread","uncletopia"],"game_id":440,"stv_port":27036,"stv_name":"Uncletopia | San Francisco | 3 | Stopwatch Beta | STV","players":null},{"server_id":20,"name":"Uncletopia | San Francisco | 4 | Community","name_short":"sfo-4","host":"sfo-1.us.uncletopia.com","port":27045,"enabled":true,"region":"us-west","cc":"us","latitude":37.77397,"longitude":-122.4313,"reserved":0,"last_update":"0001-01-01T00:00:00Z","name_a2s":"Uncletopia | San Francisco | 4 | Community","protocol":17,"map":"pl_borneo","folder":"tf","game":"Team Fortress","app_id":440,"player_count":0,"max_players":24,"Bots":0,"server_type":"Dedicated","server_os":"Linux","password":true,"vac":true,"version":"7757534","steam_id":85568392924742826,"keywords":["nocrits","nodmgspread","payload","uncletopia"],"game_id":440,"stv_port":27046,"stv_name":"Uncletopia | San Francisco | 4 | Community | STV","players":null},{"server_id":141,"name":"Uncletopia | Sydney | 1 | All Maps","name_short":"syd-1","host":"syd-1.au.uncletopia.com","port":27015,"enabled":true,"region":"au","cc":"au","latitude":-33.865143,"longitude":151.2099,"reserved":0,"last_update":"0001-01-01T00:00:00Z","name_a2s":"Uncletopia | Sydney | 1 | All Maps","protocol":17,"map":"koth_lakeside_final","folder":"tf","game":"Team Fortress","app_id":440,"player_count":0,"max_players":24,"Bots":0,"server_type":"Dedicated","server_os":"Linux","password":true,"vac":true,"version":"7757534","steam_id":85568392924470001,"keywords":["cp","nocrits","nodmgspread","uncletopia"],"game_id":440,"stv_port":27016,"stv_name":"Uncletopia | Sydney | 1 | All Maps | STV","players":null},{"server_id":123,"name":"Uncletopia | Sydney | 2 | All Maps","name_short":"syd-2","host":"syd-1.au.uncletopia.com","port":27025,"enabled":true,"region":"au","cc":"au","latitude":-33.865143,"longitude":151.2099,"reserved":0,"last_update":"0001-01-01T00:00:00Z","name_a2s":"Uncletopia | Sydney | 2 | All Maps","protocol":17,"map":"koth_viaduct","folder":"tf","game":"Team Fortress","app_id":440,"player_count":0,"max_players":24,"Bots":0,"server_type":"Dedicated","server_os":"Linux","password":true,"vac":true,"version":"7757534","steam_id":85568392924470002,"keywords":["cp","nocrits","nodmgspread","uncletopia"],"game_id":440,"stv_port":27026,"stv_name":"Uncletopia | Sydney | 2 | All Maps | STV","players":null},{"server_id":395,"name":"Uncletopia | Sydney | 3 | All Maps","name_short":"syd-3","host":"syd-1.au.uncletopia.com","port":27035,"enabled":true,"region":"au","cc":"au","latitude":-33.865143,"longitude":151.2099,"reserved":0,"last_update":"0001-01-01T00:00:00Z","name_a2s":"Uncletopia | Sydney | 3 | All Maps","protocol":17,"map":"koth_viaduct","folder":"tf","game":"Team Fortress","app_id":440,"player_count":0,"max_players":24,"Bots":0,"server_type":"Dedicated","server_os":"Linux","password":true,"vac":true,"version":"7757534","steam_id":85568392925194467,"keywords":["cp","nocrits","nodmgspread","uncletopia"],"game_id":440,"stv_port":27036,"stv_name":"Uncletopia | Sydney | 3 | All Maps | STV","players":null},{"server_id":396,"name":"Uncletopia | Sydney | 4 | All Maps","name_short":"syd-4","host":"syd-1.au.uncletopia.com","port":27045,"enabled":true,"region":"au","cc":"au","latitude":-33.865143,"longitude":151.2099,"reserved":0,"last_update":"0001-01-01T00:00:00Z","name_a2s":"Uncletopia | Sydney | 4 | All Maps","protocol":17,"map":"cp_snakewater_final1","folder":"tf","game":"Team Fortress","app_id":440,"player_count":0,"max_players":24,"Bots":0,"server_type":"Dedicated","server_os":"Linux","password":true,"vac":true,"version":"7757534","steam_id":85568392925397958,"keywords":["cp","nocrits","nodmgspread","uncletopia"],"game_id":440,"stv_port":27046,"stv_name":"Uncletopia | Sydney | 4 | All Maps | STV","players":null},{"server_id":58,"name":"Uncletopia | Sydney | 5 | Stopwatch Beta","name_short":"syd-5","host":"syd-1.au.uncletopia.com","port":27055,"enabled":true,"region":"au","cc":"au","latitude":-33.865143,"longitude":151.2099,"reserved":0,"last_update":"0001-01-01T00:00:00Z","name_a2s":"Uncletopia | Sydney | 5 | Stopwatch Beta","protocol":17,"map":"pl_barnblitz","folder":"tf","game":"Team Fortress","app_id":440,"player_count":0,"max_players":24,"Bots":0,"server_type":"Dedicated","server_os":"Linux","password":true,"vac":true,"version":"7757534","steam_id":85568392925397959,"keywords":["nocrits","nodmgspread","payload","uncletopia"],"game_id":440,"stv_port":27056,"stv_name":"Uncletopia | Sydney | 5 | Stopwatch Beta | STV","players":null},{"server_id":59,"name":"Uncletopia | Sydney | 6 | Community","name_short":"syd-6","host":"syd-1.au.uncletopia.com","port":27065,"enabled":true,"region":"au","cc":"au","latitude":-33.865143,"longitude":151.2099,"reserved":0,"last_update":"0001-01-01T00:00:00Z","name_a2s":"Uncletopia | Sydney | 6 | Community","protocol":17,"map":"cp_mountainlab","folder":"tf","game":"Team Fortress","app_id":440,"player_count":0,"max_players":24,"Bots":0,"server_type":"Dedicated","server_os":"Linux","password":true,"vac":true,"version":"7757534","steam_id":85568392925397960,"keywords":["cp","nocrits","nodmgspread","uncletopia"],"game_id":440,"stv_port":27066,"stv_name":"Uncletopia | Sydney | 6 | Community | STV","players":null},{"server_id":49,"name":"Uncletopia | Warsaw | 1 | All Maps","name_short":"waw-1","host":"waw-1.pl.uncletopia.com","port":27015,"enabled":true,"region":"eu","cc":"pl","latitude":52.2297,"longitude":21.017532,"reserved":0,"last_update":"0001-01-01T00:00:00Z","name_a2s":"","protocol":0,"map":"","folder":"","game":"","app_id":0,"player_count":0,"max_players":0,"Bots":0,"server_type":"","server_os":"","password":false,"vac":false,"version":"","steam_id":0,"keywords":null,"game_id":0,"stv_port":0,"stv_name":"","players":null},{"server_id":50,"name":"Uncletopia | Warsaw | 2 | All Maps","name_short":"waw-2","host":"waw-1.pl.uncletopia.com","port":27025,"enabled":true,"region":"eu","cc":"pl","latitude":52.2297,"longitude":21.017532,"reserved":0,"last_update":"0001-01-01T00:00:00Z","name_a2s":"Uncletopia | Warsaw | 2 | All Maps","protocol":17,"map":"pl_wutville_event","folder":"tf","game":"Team Fortress","app_id":440,"player_count":0,"max_players":24,"Bots":0,"server_type":"Dedicated","server_os":"Linux","password":true,"vac":true,"version":"7757534","steam_id":85568392925397851,"keywords":["nocrits","nodmgspread","payload","uncletopia"],"game_id":440,"stv_port":27026,"stv_name":"Uncletopia | Warsaw | 2 | All Maps | STV","players":null},{"server_id":51,"name":"Uncletopia | Warsaw | 3 | All Maps","name_short":"waw-3","host":"waw-1.pl.uncletopia.com","port":27035,"enabled":true,"region":"eu","cc":"pl","latitude":52.2297,"longitude":21.017532,"reserved":0,"last_update":"0001-01-01T00:00:00Z","name_a2s":"Uncletopia | Warsaw | 3 | All Maps","protocol":17,"map":"koth_viaduct","folder":"tf","game":"Team Fortress","app_id":440,"player_count":10,"max_players":24,"Bots":0,"server_type":"Dedicated","server_os":"Linux","password":true,"vac":true,"version":"7757534","steam_id":85568392925397852,"keywords":["cp","nocrits","nodmgspread","uncletopia"],"game_id":440,"stv_port":27036,"stv_name":"Uncletopia | Warsaw | 3 | All Maps | STV","players":[{"user_id":352,"name":"FISH","steam_id":76561199118495669,"connected_time":1264000000000,"state":"active","ping":60},{"user_id":353,"name":"Majonez_Kielecki","steam_id":76561199120487770,"connected_time":1201000000000,"state":"active","ping":57},{"user_id":354,"name":"ashsbhop","steam_id":76561199155075476,"connected_time":553000000000,"state":"active","ping":61},{"user_id":355,"name":"KatTheCookiCat","steam_id":76561199054643392,"connected_time":359000000000,"state":"active","ping":53},{"user_id":356,"name":"Woaded","steam_id":76561198840059675,"connected_time":276000000000,"state":"active","ping":62},{"user_id":357,"name":"haadis55555","steam_id":76561199117504724,"connected_time":239000000000,"state":"active","ping":223},{"user_id":359,"name":"Toast","steam_id":76561199157433575,"connected_time":65000000000,"state":"active","ping":223},{"user_id":360,"name":"SoapDictator","steam_id":76561198010540358,"connected_time":58000000000,"state":"active","ping":90},{"user_id":361,"name":"Soda Bobtle","steam_id":76561198044847542,"connected_time":57000000000,"state":"active","ping":210},{"user_id":362,"name":"KoraSona","steam_id":76561199000322836,"connected_time":14000000000,"state":"spawning","ping":46}]},{"server_id":52,"name":"Uncletopia | Warsaw | 4 | All Maps","name_short":"waw-4","host":"waw-1.pl.uncletopia.com","port":27045,"enabled":true,"region":"eu","cc":"pl","latitude":52.2297,"longitude":21.017532,"reserved":0,"last_update":"0001-01-01T00:00:00Z","name_a2s":"Uncletopia | Warsaw | 4 | All Maps","protocol":17,"map":"koth_lakeside_final","folder":"tf","game":"Team Fortress","app_id":440,"player_count":0,"max_players":24,"Bots":0,"server_type":"Dedicated","server_os":"Linux","password":true,"vac":true,"version":"7757534","steam_id":85568392925397853,"keywords":["cp","nocrits","nodmgspread","uncletopia"],"game_id":440,"stv_port":27046,"stv_name":"Uncletopia | Warsaw | 4 | All Maps | STV","players":null},{"server_id":53,"name":"Uncletopia | Warsaw | 5 | Stopwatch Beta","name_short":"waw-5","host":"waw-1.pl.uncletopia.com","port":27055,"enabled":true,"region":"eu","cc":"pl","latitude":52.2297,"longitude":21.017532,"reserved":0,"last_update":"0001-01-01T00:00:00Z","name_a2s":"Uncletopia | Warsaw | 5 | Stopwatch Beta","protocol":17,"map":"pl_upward","folder":"tf","game":"Team Fortress","app_id":440,"player_count":0,"max_players":24,"Bots":0,"server_type":"Dedicated","server_os":"Linux","password":true,"vac":true,"version":"7757534","steam_id":85568392925397854,"keywords":["nocrits","nodmgspread","payload","uncletopia"],"game_id":440,"stv_port":27056,"stv_name":"Uncletopia | Warsaw | 5 | Stopwatch Beta | STV","players":null},{"server_id":54,"name":"Uncletopia | Warsaw | 6 | Community","name_short":"waw-6","host":"waw-1.pl.uncletopia.com","port":27065,"enabled":true,"region":"eu","cc":"pl","latitude":52.2297,"longitude":21.017532,"reserved":0,"last_update":"0001-01-01T00:00:00Z","name_a2s":"Uncletopia | Warsaw | 6 | Community","protocol":17,"map":"workshop/cp_overgrown_rc7b.ugc503939302","folder":"tf","game":"Team Fortress","app_id":440,"player_count":0,"max_players":24,"Bots":0,"server_type":"Dedicated","server_os":"Linux","password":true,"vac":true,"version":"7757534","steam_id":85568392925397856,"keywords":["cp","nocrits","nodmgspread","uncletopia"],"game_id":440,"stv_port":27066,"stv_name":"Uncletopia | Warsaw | 6 | Community | STV","players":null}]}