{"status":true,"message":"","result":[{"server_id":9,"name":"Uncletopia | Atlanta | 1 | All Maps","name_short":"atl-1","host":"atl-1.us.uncletopia.com","port":27015,"enabled":true,"region":"us-east","cc":"us","latitude":33.753746,"longitude":-84.38633,"reserved":0,"last_update":"0001-01-01T00:00:00Z","name_a2s":"Uncletopia | Atlanta | 1 | All Maps","protocol":17,"map":"ctf_turbine","folder":"tf","game":"Team Fortress","app_id":440,"player_count":24,"max_players":24,"Bots":0,"server_type":"Dedicated","server_os":"Linux","password":true,"vac":true,"version":"7757534","steam_id":85568392924469982,"keywords":["ctf","nocrits","nodmgspread","uncletopia"],"game_id":440,"stv_port":27016,"stv_name":"Uncletopia | Atlanta | 1 | All Maps | STV","players":[{"user_id":20,"name":"box","steam_id":76561198985635309,"connected_time":9166000000000,"state":"active","ping":84},{"user_id":144,"name":"axis","steam_id":76561198065535856,"connected_time":916000000000,"state":"active","ping":70},{"user_id":153,"name":"vid_","steam_id":76561198065159053,"connected_time":187000000000,"state":"active","ping":66},{"user_id":86,"name":"Brass beast heavy","steam_id":76561198274197623,"connected_time":5891000000000,"state":"active","ping":152},{"user_id":139,"name":"Protato","steam_id":76561198061182563,"connected_time":1736000000000,"state":"active","ping":62},{"user_id":21,"name":"\u003c blank \u003e","steam_id":76561198012566503,"connected_time":9158000000000,"state":"active","ping":102},{"user_id":150,"name":"Wacky-Mo","steam_id":76561198022265991,"connected_time":216000000000,"state":"active","ping":61},{"user_id":121,"name":"ATL1 | LuckyZero-_-","steam_id":76561198139891051,"connected_time":3604000000000,"state":"active","ping":59},{"user_id":151,"name":"Timur","steam_id":76561197989552257,"connected_time":214000000000,"state":"active","ping":69},{"user_id":104,"name":"wiiblob","steam_id":76561198109106242,"connected_time":5055000000000,"state":"active","ping":121},{"user_id":143,"name":"Wallem","steam_id":76561198052361822,"connected_time":931000000000,"state":"active","ping":70},{"user_id":114,"name":"chiswola","steam_id":76561198046920142,"connected_time":4132000000000,"state":"active","ping":88},{"user_id":145,"name":"Bobby Mike","steam_id":76561198353781282,"connected_time":885000000000,"state":"active","ping":64},{"user_id":146,"name":"trapsis","steam_id":76561198069474149,"connected_time":869000000000,"state":"active","ping":67},{"user_id":130,"name":"Carmine","steam_id":76561199405378993,"connected_time":2735000000000,"state":"active","ping":90},{"user_id":140,"name":"Viennetta","steam_id":76561198044088335,"connected_time":1117000000000,"state":"active","ping":82},{"user_id":71,"name":"wire-guided","steam_id":76561198055407168,"connected_time":6924000000000,"state":"active","ping":60},{"user_id":135,"name":"Ashes!","steam_id":76561197998475441,"connected_time":2383000000000,"state":"active","ping":131},{"user_id":133,"name":"Fiendish Frog","steam_id":76561198029478821,"connected_time":2694000000000,"state":"active","ping":103},{"user_id":156,"name":"Juice Councilmen","steam_id":76561198312125574,"connected_time":132000000000,"state":"active","ping":73},{"user_id":147,"name":"GROOVYROOM","steam_id":76561199153684166,"connected_time":857000000000,"state":"active","ping":117},{"user_id":132,"name":"LegendaryMister151","steam_id":76561198064890524,"connected_time":2711000000000,"state":"active","ping":84},{"user_id":137,"name":"Mr. Call You Back","steam_id":76561198025172811,"connected_time":2267000000000,"state":"active","ping":59},{"user_id":152,"name":"Soul Garg Plushy","steam_id":76561198044480181,"connected_time":210000000000,"state":"active","ping":70}]},{"server_id":400,"name":"Uncletopia | Atlanta | 3 | Community","name_short":"atl-3","host":"atl-1.us.uncletopia.com","port":27035,"enabled":true,"region":"us-east","cc":"us","latitude":33.753746,"longitude":-84.38633,"reserved":0,"last_update":"0001-01-01T00:00:00Z","name_a2s":"Uncletopia | Atlanta | 3 | Community","protocol":17,"map":"workshop/pl_badwater_pro_v12.ugc2142942074","folder":"tf","game":"Team Fortress","app_id":440,"player_count":25,"max_players":32,"Bots":0,"server_type":"Dedicated","server_os":"Linux","password":true,"vac":true,"version":"7757534","steam_id":85568392924515187,"keywords":["increased_maxplayers","nocrits","nodmgspread","payload","uncletopia"],"game_id":440,"stv_port":27036,"stv_name":"Uncletopia | Atlanta | 3 | Community | STV","players":[{"user_id":360,"name":"Queen Dailin","steam_id":76561198034973560,"connected_time":25000000000,"state":"active","ping":71},{"user_id":274,"name":"M249 | Spectre","steam_id":76561198118334485,"connected_time":2412000000000,"state":"active","ping":80},{"user_id":353,"name":"Tiafe","steam_id":76561198040398768,"connected_time":156000000000,"state":"active","ping":65},{"user_id":333,"name":"Anxious Nerd Bird","steam_id":76561198112178602,"connected_time":550000000000,"state":"active","ping":111},{"user_id":290,"name":"athletesfoot","steam_id":76561197997331867,"connected_time":1897000000000,"state":"active","ping":60},{"user_id":246,"name":"Joshy","steam_id":76561198061405421,"connected_time":3505000000000,"state":"active","ping":76},{"user_id":334,"name":"antrobot","steam_id":76561198281039672,"connected_time":528000000000,"state":"active","ping":45},{"user_id":361,"name":"William Wallace","steam_id":76561199343316814,"connected_time":2000000000,"state":"spawning","ping":45},{"user_id":335,"name":"a narwhal","steam_id":76561198014527353,"connected_time":496000000000,"state":"active","ping":72},{"user_id":170,"name":"old birb man","steam_id":76561199410269097,"connected_time":6245000000000,"state":"active","ping":149},{"user_id":336,"name":"GhostCoffee","steam_id":76561198105228900,"connected_time":468000000000,"state":"active","ping":60},{"user_id":293,"name":"Banks","steam_id":76561198276505537,"connected_time":1734000000000,"state":"active","ping":76},{"user_id":276,"name":"guh","steam_id":76561197972342286,"connected_time":2364000000000,"state":"active","ping":76},{"user_id":168,"name":"The guy","steam_id":76561199275071037,"connected_time":6393000000000,"state":"active","ping":73},{"user_id":257,"name":"Lexabyte","steam_id":76561198065032237,"connected_time":2968000000000,"state":"active","ping":86},{"user_id":291,"name":"Giga Vivian","steam_id":76561198105057122,"connected_time":1833000000000,"state":"active","ping":122},{"user_id":252,"name":"Duckywinner","steam_id":76561198254828139,"connected_time":3213000000000,"state":"active","ping":64},{"user_id":275,"name":"Your Local Jester","steam_id":76561199120223717,"connected_time":2381000000000,"state":"active","ping":67},{"user_id":343,"name":"watchfull","steam_id":76561198433266742,"connected_time":246000000000,"state":"active","ping":111},{"user_id":277,"name":"Hermit_","steam_id":76561198013807290,"connected_time":2349000000000,"state":"active","ping":87},{"user_id":253,"name":"SwingDickerson","steam_id":76561198045542926,"connected_time":3150000000000,"state":"active","ping":60},{"user_id":354,"name":"rlty","steam_id":76561198009395055,"connected_time":142000000000,"state":"active","ping":72},{"user_id":328,"name":"ScoutBox","steam_id":76561198111539895,"connected_time":762000000000,"state":"active","ping":104},{"user_id":230,"name":"pool shark","steam_id":76561198130191179,"connected_time":3972000000000,"state":"active","ping":76},{"user_id":325,"name":"DAMN DANIEL AR AR AR AR AR","steam_id":76561198314941120,"connected_time":800000000000,"state":"active","ping":92}]},{"server_id":401,"name":"Uncletopia | Atlanta | 4 | No Payload","name_short":"atl-4","host":"atl-1.us.uncletopia.com","port":27045,"enabled":true,"region":"us-east","cc":"us","latitude":33.753746,"longitude":-84.38633,"reserved":0,"last_update":"0001-01-01T00:00:00Z","name_a2s":"","protocol":0,"map":"","folder":"","game":"","app_id":0,"player_count":0,"max_players":0,"Bots":0,"server_type":"","server_os":"","password":false,"vac":false,"version":"","steam_id":0,"keywords":null,"game_id":0,"stv_port":0,"stv_name":"","players":null},{"server_id":2,"name":"Uncletopia | Chicago | 1 | All Maps","name_short":"chi-1","host":"chi-1.us.uncletopia.com","port":27015,"enabled":true,"region":"us-central","cc":"us","latitude":41.881832,"longitude":-87.62318,"reserved":0,"last_update":"0001-01-01T00:00:00Z","name_a2s":"Uncletopia | Chicago | 1 | All Maps","protocol":17,"map":"koth_highpass","folder":"tf","game":"Team Fortress","app_id":440,"player_count":0,"max_players":24,"Bots":0,"server_type":"Dedicated","server_os":"Linux","password":true,"vac":true,"version":"7757534","steam_id":85568392924469984,"keywords":["cp","nocrits","nodmgspread","uncletopia"],"game_id":440,"stv_port":27016,"stv_name":"Uncletopia | Chicago | 1 | All Maps | STV","players":null},{"server_id":106,"name":"Uncletopia | Chicago | 2 | All Maps","name_short":"chi-2","host":"chi-1.us.uncletopia.com","port":27025,"enabled":true,"region":"us-central","cc":"us","latitude":41.881832,"longitude":-87.62318,"reserved":0,"last_update":"0001-01-01T00:00:00Z","name_a2s":"Uncletopia | Chicago | 2 | All Maps","protocol":17,"map":"koth_viaduct","folder":"tf","game":"Team Fortress","app_id":440,"player_count":0,"max_players":24,"Bots":0,"server_type":"Dedicated","server_os":"Linux","password":true,"vac":true,"version":"7757534","steam_id":85568392924469985,"keywords":["cp","nocrits","nodmgspread","uncletopia"],"game_id":440,"stv_port":27026,"stv_name":"Uncletopia | Chicago | 2 | All Maps | STV","players":null},{"server_id":402,"name":"Uncletopia | Chicago | 3 | All Maps","name_short":"chi-3","host":"chi-1.us.uncletopia.com","port":27035,"enabled":true,"region":"us-central","cc":"us","latitude":41.881832,"longitude":-87.62318,"reserved":0,"last_update":"0001-01-01T00:00:00Z","name_a2s":"Uncletopia | Chicago | 3 | All Maps","protocol":17,"map":"pl_swiftwater_final1","folder":"tf","game":"Team Fortress","app_id":440,"player_count":24,"max_players":24,"Bots":0,"server_type":"Dedicated","server_os":"Linux","password":true,"vac":true,"version":"7757534","steam_id":85568392924515191,"keywords":["nocrits","nodmgspread","payload","uncletopia"],"game_id":440,"stv_port":27036,"stv_name":"Uncletopia | Chicago | 3 | All Maps | STV","players":[{"user_id":200,"name":"morbissey","steam_id":76561198072592880,"connected_time":3524000000000,"state":"active","ping":39},{"user_id":207,"name":"Gabinator32","steam_id":76561198872467183,"connected_time":3207000000000,"state":"active","ping":44},{"user_id":236,"name":"Wakadactyl","steam_id":76561198143217984,"connected_time":824000000000,"state":"active","ping":67},{"user_id":216,"name":"ButterScotch","steam_id":76561199389314894,"connected_time":2219000000000,"state":"active","ping":67},{"user_id":227,"name":"BONK! Official","steam_id":76561198198949259,"connected_time":1499000000000,"state":"active","ping":59},{"user_id":220,"name":"edelyn","steam_id":76561198815644949,"connected_time":2058000000000,"state":"active","ping":65},{"user_id":224,"name":"Ta5K","steam_id":76561198939558155,"connected_time":1977000000000,"state":"active","ping":43},{"user_id":208,"name":"i really like this dog :)","steam_id":76561198882404753,"connected_time":3010000000000,"state":"active","ping":80},{"user_id":239,"name":"NUt","steam_id":76561198031007966,"connected_time":616000000000,"state":"active","ping":71},{"user_id":140,"name":"shokie","steam_id":76561197997961542,"connected_time":9236000000000,"state":"active","ping":74},{"user_id":199,"name":"Marisuh","steam_id":76561198843890616,"connected_time":3558000000000,"state":"active","ping":91},{"user_id":213,"name":"The Land Admiral","steam_id":76561198159356609,"connected_time":2643000000000,"state":"active","ping":77},{"user_id":229,"name":"swissy","steam_id":76561198806135761,"connected_time":1417000000000,"state":"active","ping":66},{"user_id":127,"name":"TheGreatDong","steam_id":76561198000634178,"connected_time":10534000000000,"state":"active","ping":105},{"user_id":202,"name":"bird","steam_id":76561199144340440,"connected_time":3489000000000,"state":"active","ping":64},{"user_id":234,"name":"vandeer","steam_id":76561198120124007,"connected_time":942000000000,"state":"active","ping":83},{"user_id":223,"name":"BurgerPizza","steam_id":76561198151256410,"connected_time":2024000000000,"state":"active","ping":148},{"user_id":240,"name":"Puzzle Master -IYSMITL-","steam_id":76561198259132395,"connected_time":515000000000,"state":"active","ping":101},{"user_id":241,"name":"Copter_Boy","steam_id":76561198322921312,"connected_time":4000000000,"state":"spawning","ping":93},{"user_id":210,"name":"Squirrel","steam_id":76561198213466429,"connected_time":2912000000000,"state":"active","ping":95},{"user_id":237,"name":"FreonAddict9x19","steam_id":76561198060010824,"connected_time":820000000000,"state":"active","ping":79},{"user_id":186,"name":"Glory","steam_id":76561198013975080,"connected_time":4956000000000,"state":"active","ping":70},{"user_id":232,"name":"adil (victim)","steam_id":76561198197047443,"connected_time":1032000000000,"state":"active","ping":75},{"user_id":203,"name":"kametro4","steam_id":76561198835430429,"connected_time":3421000000000,"state":"active","ping":89}]},{"server_id":403,"name":"Uncletopia | Chicago | 4 | All Maps","name_short":"chi-4","host":"chi-1.us.uncletopia.com","port":27045,"enabled":true,"region":"us-central","cc":"us","latitude":41.881832,"longitude":-87.62318,"reserved":0,"last_update":"0001-01-01T00:00:00Z","name_a2s":"Uncletopia | Chicago | 4 | All Maps","protocol":17,"map":"pl_swiftwater_final1","folder":"tf","game":"Team Fortress","app_id":440,"player_count":24,"max_players":24,"Bots":0,"server_type":"Dedicated","server_os":"Linux","password":true,"vac":true,"version":"7757534","steam_id":85568392924515193,"keywords":["nocrits","nodmgspread","payload","uncletopia"],"game_id":440,"stv_port":27046,"stv_name":"Uncletopia | Chicago | 4 | All Maps | STV","players":[{"user_id":258,"name":"John Darksoul","steam_id":76561198999712284,"connected_time":1681000000000,"state":"active","ping":72},{"user_id":266,"name":"drdoofus123","steam_id":76561198016826181,"connected_time":867000000000,"state":"active","ping":74},{"user_id":219,"name":"Brown_Dream","steam_id":76561198975766145,"connected_time":6949000000000,"state":"active","ping":78},{"user_id":267,"name":"stardust","steam_id":76561198413930183,"connected_time":820000000000,"state":"active","ping":59},{"user_id":201,"name":"I'm Only 4 Inches","steam_id":76561198055542546,"connected_time":7703000000000,"state":"active","ping":58},{"user_id":229,"name":"--_Cook_--","steam_id":76561198080855748,"connected_time":5039000000000,"state":"active","ping":48},{"user_id":259,"name":"Overduecat","steam_id":76561198092452824,"connected_time":1088000000000,"state":"active","ping":70},{"user_id":255,"name":"Jill the Owl","steam_id":76561197999210583,"connected_time":2304000000000,"state":"active","ping":71},{"user_id":272,"name":"MeatShield 2000","steam_id":76561199375192850,"connected_time":600000000000,"state":"active","ping":97},{"user_id":269,"name":"Mr. Tickle","steam_id":76561198126684647,"connected_time":663000000000,"state":"active","ping":58},{"user_id":254,"name":"crayonnipple","steam_id":76561198070253331,"connected_time":2509000000000,"state":"active","ping":59},{"user_id":257,"name":"Dezorbo","steam_id":76561197971883897,"connected_time":1736000000000,"state":"active","ping":73},{"user_id":273,"name":"Ozone-flavored Starburst","steam_id":76561199163688421,"connected_time":577000000000,"state":"active","ping":104},{"user_id":242,"name":"♥ Femboy♥Ventily ♥","steam_id":76561198157260335,"connected_time":4317000000000,"state":"active","ping":45},{"user_id":260,"name":"Rappitor","steam_id":76561198105613110,"connected_time":1062000000000,"state":"active","ping":46},{"user_id":274,"name":"Gef","steam_id":76561198000488156,"connected_time":576000000000,"state":"active","ping":98},{"user_id":275,"name":"hummus in my tummus","steam_id":76561199438698036,"connected_time":403000000000,"state":"active","ping":66},{"user_id":249,"name":"shinon","steam_id":76561198373626848,"connected_time":3165000000000,"state":"active","ping":75},{"user_id":211,"name":"PKBEAST_7","steam_id":76561198177136537,"connected_time":7397000000000,"state":"active","ping":90},{"user_id":264,"name":"eBay","steam_id":76561198061214569,"connected_time":906000000000,"state":"active","ping":86},{"user_id":239,"name":"Gotta get my ammo fix","steam_id":76561198039763676,"connected_time":4642000000000,"state":"active","ping":66},{"user_id":276,"name":"BrendenMad","steam_id":76561198031250581,"connected_time":198000000000,"state":"active","ping":57},{"user_id":246,"name":"Slippery","steam_id":76561199469441947,"connected_time":3552000000000,"state":"active","ping":52},{"user_id":253,"name":"Triforce141","steam_id":76561198063896776,"connected_time":2874000000000,"state":"active","ping":64}]},{"server_id":36,"name":"Uncletopia | Chicago | 5 | All Maps","name_short":"chi-5","host":"chi-2.us.uncletopia.com","port":27015,"enabled":true,"region":"us-central","cc":"us","latitude":41.881832,"longitude":-87.62318,"reserved":0,"last_update":"0001-01-01T00:00:00Z","name_a2s":"Uncletopia | Chicago | 5 | All Maps","protocol":17,"map":"koth_cascade","folder":"tf","game":"Team Fortress","app_id":440,"player_count":0,"max_players":24,"Bots":0,"server_type":"Dedicated","server_os":"Linux","password":true,"vac":true,"version":"7757534","steam_id":85568392924866362,"keywords":["cp","nocrits","nodmgspread","uncletopia"],"game_id":440,"stv_port":27016,"stv_name":"Uncletopia | Chicago | 5 | All Maps | STV","players":null},{"server_id":37,"name":"Uncletopia | Chicago | 6 | All Maps","name_short":"chi-6","host":"chi-2.us.uncletopia.com","port":27025,"enabled":true,"region":"us-central","cc":"us","latitude":41.881832,"longitude":-87.62318,"reserved":0,"last_update":"0001-01-01T00:00:00Z","name_a2s":"Uncletopia | Chicago | 6 | All Maps","protocol":17,"map":"koth_cascade","folder":"tf","game":"Team Fortress","app_id":440,"player_count":0,"max_players":24,"Bots":0,"server_type":"Dedicated","server_os":"Linux","password":true,"vac":true,"version":"7757534","steam_id":85568392924866363,"keywords":["cp","nocrits","nodmgspread","uncletopia"],"game_id":440,"stv_port":27026,"stv_name":"Uncletopia | Chicago | 6 | All Maps | STV","players":null},{"server_id":38,"name":"Uncletopia | Chicago | 7 | Stopwatch Beta","name_short":"chi-7","host":"chi-2.us.uncletopia.com","port":27035,"enabled":true,"region":"us-central","cc":"us","latitude":41.881832,"longitude":-87.62318,"reserved":0,"last_update":"0001-01-01T00:00:00Z","name_a2s":"Uncletopia | Chicago | 7 | Stopwatch Beta","protocol":17,"map":"pl_upward","folder":"tf","game":"Team Fortress","app_id":440,"player_count":0,"max_players":24,"Bots":0,"server_type":"Dedicated","server_os":"Linux","password":true,"vac":true,"version":"7757534","steam_id":85568392924866364,"keywords":["nocrits","nodmgspread","payload","uncletopia"],"game_id":440,"stv_port":27036,"stv_name":"Uncletopia | Chicago | 7 | Stopwatch Beta | STV","players":null},{"server_id":39,"name":"Uncletopia | Chicago | 8 | Community","name_short":"chi-8","host":"chi-2.us.uncletopia.com","port":27045,"enabled":true,"region":"us-central","cc":"us","latitude":41.881832,"longitude":-87.62318,"reserved":0,"last_update":"0001-01-01T00:00:00Z","name_a2s":"Uncletopia | Chicago | 8 | Community","protocol":17,"map":"workshop/pl_eruption_b9a.ugc2807898013","folder":"tf","game":"Team Fortress","app_id":440,"player_count":0,"max_players":24,"Bots":0,"server_type":"Dedicated","server_os":"Linux","password":true,"vac":true,"version":"7757534","steam_id":85568392924866365,"keywords":["nocrits","nodmgspread","payload","uncletopia"],"game_id":440,"stv_port":27046,"stv_name":"Uncletopia | Chicago | 8 | Community | STV","players":null},{"server_id":8,"name":"Uncletopia | Dallas | 1 | All Maps","name_short":"dal-1","host":"dal-1.us.uncletopia.com","port":27015,"enabled":true,"region":"us-central","cc":"us","latitude":32.779167,"longitude":-96.80889,"reserved":0,"last_update":"0001-01-01T00:00:00Z","name_a2s":"Uncletopia | Dallas | 1 | All Maps","protocol":17,"map":"pl_snowycoast","folder":"tf","game":"Team Fortress","app_id":440,"player_count":24,"max_players":24,"Bots":0,"server_type":"Dedicated","server_os":"Linux","password":true,"vac":true,"version":"7757534","steam_id":85568392924469986,"keywords":["nocrits","nodmgspread","payload","uncletopia"],"game_id":440,"stv_port":27016,"stv_name":"Uncletopia | Dallas | 1 | All Maps | STV","players":[{"user_id":381,"name":"shield shekel","steam_id":76561198174428289,"connected_time":1368000000000,"state":"active","ping":90},{"user_id":383,"name":"Lolxdloldx","steam_id":76561198136887125,"connected_time":1164000000000,"state":"active","ping":96},{"user_id":396,"name":"LightBulbGlue #SaveTF2","steam_id":76561198329573529,"connected_time":793000000000,"state":"active","ping":86},{"user_id":356,"name":"sebjzy","steam_id":76561198009959034,"connected_time":3322000000000,"state":"active","ping":55},{"user_id":347,"name":"barker bill","steam_id":76561198018451994,"connected_time":3757000000000,"state":"active","ping":56},{"user_id":398,"name":"Andy Hue","steam_id":76561198176949919,"connected_time":501000000000,"state":"active","ping":75},{"user_id":370,"name":"[LINUX] Purple Penguin Pybro","steam_id":76561198093538786,"connected_time":2621000000000,"state":"active","ping":45},{"user_id":391,"name":"Judith The Adversary","steam_id":76561198932113568,"connected_time":1075000000000,"state":"active","ping":105},{"user_id":335,"name":"Invisorum","steam_id":76561198051902115,"connected_time":4526000000000,"state":"active","ping":142},{"user_id":333,"name":"Eadguy","steam_id":76561198029852831,"connected_time":4615000000000,"state":"active","ping":110},{"user_id":397,"name":"SweetLou","steam_id":76561198064569582,"connected_time":763000000000,"state":"active","ping":72},{"user_id":382,"name":"Paco","steam_id":76561198023504958,"connected_time":1237000000000,"state":"active","ping":60},{"user_id":342,"name":"Speedy","steam_id":76561198080761661,"connected_time":3989000000000,"state":"active","ping":101},{"user_id":358,"name":"Leo","steam_id":76561198309760791,"connected_time":3059000000000,"state":"active","ping":123},{"user_id":380,"name":"Bunger","steam_id":76561198951348154,"connected_time":1763000000000,"state":"active","ping":87},{"user_id":399,"name":"Mortimer Khan","steam_id":76561197968829990,"connected_time":202000000000,"state":"active","ping":92},{"user_id":363,"name":"KYRDodgeman","steam_id":76561199106649457,"connected_time":2921000000000,"state":"active","ping":49},{"user_id":386,"name":"Don Piccolo","steam_id":76561198118539302,"connected_time":1148000000000,"state":"active","ping":107},{"user_id":388,"name":"Smiles","steam_id":76561198107197973,"connected_time":1113000000000,"state":"active","ping":107},{"user_id":389,"name":"yeyoi","steam_id":76561198069821885,"connected_time":1105000000000,"state":"active","ping":83},{"user_id":395,"name":"Pixler544","steam_id":76561198240575132,"connected_time":832000000000,"state":"active","ping":77},{"user_id":378,"name":"Immunized","steam_id":76561197985889870,"connected_time":1984000000000,"state":"active","ping":104},{"user_id":230,"name":"177013","steam_id":76561198072303290,"connected_time":12438000000000,"state":"active","ping":88},{"user_id":401,"name":"Meet The Racist","steam_id":76561198253927199,"connected_time":31000000000,"state":"spawning","ping":183}]},{"server_id":108,"name":"Uncletopia | Dallas | 2 | All Maps","name_short":"dal-2","host":"dal-1.us.uncletopia.com","port":27025,"enabled":true,"region":"us-central","cc":"us","latitude":32.779167,"longitude":-96.80889,"reserved":0,"last_update":"0001-01-01T00:00:00Z","name_a2s":"Uncletopia | Dallas | 2 | All Maps","protocol":17,"map":"koth_viaduct","folder":"tf","game":"Team Fortress","app_id":440,"player_count":24,"max_players":24,"Bots":0,"server_type":"Dedicated","server_os":"Linux","password":true,"vac":true,"version":"7757534","steam_id":85568392924469988,"keywords":["cp","nocrits","nodmgspread","uncletopia"],"game_id":440,"stv_port":27026,"stv_name":"Uncletopia | Dallas | 2 | All Maps | STV","players":[{"user_id":48,"name":"Stranded","steam_id":76561198139648047,"connected_time":1279000000000,"state":"active","ping":64},{"user_id":60,"name":"lirio","steam_id":76561198102681457,"connected_time":354000000000,"state":"active","ping":71},{"user_id":66,"name":"Dojoloachfr","steam_id":76561198826298849,"connected_time":3000000000,"state":"spawning","ping":118},{"user_id":56,"name":"breaking the exosphere","steam_id":76561198825658971,"connected_time":657000000000,"state":"active","ping":79},{"user_id":57,"name":"Moonflower ✦","steam_id":76561198191782483,"connected_time":646000000000,"state":"active","ping":48},{"user_id":49,"name":"OneFestiveCorvid","steam_id":76561199012953221,"connected_time":1260000000000,"state":"active","ping":105},{"user_id":45,"name":"Acro Banwagon","steam_id":76561198092451804,"connected_time":1412000000000,"state":"active","ping":74},{"user_id":22,"name":"Mr. Dick™","steam_id":76561198047309044,"connected_time":2094000000000,"state":"active","ping":57},{"user_id":23,"name":"Golem","steam_id":76561199015772917,"connected_time":2038000000000,"state":"active","ping":90},{"user_id":24,"name":"４０ ＦＰＳ","steam_id":76561198272394965,"connected_time":2004000000000,"state":"active","ping":149},{"user_id":25,"name":"SnArCAsTiC","steam_id":76561198084340386,"connected_time":1994000000000,"state":"active","ping":85},{"user_id":63,"name":"Legit_Jaxer","steam_id":76561198172234053,"connected_time":109000000000,"state":"active","ping":66},{"user_id":50,"name":"sleepychungus45","steam_id":76561198215559840,"connected_time":1254000000000,"state":"active","ping":99},{"user_id":28,"name":"extinct111","steam_id":76561199013696367,"connected_time":1887000000000,"state":"active","ping":82},{"user_id":29,"name":"lost in spaaaaace","steam_id":76561199085974120,"connected_time":1872000000000,"state":"active","ping":88},{"user_id":55,"name":"Juicebox","steam_id":76561198135758294,"connected_time":993000000000,"state":"active","ping":87},{"user_id":52,"name":"SHUT 'EM DOWN","steam_id":76561198111259720,"connected_time":1199000000000,"state":"active","ping":84},{"user_id":33,"name":"catrinaisahuman","steam_id":76561198281355729,"connected_time":1785000000000,"state":"active","ping":65},{"user_id":34,"name":"222","steam_id":76561198017539604,"connected_time":1771000000000,"state":"active","ping":73},{"user_id":62,"name":"Donk","steam_id":76561198803472441,"connected_time":112000000000,"state":"active","ping":87},{"user_id":43,"name":"Zizen","steam_id":76561199011832069,"connected_time":1478000000000,"state":"active","ping":104},{"user_id":38,"name":"SuperFresh","steam_id":76561198200723198,"connected_time":1707000000000,"state":"active","ping":66},{"user_id":39,"name":"American freedom bird","steam_id":76561198366142388,"connected_time":1695000000000,"state":"active","ping":90},{"user_id":65,"name":"IPlayGamez","steam_id":76561198041387508,"connected_time":91000000000,"state":"active","ping":77}]},{"server_id":5,"name":"Uncletopia | Frankfurt | 1 | All Maps","name_short":"frk-1","host":"frk-1.de.uncletopia.com","port":27015,"enabled":true,"region":"eu","cc":"de","latitude":50.110924,"longitude":8.682127,"reserved":0,"last_update":"0001-01-01T00:00:00Z","name_a2s":"Uncletopia | Frankfurt | 1 | All Maps","protocol":17,"map":"pl_snowycoast","folder":"tf","game":"Team Fortress","app_id":440,"player_count":24,"max_players":24,"Bots":0,"server_type":"Dedicated","server_os":"Linux","password":true,"vac":true,"version":"7757534","steam_id":85568392924469989,"keywords":["nocrits","nodmgspread","payload","uncletopia"],"game_id":440,"stv_port":27016,"stv_name":"Uncletopia | Frankfurt | 1 | All Maps | STV","players":[{"user_id":280,"name":"Guantanamo Bae","steam_id":76561198052084495,"connected_time":225000000000,"state":"active","ping":68},{"user_id":279,"name":"jenjams","steam_id":76561198055730829,"connected_time":234000000000,"state":"active","ping":69},{"user_id":271,"name":"「2XB」 Mitch","steam_id":76561197988946481,"connected_time":632000000000,"state":"active","ping":68},{"user_id":269,"name":"Spyke","steam_id":76561198042419361,"connected_time":642000000000,"state":"active","ping":63},{"user_id":270,"name":"pijacka","steam_id":76561198103899658,"connected_time":640000000000,"state":"active","ping":60},{"user_id":260,"name":"Bieckowiz","steam_id":76561198128290663,"connected_time":839000000000,"state":"active","ping":69},{"user_id":281,"name":"Maximus","steam_id":76561198032472655,"connected_time":209000000000,"state":"active","ping":52},{"user_id":268,"name":"Magiccomplex","steam_id":76561199203555188,"connected_time":672000000000,"state":"active","ping":44},{"user_id":267,"name":"963 frequency of gods","steam_id":76561199088506542,"connected_time":692000000000,"state":"active","ping":47},{"user_id":205,"name":"Ikit Claw #SaveTF2","steam_id":76561198194245103,"connected_time":3147000000000,"state":"active","ping":75},{"user_id":285,"name":"VolcanicArts","steam_id":76561198063453246,"connected_time":120000000000,"state":"active","ping":66},{"user_id":202,"name":"EdSuedi","steam_id":76561199387956486,"connected_time":3201000000000,"state":"active","ping":54},{"user_id":286,"name":"Sunday","steam_id":76561198062930139,"connected_time":112000000000,"state":"active","ping":65},{"user_id":261,"name":"Yolomeus","steam_id":76561198137421279,"connected_time":835000000000,"state":"active","ping":58},{"user_id":250,"name":"Darkmaen","steam_id":76561198060543390,"connected_time":883000000000,"state":"active","ping":40},{"user_id":282,"name":"Bob","steam_id":76561198211772015,"connected_time":199000000000,"state":"active","ping":87},{"user_id":273,"name":"Volcyy","steam_id":76561198063979124,"connected_time":604000000000,"state":"active","ping":42},{"user_id":204,"name":"ASer1982","steam_id":76561197998146109,"connected_time":3195000000000,"state":"active","ping":75},{"user_id":287,"name":"Speibsackerl","steam_id":76561198058135257,"connected_time":102000000000,"state":"active","ping":66},{"user_id":254,"name":"balanced diet","steam_id":76561198240320806,"connected_time":877000000000,"state":"active","ping":64},{"user_id":283,"name":"drunk driver","steam_id":76561199042470246,"connected_time":171000000000,"state":"active","ping":54},{"user_id":272,"name":"radek","steam_id":76561197998883721,"connected_time":625000000000,"state":"active","ping":77},{"user_id":284,"name":"CaparezzaMunnezza","steam_id":76561198262231733,"connected_time":169000000000,"state":"active","ping":70},{"user_id":266,"name":"Kris","steam_id":76561198240638652,"connected_time":730000000000,"state":"active","ping":49}]},{"server_id":110,"name":"Uncletopia | Frankfurt | 2 | All Maps","name_short":"frk-2","host":"frk-1.de.uncletopia.com","port":27025,"enabled":true,"region":"eu","cc":"de","latitude":50.110924,"longitude":8.682127,"reserved":0,"last_update":"0001-01-01T00:00:00Z","name_a2s":"Uncletopia | Frankfurt | 2 | All Maps","protocol":17,"map":"pl_frontier_final","folder":"tf","game":"Team Fortress","app_id":440,"player_count":24,"max_players":24,"Bots":0,"server_type":"Dedicated","server_os":"Linux","password":true,"vac":true,"version":"7757534","steam_id":85568392924469990,"keywords":["nocrits","nodmgspread","payload","uncletopia"],"game_id":440,"stv_port":27026,"stv_name":"Uncletopia | Frankfurt | 2 | All Maps | STV","players":[{"user_id":175,"name":"Mehrtelb","steam_id":76561198054162669,"connected_time":2235000000000,"state":"active","ping":51},{"user_id":215,"name":"Toby Flynt","steam_id":76561198099140763,"connected_time":117000000000,"state":"active","ping":81},{"user_id":142,"name":"mountaindrill","steam_id":76561198864327475,"connected_time":4315000000000,"state":"active","ping":45},{"user_id":171,"name":"bobek","steam_id":76561198092312720,"connected_time":2359000000000,"state":"active","ping":60},{"user_id":200,"name":"JoueurFrançais","steam_id":76561198108081068,"connected_time":1102000000000,"state":"active","ping":72},{"user_id":201,"name":"nedilya","steam_id":76561198039692077,"connected_time":1079000000000,"state":"active","ping":57},{"user_id":199,"name":"MR.CRAB","steam_id":76561198329833659,"connected_time":1132000000000,"state":"active","ping":68},{"user_id":167,"name":"bkktrans","steam_id":76561198264393359,"connected_time":2753000000000,"state":"active","ping":53},{"user_id":48,"name":"Rose-Marie","steam_id":76561198055611092,"connected_time":10410000000000,"state":"active","ping":55},{"user_id":216,"name":"epic gamer moment","steam_id":76561198299515070,"connected_time":46000000000,"state":"active","ping":103},{"user_id":202,"name":"malebranch","steam_id":76561198171177823,"connected_time":1069000000000,"state":"active","ping":86},{"user_id":176,"name":"MatesThePlayer","steam_id":76561198066156449,"connected_time":2213000000000,"state":"active","ping":57},{"user_id":203,"name":"astigmatic","steam_id":76561199103959197,"connected_time":1064000000000,"state":"active","ping":88},{"user_id":192,"name":"Chebur","steam_id":76561198083726877,"connected_time":1590000000000,"state":"active","ping":84},{"user_id":188,"name":"Robbie","steam_id":76561198017504503,"connected_time":2013000000000,"state":"active","ping":69},{"user_id":210,"name":"Dooble donk man look at me donk","steam_id":76561198225523596,"connected_time":412000000000,"state":"active","ping":68},{"user_id":204,"name":"Classic gamer","steam_id":76561198125638711,"connected_time":1062000000000,"state":"active","ping":79},{"user_id":206,"name":"i hate the lil bro meme","steam_id":76561198047359132,"connected_time":704000000000,"state":"active","ping":67},{"user_id":82,"name":"Autumnsky","steam_id":76561198055161203,"connected_time":8252000000000,"state":"active","ping":56},{"user_id":194,"name":"etc","steam_id":76561197998394797,"connected_time":1522000000000,"state":"active","ping":61},{"user_id":205,"name":"washed up","steam_id":76561198275742101,"connected_time":1053000000000,"state":"active","ping":59},{"user_id":214,"name":"cat","steam_id":76561199045736884,"connected_time":188000000000,"state":"active","ping":61},{"user_id":207,"name":"MorVill?","steam_id":76561198809859945,"connected_time":603000000000,"state":"active","ping":69},{"user_id":209,"name":"peshosalama16","steam_id":76561199104058150,"connected_time":508000000000,"state":"active","ping":92}]},{"server_id":308,"name":"Uncletopia | Frankfurt | 3 | All Maps","name_short":"frk-3","host":"frk-1.de.uncletopia.com","port":27035,"enabled":true,"region":"eu","cc":"de","latitude":50.110924,"longitude":8.682127,"reserved":0,"last_update":"0001-01-01T00:00:00Z","name_a2s":"Uncletopia | Frankfurt | 3 | All Maps","protocol":17,"map":"cp_5gorge","folder":"tf","game":"Team Fortress","app_id":440,"player_count":24,"max_players":24,"Bots":0,"server_type":"Dedicated","server_os":"Linux","password":true,"vac":true,"version":"7757534","steam_id":85568392924504274,"keywords":["cp","nocrits","nodmgspread","uncletopia"],"game_id":440,"stv_port":27036,"stv_name":"Uncletopia | Frankfurt | 3 | All Maps | STV","players":[{"user_id":244,"name":"Filleman","steam_id":76561198159386946,"connected_time":1577000000000,"state":"active","ping":61},{"user_id":252,"name":"MrBanana","steam_id":76561198116021623,"connected_time":913000000000,"state":"active","ping":45},{"user_id":261,"name":"Minigrim0","steam_id":76561198087819466,"connected_time":494000000000,"state":"active","ping":76},{"user_id":203,"name":"ChickyCoop","steam_id":76561199072983488,"connected_time":3807000000000,"state":"active","ping":85},{"user_id":246,"name":"king251311","steam_id":76561199063310889,"connected_time":1533000000000,"state":"active","ping":82},{"user_id":262,"name":"d u k k i","steam_id":76561198071807437,"connected_time":483000000000,"state":"active","ping":84},{"user_id":207,"name":"beurgeur","steam_id":76561198872426314,"connected_time":3777000000000,"state":"active","ping":44},{"user_id":263,"name":"Amandus","steam_id":76561198036281079,"connected_time":468000000000,"state":"active","ping":60},{"user_id":264,"name":"SoupER","steam_id":76561198063056668,"connected_time":329000000000,"state":"active","ping":56},{"user_id":265,"name":"pepperonikorv","steam_id":76561198040665006,"connected_time":319000000000,"state":"active","ping":56},{"user_id":266,"name":"Brick Samson","steam_id":76561198019076104,"connected_time":307000000000,"state":"active","ping":99},{"user_id":271,"name":"Preksy","steam_id":76561199179193076,"connected_time":210000000000,"state":"active","ping":65},{"user_id":175,"name":"zazuza","steam_id":76561198049820905,"connected_time":5562000000000,"state":"active","ping":69},{"user_id":210,"name":"`˘´antifriz","steam_id":76561198088806574,"connected_time":3730000000000,"state":"active","ping":72},{"user_id":191,"name":"Pluto's Floofball(Raph)","steam_id":76561198154800858,"connected_time":5111000000000,"state":"active","ping":62},{"user_id":268,"name":"sneb","steam_id":76561198039381855,"connected_time":290000000000,"state":"active","ping":59},{"user_id":272,"name":"Frank","steam_id":76561198086672774,"connected_time":167000000000,"state":"active","ping":68},{"user_id":197,"name":"ChaosMaster","steam_id":76561198360983155,"connected_time":4486000000000,"state":"active","ping":75},{"user_id":273,"name":"Tekira","steam_id":76561199077163819,"connected_time":140000000000,"state":"active","ping":73},{"user_id":202,"name":"Miles","steam_id":76561198084891833,"connected_time":4139000000000,"state":"active","ping":55},{"user_id":270,"name":"AwterSix","steam_id":76561198042561678,"connected_time":246000000000,"state":"active","ping":58},{"user_id":258,"name":"Artur ☻","steam_id":76561198264297604,"connected_time":662000000000,"state":"active","ping":86},{"user_id":190,"name":"PLUTO","steam_id":76561198312436128,"connected_time":5184000000000,"state":"active","ping":122},{"user_id":274,"name":"Szaleniec","steam_id":76561198018261588,"connected_time":127000000000,"state":"active","ping":71}]},{"server_id":309,"name":"Uncletopia | Frankfurt | 4 | All Maps","name_short":"frk-4","host":"frk-1.de.uncletopia.com","port":27045,"enabled":true,"region":"eu","cc":"de","latitude":50.110924,"longitude":8.682127,"reserved":0,"last_update":"0001-01-01T00:00:00Z","name_a2s":"Uncletopia | Frankfurt | 4 | All Maps","protocol":17,"map":"pl_swiftwater_final1","folder":"tf","game":"Team Fortress","app_id":440,"player_count":24,"max_players":24,"Bots":0,"server_type":"Dedicated","server_os":"Linux","password":true,"vac":true,"version":"7757534","steam_id":85568392924504275,"keywords":["nocrits","nodmgspread","payload","uncletopia"],"game_id":440,"stv_port":27046,"stv_name":"Uncletopia | Frankfurt | 4 | All Maps | STV","players":[{"user_id":493,"name":"ᗜ˰ᗜ","steam_id":76561198148074472,"connected_time":2042000000000,"state":"active","ping":45},{"user_id":519,"name":"khelametagnov","steam_id":76561198066507303,"connected_time":609000000000,"state":"active","ping":90},{"user_id":525,"name":"Oxitocin","steam_id":76561198119542899,"connected_time":333000000000,"state":"active","ping":76},{"user_id":526,"name":"dddd","steam_id":76561198120894372,"connected_time":304000000000,"state":"active","ping":102},{"user_id":508,"name":"Deacon Dracul","steam_id":76561198046880663,"connected_time":1095000000000,"state":"active","ping":102},{"user_id":511,"name":"OmR","steam_id":76561198015792609,"connected_time":1059000000000,"state":"active","ping":56},{"user_id":523,"name":"HwK!","steam_id":76561198287835588,"connected_time":435000000000,"state":"active","ping":85},{"user_id":428,"name":"decomposing like a dead rose","steam_id":76561198147277460,"connected_time":7550000000000,"state":"active","ping":59},{"user_id":522,"name":"Bug","steam_id":76561198168268048,"connected_time":459000000000,"state":"active","ping":60},{"user_id":515,"name":"iki","steam_id":76561198119607160,"connected_time":978000000000,"state":"active","ping":69},{"user_id":501,"name":"Professional facestab","steam_id":76561198258721056,"connected_time":1127000000000,"state":"active","ping":48},{"user_id":502,"name":"Hexagon","steam_id":76561198151205758,"connected_time":1126000000000,"state":"active","ping":54},{"user_id":495,"name":"Pastoss","steam_id":76561198379098260,"connected_time":1602000000000,"state":"active","ping":53},{"user_id":530,"name":"Merciz","steam_id":76561197971808715,"connected_time":14000000000,"state":"spawning","ping":71},{"user_id":503,"name":"Mr. Mundy","steam_id":76561198132008918,"connected_time":1122000000000,"state":"active","ping":83},{"user_id":443,"name":"ловлю хаха","steam_id":76561198163244605,"connected_time":6973000000000,"state":"active","ping":76},{"user_id":521,"name":"AxeGeddon","steam_id":76561198145365762,"connected_time":560000000000,"state":"active","ping":59},{"user_id":514,"name":"RadialMount","steam_id":76561198063002562,"connected_time":1022000000000,"state":"active","ping":66},{"user_id":497,"name":"nky","steam_id":76561198086229832,"connected_time":1426000000000,"state":"active","ping":68},{"user_id":524,"name":"(wm) Das Fleisch","steam_id":76561198001250715,"connected_time":368000000000,"state":"active","ping":54},{"user_id":438,"name":"Seb, Comrade","steam_id":76561198040279587,"connected_time":7282000000000,"state":"active","ping":106},{"user_id":529,"name":"Cypher","steam_id":76561197996967254,"connected_time":167000000000,"state":"active","ping":60},{"user_id":510,"name":"eduardo","steam_id":76561198014491925,"connected_time":1089000000000,"state":"active","ping":103},{"user_id":483,"name":"Mugelzz","steam_id":76561198048528709,"connected_time":4268000000000,"state":"active","ping":116}]},{"server_id":310,"name":"Uncletopia | Frankfurt | 5 | All Maps","name_short":"frk-5","host":"frk-1.de.uncletopia.com","port":27055,"enabled":true,"region":"eu","cc":"de","latitude":50.110924,"longitude":8.682127,"reserved":0,"last_update":"0001-01-01T00:00:00Z","name_a2s":"Uncletopia | Frankfurt | 5 | All Maps","protocol":17,"map":"cp_process_final","folder":"tf","game":"Team Fortress","app_id":440,"player_count":0,"max_players":24,"Bots":0,"server_type":"Dedicated","server_os":"Linux","password":true,"vac":true,"version":"7757534","steam_id":85568392924504277,"keywords":["cp","nocrits","nodmgspread","uncletopia"],"game_id":440,"stv_port":27056,"stv_name":"Uncletopia | Frankfurt | 5 | All Maps | STV","players":null},{"server_id":311,"name":"Uncletopia | Frankfurt | 6 | All Maps","name_short":"frk-6","host":"frk-1.de.uncletopia.com","port":27065,"enabled":true,"region":"eu","cc":"de","latitude":50.110924,"longitude":8.682127,"reserved":0,"last_update":"0001-01-01T00:00:00Z","name_a2s":"Uncletopia | Frankfurt | 6 | All Maps","protocol":17,"map":"pl_badwater","folder":"tf","game":"Team Fortress","app_id":440,"player_count":24,"max_players":24,"Bots":0,"server_type":"Dedicated","server_os":"Linux","password":true,"vac":true,"version":"7757534","steam_id":85568392924504278,"keywords":["nocrits","nodmgspread","payload","uncletopia"],"game_id":440,"stv_port":27066,"stv_name":"Uncletopia | Frankfurt | 6 | All Maps | STV","players":[{"user_id":129,"name":"H1SM43L","steam_id":76561198133168564,"connected_time":1853000000000,"state":"active","ping":57},{"user_id":147,"name":"Ivy","steam_id":76561198026479218,"connected_time":929000000000,"state":"active","ping":59},{"user_id":131,"name":"Seal","steam_id":76561198093461170,"connected_time":1705000000000,"state":"active","ping":57},{"user_id":163,"name":"Jagiel","steam_id":76561198148815636,"connected_time":71000000000,"state":"active","ping":69},{"user_id":122,"name":"Luuk","steam_id":76561198088266026,"connected_time":1985000000000,"state":"active","ping":46},{"user_id":161,"name":"dax","steam_id":76561198041800143,"connected_time":481000000000,"state":"active","ping":66},{"user_id":128,"name":"zak","steam_id":76561197998895428,"connected_time":1905000000000,"state":"active","ping":56},{"user_id":23,"name":"Balls","steam_id":76561198086400484,"connected_time":8943000000000,"state":"active","ping":87},{"user_id":164,"name":"Laki","steam_id":76561198126078953,"connected_time":28000000000,"state":"active","ping":136},{"user_id":138,"name":"Sweetcheesus","steam_id":76561198022299033,"connected_time":1390000000000,"state":"active","ping":60},{"user_id":157,"name":"sudo","steam_id":76561198045575797,"connected_time":630000000000,"state":"active","ping":60},{"user_id":137,"name":"☸Koala99☸","steam_id":76561198375591154,"connected_time":1450000000000,"state":"active","ping":58},{"user_id":127,"name":"Toast","steam_id":76561198073226265,"connected_time":1962000000000,"state":"active","ping":84},{"user_id":134,"name":"Utvar","steam_id":76561198131838460,"connected_time":1629000000000,"state":"active","ping":63},{"user_id":160,"name":"meatsoupcube","steam_id":76561198276802249,"connected_time":506000000000,"state":"active","ping":104},{"user_id":64,"name":"glyph","steam_id":76561197980736364,"connected_time":6960000000000,"state":"active","ping":76},{"user_id":104,"name":"Menty","steam_id":76561198036748212,"connected_time":3749000000000,"state":"active","ping":45},{"user_id":135,"name":"GuyWithoutAPie","steam_id":76561198054512149,"connected_time":1578000000000,"state":"active","ping":61},{"user_id":162,"name":"vilgax","steam_id":76561198138836345,"connected_time":245000000000,"state":"active","ping":102},{"user_id":142,"name":"FoOzTV","steam_id":76561197998636728,"connected_time":1244000000000,"state":"active","ping":78},{"user_id":96,"name":"darktheif54","steam_id":76561198043650119,"connected_time":4419000000000,"state":"active","ping":55},{"user_id":141,"name":"Solymr ibn Wali Barad","steam_id":76561198044008976,"connected_time":1300000000000,"state":"active","ping":74},{"user_id":140,"name":"Gman","steam_id":76561199135387666,"connected_time":1360000000000,"state":"active","ping":99},{"user_id":109,"name":"Lux","steam_id":76561198060417740,"connected_time":3104000000000,"state":"active","ping":46}]},{"server_id":23,"name":"Uncletopia | Frankfurt | 7 | Stopwatch Beta","name_short":"frk-7","host":"frk-1.de.uncletopia.com","port":27075,"enabled":true,"region":"eu","cc":"de","latitude":50.110924,"longitude":8.682127,"reserved":0,"last_update":"0001-01-01T00:00:00Z","name_a2s":"Uncletopia | Frankfurt | 7 | Stopwatch Beta","protocol":17,"map":"workshop/koth_ramjam_rc1.ugc459778887","folder":"tf","game":"Team Fortress","app_id":440,"player_count":0,"max_players":24,"Bots":0,"server_type":"Dedicated","server_os":"Linux","password":true,"vac":true,"version":"7757534","steam_id":85568392924742827,"keywords":["cp","nocrits","nodmgspread","uncletopia"],"game_id":440,"stv_port":27076,"stv_name":"Uncletopia | Frankfurt | 7 | Stopwatch Beta | STV","players":null},{"server_id":24,"name":"Uncletopia | Frankfurt | 8 | Community","name_short":"frk-8","host":"frk-1.de.uncletopia.com","port":27085,"enabled":true,"region":"eu","cc":"de","latitude":50.110924,"longitude":8.682127,"reserved":0,"last_update":"0001-01-01T00:00:00Z","name_a2s":"Uncletopia | Frankfurt | 8 | Community","protocol":17,"map":"workshop/pl_badwater_pro_v12.ugc2142942074","folder":"tf","game":"Team Fortress","app_id":440,"player_count":0,"max_players":24,"Bots":0,"server_type":"Dedicated","server_os":"Linux","password":true,"vac":true,"version":"7757534","steam_id":85568392924742828,"keywords":["nocrits","nodmgspread","payload","uncletopia"],"game_id":440,"stv_port":27086,"stv_name":"Uncletopia | Frankfurt | 8 | Community | STV","players":null},{"server_id":202,"name":"Uncletopia | Hong Kong | 1 | All Maps","name_short":"hgk-1","host":"hgk-1.hk.uncletopia.com","port":27015,"enabled":true,"region":"asia","cc":"hk","latitude":22.302711,"longitude":114.177216,"reserved":0,"last_update":"0001-01-01T00:00:00Z","name_a2s":"Uncletopia | Hong Kong | 1 | All Maps","protocol":17,"map":"cp_process_final","folder":"tf","game":"Team Fortress","app_id":440,"player_count":0,"max_players":24,"Bots":0,"server_type":"Dedicated","server_os":"Linux","password":true,"vac":true,"version":"7757534","steam_id":85568392924494504,"keywords":["cp","nocrits","nodmgspread","uncletopia"],"game_id":440,"stv_port":27016,"stv_name":"Uncletopia | Hong Kong | 1 | All Maps | STV","players":null},{"server_id":1,"name":"Uncletopia | Los Angeles | 1 | All Maps","name_short":"lax-1","host":"lax-1.us.uncletopia.com","port":27015,"enabled":true,"region":"us-west","cc":"us","latitude":33.94279,"longitude":-118.41004,"reserved":0,"last_update":"0001-01-01T00:00:00Z","name_a2s":"Uncletopia | Los Angeles | 1 | All Maps","protocol":17,"map":"koth_cascade","folder":"tf","game":"Team Fortress","app_id":440,"player_count":0,"max_players":24,"Bots":0,"server_type":"Dedicated","server_os":"Linux","password":true,"vac":true,"version":"7757534","steam_id":85568392924469991,"keywords":["cp","nocrits","nodmgspread","uncletopia"],"game_id":440,"stv_port":27016,"stv_name":"Uncletopia | Los Angeles | 1 | All Maps | STV","players":null},{"server_id":112,"name":"Uncletopia | Los Angeles | 2 | All Maps","name_short":"lax-2","host":"lax-1.us.uncletopia.com","port":27025,"enabled":true,"region":"us-west","cc":"us","latitude":33.94279,"longitude":-118.41004,"reserved":0,"last_update":"0001-01-01T00:00:00Z","name_a2s":"Uncletopia | Los Angeles | 2 | All Maps","protocol":17,"map":"koth_cascade","folder":"tf","game":"Team Fortress","app_id":440,"player_count":0,"max_players":24,"Bots":0,"server_type":"Dedicated","server_os":"Linux","password":true,"vac":true,"version":"7757534","steam_id":85568392924469992,"keywords":["cp","nocrits","nodmgspread","uncletopia"],"game_id":440,"stv_port":27026,"stv_name":"Uncletopia | Los Angeles | 2 | All Maps | STV","players":null},{"server_id":324,"name":"Uncletopia | Los Angeles | 3 | All Maps","name_short":"lax-3","host":"lax-1.us.uncletopia.com","port":27035,"enabled":true,"region":"us-west","cc":"us","latitude":33.94279,"longitude":-118.41004,"reserved":0,"last_update":"0001-01-01T00:00:00Z","name_a2s":"Uncletopia | Los Angeles | 3 | All Maps","protocol":17,"map":"pl_pier","folder":"tf","game":"Team Fortress","app_id":440,"player_count":0,"max_players":24,"Bots":0,"server_type":"Dedicated","server_os":"Linux","password":true,"vac":true,"version":"7757534","steam_id":85568392924510198,"keywords":["nocrits","nodmgspread","payload","uncletopia"],"game_id":440,"stv_port":27036,"stv_name":"Uncletopia | Los Angeles | 3 | All Maps | STV","players":null},{"server_id":25,"name":"Uncletopia | Los Angeles | 4 | Stopwatch Beta","name_short":"lax-4","host":"lax-1.us.uncletopia.com","port":27045,"enabled":true,"region":"us-west","cc":"us","latitude":33.94279,"longitude":-118.41004,"reserved":0,"last_update":"0001-01-01T00:00:00Z","name_a2s":"Uncletopia | Los Angeles | 4 | Stopwatch Beta","protocol":17,"map":"pl_frontier_final","folder":"tf","game":"Team Fortress","app_id":440,"player_count":0,"max_players":24,"Bots":0,"server_type":"Dedicated","server_os":"Linux","password":true,"vac":true,"version":"7757534","steam_id":85568392924510199,"keywords":["nocrits","nodmgspread","payload","uncletopia"],"game_id":440,"stv_port":27046,"stv_name":"Uncletopia | Los Angeles | 4 | Stopwatch Beta | STV","players":null},{"server_id":11,"name":"Uncletopia | London | 1 | All Maps","name_short":"lon-1","host":"lon-1.uk.uncletopia.com","port":27015,"enabled":true,"region":"eu","cc":"gb","latitude":51.509865,"longitude":-0.118092,"reserved":0,"last_update":"0001-01-01T00:00:00Z","name_a2s":"Uncletopia | London | 1 | All Maps","protocol":17,"map":"pl_pier","folder":"tf","game":"Team Fortress","app_id":440,"player_count":24,"max_players":24,"Bots":0,"server_type":"Dedicated","server_os":"Linux","password":true,"vac":true,"version":"7757534","steam_id":85568392924367362,"keywords":["nocrits","nodmgspread","payload","uncletopia"],"game_id":440,"stv_port":27016,"stv_name":"Uncletopia | London | 1 | All Maps | STV","players":[{"user_id":664,"name":"hazza","steam_id":76561198220057697,"connected_time":606000000000,"state":"active","ping":61},{"user_id":668,"name":"MAKENTAKEN","steam_id":76561199127359587,"connected_time":104000000000,"state":"active","ping":98},{"user_id":641,"name":"HandClappedCock","steam_id":76561197974274677,"connected_time":3413000000000,"state":"active","ping":60},{"user_id":656,"name":"Fortuit","steam_id":76561198065143703,"connected_time":1721000000000,"state":"active","ping":81},{"user_id":667,"name":"ciliorkun18","steam_id":76561198228942500,"connected_time":299000000000,"state":"active","ping":97},{"user_id":642,"name":"subway vergil","steam_id":76561199110064166,"connected_time":3359000000000,"state":"active","ping":67},{"user_id":629,"name":"grana padano dop","steam_id":76561198066071855,"connected_time":3998000000000,"state":"active","ping":74},{"user_id":644,"name":"Chocofrolik","steam_id":76561198454779847,"connected_time":3322000000000,"state":"active","ping":57},{"user_id":481,"name":"ThatGamingKiwi","steam_id":76561199170522237,"connected_time":14793000000000,"state":"active","ping":149},{"user_id":630,"name":"silicon based life form","steam_id":76561199127121346,"connected_time":3950000000000,"state":"active","ping":53},{"user_id":669,"name":"Funny mann with a shootgun","steam_id":76561199017872113,"connected_time":89000000000,"state":"active","ping":55},{"user_id":653,"name":"Purps","steam_id":76561198053886680,"connected_time":1889000000000,"state":"active","ping":44},{"user_id":661,"name":"BreadBubbles","steam_id":76561198174332826,"connected_time":1193000000000,"state":"active","ping":63},{"user_id":637,"name":"Deva Path","steam_id":76561198085763542,"connected_time":3582000000000,"state":"active","ping":86},{"user_id":606,"name":"kektuse","steam_id":76561198088426580,"connected_time":4961000000000,"state":"active","ping":73},{"user_id":670,"name":"Dwevy","steam_id":76561198090379437,"connected_time":82000000000,"state":"active","ping":54},{"user_id":654,"name":"Renard pos4","steam_id":76561197998908594,"connected_time":1754000000000,"state":"active","ping":57},{"user_id":663,"name":"alf","steam_id":76561198060249715,"connected_time":917000000000,"state":"active","ping":45},{"user_id":671,"name":"Spootnak","steam_id":76561198049052518,"connected_time":73000000000,"state":"active","ping":58},{"user_id":673,"name":"HyperBruh","steam_id":76561198867157520,"connected_time":53000000000,"state":"active","ping":118},{"user_id":655,"name":"Insain Bolt!","steam_id":76561198025687726,"connected_time":1751000000000,"state":"active","ping":75},{"user_id":610,"name":"Captain HandicappedCock","steam_id":76561198109850402,"connected_time":4864000000000,"state":"active","ping":72},{"user_id":674,"name":"\u003e:3","steam_id":76561198368312026,"connected_time":52000000000,"state":"active","ping":106},{"user_id":584,"name":"Vectillion","steam_id":76561198074292454,"connected_time":6492000000000,"state":"active","ping":57}]},{"server_id":114,"name":"Uncletopia | London | 2 | All Maps","name_short":"lon-2","host":"lon-1.uk.uncletopia.com","port":27025,"enabled":true,"region":"eu","cc":"gb","latitude":51.509865,"longitude":-0.118092,"reserved":0,"last_update":"0001-01-01T00:00:00Z","name_a2s":"Uncletopia | London | 2 | All Maps","protocol":17,"map":"pl_barnblitz","folder":"tf","game":"Team Fortress","app_id":440,"player_count":24,"max_players":24,"Bots":0,"server_type":"Dedicated","server_os":"Linux","password":true,"vac":true,"version":"7757534","steam_id":85568392924470941,"keywords":["nocrits","nodmgspread","payload","uncletopia"],"game_id":440,"stv_port":27026,"stv_name":"Uncletopia | London | 2 | All Maps | STV","players":[{"user_id":161,"name":"GEP Gun","steam_id":76561197981821003,"connected_time":3285000000000,"state":"active","ping":51},{"user_id":182,"name":"Giovine Killjoy","steam_id":76561198059375315,"connected_time":1762000000000,"state":"active","ping":69},{"user_id":147,"name":"_zipfile","steam_id":76561198066133808,"connected_time":3703000000000,"state":"active","ping":67},{"user_id":193,"name":"[GL] ▲Dunxle▼","steam_id":76561198236630276,"connected_time":1251000000000,"state":"active","ping":44},{"user_id":200,"name":"Axord","steam_id":76561199289652176,"connected_time":612000000000,"state":"active","ping":64},{"user_id":207,"name":"BigBustyBiden","steam_id":76561198155187233,"connected_time":213000000000,"state":"active","ping":57},{"user_id":177,"name":"Jonas Destark","steam_id":76561198030327441,"connected_time":1928000000000,"state":"active","ping":55},{"user_id":201,"name":"Grillem Dafoe","steam_id":76561198306874574,"connected_time":544000000000,"state":"active","ping":63},{"user_id":197,"name":"homeinvasion$","steam_id":76561199111905021,"connected_time":689000000000,"state":"active","ping":118},{"user_id":202,"name":"caps.","steam_id":76561198116528817,"connected_time":467000000000,"state":"active","ping":54},{"user_id":210,"name":"walnuth","steam_id":76561199087006560,"connected_time":37000000000,"state":"active","ping":208},{"user_id":204,"name":"Thalgorock","steam_id":76561198195315022,"connected_time":314000000000,"state":"active","ping":72},{"user_id":162,"name":"Jabussy","steam_id":76561198111148719,"connected_time":3210000000000,"state":"active","ping":70},{"user_id":205,"name":"kotamine","steam_id":76561198068907991,"connected_time":298000000000,"state":"active","ping":58},{"user_id":189,"name":"Nils1","steam_id":76561198060896649,"connected_time":1277000000000,"state":"active","ping":74},{"user_id":190,"name":"Magirby","steam_id":76561198818777390,"connected_time":1273000000000,"state":"active","ping":110},{"user_id":186,"name":"kuplinov play","steam_id":76561198151306750,"connected_time":1350000000000,"state":"active","ping":115},{"user_id":209,"name":"tuber","steam_id":76561198086644199,"connected_time":182000000000,"state":"active","ping":48},{"user_id":112,"name":"Carrot Arc","steam_id":76561198164957006,"connected_time":5394000000000,"state":"active","ping":88},{"user_id":191,"name":"UltimateAura","steam_id":76561198338361324,"connected_time":1267000000000,"state":"active","ping":44},{"user_id":178,"name":"Remax5","steam_id":76561198155644993,"connected_time":1924000000000,"state":"active","ping":111},{"user_id":208,"name":"Bobo","steam_id":76561198052308399,"connected_time":199000000000,"state":"active","ping":70},{"user_id":192,"name":"elchi","steam_id":76561198009531752,"connected_time":1266000000000,"state":"active","ping":51},{"user_id":159,"name":"lelecobi324","steam_id":76561198878030367,"connected_time":3417000000000,"state":"active","ping":107}]},{"server_id":320,"name":"Uncletopia | London | 3 | All Maps","name_short":"lon-3","host":"lon-1.uk.uncletopia.com","port":27035,"enabled":true,"region":"eu","cc":"gb","latitude":51.509865,"longitude":-0.118092,"reserved":0,"last_update":"0001-01-01T00:00:00Z","name_a2s":"Uncletopia | London | 3 | All Maps","protocol":17,"map":"pl_pier","folder":"tf","game":"Team Fortress","app_id":440,"player_count":24,"max_players":24,"Bots":0,"server_type":"Dedicated","server_os":"Linux","password":true,"vac":true,"version":"7757534","steam_id":85568392924510192,"keywords":["nocrits","nodmgspread","payload","uncletopia"],"game_id":440,"stv_port":27036,"stv_name":"Uncletopia | London | 3 | All Maps | STV","players":[{"user_id":551,"name":"goblin","steam_id":76561199010825303,"connected_time":2778000000000,"state":"active","ping":85},{"user_id":560,"name":"British Disapproval","steam_id":76561198001375260,"connected_time":2488000000000,"state":"active","ping":53},{"user_id":495,"name":"X-tis","steam_id":76561198043837480,"connected_time":5334000000000,"state":"active","ping":72},{"user_id":489,"name":"Fat Pigeon","steam_id":76561198817940142,"connected_time":5578000000000,"state":"active","ping":49},{"user_id":594,"name":"CosminSL","steam_id":76561198055827684,"connected_time":698000000000,"state":"active","ping":82},{"user_id":599,"name":"alex","steam_id":76561197995857448,"connected_time":457000000000,"state":"active","ping":53},{"user_id":609,"name":"Beamz","steam_id":76561198014230017,"connected_time":146000000000,"state":"active","ping":151},{"user_id":533,"name":"guyinatophat51","steam_id":76561198180230694,"connected_time":3727000000000,"state":"active","ping":117},{"user_id":611,"name":"Cathedra","steam_id":76561198430227030,"connected_time":82000000000,"state":"active","ping":70},{"user_id":600,"name":"NintendoPanda101#savetf2!","steam_id":76561198836972540,"connected_time":456000000000,"state":"active","ping":147},{"user_id":595,"name":"The Lonely Croc","steam_id":76561198123241396,"connected_time":680000000000,"state":"active","ping":173},{"user_id":608,"name":"hex","steam_id":76561198190719805,"connected_time":211000000000,"state":"active","ping":64},{"user_id":485,"name":"Boil em mash em","steam_id":76561198026508026,"connected_time":5776000000000,"state":"active","ping":115},{"user_id":566,"name":"rosepinkyfuzz","steam_id":76561198018546334,"connected_time":2225000000000,"state":"active","ping":80},{"user_id":591,"name":"disposablesuperbread","steam_id":76561199074703607,"connected_time":793000000000,"state":"active","ping":69},{"user_id":575,"name":"Boltingstorm","steam_id":76561199068433052,"connected_time":1412000000000,"state":"active","ping":72},{"user_id":610,"name":"R A S M U S","steam_id":76561198279799226,"connected_time":133000000000,"state":"active","ping":68},{"user_id":578,"name":"Exee","steam_id":76561198139574633,"connected_time":1244000000000,"state":"active","ping":75},{"user_id":535,"name":"owlsie","steam_id":76561198094883280,"connected_time":3539000000000,"state":"active","ping":57},{"user_id":603,"name":"fregaropa","steam_id":76561198150806166,"connected_time":399000000000,"state":"active","ping":103},{"user_id":585,"name":"wouris","steam_id":76561198876188003,"connected_time":1134000000000,"state":"active","ping":70},{"user_id":604,"name":"Prox","steam_id":76561198351490981,"connected_time":367000000000,"state":"active","ping":37},{"user_id":582,"name":"Backup","steam_id":76561197999557567,"connected_time":1189000000000,"state":"active","ping":60},{"user_id":612,"name":"Baki ツ","steam_id":76561198193615529,"connected_time":5000000000,"state":"spawning","ping":66}]},{"server_id":321,"name":"Uncletopia | London | 4 | All Maps","name_short":"lon-4","host":"lon-1.uk.uncletopia.com","port":27045,"enabled":true,"region":"eu","cc":"gb","latitude":51.509865,"longitude":-0.118092,"reserved":0,"last_update":"0001-01-01T00:00:00Z","name_a2s":"Uncletopia | London | 4 | All Maps","protocol":17,"map":"pl_pier","folder":"tf","game":"Team Fortress","app_id":440,"player_count":24,"max_players":24,"Bots":0,"server_type":"Dedicated","server_os":"Linux","password":true,"vac":true,"version":"7757534","steam_id":85568392924510193,"keywords":["nocrits","nodmgspread","payload","uncletopia"],"game_id":440,"stv_port":27046,"stv_name":"Uncletopia | London | 4 | All Maps | STV","players":[{"user_id":395,"name":"Mean Green Peen","steam_id":76561198228455736,"connected_time":670000000000,"state":"active","ping":47},{"user_id":396,"name":"elio","steam_id":76561198142662131,"connected_time":659000000000,"state":"active","ping":68},{"user_id":394,"name":"Rad","steam_id":76561198001101843,"connected_time":692000000000,"state":"active","ping":63},{"user_id":392,"name":"LoboPaciente","steam_id":76561198088870962,"connected_time":707000000000,"state":"active","ping":64},{"user_id":374,"name":"ofri30","steam_id":76561198809151509,"connected_time":916000000000,"state":"active","ping":114},{"user_id":398,"name":"Dr\u003eBreen's Blue Kush Reserve","steam_id":76561198423902979,"connected_time":91000000000,"state":"active","ping":47},{"user_id":363,"name":"QuimKong","steam_id":76561198176501842,"connected_time":1714000000000,"state":"active","ping":86},{"user_id":382,"name":"Raven","steam_id":76561198087296188,"connected_time":806000000000,"state":"active","ping":69},{"user_id":399,"name":"☩ Knightz ☩","steam_id":76561198040936414,"connected_time":28000000000,"state":"active","ping":112},{"user_id":375,"name":"tinyfirejr55","steam_id":76561199092881011,"connected_time":903000000000,"state":"active","ping":77},{"user_id":377,"name":"juan_gonzalez_2010","steam_id":76561198386274766,"connected_time":877000000000,"state":"active","ping":179},{"user_id":378,"name":"Titar Industries","steam_id":76561198143078476,"connected_time":841000000000,"state":"active","ping":132},{"user_id":379,"name":"JOU45 [UA]","steam_id":76561199191256832,"connected_time":831000000000,"state":"active","ping":92},{"user_id":380,"name":"PierraNova","steam_id":76561198145686102,"connected_time":828000000000,"state":"active","ping":46},{"user_id":393,"name":"_Shkoot","steam_id":76561198318170398,"connected_time":705000000000,"state":"active","ping":63},{"user_id":383,"name":"USATYY [UA]","steam_id":76561198277590900,"connected_time":800000000000,"state":"active","ping":85},{"user_id":384,"name":"skilltissues","steam_id":76561198025828664,"connected_time":800000000000,"state":"active","ping":60},{"user_id":385,"name":"toe eater","steam_id":76561199272782484,"connected_time":799000000000,"state":"active","ping":64},{"user_id":397,"name":"Syringe Gun","steam_id":76561198097789669,"connected_time":323000000000,"state":"active","ping":69},{"user_id":387,"name":"logantf","steam_id":76561198259668029,"connected_time":779000000000,"state":"active","ping":45},{"user_id":388,"name":"nutlube","steam_id":76561198128831131,"connected_time":778000000000,"state":"active","ping":61},{"user_id":389,"name":"I wanna be a lassie","steam_id":76561198131924713,"connected_time":777000000000,"state":"active","ping":48},{"user_id":391,"name":"Apolo","steam_id":76561198116159344,"connected_time":762000000000,"state":"active","ping":40},{"user_id":400,"name":"SuperflameGP","steam_id":76561198256506294,"connected_time":26000000000,"state":"spawning","ping":107}]},{"server_id":21,"name":"Uncletopia | London | 5 | All Maps","name_short":"lon-5","host":"lon-1.uk.uncletopia.com","port":27055,"enabled":true,"region":"eu","cc":"gb","latitude":51.509865,"longitude":-0.118092,"reserved":0,"last_update":"0001-01-01T00:00:00Z","name_a2s":"Uncletopia | London | 5 | All Maps","protocol":17,"map":"pl_hoodoo_final","folder":"tf","game":"Team Fortress","app_id":440,"player_count":24,"max_players":24,"Bots":0,"server_type":"Dedicated","server_os":"Linux","password":true,"vac":true,"version":"7757534","steam_id":85568392924742829,"keywords":["nocrits","nodmgspread","payload","uncletopia"],"game_id":440,"stv_port":27056,"stv_name":"Uncletopia | London | 5 | All Maps | STV","players":[{"user_id":105,"name":"Richard Hammond","steam_id":76561199223016965,"connected_time":1125000000000,"state":"active","ping":52},{"user_id":93,"name":"lilyskittle","steam_id":76561198303232638,"connected_time":1683000000000,"state":"active","ping":54},{"user_id":66,"name":"Zerfesh","steam_id":76561198117534358,"connected_time":4092000000000,"state":"active","ping":96},{"user_id":130,"name":"zinzyk","steam_id":76561198128011822,"connected_time":76000000000,"state":"active","ping":68},{"user_id":125,"name":"ARTI","steam_id":76561199446989613,"connected_time":590000000000,"state":"active","ping":61},{"user_id":120,"name":"Elfie","steam_id":76561198206802255,"connected_time":751000000000,"state":"active","ping":70},{"user_id":37,"name":"E","steam_id":76561198166340115,"connected_time":5747000000000,"state":"active","ping":58},{"user_id":73,"name":"Na'vi Misato (by popular demand","steam_id":76561198130860698,"connected_time":3071000000000,"state":"active","ping":58},{"user_id":92,"name":"General Petrov","steam_id":76561198027204104,"connected_time":1749000000000,"state":"active","ping":78},{"user_id":117,"name":"Planet","steam_id":76561198044626616,"connected_time":824000000000,"state":"active","ping":60},{"user_id":104,"name":"Cerberus","steam_id":76561198025970306,"connected_time":1137000000000,"state":"active","ping":118},{"user_id":87,"name":"Retired English Player","steam_id":76561199037749675,"connected_time":2236000000000,"state":"active","ping":43},{"user_id":129,"name":"Not Friends","steam_id":76561198043775605,"connected_time":134000000000,"state":"active","ping":93},{"user_id":82,"name":"UltimateSlayer","steam_id":76561198384109309,"connected_time":2290000000000,"state":"active","ping":56},{"user_id":124,"name":"Wan Shi Tong","steam_id":76561198076441225,"connected_time":602000000000,"state":"active","ping":112},{"user_id":122,"name":"napole","steam_id":76561198267530436,"connected_time":690000000000,"state":"active","ping":107},{"user_id":123,"name":"TerraformerBeing","steam_id":76561198281011934,"connected_time":613000000000,"state":"active","ping":93},{"user_id":77,"name":"dopamine enjoyer","steam_id":76561198140591983,"connected_time":2652000000000,"state":"active","ping":85},{"user_id":97,"name":"Toast Nook","steam_id":76561199093949301,"connected_time":1474000000000,"state":"active","ping":86},{"user_id":89,"name":"Priceybay","steam_id":76561198055389492,"connected_time":2193000000000,"state":"active","ping":42},{"user_id":126,"name":"woksta","steam_id":76561198035314235,"connected_time":465000000000,"state":"active","ping":54},{"user_id":80,"name":"teddyswk","steam_id":76561198404939571,"connected_time":2449000000000,"state":"active","ping":103},{"user_id":90,"name":"Delab","steam_id":76561198846356572,"connected_time":2190000000000,"state":"active","ping":158},{"user_id":128,"name":"famalex","steam_id":76561198174306985,"connected_time":336000000000,"state":"active","ping":54}]},{"server_id":22,"name":"Uncletopia | London | 6 | All Maps","name_short":"lon-6","host":"lon-1.uk.uncletopia.com","port":27065,"enabled":true,"region":"eu","cc":"gb","latitude":51.509865,"longitude":-0.118092,"reserved":0,"last_update":"0001-01-01T00:00:00Z","name_a2s":"Uncletopia | London | 6 | All Maps","protocol":17,"map":"pl_snowycoast","folder":"tf","game":"Team Fortress","app_id":440,"player_count":0,"max_players":24,"Bots":0,"server_type":"Dedicated","server_os":"Linux","password":true,"vac":true,"version":"7757534","steam_id":85568392924742830,"keywords":["nocrits","nodmgspread","payload","uncletopia"],"game_id":440,"stv_port":27066,"stv_name":"Uncletopia | London | 6 | All Maps | STV","players":null},{"server_id":40,"name":"Uncletopia | London | 7 | No Payload","name_short":"lon-7","host":"lon-1.uk.uncletopia.com","port":27075,"enabled":true,"region":"eu","cc":"gb","latitude":51.509865,"longitude":-0.118092,"reserved":0,"last_update":"0001-01-01T00:00:00Z","name_a2s":"Uncletopia | London | 7 | No Payload","protocol":17,"map":"koth_sawmill","folder":"tf","game":"Team Fortress","app_id":440,"player_count":24,"max_players":24,"Bots":0,"server_type":"Dedicated","server_os":"Linux","password":true,"vac":true,"version":"7757534","steam_id":85568392924964314,"keywords":["cp","nocrits","nodmgspread","uncletopia"],"game_id":440,"stv_port":27076,"stv_name":"Uncletopia | London | 7 | No Payload | STV","players":[{"user_id":362,"name":"alshep00","steam_id":76561198079585198,"connected_time":987000000000,"state":"active","ping":54},{"user_id":364,"name":"W+M1 spy","steam_id":76561199136308055,"connected_time":863000000000,"state":"active","ping":54},{"user_id":371,"name":"Spliffendor","steam_id":76561198144020209,"connected_time":364000000000,"state":"active","ping":44},{"user_id":315,"name":"spes-marine42","steam_id":76561199404806029,"connected_time":3068000000000,"state":"active","ping":83},{"user_id":366,"name":"Atze","steam_id":76561198041171843,"connected_time":582000000000,"state":"active","ping":53},{"user_id":335,"name":"GMsU | Acoul","steam_id":76561198229222992,"connected_time":1887000000000,"state":"active","ping":54},{"user_id":363,"name":"gabagool","steam_id":76561198307111838,"connected_time":976000000000,"state":"active","ping":44},{"user_id":326,"name":"The Witch-Finder General","steam_id":76561198375599872,"connected_time":2310000000000,"state":"active","ping":74},{"user_id":377,"name":"Emails","steam_id":76561198836919458,"connected_time":35000000000,"state":"active","ping":162},{"user_id":353,"name":"spearfishNL","steam_id":76561199077022985,"connected_time":1229000000000,"state":"active","ping":52},{"user_id":374,"name":"ethan","steam_id":76561198119495513,"connected_time":282000000000,"state":"active","ping":44},{"user_id":368,"name":"Proud Jojo Fan #TF2SP","steam_id":76561198847327216,"connected_time":515000000000,"state":"active","ping":76},{"user_id":358,"name":"brinks truck","steam_id":76561198025080577,"connected_time":1094000000000,"state":"active","ping":58},{"user_id":332,"name":"DelT","steam_id":76561198204007537,"connected_time":1920000000000,"state":"active","ping":61},{"user_id":372,"name":"prcg","steam_id":76561198047619456,"connected_time":310000000000,"state":"active","ping":68},{"user_id":369,"name":"ion","steam_id":76561198390406243,"connected_time":442000000000,"state":"active","ping":130},{"user_id":376,"name":"ScrubLittleBOi","steam_id":76561198087843136,"connected_time":70000000000,"state":"active","ping":61},{"user_id":337,"name":"GMsU | AuxiliusM","steam_id":76561198071903356,"connected_time":1880000000000,"state":"active","ping":58},{"user_id":360,"name":"GMsU | Rebikas","steam_id":76561198077053764,"connected_time":1082000000000,"state":"active","ping":55},{"user_id":339,"name":"void.2013","steam_id":76561198259439568,"connected_time":1829000000000,"state":"active","ping":90},{"user_id":370,"name":"Laurie","steam_id":76561198082951750,"connected_time":442000000000,"state":"active","ping":50},{"user_id":375,"name":"quickfast","steam_id":76561199438900919,"connected_time":264000000000,"state":"active","ping":44},{"user_id":342,"name":"Lead","steam_id":76561198324899422,"connected_time":1805000000000,"state":"active","ping":83},{"user_id":343,"name":"2.9","steam_id":76561199385280253,"connected_time":1804000000000,"state":"active","ping":122}]},{"server_id":41,"name":"Uncletopia | London | 8 | Community","name_short":"lon-8","host":"lon-1.uk.uncletopia.com","port":27085,"enabled":true,"region":"eu","cc":"gb","latitude":51.509865,"longitude":-0.118092,"reserved":0,"last_update":"0001-01-01T00:00:00Z","name_a2s":"Uncletopia | London | 8 | Community","protocol":17,"map":"workshop/koth_slaughter_rc1.ugc1712845210","folder":"tf","game":"Team Fortress","app_id":440,"player_count":0,"max_players":24,"Bots":0,"server_type":"Dedicated","server_os":"Linux","password":true,"vac":true,"version":"7757534","steam_id":85568392924964315,"keywords":["cp","nocrits","nodmgspread","uncletopia"],"game_id":440,"stv_port":27086,"stv_name":"Uncletopia | London | 8 | Community | STV","players":null},{"server_id":300,"name":"Uncletopia | Montréal | 1 | All Maps","name_short":"mtl-1","host":"mtl-1.ca.uncletopia.com","port":27015,"enabled":true,"region":"us-east","cc":"ca","latitude":45.50889,"longitude":-73.56167,"reserved":0,"last_update":"0001-01-01T00:00:00Z","name_a2s":"Uncletopia | Montréal | 1 | All Maps","protocol":17,"map":"pl_borneo","folder":"tf","game":"Team Fortress","app_id":440,"player_count":3,"max_players":24,"Bots":0,"server_type":"Dedicated","server_os":"Linux","password":true,"vac":true,"version":"7757534","steam_id":85568392924500087,"keywords":["nocrits","nodmgspread","payload","uncletopia"],"game_id":440,"stv_port":27016,"stv_name":"Uncletopia | Montréal | 1 | All Maps | STV","players":[{"user_id":3,"name":"LI","steam_id":76561199251114964,"connected_time":2115000000000,"state":"active","ping":35},{"user_id":5,"name":"onionbagel4","steam_id":76561199134895220,"connected_time":940000000000,"state":"active","ping":68},{"user_id":8,"name":"Jaziferret","steam_id":76561198275832293,"connected_time":134000000000,"state":"active","ping":52}]},{"server_id":301,"name":"Uncletopia | Montréal | 2 | All Maps","name_short":"mtl-2","host":"mtl-1.ca.uncletopia.com","port":27025,"enabled":true,"region":"us-east","cc":"ca","latitude":45.50889,"longitude":-73.56167,"reserved":0,"last_update":"0001-01-01T00:00:00Z","name_a2s":"Uncletopia | Montréal | 2 | All Maps","protocol":17,"map":"pl_snowycoast","folder":"tf","game":"Team Fortress","app_id":440,"player_count":0,"max_players":24,"Bots":0,"server_type":"Dedicated","server_os":"Linux","password":true,"vac":true,"version":"7757534","steam_id":85568392924500088,"keywords":["nocrits","nodmgspread","payload","uncletopia"],"game_id":440,"stv_port":27026,"stv_name":"Uncletopia | Montréal | 2 | All Maps | STV","players":null},{"server_id":302,"name":"Uncletopia | Montréal | 3 | All Maps","name_short":"mtl-3","host":"mtl-1.ca.uncletopia.com","port":27035,"enabled":true,"region":"us-east","cc":"ca","latitude":45.50889,"longitude":-73.56167,"reserved":0,"last_update":"0001-01-01T00:00:00Z","name_a2s":"Uncletopia | Montréal | 3 | All Maps","protocol":17,"map":"cp_dustbowl","folder":"tf","game":"Team Fortress","app_id":440,"player_count":0,"max_players":24,"Bots":0,"server_type":"Dedicated","server_os":"Linux","password":true,"vac":true,"version":"7757534","steam_id":85568392924500089,"keywords":["cp","nocrits","nodmgspread","uncletopia"],"game_id":440,"stv_port":27036,"stv_name":"Uncletopia | Montréal | 3 | All Maps | STV","players":null},{"server_id":303,"name":"Uncletopia | Montréal | 4 | No Payload","name_short":"mtl-4","host":"mtl-1.ca.uncletopia.com","port":27045,"enabled":true,"region":"us-east","cc":"ca","latitude":45.50889,"longitude":-73.56167,"reserved":0,"last_update":"0001-01-01T00:00:00Z","name_a2s":"Uncletopia | Montréal | 4 | No Payload","protocol":17,"map":"pl_borneo","folder":"tf","game":"Team Fortress","app_id":440,"player_count":0,"max_players":24,"Bots":0,"server_type":"Dedicated","server_os":"Linux","password":true,"vac":true,"version":"7757534","steam_id":85568392924500090,"keywords":["nocrits","nodmgspread","payload","uncletopia"],"game_id":440,"stv_port":27046,"stv_name":"Uncletopia | Montréal | 4 | No Payload | STV","players":null},{"server_id":13,"name":"Uncletopia | New York City | 1 | All Maps","name_short":"nyc-1","host":"nyc-1.us.uncletopia.com","port":27015,"enabled":true,"region":"us-east","cc":"us","latitude":40.73061,"longitude":-73.93524,"reserved":0,"last_update":"0001-01-01T00:00:00Z","name_a2s":"Uncletopia | New York City | 1 | All Maps","protocol":17,"map":"cp_process_final","folder":"tf","game":"Team Fortress","app_id":440,"player_count":25,"max_players":24,"Bots":0,"server_type":"Dedicated","server_os":"Linux","password":true,"vac":true,"version":"7757534","steam_id":85568392924469993,"keywords":["cp","nocrits","nodmgspread","uncletopia"],"game_id":440,"stv_port":27016,"stv_name":"Uncletopia | New York City | 1 | All Maps | STV","players":[{"user_id":244,"name":"Buttons :)","steam_id":76561198139478534,"connected_time":1784000000000,"state":"active","ping":120},{"user_id":219,"name":"ᗜˬᗜ","steam_id":76561198049076233,"connected_time":3575000000000,"state":"active","ping":53},{"user_id":231,"name":"MR DADDY","steam_id":76561198350794663,"connected_time":2276000000000,"state":"active","ping":57},{"user_id":249,"name":"Microwaved Burrito","steam_id":76561198055916647,"connected_time":922000000000,"state":"active","ping":117},{"user_id":224,"name":"Not_Douglas","steam_id":76561199024184136,"connected_time":3270000000000,"state":"active","ping":70},{"user_id":236,"name":"Chaotic Rushu","steam_id":76561198170054407,"connected_time":2110000000000,"state":"active","ping":68},{"user_id":230,"name":"fast","steam_id":76561198311704368,"connected_time":2466000000000,"state":"active","ping":57},{"user_id":260,"name":"pest","steam_id":76561198052571208,"connected_time":595000000000,"state":"active","ping":39},{"user_id":248,"name":"shadowjango","steam_id":76561198001475833,"connected_time":1265000000000,"state":"active","ping":75},{"user_id":256,"name":"trans rights","steam_id":76561198066270313,"connected_time":735000000000,"state":"active","ping":89},{"user_id":253,"name":"jeffery 1:12","steam_id":76561197993895571,"connected_time":804000000000,"state":"active","ping":78},{"user_id":208,"name":"Snugboo","steam_id":76561198147970327,"connected_time":4719000000000,"state":"active","ping":43},{"user_id":259,"name":"Slashes","steam_id":76561197968573499,"connected_time":643000000000,"state":"active","ping":42},{"user_id":226,"name":"xd Clover","steam_id":76561198038905361,"connected_time":3239000000000,"state":"active","ping":45},{"user_id":233,"name":"Regi","steam_id":76561198271508598,"connected_time":2136000000000,"state":"active","ping":65},{"user_id":262,"name":"Space cat","steam_id":76561198149673099,"connected_time":522000000000,"state":"active","ping":87},{"user_id":160,"name":"neet","steam_id":76561197968115168,"connected_time":8252000000000,"state":"active","ping":46},{"user_id":257,"name":"SpinetinglingToast","steam_id":76561198099470670,"connected_time":735000000000,"state":"active","ping":53},{"user_id":264,"name":"IggyYT","steam_id":76561198317980567,"connected_time":2000000000,"state":"spawning","ping":92},{"user_id":263,"name":"KingPilgrim","steam_id":76561198850151440,"connected_time":515000000000,"state":"active","ping":90},{"user_id":229,"name":"minecraft","steam_id":76561198023595873,"connected_time":2996000000000,"state":"active","ping":88},{"user_id":240,"name":"Lucky","steam_id":76561198102148904,"connected_time":1988000000000,"state":"active","ping":75},{"user_id":241,"name":"Norik","steam_id":76561198116128390,"connected_time":1983000000000,"state":"active","ping":84},{"user_id":218,"name":"Cerabond","steam_id":76561199230915333,"connected_time":3815000000000,"state":"active","ping":69},{"user_id":265,"name":"MaxTheRetroGuy","steam_id":76561198845344731,"connected_time":2000000000,"state":"spawning","ping":53}]},{"server_id":14,"name":"Uncletopia | New York City | 2 | All Maps","name_short":"nyc-2","host":"nyc-1.us.uncletopia.com","port":27025,"enabled":true,"region":"us-east","cc":"us","latitude":40.73061,"longitude":-73.93524,"reserved":0,"last_update":"0001-01-01T00:00:00Z","name_a2s":"Uncletopia | New York City | 2 | All Maps","protocol":17,"map":"koth_cascade","folder":"tf","game":"Team Fortress","app_id":440,"player_count":1,"max_players":24,"Bots":0,"server_type":"Dedicated","server_os":"Linux","password":true,"vac":true,"version":"7757534","steam_id":85568392924469994,"keywords":["cp","nocrits","nodmgspread","uncletopia"],"game_id":440,"stv_port":27026,"stv_name":"Uncletopia | New York City | 2 | All Maps | STV","players":[{"user_id":10,"name":"faythwalkerjr","steam_id":76561199230023978,"connected_time":42000000000,"state":"active","ping":50}]},{"server_id":15,"name":"Uncletopia | New York City | 3 | Stopwatch Beta","name_short":"nyc-3","host":"nyc-1.us.uncletopia.com","port":27035,"enabled":true,"region":"us-east","cc":"us","latitude":40.73061,"longitude":-73.93524,"reserved":0,"last_update":"0001-01-01T00:00:00Z","name_a2s":"Uncletopia | New York City | 3 | Stopwatch Beta","protocol":17,"map":"cp_mountainlab","folder":"tf","game":"Team Fortress","app_id":440,"player_count":0,"max_players":24,"Bots":0,"server_type":"Dedicated","server_os":"Linux","password":true,"vac":true,"version":"7757534","steam_id":85568392924742820,"keywords":["cp","nocrits","nodmgspread","uncletopia"],"game_id":440,"stv_port":27036,"stv_name":"Uncletopia | New York City | 3 | Stopwatch Beta | STV","players":null},{"server_id":16,"name":"Uncletopia | New York City | 4 | Community","name_short":"nyc-4","host":"nyc-1.us.uncletopia.com","port":27045,"enabled":true,"region":"us-east","cc":"us","latitude":40.73061,"longitude":-73.93524,"reserved":0,"last_update":"0001-01-01T00:00:00Z","name_a2s":"Uncletopia | New York City | 4 | Community","protocol":17,"map":"pl_borneo","folder":"tf","game":"Team Fortress","app_id":440,"player_count":0,"max_players":24,"Bots":0,"server_type":"Dedicated","server_os":"Linux","password":true,"vac":true,"version":"7757534","steam_id":85568392924742821,"keywords":["nocrits","nodmgspread","payload","uncletopia"],"game_id":440,"stv_port":27046,"stv_name":"Uncletopia | New York City | 4 | Community | STV","players":null},{"server_id":142,"name":"Uncletopia | São Paulo | 1 | All Maps","name_short":"sao-1","host":"sao-1.br.uncletopia.com","port":27015,"enabled":true,"region":"sa","cc":"br","latitude":-23.533773,"longitude":-46.62529,"reserved":0,"last_update":"0001-01-01T00:00:00Z","name_a2s":"Uncletopia | São Paulo | 1 | All Maps","protocol":17,"map":"pl_frontier_final","folder":"tf","game":"Team Fortress","app_id":440,"player_count":0,"max_players":24,"Bots":0,"server_type":"Dedicated","server_os":"Linux","password":true,"vac":true,"version":"7757534","steam_id":85568392924469996,"keywords":["nocrits","nodmgspread","payload","uncletopia"],"game_id":440,"stv_port":27016,"stv_name":"Uncletopia | São Paulo | 1 | All Maps | STV","players":null},{"server_id":143,"name":"Uncletopia | São Paulo | 2 | All Maps","name_short":"sao-2","host":"sao-2.br.uncletopia.com","port":27015,"enabled":true,"region":"sa","cc":"br","latitude":-23.533773,"longitude":-46.62529,"reserved":0,"last_update":"0001-01-01T00:00:00Z","name_a2s":"Uncletopia | São Paulo | 2 | All Maps","protocol":17,"map":"koth_highpass","folder":"tf","game":"Team Fortress","app_id":440,"player_count":7,"max_players":24,"Bots":0,"server_type":"Dedicated","server_os":"Linux","password":true,"vac":true,"version":"7757534","steam_id":85568392924485349,"keywords":["cp","nocrits","nodmgspread","uncletopia"],"game_id":440,"stv_port":27016,"stv_name":"Uncletopia | São Paulo | 2 | All Maps | STV","players":[{"user_id":22,"name":"kris","steam_id":76561198405308625,"connected_time":1463000000000,"state":"spawning","ping":46},{"user_id":17,"name":"Nikki","steam_id":76561198439829386,"connected_time":1805000000000,"state":"spawning","ping":92},{"user_id":32,"name":"Mumia216","steam_id":76561199467438225,"connected_time":44000000000,"state":"active","ping":69},{"user_id":21,"name":"michael dick fart","steam_id":76561198182234751,"connected_time":1686000000000,"state":"spawning","ping":47},{"user_id":25,"name":"Pudding","steam_id":76561198426734034,"connected_time":714000000000,"state":"spawning","ping":92},{"user_id":26,"name":"l","steam_id":76561199074887495,"connected_time":710000000000,"state":"spawning","ping":58},{"user_id":30,"name":"Neci","steam_id":76561199075012821,"connected_time":469000000000,"state":"active","ping":219}]},{"server_id":7,"name":"Uncletopia | Seattle | 1 | All Maps","name_short":"sea-1","host":"sea-1.us.uncletopia.com","port":27015,"enabled":true,"region":"us-west","cc":"us","latitude":47.608013,"longitude":-122.33517,"reserved":0,"last_update":"0001-01-01T00:00:00Z","name_a2s":"Uncletopia | Seattle | 1 | All Maps","protocol":17,"map":"cp_altitude","folder":"tf","game":"Team Fortress","app_id":440,"player_count":0,"max_players":24,"Bots":0,"server_type":"Dedicated","server_os":"Linux","password":true,"vac":true,"version":"7757534","steam_id":85568392924469997,"keywords":["cp","nocrits","nodmgspread","uncletopia"],"game_id":440,"stv_port":27016,"stv_name":"Uncletopia | Seattle | 1 | All Maps | STV","players":null},{"server_id":119,"name":"Uncletopia | Seattle | 2 | All Maps","name_short":"sea-2","host":"sea-1.us.uncletopia.com","port":27025,"enabled":true,"region":"us-west","cc":"us","latitude":47.608013,"longitude":-122.33517,"reserved":0,"last_update":"0001-01-01T00:00:00Z","name_a2s":"Uncletopia | Seattle | 2 | All Maps","protocol":17,"map":"pl_badwater","folder":"tf","game":"Team Fortress","app_id":440,"player_count":24,"max_players":24,"Bots":0,"server_type":"Dedicated","server_os":"Linux","password":true,"vac":true,"version":"7757534","steam_id":85568392924469998,"keywords":["nocrits","nodmgspread","payload","uncletopia"],"game_id":440,"stv_port":27026,"stv_name":"Uncletopia | Seattle | 2 | All Maps | STV","players":[{"user_id":141,"name":"Matella","steam_id":76561198097427947,"connected_time":467000000000,"state":"active","ping":124},{"user_id":142,"name":"DiscoTraveler","steam_id":76561199240168088,"connected_time":466000000000,"state":"active","ping":107},{"user_id":128,"name":"compulsive","steam_id":76561198212421513,"connected_time":1464000000000,"state":"active","ping":75},{"user_id":83,"name":"Eris","steam_id":76561199471434875,"connected_time":5866000000000,"state":"active","ping":36},{"user_id":127,"name":"vartion","steam_id":76561198272996824,"connected_time":1566000000000,"state":"active","ping":50},{"user_id":110,"name":"goldhed","steam_id":76561198051751133,"connected_time":3524000000000,"state":"active","ping":49},{"user_id":143,"name":"Idiot on his Keyboard","steam_id":76561198217662787,"connected_time":450000000000,"state":"active","ping":135},{"user_id":130,"name":"Goofy Goober","steam_id":76561198065361279,"connected_time":1408000000000,"state":"active","ping":119},{"user_id":144,"name":"[CWBY] Scumbag","steam_id":76561198155618184,"connected_time":426000000000,"state":"active","ping":87},{"user_id":126,"name":"Frank","steam_id":76561198428759980,"connected_time":1699000000000,"state":"active","ping":32},{"user_id":108,"name":"Combustionaut","steam_id":76561198164877813,"connected_time":4095000000000,"state":"active","ping":53},{"user_id":145,"name":"Strikerbolt","steam_id":76561199095622897,"connected_time":425000000000,"state":"active","ping":88},{"user_id":140,"name":"strbry","steam_id":76561198155133601,"connected_time":501000000000,"state":"active","ping":53},{"user_id":136,"name":"I'm a shark","steam_id":76561198027294307,"connected_time":1235000000000,"state":"active","ping":117},{"user_id":122,"name":"bodie._.","steam_id":76561198079474904,"connected_time":2057000000000,"state":"active","ping":70},{"user_id":138,"name":"ViciousPanda","steam_id":76561197976193494,"connected_time":899000000000,"state":"active","ping":55},{"user_id":29,"name":"Batso","steam_id":76561198106589452,"connected_time":9517000000000,"state":"active","ping":78},{"user_id":150,"name":"james may","steam_id":76561198043857339,"connected_time":9000000000,"state":"active","ping":83},{"user_id":133,"name":"samantha","steam_id":76561198299290069,"connected_time":1310000000000,"state":"active","ping":88},{"user_id":72,"name":"〣dust〣 -she/her-","steam_id":76561198045218909,"connected_time":6688000000000,"state":"active","ping":44},{"user_id":148,"name":"Skabbety","steam_id":76561198168044257,"connected_time":230000000000,"state":"active","ping":44},{"user_id":124,"name":"Dad 2","steam_id":76561198138546187,"connected_time":1879000000000,"state":"active","ping":128},{"user_id":147,"name":"deviousdaniel2005","steam_id":76561199087741582,"connected_time":417000000000,"state":"active","ping":126},{"user_id":97,"name":"ohms","steam_id":76561198868600487,"connected_time":4493000000000,"state":"active","ping":138}]},{"server_id":406,"name":"Uncletopia | Seattle | 3 | Stopwatch Beta","name_short":"sea-3","host":"sea-1.us.uncletopia.com","port":27035,"enabled":true,"region":"us-west","cc":"us","latitude":47.608013,"longitude":-122.33517,"reserved":0,"last_update":"0001-01-01T00:00:00Z","name_a2s":"Uncletopia | Seattle | 3 | Stopwatch Beta","protocol":17,"map":"pl_barnblitz","folder":"tf","game":"Team Fortress","app_id":440,"player_count":0,"max_players":24,"Bots":0,"server_type":"Dedicated","server_os":"Linux","password":true,"vac":true,"version":"7757534","steam_id":85568392924515217,"keywords":["nocrits","nodmgspread","payload","uncletopia"],"game_id":440,"stv_port":27036,"stv_name":"Uncletopia | Seattle | 3 | Stopwatch Beta | STV","players":null},{"server_id":17,"name":"Uncletopia | San Francisco | 1 | All Maps","name_short":"sfo-1","host":"sfo-1.us.uncletopia.com","port":27015,"enabled":true,"region":"us-west","cc":"us","latitude":37.77397,"longitude":-122.4313,"reserved":0,"last_update":"0001-01-01T00:00:00Z","name_a2s":"Uncletopia | San Francisco | 1 | All Maps","protocol":17,"map":"koth_viaduct","folder":"tf","game":"Team Fortress","app_id":440,"player_count":1,"max_players":24,"Bots":0,"server_type":"Dedicated","server_os":"Linux","password":true,"vac":true,"version":"7757534","steam_id":85568392924469999,"keywords":["cp","nocrits","nodmgspread","uncletopia"],"game_id":440,"stv_port":27016,"stv_name":"Uncletopia | San Francisco | 1 | All Maps | STV","players":[{"user_id":5,"name":"⛧ L̶o̶p̶a̶ ⛧","steam_id":76561198191021377,"connected_time":0,"state":"spawning","ping":7}]},{"server_id":18,"name":"Uncletopia | San Francisco | 2 | All Maps","name_short":"sfo-2","host":"sfo-1.us.uncletopia.com","port":27025,"enabled":true,"region":"us-west","cc":"us","latitude":37.77397,"longitude":-122.4313,"reserved":0,"last_update":"0001-01-01T00:00:00Z","name_a2s":"Uncletopia | San Francisco | 2 | All Maps","protocol":17,"map":"cp_sunshine","folder":"tf","game":"Team Fortress","app_id":440,"player_count":0,"max_players":24,"Bots":0,"server_type":"Dedicated","server_os":"Linux","password":true,"vac":true,"version":"7757534","steam_id":85568392924470000,"keywords":["cp","nocrits","nodmgspread","uncletopia"],"game_id":440,"stv_port":27026,"stv_name":"Uncletopia | San Francisco | 2 | All Maps | STV","players":null},{"server_id":19,"name":"Uncletopia | San Francisco | 3 | Stopwatch Beta","name_short":"sfo-3","host":"sfo-1.us.uncletopia.com","port":27035,"enabled":true,"region":"us-west","cc":"us","latitude":37.77397,"longitude":-122.4313,"reserved":0,"last_update":"0001-01-01T00:00:00Z","name_a2s":"Uncletopia | San Francisco | 3 | Stopwatch Beta","protocol":17,"map":"pl_borneo","folder":"tf","game":"Team Fortress","app_id":440,"player_count":0,"max_players":24,"Bots":0,"server_type":"Dedicated","server_os":"Linux","password":true,"vac":true,"version":"7757534","steam_id":85568392924742824,"keywords":["nocrits","nodmgspread","payload","uncletopia"],"game_id":440,"stv_port":27036,"stv_name":"Uncletopia | San Francisco | 3 | Stopwatch Beta | STV","players":null},{"server_id":20,"name":"Uncletopia | San Francisco | 4 | Community","name_short":"sfo-4","host":"sfo-1.us.uncletopia.com","port":27045,"enabled":true,"region":"us-west","cc":"us","latitude":37.77397,"longitude":-122.4313,"reserved":0,"last_update":"0001-01-01T00:00:00Z","name_a2s":"Uncletopia | San Francisco | 4 | Community","protocol":17,"map":"koth_highpass","folder":"tf","game":"Team Fortress","app_id":440,"player_count":0,"max_players":24,"Bots":0,"server_type":"Dedicated","server_os":"Linux","password":true,"vac":true,"version":"7757534","steam_id":85568392924742826,"keywords":["cp","nocrits","nodmgspread","uncletopia"],"game_id":440,"stv_port":27046,"stv_name":"Uncletopia | San Francisco | 4 | Community | STV","players":null},{"server_id":141,"name":"Uncletopia | Sydney | 1 | All Maps","name_short":"syd-1","host":"syd-1.au.uncletopia.com","port":27015,"enabled":true,"region":"au","cc":"au","latitude":-33.865143,"longitude":151.2099,"reserved":0,"last_update":"0001-01-01T00:00:00Z","name_a2s":"Uncletopia | Sydney | 1 | All Maps","protocol":17,"map":"cp_process_final","folder":"tf","game":"Team Fortress","app_id":440,"player_count":0,"max_players":24,"Bots":0,"server_type":"Dedicated","server_os":"Linux","password":true,"vac":true,"version":"7757534","steam_id":85568392924470001,"keywords":["cp","nocrits","nodmgspread","uncletopia"],"game_id":440,"stv_port":27016,"stv_name":"Uncletopia | Sydney | 1 | All Maps | STV","players":null},{"server_id":123,"name":"Uncletopia | Sydney | 2 | All Maps","name_short":"syd-2","host":"syd-1.au.uncletopia.com","port":27025,"enabled":true,"region":"au","cc":"au","latitude":-33.865143,"longitude":151.2099,"reserved":0,"last_update":"0001-01-01T00:00:00Z","name_a2s":"Uncletopia | Sydney | 2 | All Maps","protocol":17,"map":"koth_viaduct","folder":"tf","game":"Team Fortress","app_id":440,"player_count":0,"max_players":24,"Bots":0,"server_type":"Dedicated","server_os":"Linux","password":true,"vac":true,"version":"7757534","steam_id":85568392924470002,"keywords":["cp","nocrits","nodmgspread","uncletopia"],"game_id":440,"stv_port":27026,"stv_name":"Uncletopia | Sydney | 2 | All Maps | STV","players":null},{"server_id":395,"name":"Uncletopia | Sydney | 3 | All Maps","name_short":"syd-3","host":"syd-1.au.uncletopia.com","port":27035,"enabled":true,"region":"au","cc":"au","latitude":-33.865143,"longitude":151.2099,"reserved":0,"last_update":"0001-01-01T00:00:00Z","name_a2s":"Uncletopia | Sydney | 3 | All Maps","protocol":17,"map":"pl_upward","folder":"tf","game":"Team Fortress","app_id":440,"player_count":0,"max_players":24,"Bots":0,"server_type":"Dedicated","server_os":"Linux","password":true,"vac":true,"version":"7757534","steam_id":85568392925194467,"keywords":["nocrits","nodmgspread","payload","uncletopia"],"game_id":440,"stv_port":27036,"stv_name":"Uncletopia | Sydney | 3 | All Maps | STV","players":null},{"server_id":396,"name":"Uncletopia | Sydney | 4 | All Maps","name_short":"syd-4","host":"syd-1.au.uncletopia.com","port":27045,"enabled":true,"region":"au","cc":"au","latitude":-33.865143,"longitude":151.2099,"reserved":0,"last_update":"0001-01-01T00:00:00Z","name_a2s":"Uncletopia | Sydney | 4 | All Maps","protocol":17,"map":"koth_lakeside_final","folder":"tf","game":"Team Fortress","app_id":440,"player_count":0,"max_players":24,"Bots":0,"server_type":"Dedicated","server_os":"Linux","password":true,"vac":true,"version":"7757534","steam_id":85568392925397958,"keywords":["cp","nocrits","nodmgspread","uncletopia"],"game_id":440,"stv_port":27046,"stv_name":"Uncletopia | Sydney | 4 | All Maps | STV","players":null},{"server_id":58,"name":"Uncletopia | Sydney | 5 | Stopwatch Beta","name_short":"syd-5","host":"syd-1.au.uncletopia.com","port":27055,"enabled":true,"region":"au","cc":"au","latitude":-33.865143,"longitude":151.2099,"reserved":0,"last_update":"0001-01-01T00:00:00Z","name_a2s":"Uncletopia | Sydney | 5 | Stopwatch Beta","protocol":17,"map":"koth_highpass","folder":"tf","game":"Team Fortress","app_id":440,"player_count":0,"max_players":24,"Bots":0,"server_type":"Dedicated","server_os":"Linux","password":true,"vac":true,"version":"7757534","steam_id":85568392925397959,"keywords":["cp","nocrits","nodmgspread","uncletopia"],"game_id":440,"stv_port":27056,"stv_name":"Uncletopia | Sydney | 5 | Stopwatch Beta | STV","players":null},{"server_id":59,"name":"Uncletopia | Sydney | 6 | Community","name_short":"syd-6","host":"syd-1.au.uncletopia.com","port":27065,"enabled":true,"region":"au","cc":"au","latitude":-33.865143,"longitude":151.2099,"reserved":0,"last_update":"0001-01-01T00:00:00Z","name_a2s":"Uncletopia | Sydney | 6 | Community","protocol":17,"map":"cp_sunshine","folder":"tf","game":"Team Fortress","app_id":440,"player_count":0,"max_players":24,"Bots":0,"server_type":"Dedicated","server_os":"Linux","password":true,"vac":true,"version":"7757534","steam_id":85568392925397960,"keywords":["cp","nocrits","nodmgspread","uncletopia"],"game_id":440,"stv_port":27066,"stv_name":"Uncletopia | Sydney | 6 | Community | STV","players":null},{"server_id":49,"name":"Uncletopia | Warsaw | 1 | All Maps","name_short":"waw-1","host":"waw-1.pl.uncletopia.com","port":27015,"enabled":true,"region":"eu","cc":"pl","latitude":52.2297,"longitude":21.017532,"reserved":0,"last_update":"0001-01-01T00:00:00Z","name_a2s":"","protocol":0,"map":"","folder":"","game":"","app_id":0,"player_count":0,"max_players":0,"Bots":0,"server_type":"","server_os":"","password":false,"vac":false,"version":"","steam_id":0,"keywords":null,"game_id":0,"stv_port":0,"stv_name":"","players":null},{"server_id":50,"name":"Uncletopia | Warsaw | 2 | All Maps","name_short":"waw-2","host":"waw-1.pl.uncletopia.com","port":27025,"enabled":true,"region":"eu","cc":"pl","latitude":52.2297,"longitude":21.017532,"reserved":0,"last_update":"0001-01-01T00:00:00Z","name_a2s":"Uncletopia | Warsaw | 2 | All Maps","protocol":17,"map":"koth_highpass","folder":"tf","game":"Team Fortress","app_id":440,"player_count":3,"max_players":24,"Bots":0,"server_type":"Dedicated","server_os":"Linux","password":true,"vac":true,"version":"7757534","steam_id":85568392925397851,"keywords":["cp","nocrits","nodmgspread","uncletopia"],"game_id":440,"stv_port":27026,"stv_name":"Uncletopia | Warsaw | 2 | All Maps | STV","players":[{"user_id":7,"name":"Wojtasek0505","steam_id":76561199236721669,"connected_time":691000000000,"state":"active","ping":80},{"user_id":8,"name":"Rybigiusz","steam_id":76561198799311754,"connected_time":573000000000,"state":"active","ping":57},{"user_id":10,"name":"forv","steam_id":76561198326667006,"connected_time":465000000000,"state":"active","ping":44}]},{"server_id":51,"name":"Uncletopia | Warsaw | 3 | All Maps","name_short":"waw-3","host":"waw-1.pl.uncletopia.com","port":27035,"enabled":true,"region":"eu","cc":"pl","latitude":52.2297,"longitude":21.017532,"reserved":0,"last_update":"0001-01-01T00:00:00Z","name_a2s":"Uncletopia | Warsaw | 3 | All Maps","protocol":17,"map":"cp_dustbowl","folder":"tf","game":"Team Fortress","app_id":440,"player_count":0,"max_players":24,"Bots":0,"server_type":"Dedicated","server_os":"Linux","password":true,"vac":true,"version":"7757534","steam_id":85568392925397852,"keywords":["cp","nocrits","nodmgspread","uncletopia"],"game_id":440,"stv_port":27036,"stv_name":"Uncletopia | Warsaw | 3 | All Maps | STV","players":null},{"server_id":52,"name":"Uncletopia | Warsaw | 4 | All Maps","name_short":"waw-4","host":"waw-1.pl.uncletopia.com","port":27045,"enabled":true,"region":"eu","cc":"pl","latitude":52.2297,"longitude":21.017532,"reserved":0,"last_update":"0001-01-01T00:00:00Z","name_a2s":"Uncletopia | Warsaw | 4 | All Maps","protocol":17,"map":"pl_snowycoast","folder":"tf","game":"Team Fortress","app_id":440,"player_count":0,"max_players":24,"Bots":0,"server_type":"Dedicated","server_os":"Linux","password":true,"vac":true,"version":"7757534","steam_id":85568392925397853,"keywords":["nocrits","nodmgspread","payload","uncletopia"],"game_id":440,"stv_port":27046,"stv_name":"Uncletopia | Warsaw | 4 | All Maps | STV","players":null},{"server_id":53,"name":"Uncletopia | Warsaw | 5 | Stopwatch Beta","name_short":"waw-5","host":"waw-1.pl.uncletopia.com","port":27055,"enabled":true,"region":"eu","cc":"pl","latitude":52.2297,"longitude":21.017532,"reserved":0,"last_update":"0001-01-01T00:00:00Z","name_a2s":"Uncletopia | Warsaw | 5 | Stopwatch Beta","protocol":17,"map":"pl_barnblitz","folder":"tf","game":"Team Fortress","app_id":440,"player_count":0,"max_players":24,"Bots":0,"server_type":"Dedicated","server_os":"Linux","password":true,"vac":true,"version":"7757534","steam_id":85568392925397854,"keywords":["nocrits","nodmgspread","payload","uncletopia"],"game_id":440,"stv_port":27056,"stv_name":"Uncletopia | Warsaw | 5 | Stopwatch Beta | STV","players":null},{"server_id":54,"name":"Uncletopia | Warsaw | 6 | Community","name_short":"waw-6","host":"waw-1.pl.uncletopia.com","port":27065,"enabled":true,"region":"eu","cc":"pl","latitude":52.2297,"longitude":21.017532,"reserved":0,"last_update":"0001-01-01T00:00:00Z","name_a2s":"Uncletopia | Warsaw | 6 | Community","protocol":17,"map":"workshop/cp_villa_b19.ugc2113052569","folder":"tf","game":"Team Fortress","app_id":440,"player_count":0,"max_players":24,"Bots":0,"server_type":"Dedicated","server_os":"Linux","password":true,"vac":true,"version":"7757534","steam_id":85568392925397856,"keywords":["cp","nocrits","nodmgspread","uncletopia"],"game_id":440,"stv_port":27066,"stv_name":"Uncletopia | Warsaw | 6 | Community | STV","players":null}]}