{"status":true,"message":"","result":[{"server_id":9,"name":"Uncletopia | Atlanta | 1 | All Maps","name_short":"atl-1","host":"atl-1.us.uncletopia.com","port":27015,"enabled":true,"region":"us-east","cc":"us","latitude":33.753746,"longitude":-84.38633,"reserved":0,"last_update":"0001-01-01T00:00:00Z","name_a2s":"Uncletopia | Atlanta | 1 | All Maps","protocol":17,"map":"cp_dustbowl","folder":"tf","game":"Team Fortress","app_id":440,"player_count":24,"max_players":24,"Bots":0,"server_type":"Dedicated","server_os":"Linux","password":true,"vac":true,"version":"7757534","steam_id":85568392924469982,"keywords":["cp","nocrits","nodmgspread","uncletopia"],"game_id":440,"stv_port":27016,"stv_name":"Uncletopia | Atlanta | 1 | All Maps | STV","players":[{"user_id":201,"name":"shinon","steam_id":76561198373626848,"connected_time":1804000000000,"state":"active","ping":56},{"user_id":203,"name":"Im High","steam_id":76561198049954886,"connected_time":1758000000000,"state":"active","ping":72},{"user_id":198,"name":"Red1 | Pharaxer™","steam_id":76561198051236069,"connected_time":2164000000000,"state":"active","ping":164},{"user_id":188,"name":"daemon","steam_id":76561198001541433,"connected_time":2713000000000,"state":"active","ping":74},{"user_id":223,"name":"Herr Doktor","steam_id":76561198025473302,"connected_time":912000000000,"state":"active","ping":96},{"user_id":208,"name":"Wade","steam_id":76561198060623274,"connected_time":1545000000000,"state":"active","ping":78},{"user_id":227,"name":"_SneakyMan_","steam_id":76561198354194689,"connected_time":29000000000,"state":"active","ping":48},{"user_id":153,"name":"no way","steam_id":76561198082496000,"connected_time":7488000000000,"state":"active","ping":93},{"user_id":183,"name":"TheCrusader❤","steam_id":76561198158171169,"connected_time":3559000000000,"state":"active","ping":89},{"user_id":215,"name":"Potconundrum","steam_id":76561198040291704,"connected_time":1278000000000,"state":"active","ping":69},{"user_id":216,"name":"wire-guided","steam_id":76561198055407168,"connected_time":1266000000000,"state":"active","ping":49},{"user_id":224,"name":"Constable","steam_id":76561198135578153,"connected_time":603000000000,"state":"active","ping":84},{"user_id":219,"name":"senya","steam_id":76561198077902438,"connected_time":1176000000000,"state":"active","ping":59},{"user_id":206,"name":"Barn.Jones1992","steam_id":76561198197981309,"connected_time":1682000000000,"state":"active","ping":106},{"user_id":161,"name":"Gotta get my ammo fix","steam_id":76561198039763676,"connected_time":6281000000000,"state":"active","ping":60},{"user_id":213,"name":"BoredPanda","steam_id":76561199242942720,"connected_time":1299000000000,"state":"active","ping":101},{"user_id":217,"name":"✧ micca ","steam_id":76561197975540289,"connected_time":1224000000000,"state":"active","ping":80},{"user_id":191,"name":"Albundy","steam_id":76561198075394127,"connected_time":2588000000000,"state":"active","ping":73},{"user_id":218,"name":"HMD","steam_id":76561198055124967,"connected_time":1196000000000,"state":"active","ping":149},{"user_id":221,"name":"SMHTMFTTF","steam_id":76561199079614516,"connected_time":1156000000000,"state":"active","ping":74},{"user_id":222,"name":"Trinima","steam_id":76561198359215935,"connected_time":1139000000000,"state":"active","ping":81},{"user_id":62,"name":"noraneko","steam_id":76561198025418738,"connected_time":13912000000000,"state":"active","ping":102},{"user_id":200,"name":"BackwardsEagle","steam_id":76561199013712612,"connected_time":1829000000000,"state":"active","ping":84},{"user_id":226,"name":"BLU1 l Epifiny","steam_id":76561198027958086,"connected_time":408000000000,"state":"active","ping":87}]},{"server_id":400,"name":"Uncletopia | Atlanta | 3 | Community","name_short":"atl-3","host":"atl-1.us.uncletopia.com","port":27035,"enabled":true,"region":"us-east","cc":"us","latitude":33.753746,"longitude":-84.38633,"reserved":0,"last_update":"0001-01-01T00:00:00Z","name_a2s":"Uncletopia | Atlanta | 3 | Community","protocol":17,"map":"workshop/cp_kalinka_rc6a.ugc1272700588","folder":"tf","game":"Team Fortress","app_id":440,"player_count":0,"max_players":24,"Bots":0,"server_type":"Dedicated","server_os":"Linux","password":true,"vac":true,"version":"7757534","steam_id":85568392924515187,"keywords":["cp","nocrits","nodmgspread","uncletopia"],"game_id":440,"stv_port":27036,"stv_name":"Uncletopia | Atlanta | 3 | Community | STV","players":null},{"server_id":401,"name":"Uncletopia | Atlanta | 4 | No Payload","name_short":"atl-4","host":"atl-1.us.uncletopia.com","port":27045,"enabled":true,"region":"us-east","cc":"us","latitude":33.753746,"longitude":-84.38633,"reserved":0,"last_update":"0001-01-01T00:00:00Z","name_a2s":"","protocol":0,"map":"","folder":"","game":"","app_id":0,"player_count":0,"max_players":0,"Bots":0,"server_type":"","server_os":"","password":false,"vac":false,"version":"","steam_id":0,"keywords":null,"game_id":0,"stv_port":0,"stv_name":"","players":null},{"server_id":2,"name":"Uncletopia | Chicago | 1 | All Maps","name_short":"chi-1","host":"chi-1.us.uncletopia.com","port":27015,"enabled":true,"region":"us-central","cc":"us","latitude":41.881832,"longitude":-87.62318,"reserved":0,"last_update":"0001-01-01T00:00:00Z","name_a2s":"Uncletopia | Chicago | 1 | All Maps","protocol":17,"map":"koth_cascade","folder":"tf","game":"Team Fortress","app_id":440,"player_count":0,"max_players":24,"Bots":0,"server_type":"Dedicated","server_os":"Linux","password":true,"vac":true,"version":"7757534","steam_id":85568392924469984,"keywords":["cp","nocrits","nodmgspread","uncletopia"],"game_id":440,"stv_port":27016,"stv_name":"Uncletopia | Chicago | 1 | All Maps | STV","players":null},{"server_id":106,"name":"Uncletopia | Chicago | 2 | All Maps","name_short":"chi-2","host":"chi-1.us.uncletopia.com","port":27025,"enabled":true,"region":"us-central","cc":"us","latitude":41.881832,"longitude":-87.62318,"reserved":0,"last_update":"0001-01-01T00:00:00Z","name_a2s":"Uncletopia | Chicago | 2 | All Maps","protocol":17,"map":"koth_viaduct","folder":"tf","game":"Team Fortress","app_id":440,"player_count":2,"max_players":24,"Bots":0,"server_type":"Dedicated","server_os":"Linux","password":true,"vac":true,"version":"7757534","steam_id":85568392924469985,"keywords":["cp","nocrits","nodmgspread","uncletopia"],"game_id":440,"stv_port":27026,"stv_name":"Uncletopia | Chicago | 2 | All Maps | STV","players":[{"user_id":3,"name":"Crevice; Abyssal Storm","steam_id":76561198411846484,"connected_time":139000000000,"state":"active","ping":62},{"user_id":5,"name":"snolop","steam_id":76561198169902357,"connected_time":32000000000,"state":"active","ping":54}]},{"server_id":402,"name":"Uncletopia | Chicago | 3 | All Maps","name_short":"chi-3","host":"chi-1.us.uncletopia.com","port":27035,"enabled":true,"region":"us-central","cc":"us","latitude":41.881832,"longitude":-87.62318,"reserved":0,"last_update":"0001-01-01T00:00:00Z","name_a2s":"Uncletopia | Chicago | 3 | All Maps","protocol":17,"map":"koth_lakeside_final","folder":"tf","game":"Team Fortress","app_id":440,"player_count":0,"max_players":24,"Bots":0,"server_type":"Dedicated","server_os":"Linux","password":true,"vac":true,"version":"7757534","steam_id":85568392924515191,"keywords":["cp","nocrits","nodmgspread","uncletopia"],"game_id":440,"stv_port":27036,"stv_name":"Uncletopia | Chicago | 3 | All Maps | STV","players":null},{"server_id":403,"name":"Uncletopia | Chicago | 4 | All Maps","name_short":"chi-4","host":"chi-1.us.uncletopia.com","port":27045,"enabled":true,"region":"us-central","cc":"us","latitude":41.881832,"longitude":-87.62318,"reserved":0,"last_update":"0001-01-01T00:00:00Z","name_a2s":"Uncletopia | Chicago | 4 | All Maps","protocol":17,"map":"pl_badwater","folder":"tf","game":"Team Fortress","app_id":440,"player_count":0,"max_players":24,"Bots":0,"server_type":"Dedicated","server_os":"Linux","password":true,"vac":true,"version":"7757534","steam_id":85568392924515193,"keywords":["nocrits","nodmgspread","payload","uncletopia"],"game_id":440,"stv_port":27046,"stv_name":"Uncletopia | Chicago | 4 | All Maps | STV","players":null},{"server_id":36,"name":"Uncletopia | Chicago | 5 | All Maps","name_short":"chi-5","host":"chi-2.us.uncletopia.com","port":27015,"enabled":true,"region":"us-central","cc":"us","latitude":41.881832,"longitude":-87.62318,"reserved":0,"last_update":"0001-01-01T00:00:00Z","name_a2s":"Uncletopia | Chicago | 5 | All Maps","protocol":17,"map":"koth_cascade","folder":"tf","game":"Team Fortress","app_id":440,"player_count":0,"max_players":24,"Bots":0,"server_type":"Dedicated","server_os":"Linux","password":true,"vac":true,"version":"7757534","steam_id":85568392924866362,"keywords":["cp","nocrits","nodmgspread","uncletopia"],"game_id":440,"stv_port":27016,"stv_name":"Uncletopia | Chicago | 5 | All Maps | STV","players":null},{"server_id":37,"name":"Uncletopia | Chicago | 6 | All Maps","name_short":"chi-6","host":"chi-2.us.uncletopia.com","port":27025,"enabled":true,"region":"us-central","cc":"us","latitude":41.881832,"longitude":-87.62318,"reserved":0,"last_update":"0001-01-01T00:00:00Z","name_a2s":"Uncletopia | Chicago | 6 | All Maps","protocol":17,"map":"koth_cascade","folder":"tf","game":"Team Fortress","app_id":440,"player_count":0,"max_players":24,"Bots":0,"server_type":"Dedicated","server_os":"Linux","password":true,"vac":true,"version":"7757534","steam_id":85568392924866363,"keywords":["cp","nocrits","nodmgspread","uncletopia"],"game_id":440,"stv_port":27026,"stv_name":"Uncletopia | Chicago | 6 | All Maps | STV","players":null},{"server_id":38,"name":"Uncletopia | Chicago | 7 | Stopwatch Beta","name_short":"chi-7","host":"chi-2.us.uncletopia.com","port":27035,"enabled":true,"region":"us-central","cc":"us","latitude":41.881832,"longitude":-87.62318,"reserved":0,"last_update":"0001-01-01T00:00:00Z","name_a2s":"Uncletopia | Chicago | 7 | Stopwatch Beta","protocol":17,"map":"pl_upward","folder":"tf","game":"Team Fortress","app_id":440,"player_count":0,"max_players":24,"Bots":0,"server_type":"Dedicated","server_os":"Linux","password":true,"vac":true,"version":"7757534","steam_id":85568392924866364,"keywords":["nocrits","nodmgspread","payload","uncletopia"],"game_id":440,"stv_port":27036,"stv_name":"Uncletopia | Chicago | 7 | Stopwatch Beta | STV","players":null},{"server_id":39,"name":"Uncletopia | Chicago | 8 | Community","name_short":"chi-8","host":"chi-2.us.uncletopia.com","port":27045,"enabled":true,"region":"us-central","cc":"us","latitude":41.881832,"longitude":-87.62318,"reserved":0,"last_update":"0001-01-01T00:00:00Z","name_a2s":"Uncletopia | Chicago | 8 | Community","protocol":17,"map":"pl_barnblitz","folder":"tf","game":"Team Fortress","app_id":440,"player_count":0,"max_players":24,"Bots":0,"server_type":"Dedicated","server_os":"Linux","password":true,"vac":true,"version":"7757534","steam_id":85568392924866365,"keywords":["nocrits","nodmgspread","payload","uncletopia"],"game_id":440,"stv_port":27046,"stv_name":"Uncletopia | Chicago | 8 | Community | STV","players":null},{"server_id":8,"name":"Uncletopia | Dallas | 1 | All Maps","name_short":"dal-1","host":"dal-1.us.uncletopia.com","port":27015,"enabled":true,"region":"us-central","cc":"us","latitude":32.779167,"longitude":-96.80889,"reserved":0,"last_update":"0001-01-01T00:00:00Z","name_a2s":"Uncletopia | Dallas | 1 | All Maps","protocol":17,"map":"koth_cascade","folder":"tf","game":"Team Fortress","app_id":440,"player_count":0,"max_players":24,"Bots":0,"server_type":"Dedicated","server_os":"Linux","password":true,"vac":true,"version":"7757534","steam_id":85568392924469986,"keywords":["cp","nocrits","nodmgspread","uncletopia"],"game_id":440,"stv_port":27016,"stv_name":"Uncletopia | Dallas | 1 | All Maps | STV","players":null},{"server_id":108,"name":"Uncletopia | Dallas | 2 | All Maps","name_short":"dal-2","host":"dal-1.us.uncletopia.com","port":27025,"enabled":true,"region":"us-central","cc":"us","latitude":32.779167,"longitude":-96.80889,"reserved":0,"last_update":"0001-01-01T00:00:00Z","name_a2s":"Uncletopia | Dallas | 2 | All Maps","protocol":17,"map":"cp_altitude","folder":"tf","game":"Team Fortress","app_id":440,"player_count":0,"max_players":24,"Bots":0,"server_type":"Dedicated","server_os":"Linux","password":true,"vac":true,"version":"7757534","steam_id":85568392924469988,"keywords":["cp","nocrits","nodmgspread","uncletopia"],"game_id":440,"stv_port":27026,"stv_name":"Uncletopia | Dallas | 2 | All Maps | STV","players":null},{"server_id":5,"name":"Uncletopia | Frankfurt | 1 | All Maps","name_short":"frk-1","host":"frk-1.de.uncletopia.com","port":27015,"enabled":true,"region":"eu","cc":"de","latitude":50.110924,"longitude":8.682127,"reserved":0,"last_update":"0001-01-01T00:00:00Z","name_a2s":"Uncletopia | Frankfurt | 1 | All Maps","protocol":17,"map":"pl_borneo","folder":"tf","game":"Team Fortress","app_id":440,"player_count":24,"max_players":24,"Bots":0,"server_type":"Dedicated","server_os":"Linux","password":true,"vac":true,"version":"7757534","steam_id":85568392924469989,"keywords":["nocrits","nodmgspread","payload","uncletopia"],"game_id":440,"stv_port":27016,"stv_name":"Uncletopia | Frankfurt | 1 | All Maps | STV","players":[{"user_id":303,"name":"Karol X","steam_id":76561199133999804,"connected_time":804000000000,"state":"active","ping":91},{"user_id":291,"name":"SocialistBacon","steam_id":76561198055872267,"connected_time":1428000000000,"state":"active","ping":67},{"user_id":173,"name":"{CPBR}ARKHALIS","steam_id":76561198993900003,"connected_time":9580000000000,"state":"active","ping":74},{"user_id":282,"name":"w4gthp0h","steam_id":76561198133193445,"connected_time":1702000000000,"state":"active","ping":78},{"user_id":299,"name":"ACERichard","steam_id":76561198852968759,"connected_time":931000000000,"state":"active","ping":53},{"user_id":305,"name":"gagalak","steam_id":76561198089979108,"connected_time":758000000000,"state":"active","ping":90},{"user_id":292,"name":"Kron Krian","steam_id":76561198122541754,"connected_time":1374000000000,"state":"active","ping":74},{"user_id":286,"name":"Hegyi tahó F2P","steam_id":76561199219150356,"connected_time":1489000000000,"state":"active","ping":89},{"user_id":271,"name":"yum็","steam_id":76561198350053321,"connected_time":2164000000000,"state":"active","ping":48},{"user_id":301,"name":"Lord Philip","steam_id":76561198277097779,"connected_time":855000000000,"state":"active","ping":61},{"user_id":302,"name":"giclure :;","steam_id":76561197986362828,"connected_time":836000000000,"state":"active","ping":49},{"user_id":231,"name":"{CPBR}SPRSTR","steam_id":76561197998887733,"connected_time":4390000000000,"state":"active","ping":100},{"user_id":267,"name":"Ander Escobar","steam_id":76561198335366902,"connected_time":2590000000000,"state":"active","ping":100},{"user_id":261,"name":"The Pestilence","steam_id":76561199081252282,"connected_time":2866000000000,"state":"active","ping":177},{"user_id":304,"name":"sesw","steam_id":76561198057332404,"connected_time":797000000000,"state":"active","ping":52},{"user_id":262,"name":"f0x","steam_id":76561198072921704,"connected_time":2851000000000,"state":"active","ping":65},{"user_id":308,"name":"KLAMA  ❤","steam_id":76561198351549661,"connected_time":278000000000,"state":"active","ping":68},{"user_id":249,"name":"GuyWithoutAPie","steam_id":76561198054512149,"connected_time":3354000000000,"state":"active","ping":59},{"user_id":307,"name":"Penis Contortionist","steam_id":76561198073663784,"connected_time":462000000000,"state":"active","ping":48},{"user_id":277,"name":"L.A. Palm Tree","steam_id":76561199289526521,"connected_time":1930000000000,"state":"active","ping":98},{"user_id":297,"name":"disposablesuperbread","steam_id":76561199074703607,"connected_time":1124000000000,"state":"active","ping":69},{"user_id":309,"name":"Bobo","steam_id":76561198052308399,"connected_time":104000000000,"state":"active","ping":63},{"user_id":276,"name":"Sacrishee","steam_id":76561198169853697,"connected_time":1967000000000,"state":"active","ping":57},{"user_id":256,"name":"Towercat","steam_id":76561198013141793,"connected_time":2951000000000,"state":"active","ping":70}]},{"server_id":110,"name":"Uncletopia | Frankfurt | 2 | All Maps","name_short":"frk-2","host":"frk-1.de.uncletopia.com","port":27025,"enabled":true,"region":"eu","cc":"de","latitude":50.110924,"longitude":8.682127,"reserved":0,"last_update":"0001-01-01T00:00:00Z","name_a2s":"Uncletopia | Frankfurt | 2 | All Maps","protocol":17,"map":"koth_cascade","folder":"tf","game":"Team Fortress","app_id":440,"player_count":0,"max_players":24,"Bots":0,"server_type":"Dedicated","server_os":"Linux","password":true,"vac":true,"version":"7757534","steam_id":85568392924469990,"keywords":["cp","nocrits","nodmgspread","uncletopia"],"game_id":440,"stv_port":27026,"stv_name":"Uncletopia | Frankfurt | 2 | All Maps | STV","players":null},{"server_id":308,"name":"Uncletopia | Frankfurt | 3 | All Maps","name_short":"frk-3","host":"frk-1.de.uncletopia.com","port":27035,"enabled":true,"region":"eu","cc":"de","latitude":50.110924,"longitude":8.682127,"reserved":0,"last_update":"0001-01-01T00:00:00Z","name_a2s":"Uncletopia | Frankfurt | 3 | All Maps","protocol":17,"map":"pl_frontier_final","folder":"tf","game":"Team Fortress","app_id":440,"player_count":24,"max_players":24,"Bots":0,"server_type":"Dedicated","server_os":"Linux","password":true,"vac":true,"version":"7757534","steam_id":85568392924504274,"keywords":["nocrits","nodmgspread","payload","uncletopia"],"game_id":440,"stv_port":27036,"stv_name":"Uncletopia | Frankfurt | 3 | All Maps | STV","players":[{"user_id":85,"name":"NotFionn","steam_id":76561198890525176,"connected_time":1320000000000,"state":"active","ping":95},{"user_id":102,"name":"Breadcrab","steam_id":76561198015924039,"connected_time":592000000000,"state":"active","ping":64},{"user_id":65,"name":"themantics","steam_id":76561198049276592,"connected_time":2427000000000,"state":"active","ping":38},{"user_id":92,"name":"Deacon Dracul","steam_id":76561198046880663,"connected_time":935000000000,"state":"active","ping":110},{"user_id":78,"name":"Permzilla","steam_id":76561198009407651,"connected_time":1456000000000,"state":"active","ping":59},{"user_id":93,"name":"JohnTraveltime","steam_id":76561199244281754,"connected_time":932000000000,"state":"active","ping":82},{"user_id":94,"name":"0","steam_id":76561198135140195,"connected_time":929000000000,"state":"active","ping":78},{"user_id":73,"name":"medicinal man","steam_id":76561198202668788,"connected_time":2135000000000,"state":"active","ping":61},{"user_id":83,"name":"Taktik","steam_id":76561198379433210,"connected_time":1383000000000,"state":"active","ping":146},{"user_id":89,"name":"Pabs :D","steam_id":76561198000016962,"connected_time":996000000000,"state":"active","ping":54},{"user_id":84,"name":"I LOVE THE HIGH GROUND","steam_id":76561198989449047,"connected_time":1360000000000,"state":"active","ping":147},{"user_id":69,"name":"Syd","steam_id":76561198020515027,"connected_time":2251000000000,"state":"active","ping":77},{"user_id":70,"name":"[ALT_F4]dottor_cacabula_m8","steam_id":76561198173192267,"connected_time":2229000000000,"state":"active","ping":84},{"user_id":95,"name":"Seeker","steam_id":76561198873052772,"connected_time":904000000000,"state":"active","ping":59},{"user_id":97,"name":"Gordon Birdman","steam_id":76561198013382324,"connected_time":807000000000,"state":"active","ping":75},{"user_id":104,"name":"LemonLeCitron","steam_id":76561198215545267,"connected_time":101000000000,"state":"active","ping":70},{"user_id":100,"name":"Dummy","steam_id":76561198349741126,"connected_time":722000000000,"state":"active","ping":75},{"user_id":105,"name":"mixxxa_french","steam_id":76561198085098243,"connected_time":26000000000,"state":"active","ping":105},{"user_id":87,"name":"Hey, I´m Andy!","steam_id":76561198060337777,"connected_time":1215000000000,"state":"active","ping":75},{"user_id":101,"name":"󠀡󠀡","steam_id":76561198015585266,"connected_time":680000000000,"state":"active","ping":83},{"user_id":103,"name":"sBinnotto","steam_id":76561198244936556,"connected_time":549000000000,"state":"active","ping":97},{"user_id":90,"name":"KingPotatoChips","steam_id":76561198035156465,"connected_time":996000000000,"state":"active","ping":64},{"user_id":86,"name":"Sweetcheesus","steam_id":76561198022299033,"connected_time":1300000000000,"state":"active","ping":59},{"user_id":75,"name":"Kaishakunin","steam_id":76561198028123874,"connected_time":2134000000000,"state":"active","ping":165}]},{"server_id":309,"name":"Uncletopia | Frankfurt | 4 | All Maps","name_short":"frk-4","host":"frk-1.de.uncletopia.com","port":27045,"enabled":true,"region":"eu","cc":"de","latitude":50.110924,"longitude":8.682127,"reserved":0,"last_update":"0001-01-01T00:00:00Z","name_a2s":"Uncletopia | Frankfurt | 4 | All Maps","protocol":17,"map":"cp_altitude","folder":"tf","game":"Team Fortress","app_id":440,"player_count":0,"max_players":24,"Bots":0,"server_type":"Dedicated","server_os":"Linux","password":true,"vac":true,"version":"7757534","steam_id":85568392924504275,"keywords":["cp","nocrits","nodmgspread","uncletopia"],"game_id":440,"stv_port":27046,"stv_name":"Uncletopia | Frankfurt | 4 | All Maps | STV","players":null},{"server_id":310,"name":"Uncletopia | Frankfurt | 5 | All Maps","name_short":"frk-5","host":"frk-1.de.uncletopia.com","port":27055,"enabled":true,"region":"eu","cc":"de","latitude":50.110924,"longitude":8.682127,"reserved":0,"last_update":"0001-01-01T00:00:00Z","name_a2s":"Uncletopia | Frankfurt | 5 | All Maps","protocol":17,"map":"pl_upward","folder":"tf","game":"Team Fortress","app_id":440,"player_count":0,"max_players":24,"Bots":0,"server_type":"Dedicated","server_os":"Linux","password":true,"vac":true,"version":"7757534","steam_id":85568392924504277,"keywords":["nocrits","nodmgspread","payload","uncletopia"],"game_id":440,"stv_port":27056,"stv_name":"Uncletopia | Frankfurt | 5 | All Maps | STV","players":null},{"server_id":311,"name":"Uncletopia | Frankfurt | 6 | All Maps","name_short":"frk-6","host":"frk-1.de.uncletopia.com","port":27065,"enabled":true,"region":"eu","cc":"de","latitude":50.110924,"longitude":8.682127,"reserved":0,"last_update":"0001-01-01T00:00:00Z","name_a2s":"Uncletopia | Frankfurt | 6 | All Maps","protocol":17,"map":"pl_thundermountain","folder":"tf","game":"Team Fortress","app_id":440,"player_count":24,"max_players":24,"Bots":0,"server_type":"Dedicated","server_os":"Linux","password":true,"vac":true,"version":"7757534","steam_id":85568392924504278,"keywords":["nocrits","nodmgspread","payload","uncletopia"],"game_id":440,"stv_port":27066,"stv_name":"Uncletopia | Frankfurt | 6 | All Maps | STV","players":[{"user_id":147,"name":"ivanmixo","steam_id":76561198160213989,"connected_time":805000000000,"state":"active","ping":57},{"user_id":118,"name":"Banana","steam_id":76561198155118706,"connected_time":2540000000000,"state":"active","ping":106},{"user_id":77,"name":"mx dmg","steam_id":76561198320336543,"connected_time":4717000000000,"state":"active","ping":93},{"user_id":140,"name":"KingTeddy","steam_id":76561198131757499,"connected_time":1254000000000,"state":"active","ping":73},{"user_id":160,"name":"Posture Check","steam_id":76561198053897197,"connected_time":37000000000,"state":"active","ping":48},{"user_id":142,"name":"zwbl","steam_id":76561198360811196,"connected_time":1134000000000,"state":"active","ping":86},{"user_id":148,"name":"darkwater","steam_id":76561197986978738,"connected_time":772000000000,"state":"active","ping":59},{"user_id":156,"name":"Majami","steam_id":76561198054365738,"connected_time":258000000000,"state":"active","ping":90},{"user_id":161,"name":"makarov","steam_id":76561198363892870,"connected_time":33000000000,"state":"active","ping":66},{"user_id":79,"name":"Tynnyri","steam_id":76561198075516541,"connected_time":4704000000000,"state":"active","ping":97},{"user_id":83,"name":"Sgreff","steam_id":76561198036304365,"connected_time":4478000000000,"state":"active","ping":59},{"user_id":99,"name":"los pollos hermanos","steam_id":76561198142183478,"connected_time":3525000000000,"state":"active","ping":78},{"user_id":145,"name":"NaN","steam_id":76561198071098413,"connected_time":1036000000000,"state":"active","ping":49},{"user_id":151,"name":"Oxer","steam_id":76561198055942412,"connected_time":671000000000,"state":"active","ping":83},{"user_id":135,"name":"murderwow","steam_id":76561198024566944,"connected_time":1605000000000,"state":"active","ping":102},{"user_id":105,"name":"clean carp","steam_id":76561198127053294,"connected_time":2710000000000,"state":"active","ping":63},{"user_id":149,"name":"efffcraft","steam_id":76561198306317166,"connected_time":758000000000,"state":"active","ping":103},{"user_id":133,"name":"Packet","steam_id":76561199173195875,"connected_time":1682000000000,"state":"active","ping":95},{"user_id":150,"name":"spud johnson(fake) - Allkeyshop","steam_id":76561199380974466,"connected_time":756000000000,"state":"active","ping":82},{"user_id":127,"name":"F2P gameing","steam_id":76561198834713682,"connected_time":2352000000000,"state":"active","ping":79},{"user_id":121,"name":"Liko","steam_id":76561197994660517,"connected_time":2467000000000,"state":"active","ping":75},{"user_id":157,"name":"Doriian","steam_id":76561198071438810,"connected_time":192000000000,"state":"active","ping":84},{"user_id":159,"name":"SCRAMMMBLED","steam_id":76561197998307746,"connected_time":108000000000,"state":"active","ping":61},{"user_id":102,"name":"Fortuit","steam_id":76561198065143703,"connected_time":2994000000000,"state":"active","ping":74}]},{"server_id":23,"name":"Uncletopia | Frankfurt | 7 | Stopwatch Beta","name_short":"frk-7","host":"frk-1.de.uncletopia.com","port":27075,"enabled":true,"region":"eu","cc":"de","latitude":50.110924,"longitude":8.682127,"reserved":0,"last_update":"0001-01-01T00:00:00Z","name_a2s":"Uncletopia | Frankfurt | 7 | Stopwatch Beta","protocol":17,"map":"workshop/koth_product_final.ugc454272353","folder":"tf","game":"Team Fortress","app_id":440,"player_count":0,"max_players":24,"Bots":0,"server_type":"Dedicated","server_os":"Linux","password":true,"vac":true,"version":"7757534","steam_id":85568392924742827,"keywords":["cp","nocrits","nodmgspread","uncletopia"],"game_id":440,"stv_port":27076,"stv_name":"Uncletopia | Frankfurt | 7 | Stopwatch Beta | STV","players":null},{"server_id":24,"name":"Uncletopia | Frankfurt | 8 | Community","name_short":"frk-8","host":"frk-1.de.uncletopia.com","port":27085,"enabled":true,"region":"eu","cc":"de","latitude":50.110924,"longitude":8.682127,"reserved":0,"last_update":"0001-01-01T00:00:00Z","name_a2s":"Uncletopia | Frankfurt | 8 | Community","protocol":17,"map":"workshop/pl_cashworks_final1.ugc2904065412","folder":"tf","game":"Team Fortress","app_id":440,"player_count":0,"max_players":24,"Bots":0,"server_type":"Dedicated","server_os":"Linux","password":true,"vac":true,"version":"7757534","steam_id":85568392924742828,"keywords":["nocrits","nodmgspread","payload","uncletopia"],"game_id":440,"stv_port":27086,"stv_name":"Uncletopia | Frankfurt | 8 | Community | STV","players":null},{"server_id":202,"name":"Uncletopia | Hong Kong | 1 | All Maps","name_short":"hgk-1","host":"hgk-1.hk.uncletopia.com","port":27015,"enabled":true,"region":"asia","cc":"hk","latitude":22.302711,"longitude":114.177216,"reserved":0,"last_update":"0001-01-01T00:00:00Z","name_a2s":"Uncletopia | Hong Kong | 1 | All Maps","protocol":17,"map":"cp_process_final","folder":"tf","game":"Team Fortress","app_id":440,"player_count":24,"max_players":24,"Bots":0,"server_type":"Dedicated","server_os":"Linux","password":true,"vac":true,"version":"7757534","steam_id":85568392924494504,"keywords":["cp","nocrits","nodmgspread","uncletopia"],"game_id":440,"stv_port":27016,"stv_name":"Uncletopia | Hong Kong | 1 | All Maps | STV","players":[{"user_id":583,"name":"Kroma","steam_id":76561198440429955,"connected_time":4573000000000,"state":"active","ping":77},{"user_id":645,"name":"razetime","steam_id":76561198093904557,"connected_time":1563000000000,"state":"active","ping":144},{"user_id":648,"name":"Ping906","steam_id":76561199006310447,"connected_time":1117000000000,"state":"active","ping":70},{"user_id":663,"name":"核平","steam_id":76561199024888971,"connected_time":96000000000,"state":"active","ping":64},{"user_id":514,"name":"母の肉団子@hao123.com","steam_id":76561198069561896,"connected_time":8294000000000,"state":"active","ping":31},{"user_id":649,"name":"Ritsuto","steam_id":76561198354310786,"connected_time":1057000000000,"state":"active","ping":99},{"user_id":654,"name":"Harry Maguire","steam_id":76561198243283118,"connected_time":852000000000,"state":"active","ping":55},{"user_id":504,"name":"Beef Wellington","steam_id":76561197995635241,"connected_time":8947000000000,"state":"active","ping":113},{"user_id":629,"name":"caramelCase","steam_id":76561198871689972,"connected_time":2957000000000,"state":"active","ping":84},{"user_id":588,"name":"uptriste","steam_id":76561198158666692,"connected_time":4411000000000,"state":"active","ping":33},{"user_id":650,"name":"teh SIUUUUU dai peng","steam_id":76561198041368146,"connected_time":1019000000000,"state":"active","ping":87},{"user_id":594,"name":"Prof Booster","steam_id":76561199148930929,"connected_time":4262000000000,"state":"active","ping":41},{"user_id":634,"name":"Oog + Cuban Pissing man","steam_id":76561199258899979,"connected_time":2512000000000,"state":"active","ping":55},{"user_id":660,"name":"电脑玩家朱加什维利","steam_id":76561198045769819,"connected_time":386000000000,"state":"active","ping":89},{"user_id":651,"name":"Rtx6069","steam_id":76561198382906983,"connected_time":901000000000,"state":"active","ping":33},{"user_id":652,"name":"TomProPlayer","steam_id":76561199223292521,"connected_time":882000000000,"state":"active","ping":74},{"user_id":636,"name":"Buddy","steam_id":76561198120049792,"connected_time":2424000000000,"state":"active","ping":96},{"user_id":653,"name":"dalaba379","steam_id":76561198375093234,"connected_time":875000000000,"state":"active","ping":63},{"user_id":661,"name":"DresatCouchonion","steam_id":76561199388364553,"connected_time":301000000000,"state":"active","ping":120},{"user_id":655,"name":"DC","steam_id":76561198837122605,"connected_time":827000000000,"state":"active","ping":66},{"user_id":656,"name":"GreggieBoi","steam_id":76561199085200364,"connected_time":800000000000,"state":"active","ping":90},{"user_id":664,"name":"衣旧罢久鎏岳肆","steam_id":76561198083234925,"connected_time":16000000000,"state":"active","ping":77},{"user_id":596,"name":"Bleeno","steam_id":76561199250209631,"connected_time":4123000000000,"state":"active","ping":69},{"user_id":662,"name":"Caleplayz22,i am human","steam_id":76561199242994339,"connected_time":176000000000,"state":"active","ping":85}]},{"server_id":1,"name":"Uncletopia | Los Angeles | 1 | All Maps","name_short":"lax-1","host":"lax-1.us.uncletopia.com","port":27015,"enabled":true,"region":"us-west","cc":"us","latitude":33.94279,"longitude":-118.41004,"reserved":0,"last_update":"0001-01-01T00:00:00Z","name_a2s":"Uncletopia | Los Angeles | 1 | All Maps","protocol":17,"map":"pl_borneo","folder":"tf","game":"Team Fortress","app_id":440,"player_count":0,"max_players":24,"Bots":0,"server_type":"Dedicated","server_os":"Linux","password":true,"vac":true,"version":"7757534","steam_id":85568392924469991,"keywords":["nocrits","nodmgspread","payload","uncletopia"],"game_id":440,"stv_port":27016,"stv_name":"Uncletopia | Los Angeles | 1 | All Maps | STV","players":null},{"server_id":112,"name":"Uncletopia | Los Angeles | 2 | All Maps","name_short":"lax-2","host":"lax-1.us.uncletopia.com","port":27025,"enabled":true,"region":"us-west","cc":"us","latitude":33.94279,"longitude":-118.41004,"reserved":0,"last_update":"0001-01-01T00:00:00Z","name_a2s":"Uncletopia | Los Angeles | 2 | All Maps","protocol":17,"map":"koth_cascade","folder":"tf","game":"Team Fortress","app_id":440,"player_count":0,"max_players":24,"Bots":0,"server_type":"Dedicated","server_os":"Linux","password":true,"vac":true,"version":"7757534","steam_id":85568392924469992,"keywords":["cp","nocrits","nodmgspread","uncletopia"],"game_id":440,"stv_port":27026,"stv_name":"Uncletopia | Los Angeles | 2 | All Maps | STV","players":null},{"server_id":324,"name":"Uncletopia | Los Angeles | 3 | All Maps","name_short":"lax-3","host":"lax-1.us.uncletopia.com","port":27035,"enabled":true,"region":"us-west","cc":"us","latitude":33.94279,"longitude":-118.41004,"reserved":0,"last_update":"0001-01-01T00:00:00Z","name_a2s":"Uncletopia | Los Angeles | 3 | All Maps","protocol":17,"map":"pl_pier","folder":"tf","game":"Team Fortress","app_id":440,"player_count":0,"max_players":24,"Bots":0,"server_type":"Dedicated","server_os":"Linux","password":true,"vac":true,"version":"7757534","steam_id":85568392924510198,"keywords":["nocrits","nodmgspread","payload","uncletopia"],"game_id":440,"stv_port":27036,"stv_name":"Uncletopia | Los Angeles | 3 | All Maps | STV","players":null},{"server_id":25,"name":"Uncletopia | Los Angeles | 4 | Stopwatch Beta","name_short":"lax-4","host":"lax-1.us.uncletopia.com","port":27045,"enabled":true,"region":"us-west","cc":"us","latitude":33.94279,"longitude":-118.41004,"reserved":0,"last_update":"0001-01-01T00:00:00Z","name_a2s":"Uncletopia | Los Angeles | 4 | Stopwatch Beta","protocol":17,"map":"pl_frontier_final","folder":"tf","game":"Team Fortress","app_id":440,"player_count":0,"max_players":24,"Bots":0,"server_type":"Dedicated","server_os":"Linux","password":true,"vac":true,"version":"7757534","steam_id":85568392924510199,"keywords":["nocrits","nodmgspread","payload","uncletopia"],"game_id":440,"stv_port":27046,"stv_name":"Uncletopia | Los Angeles | 4 | Stopwatch Beta | STV","players":null},{"server_id":11,"name":"Uncletopia | London | 1 | All Maps","name_short":"lon-1","host":"lon-1.uk.uncletopia.com","port":27015,"enabled":true,"region":"eu","cc":"gb","latitude":51.509865,"longitude":-0.118092,"reserved":0,"last_update":"0001-01-01T00:00:00Z","name_a2s":"Uncletopia | London | 1 | All Maps","protocol":17,"map":"pl_frontier_final","folder":"tf","game":"Team Fortress","app_id":440,"player_count":23,"max_players":24,"Bots":0,"server_type":"Dedicated","server_os":"Linux","password":true,"vac":true,"version":"7757534","steam_id":85568392924367362,"keywords":["nocrits","nodmgspread","payload","uncletopia"],"game_id":440,"stv_port":27016,"stv_name":"Uncletopia | London | 1 | All Maps | STV","players":[{"user_id":317,"name":"BrainDead","steam_id":76561198059667673,"connected_time":3166000000000,"state":"active","ping":52},{"user_id":340,"name":"Noob_with_source","steam_id":76561198870362103,"connected_time":858000000000,"state":"active","ping":54},{"user_id":298,"name":"Nexosert","steam_id":76561198941142018,"connected_time":4221000000000,"state":"active","ping":71},{"user_id":328,"name":"LordTrap.exe","steam_id":76561198318089716,"connected_time":1961000000000,"state":"active","ping":46},{"user_id":304,"name":"ciliorkun18","steam_id":76561198228942500,"connected_time":3833000000000,"state":"active","ping":90},{"user_id":315,"name":"tactical783","steam_id":76561199051688560,"connected_time":3342000000000,"state":"active","ping":68},{"user_id":321,"name":"MasterNaglis","steam_id":76561198348834177,"connected_time":2680000000000,"state":"active","ping":82},{"user_id":349,"name":"Basil","steam_id":76561198160787899,"connected_time":15000000000,"state":"active","ping":66},{"user_id":319,"name":"Iphy","steam_id":76561198137519489,"connected_time":3003000000000,"state":"active","ping":76},{"user_id":341,"name":"Alegz","steam_id":76561198287810139,"connected_time":740000000000,"state":"active","ping":63},{"user_id":342,"name":"Tasque Manager","steam_id":76561198301728644,"connected_time":624000000000,"state":"active","ping":68},{"user_id":347,"name":"kbbq","steam_id":76561198346638308,"connected_time":171000000000,"state":"active","ping":54},{"user_id":344,"name":"Calanim","steam_id":76561198068163854,"connected_time":253000000000,"state":"active","ping":55},{"user_id":283,"name":"Priceybay","steam_id":76561198055389492,"connected_time":5114000000000,"state":"active","ping":41},{"user_id":327,"name":"Borko","steam_id":76561199097266352,"connected_time":2144000000000,"state":"active","ping":90},{"user_id":309,"name":"Pain","steam_id":76561198106997949,"connected_time":3486000000000,"state":"active","ping":68},{"user_id":345,"name":"Marcos","steam_id":76561198798925721,"connected_time":249000000000,"state":"active","ping":79},{"user_id":346,"name":"You slumber","steam_id":76561198344639692,"connected_time":219000000000,"state":"active","ping":78},{"user_id":259,"name":"Kwizine","steam_id":76561198147999400,"connected_time":8369000000000,"state":"active","ping":68},{"user_id":339,"name":"Archer","steam_id":76561198132860299,"connected_time":937000000000,"state":"active","ping":55},{"user_id":343,"name":"Jaek","steam_id":76561198822100616,"connected_time":276000000000,"state":"active","ping":56},{"user_id":280,"name":"When Life gives you Lemons","steam_id":76561198318290663,"connected_time":5470000000000,"state":"active","ping":61},{"user_id":348,"name":"Jughead","steam_id":76561198000355410,"connected_time":53000000000,"state":"active","ping":52}]},{"server_id":114,"name":"Uncletopia | London | 2 | All Maps","name_short":"lon-2","host":"lon-1.uk.uncletopia.com","port":27025,"enabled":true,"region":"eu","cc":"gb","latitude":51.509865,"longitude":-0.118092,"reserved":0,"last_update":"0001-01-01T00:00:00Z","name_a2s":"Uncletopia | London | 2 | All Maps","protocol":17,"map":"pl_barnblitz","folder":"tf","game":"Team Fortress","app_id":440,"player_count":0,"max_players":24,"Bots":0,"server_type":"Dedicated","server_os":"Linux","password":true,"vac":true,"version":"7757534","steam_id":85568392924470941,"keywords":["nocrits","nodmgspread","payload","uncletopia"],"game_id":440,"stv_port":27026,"stv_name":"Uncletopia | London | 2 | All Maps | STV","players":null},{"server_id":320,"name":"Uncletopia | London | 3 | All Maps","name_short":"lon-3","host":"lon-1.uk.uncletopia.com","port":27035,"enabled":true,"region":"eu","cc":"gb","latitude":51.509865,"longitude":-0.118092,"reserved":0,"last_update":"0001-01-01T00:00:00Z","name_a2s":"Uncletopia | London | 3 | All Maps","protocol":17,"map":"koth_viaduct","folder":"tf","game":"Team Fortress","app_id":440,"player_count":24,"max_players":24,"Bots":0,"server_type":"Dedicated","server_os":"Linux","password":true,"vac":true,"version":"7757534","steam_id":85568392924510192,"keywords":["cp","nocrits","nodmgspread","uncletopia"],"game_id":440,"stv_port":27036,"stv_name":"Uncletopia | London | 3 | All Maps | STV","players":[{"user_id":441,"name":"no. 1 lucki fan","steam_id":76561198022382969,"connected_time":329000000000,"state":"active","ping":75},{"user_id":418,"name":"root.vegetable.enjoyer@gmx.com","steam_id":76561198058012525,"connected_time":2263000000000,"state":"active","ping":87},{"user_id":438,"name":"Mistress of the universe","steam_id":76561198115988477,"connected_time":557000000000,"state":"active","ping":76},{"user_id":315,"name":"mohemmedmokhter2005","steam_id":76561199197650506,"connected_time":10227000000000,"state":"active","ping":158},{"user_id":379,"name":"CamoS1250","steam_id":76561198309917434,"connected_time":5718000000000,"state":"active","ping":147},{"user_id":447,"name":"Volcazar","steam_id":76561198072870631,"connected_time":153000000000,"state":"active","ping":70},{"user_id":420,"name":"Autumnsky","steam_id":76561198055161203,"connected_time":2184000000000,"state":"active","ping":60},{"user_id":443,"name":"daev","steam_id":76561198060060998,"connected_time":313000000000,"state":"active","ping":83},{"user_id":437,"name":"Play Football","steam_id":76561198019599749,"connected_time":712000000000,"state":"active","ping":120},{"user_id":434,"name":"[T]aKer","steam_id":76561198001778013,"connected_time":860000000000,"state":"active","ping":53},{"user_id":439,"name":"Xeronuclear","steam_id":76561198167712775,"connected_time":355000000000,"state":"active","ping":47},{"user_id":444,"name":"CthUwU","steam_id":76561198036541581,"connected_time":301000000000,"state":"active","ping":131},{"user_id":405,"name":"outlaw","steam_id":76561198323805289,"connected_time":3872000000000,"state":"active","ping":31},{"user_id":431,"name":"Sorky","steam_id":76561198007502339,"connected_time":1136000000000,"state":"active","ping":69},{"user_id":429,"name":"Taez","steam_id":76561198261820803,"connected_time":1218000000000,"state":"active","ping":60},{"user_id":428,"name":"Papa John's Pepperoni Pizza","steam_id":76561198078844080,"connected_time":1420000000000,"state":"active","ping":72},{"user_id":410,"name":"Kahvi","steam_id":76561198723244199,"connected_time":3156000000000,"state":"active","ping":77},{"user_id":448,"name":"テイルス","steam_id":76561198022403271,"connected_time":147000000000,"state":"active","ping":47},{"user_id":421,"name":"ALARM","steam_id":76561198120686521,"connected_time":1859000000000,"state":"active","ping":61},{"user_id":440,"name":"Cunk","steam_id":76561198996618201,"connected_time":352000000000,"state":"active","ping":60},{"user_id":406,"name":"hud_saytext_time 0","steam_id":76561198010327228,"connected_time":3463000000000,"state":"active","ping":69},{"user_id":446,"name":"maakgis","steam_id":76561198851703804,"connected_time":268000000000,"state":"active","ping":130},{"user_id":392,"name":"dash.","steam_id":76561198084796149,"connected_time":4859000000000,"state":"active","ping":45},{"user_id":417,"name":"Spageti","steam_id":76561198074122906,"connected_time":2513000000000,"state":"active","ping":87}]},{"server_id":321,"name":"Uncletopia | London | 4 | All Maps","name_short":"lon-4","host":"lon-1.uk.uncletopia.com","port":27045,"enabled":true,"region":"eu","cc":"gb","latitude":51.509865,"longitude":-0.118092,"reserved":0,"last_update":"0001-01-01T00:00:00Z","name_a2s":"Uncletopia | London | 4 | All Maps","protocol":17,"map":"koth_viaduct","folder":"tf","game":"Team Fortress","app_id":440,"player_count":0,"max_players":24,"Bots":0,"server_type":"Dedicated","server_os":"Linux","password":true,"vac":true,"version":"7757534","steam_id":85568392924510193,"keywords":["cp","nocrits","nodmgspread","uncletopia"],"game_id":440,"stv_port":27046,"stv_name":"Uncletopia | London | 4 | All Maps | STV","players":null},{"server_id":21,"name":"Uncletopia | London | 5 | All Maps","name_short":"lon-5","host":"lon-1.uk.uncletopia.com","port":27055,"enabled":true,"region":"eu","cc":"gb","latitude":51.509865,"longitude":-0.118092,"reserved":0,"last_update":"0001-01-01T00:00:00Z","name_a2s":"Uncletopia | London | 5 | All Maps","protocol":17,"map":"pl_upward","folder":"tf","game":"Team Fortress","app_id":440,"player_count":18,"max_players":24,"Bots":0,"server_type":"Dedicated","server_os":"Linux","password":true,"vac":true,"version":"7757534","steam_id":85568392924742829,"keywords":["nocrits","nodmgspread","payload","uncletopia"],"game_id":440,"stv_port":27056,"stv_name":"Uncletopia | London | 5 | All Maps | STV","players":[{"user_id":8,"name":"Max","steam_id":76561198029412126,"connected_time":2021000000000,"state":"active","ping":65},{"user_id":9,"name":"Saihtama","steam_id":76561198067497192,"connected_time":1980000000000,"state":"active","ping":89},{"user_id":16,"name":"Clomker tf2","steam_id":76561199080609910,"connected_time":1134000000000,"state":"active","ping":109},{"user_id":18,"name":"pebbles","steam_id":76561198884449271,"connected_time":830000000000,"state":"active","ping":63},{"user_id":19,"name":"Artock","steam_id":76561198808599713,"connected_time":534000000000,"state":"active","ping":99},{"user_id":17,"name":"lumiukko","steam_id":76561199103891073,"connected_time":1087000000000,"state":"active","ping":95},{"user_id":20,"name":"jill valentine","steam_id":76561198075068529,"connected_time":483000000000,"state":"active","ping":57},{"user_id":21,"name":"Spajro","steam_id":76561198257383813,"connected_time":426000000000,"state":"active","ping":47},{"user_id":23,"name":"Firevell","steam_id":76561198154813359,"connected_time":270000000000,"state":"active","ping":61},{"user_id":24,"name":"garbage mikuknight","steam_id":76561198361819054,"connected_time":220000000000,"state":"active","ping":101},{"user_id":25,"name":"BIGGEST MAC","steam_id":76561198847517098,"connected_time":189000000000,"state":"active","ping":148},{"user_id":26,"name":"MAXIE","steam_id":76561198888435717,"connected_time":163000000000,"state":"active","ping":114},{"user_id":27,"name":"Sonnakai","steam_id":76561198051688749,"connected_time":141000000000,"state":"active","ping":38},{"user_id":28,"name":"S2/S0","steam_id":76561198131577749,"connected_time":111000000000,"state":"active","ping":92},{"user_id":29,"name":"VES_Typh00n","steam_id":76561198120826847,"connected_time":106000000000,"state":"active","ping":49},{"user_id":30,"name":"rapsterdude","steam_id":76561199388597561,"connected_time":97000000000,"state":"active","ping":52},{"user_id":31,"name":"AGamer75","steam_id":76561199045267748,"connected_time":52000000000,"state":"connecting","ping":0},{"user_id":32,"name":"็skai","steam_id":76561198184881255,"connected_time":4000000000,"state":"spawning","ping":63}]},{"server_id":22,"name":"Uncletopia | London | 6 | All Maps","name_short":"lon-6","host":"lon-1.uk.uncletopia.com","port":27065,"enabled":true,"region":"eu","cc":"gb","latitude":51.509865,"longitude":-0.118092,"reserved":0,"last_update":"0001-01-01T00:00:00Z","name_a2s":"Uncletopia | London | 6 | All Maps","protocol":17,"map":"koth_cascade","folder":"tf","game":"Team Fortress","app_id":440,"player_count":0,"max_players":24,"Bots":0,"server_type":"Dedicated","server_os":"Linux","password":true,"vac":true,"version":"7757534","steam_id":85568392924742830,"keywords":["cp","nocrits","nodmgspread","uncletopia"],"game_id":440,"stv_port":27066,"stv_name":"Uncletopia | London | 6 | All Maps | STV","players":null},{"server_id":40,"name":"Uncletopia | London | 7 | No Payload","name_short":"lon-7","host":"lon-1.uk.uncletopia.com","port":27075,"enabled":true,"region":"eu","cc":"gb","latitude":51.509865,"longitude":-0.118092,"reserved":0,"last_update":"0001-01-01T00:00:00Z","name_a2s":"Uncletopia | London | 7 | No Payload","protocol":17,"map":"koth_lazarus","folder":"tf","game":"Team Fortress","app_id":440,"player_count":7,"max_players":24,"Bots":0,"server_type":"Dedicated","server_os":"Linux","password":true,"vac":true,"version":"7757534","steam_id":85568392924964314,"keywords":["cp","nocrits","nodmgspread","uncletopia"],"game_id":440,"stv_port":27076,"stv_name":"Uncletopia | London | 7 | No Payload | STV","players":[{"user_id":193,"name":"I-I","steam_id":76561198267969436,"connected_time":117000000000,"state":"active","ping":61},{"user_id":186,"name":"Catboy 9S gaming","steam_id":76561197999024118,"connected_time":852000000000,"state":"active","ping":83},{"user_id":184,"name":"\u003eSix in swedish + y","steam_id":76561198372971096,"connected_time":953000000000,"state":"active","ping":64},{"user_id":174,"name":"vi","steam_id":76561198303147966,"connected_time":1576000000000,"state":"active","ping":45},{"user_id":185,"name":"PerskuleBenener","steam_id":76561198156899375,"connected_time":939000000000,"state":"active","ping":88},{"user_id":188,"name":"toe bias","steam_id":76561199084996146,"connected_time":800000000000,"state":"active","ping":65},{"user_id":165,"name":"Laax","steam_id":76561198938409558,"connected_time":2094000000000,"state":"active","ping":98}]},{"server_id":41,"name":"Uncletopia | London | 8 | Community","name_short":"lon-8","host":"lon-1.uk.uncletopia.com","port":27085,"enabled":true,"region":"eu","cc":"gb","latitude":51.509865,"longitude":-0.118092,"reserved":0,"last_update":"0001-01-01T00:00:00Z","name_a2s":"Uncletopia | London | 8 | Community","protocol":17,"map":"workshop/koth_slaughter_rc1.ugc1712845210","folder":"tf","game":"Team Fortress","app_id":440,"player_count":0,"max_players":24,"Bots":0,"server_type":"Dedicated","server_os":"Linux","password":true,"vac":true,"version":"7757534","steam_id":85568392924964315,"keywords":["cp","nocrits","nodmgspread","uncletopia"],"game_id":440,"stv_port":27086,"stv_name":"Uncletopia | London | 8 | Community | STV","players":null},{"server_id":300,"name":"Uncletopia | Montréal | 1 | All Maps","name_short":"mtl-1","host":"mtl-1.ca.uncletopia.com","port":27015,"enabled":true,"region":"us-east","cc":"ca","latitude":45.50889,"longitude":-73.56167,"reserved":0,"last_update":"0001-01-01T00:00:00Z","name_a2s":"Uncletopia | Montréal | 1 | All Maps","protocol":17,"map":"pl_snowycoast","folder":"tf","game":"Team Fortress","app_id":440,"player_count":0,"max_players":24,"Bots":0,"server_type":"Dedicated","server_os":"Linux","password":true,"vac":true,"version":"7757534","steam_id":85568392924500087,"keywords":["nocrits","nodmgspread","payload","uncletopia"],"game_id":440,"stv_port":27016,"stv_name":"Uncletopia | Montréal | 1 | All Maps | STV","players":null},{"server_id":301,"name":"Uncletopia | Montréal | 2 | All Maps","name_short":"mtl-2","host":"mtl-1.ca.uncletopia.com","port":27025,"enabled":true,"region":"us-east","cc":"ca","latitude":45.50889,"longitude":-73.56167,"reserved":0,"last_update":"0001-01-01T00:00:00Z","name_a2s":"Uncletopia | Montréal | 2 | All Maps","protocol":17,"map":"pl_snowycoast","folder":"tf","game":"Team Fortress","app_id":440,"player_count":0,"max_players":24,"Bots":0,"server_type":"Dedicated","server_os":"Linux","password":true,"vac":true,"version":"7757534","steam_id":85568392924500088,"keywords":["nocrits","nodmgspread","payload","uncletopia"],"game_id":440,"stv_port":27026,"stv_name":"Uncletopia | Montréal | 2 | All Maps | STV","players":null},{"server_id":302,"name":"Uncletopia | Montréal | 3 | All Maps","name_short":"mtl-3","host":"mtl-1.ca.uncletopia.com","port":27035,"enabled":true,"region":"us-east","cc":"ca","latitude":45.50889,"longitude":-73.56167,"reserved":0,"last_update":"0001-01-01T00:00:00Z","name_a2s":"Uncletopia | Montréal | 3 | All Maps","protocol":17,"map":"cp_process_final","folder":"tf","game":"Team Fortress","app_id":440,"player_count":0,"max_players":24,"Bots":0,"server_type":"Dedicated","server_os":"Linux","password":true,"vac":true,"version":"7757534","steam_id":85568392924500089,"keywords":["cp","nocrits","nodmgspread","uncletopia"],"game_id":440,"stv_port":27036,"stv_name":"Uncletopia | Montréal | 3 | All Maps | STV","players":null},{"server_id":303,"name":"Uncletopia | Montréal | 4 | No Payload","name_short":"mtl-4","host":"mtl-1.ca.uncletopia.com","port":27045,"enabled":true,"region":"us-east","cc":"ca","latitude":45.50889,"longitude":-73.56167,"reserved":0,"last_update":"0001-01-01T00:00:00Z","name_a2s":"Uncletopia | Montréal | 4 | No Payload","protocol":17,"map":"pl_borneo","folder":"tf","game":"Team Fortress","app_id":440,"player_count":0,"max_players":24,"Bots":0,"server_type":"Dedicated","server_os":"Linux","password":true,"vac":true,"version":"7757534","steam_id":85568392924500090,"keywords":["nocrits","nodmgspread","payload","uncletopia"],"game_id":440,"stv_port":27046,"stv_name":"Uncletopia | Montréal | 4 | No Payload | STV","players":null},{"server_id":13,"name":"Uncletopia | New York City | 1 | All Maps","name_short":"nyc-1","host":"nyc-1.us.uncletopia.com","port":27015,"enabled":true,"region":"us-east","cc":"us","latitude":40.73061,"longitude":-73.93524,"reserved":0,"last_update":"0001-01-01T00:00:00Z","name_a2s":"Uncletopia | New York City | 1 | All Maps","protocol":17,"map":"pl_upward","folder":"tf","game":"Team Fortress","app_id":440,"player_count":25,"max_players":24,"Bots":0,"server_type":"Dedicated","server_os":"Linux","password":true,"vac":true,"version":"7757534","steam_id":85568392924469993,"keywords":["nocrits","nodmgspread","payload","uncletopia"],"game_id":440,"stv_port":27016,"stv_name":"Uncletopia | New York City | 1 | All Maps | STV","players":[{"user_id":87,"name":"majorbobfunction","steam_id":76561198042464632,"connected_time":473000000000,"state":"active","ping":70},{"user_id":90,"name":"Fart™ slam","steam_id":76561198061442334,"connected_time":312000000000,"state":"active","ping":69},{"user_id":66,"name":"Quansen","steam_id":76561198151594550,"connected_time":1364000000000,"state":"active","ping":58},{"user_id":81,"name":"Club Penguin Citizen","steam_id":76561198806110484,"connected_time":704000000000,"state":"active","ping":83},{"user_id":52,"name":"Fribas","steam_id":76561198138502813,"connected_time":2319000000000,"state":"active","ping":69},{"user_id":78,"name":"e","steam_id":76561198131245396,"connected_time":786000000000,"state":"active","ping":63},{"user_id":11,"name":"punaise","steam_id":76561198095105411,"connected_time":4448000000000,"state":"active","ping":55},{"user_id":92,"name":"papa guacamole","steam_id":76561198167665608,"connected_time":57000000000,"state":"active","ping":68},{"user_id":79,"name":"JoBesity","steam_id":76561198036504161,"connected_time":748000000000,"state":"active","ping":113},{"user_id":82,"name":"Mr.Kevin120","steam_id":76561199186919096,"connected_time":689000000000,"state":"active","ping":92},{"user_id":83,"name":"whyevenask","steam_id":76561199376073872,"connected_time":688000000000,"state":"active","ping":62},{"user_id":73,"name":"Krusty Nut","steam_id":76561198120637924,"connected_time":1036000000000,"state":"active","ping":57},{"user_id":88,"name":"MangaTiddies","steam_id":76561198880438872,"connected_time":432000000000,"state":"active","ping":129},{"user_id":86,"name":"Walmart Employee","steam_id":76561198840373909,"connected_time":633000000000,"state":"active","ping":95},{"user_id":71,"name":"Resident Thrussy Lender","steam_id":76561198071790583,"connected_time":1052000000000,"state":"active","ping":53},{"user_id":44,"name":"sansa musa","steam_id":76561198163723555,"connected_time":2721000000000,"state":"active","ping":60},{"user_id":74,"name":"48","steam_id":76561198894676484,"connected_time":1033000000000,"state":"active","ping":114},{"user_id":84,"name":"Mug Maniac","steam_id":76561198120866920,"connected_time":646000000000,"state":"active","ping":68},{"user_id":85,"name":"indi","steam_id":76561198045917538,"connected_time":636000000000,"state":"active","ping":68},{"user_id":65,"name":"sprongo","steam_id":76561198007792525,"connected_time":1455000000000,"state":"active","ping":114},{"user_id":91,"name":"mind controller","steam_id":76561198141198352,"connected_time":190000000000,"state":"active","ping":63},{"user_id":76,"name":"Relatable (Local Pyro Learner)","steam_id":76561198441669772,"connected_time":966000000000,"state":"active","ping":81},{"user_id":89,"name":"Lethal","steam_id":76561198055545714,"connected_time":426000000000,"state":"active","ping":86},{"user_id":42,"name":"Dispenser Gaming","steam_id":76561198855333841,"connected_time":3192000000000,"state":"active","ping":145},{"user_id":93,"name":"Shmebulock","steam_id":76561198046941925,"connected_time":19000000000,"state":"spawning","ping":74}]},{"server_id":14,"name":"Uncletopia | New York City | 2 | All Maps","name_short":"nyc-2","host":"nyc-1.us.uncletopia.com","port":27025,"enabled":true,"region":"us-east","cc":"us","latitude":40.73061,"longitude":-73.93524,"reserved":0,"last_update":"0001-01-01T00:00:00Z","name_a2s":"Uncletopia | New York City | 2 | All Maps","protocol":17,"map":"pl_pier","folder":"tf","game":"Team Fortress","app_id":440,"player_count":0,"max_players":24,"Bots":0,"server_type":"Dedicated","server_os":"Linux","password":true,"vac":true,"version":"7757534","steam_id":85568392924469994,"keywords":["nocrits","nodmgspread","payload","uncletopia"],"game_id":440,"stv_port":27026,"stv_name":"Uncletopia | New York City | 2 | All Maps | STV","players":null},{"server_id":15,"name":"Uncletopia | New York City | 3 | Stopwatch Beta","name_short":"nyc-3","host":"nyc-1.us.uncletopia.com","port":27035,"enabled":true,"region":"us-east","cc":"us","latitude":40.73061,"longitude":-73.93524,"reserved":0,"last_update":"0001-01-01T00:00:00Z","name_a2s":"Uncletopia | New York City | 3 | Stopwatch Beta","protocol":17,"map":"cp_mountainlab","folder":"tf","game":"Team Fortress","app_id":440,"player_count":0,"max_players":24,"Bots":0,"server_type":"Dedicated","server_os":"Linux","password":true,"vac":true,"version":"7757534","steam_id":85568392924742820,"keywords":["cp","nocrits","nodmgspread","uncletopia"],"game_id":440,"stv_port":27036,"stv_name":"Uncletopia | New York City | 3 | Stopwatch Beta | STV","players":null},{"server_id":16,"name":"Uncletopia | New York City | 4 | Community","name_short":"nyc-4","host":"nyc-1.us.uncletopia.com","port":27045,"enabled":true,"region":"us-east","cc":"us","latitude":40.73061,"longitude":-73.93524,"reserved":0,"last_update":"0001-01-01T00:00:00Z","name_a2s":"Uncletopia | New York City | 4 | Community","protocol":17,"map":"pl_borneo","folder":"tf","game":"Team Fortress","app_id":440,"player_count":0,"max_players":24,"Bots":0,"server_type":"Dedicated","server_os":"Linux","password":true,"vac":true,"version":"7757534","steam_id":85568392924742821,"keywords":["nocrits","nodmgspread","payload","uncletopia"],"game_id":440,"stv_port":27046,"stv_name":"Uncletopia | New York City | 4 | Community | STV","players":null},{"server_id":142,"name":"Uncletopia | São Paulo | 1 | All Maps","name_short":"sao-1","host":"sao-1.br.uncletopia.com","port":27015,"enabled":true,"region":"sa","cc":"br","latitude":-23.533773,"longitude":-46.62529,"reserved":0,"last_update":"0001-01-01T00:00:00Z","name_a2s":"Uncletopia | São Paulo | 1 | All Maps","protocol":17,"map":"pl_badwater","folder":"tf","game":"Team Fortress","app_id":440,"player_count":0,"max_players":24,"Bots":0,"server_type":"Dedicated","server_os":"Linux","password":true,"vac":true,"version":"7757534","steam_id":85568392924469996,"keywords":["nocrits","nodmgspread","payload","uncletopia"],"game_id":440,"stv_port":27016,"stv_name":"Uncletopia | São Paulo | 1 | All Maps | STV","players":null},{"server_id":143,"name":"Uncletopia | São Paulo | 2 | All Maps","name_short":"sao-2","host":"sao-2.br.uncletopia.com","port":27015,"enabled":true,"region":"sa","cc":"br","latitude":-23.533773,"longitude":-46.62529,"reserved":0,"last_update":"0001-01-01T00:00:00Z","name_a2s":"Uncletopia | São Paulo | 2 | All Maps","protocol":17,"map":"pl_borneo","folder":"tf","game":"Team Fortress","app_id":440,"player_count":0,"max_players":24,"Bots":0,"server_type":"Dedicated","server_os":"Linux","password":true,"vac":true,"version":"7757534","steam_id":85568392924485349,"keywords":["nocrits","nodmgspread","payload","uncletopia"],"game_id":440,"stv_port":27016,"stv_name":"Uncletopia | São Paulo | 2 | All Maps | STV","players":null},{"server_id":7,"name":"Uncletopia | Seattle | 1 | All Maps","name_short":"sea-1","host":"sea-1.us.uncletopia.com","port":27015,"enabled":true,"region":"us-west","cc":"us","latitude":47.608013,"longitude":-122.33517,"reserved":0,"last_update":"0001-01-01T00:00:00Z","name_a2s":"Uncletopia | Seattle | 1 | All Maps","protocol":17,"map":"pl_swiftwater_final1","folder":"tf","game":"Team Fortress","app_id":440,"player_count":24,"max_players":24,"Bots":0,"server_type":"Dedicated","server_os":"Linux","password":true,"vac":true,"version":"7757534","steam_id":85568392924469997,"keywords":["nocrits","nodmgspread","payload","uncletopia"],"game_id":440,"stv_port":27016,"stv_name":"Uncletopia | Seattle | 1 | All Maps | STV","players":[{"user_id":126,"name":"swag","steam_id":76561198094615739,"connected_time":1329000000000,"state":"active","ping":83},{"user_id":84,"name":"Pixelz","steam_id":76561198192867202,"connected_time":4045000000000,"state":"active","ping":108},{"user_id":5,"name":"captainspatklz","steam_id":76561198432167270,"connected_time":8197000000000,"state":"active","ping":122},{"user_id":146,"name":"Phil Collins","steam_id":76561198068868644,"connected_time":156000000000,"state":"active","ping":76},{"user_id":141,"name":"Zetta","steam_id":76561198045710113,"connected_time":295000000000,"state":"active","ping":104},{"user_id":103,"name":"gcc8","steam_id":76561198138769251,"connected_time":2748000000000,"state":"active","ping":98},{"user_id":145,"name":"chikin.sauce","steam_id":76561198042464635,"connected_time":185000000000,"state":"active","ping":110},{"user_id":128,"name":"Market.","steam_id":76561198196219378,"connected_time":1179000000000,"state":"active","ping":60},{"user_id":138,"name":"The Caretaker","steam_id":76561198125241411,"connected_time":475000000000,"state":"active","ping":114},{"user_id":148,"name":"red gatorade","steam_id":76561198413125750,"connected_time":57000000000,"state":"spawning","ping":117},{"user_id":68,"name":"gaming is for girls","steam_id":76561198240344950,"connected_time":5327000000000,"state":"active","ping":90},{"user_id":132,"name":"god approaches","steam_id":76561198081617990,"connected_time":736000000000,"state":"active","ping":108},{"user_id":17,"name":"No Sound","steam_id":76561198011675372,"connected_time":8096000000000,"state":"active","ping":58},{"user_id":109,"name":"Sloppy John (Extra Sauce)","steam_id":76561198359703432,"connected_time":2457000000000,"state":"active","ping":75},{"user_id":130,"name":"Kiwimpediment","steam_id":76561198322781400,"connected_time":1100000000000,"state":"active","ping":114},{"user_id":92,"name":"Dry Gin","steam_id":76561198196503877,"connected_time":3066000000000,"state":"active","ping":45},{"user_id":118,"name":"superx","steam_id":76561198044976613,"connected_time":2059000000000,"state":"active","ping":129},{"user_id":112,"name":"DAYTONA","steam_id":76561198061975847,"connected_time":2199000000000,"state":"active","ping":85},{"user_id":137,"name":"TV","steam_id":76561198177326926,"connected_time":612000000000,"state":"active","ping":141},{"user_id":119,"name":"Kyzer","steam_id":76561198048034600,"connected_time":1993000000000,"state":"active","ping":120},{"user_id":121,"name":"Mak","steam_id":76561198089197922,"connected_time":1828000000000,"state":"active","ping":60},{"user_id":131,"name":"zeer1d","steam_id":76561199052481723,"connected_time":802000000000,"state":"active","ping":116},{"user_id":144,"name":"Naeole1","steam_id":76561198240378926,"connected_time":239000000000,"state":"active","ping":120},{"user_id":93,"name":"Petey","steam_id":76561198007339151,"connected_time":3066000000000,"state":"active","ping":91}]},{"server_id":119,"name":"Uncletopia | Seattle | 2 | All Maps","name_short":"sea-2","host":"sea-1.us.uncletopia.com","port":27025,"enabled":true,"region":"us-west","cc":"us","latitude":47.608013,"longitude":-122.33517,"reserved":0,"last_update":"0001-01-01T00:00:00Z","name_a2s":"Uncletopia | Seattle | 2 | All Maps","protocol":17,"map":"koth_cascade","folder":"tf","game":"Team Fortress","app_id":440,"player_count":0,"max_players":24,"Bots":0,"server_type":"Dedicated","server_os":"Linux","password":true,"vac":true,"version":"7757534","steam_id":85568392924469998,"keywords":["cp","nocrits","nodmgspread","uncletopia"],"game_id":440,"stv_port":27026,"stv_name":"Uncletopia | Seattle | 2 | All Maps | STV","players":null},{"server_id":406,"name":"Uncletopia | Seattle | 3 | Stopwatch Beta","name_short":"sea-3","host":"sea-1.us.uncletopia.com","port":27035,"enabled":true,"region":"us-west","cc":"us","latitude":47.608013,"longitude":-122.33517,"reserved":0,"last_update":"0001-01-01T00:00:00Z","name_a2s":"Uncletopia | Seattle | 3 | Stopwatch Beta","protocol":17,"map":"pl_barnblitz","folder":"tf","game":"Team Fortress","app_id":440,"player_count":0,"max_players":24,"Bots":0,"server_type":"Dedicated","server_os":"Linux","password":true,"vac":true,"version":"7757534","steam_id":85568392924515217,"keywords":["nocrits","nodmgspread","payload","uncletopia"],"game_id":440,"stv_port":27036,"stv_name":"Uncletopia | Seattle | 3 | Stopwatch Beta | STV","players":null},{"server_id":17,"name":"Uncletopia | San Francisco | 1 | All Maps","name_short":"sfo-1","host":"sfo-1.us.uncletopia.com","port":27015,"enabled":true,"region":"us-west","cc":"us","latitude":37.77397,"longitude":-122.4313,"reserved":0,"last_update":"0001-01-01T00:00:00Z","name_a2s":"Uncletopia | San Francisco | 1 | All Maps","protocol":17,"map":"cp_process_final","folder":"tf","game":"Team Fortress","app_id":440,"player_count":0,"max_players":24,"Bots":0,"server_type":"Dedicated","server_os":"Linux","password":true,"vac":true,"version":"7757534","steam_id":85568392924469999,"keywords":["cp","nocrits","nodmgspread","uncletopia"],"game_id":440,"stv_port":27016,"stv_name":"Uncletopia | San Francisco | 1 | All Maps | STV","players":null},{"server_id":18,"name":"Uncletopia | San Francisco | 2 | All Maps","name_short":"sfo-2","host":"sfo-1.us.uncletopia.com","port":27025,"enabled":true,"region":"us-west","cc":"us","latitude":37.77397,"longitude":-122.4313,"reserved":0,"last_update":"0001-01-01T00:00:00Z","name_a2s":"Uncletopia | San Francisco | 2 | All Maps","protocol":17,"map":"cp_sunshine","folder":"tf","game":"Team Fortress","app_id":440,"player_count":0,"max_players":24,"Bots":0,"server_type":"Dedicated","server_os":"Linux","password":true,"vac":true,"version":"7757534","steam_id":85568392924470000,"keywords":["cp","nocrits","nodmgspread","uncletopia"],"game_id":440,"stv_port":27026,"stv_name":"Uncletopia | San Francisco | 2 | All Maps | STV","players":null},{"server_id":19,"name":"Uncletopia | San Francisco | 3 | Stopwatch Beta","name_short":"sfo-3","host":"sfo-1.us.uncletopia.com","port":27035,"enabled":true,"region":"us-west","cc":"us","latitude":37.77397,"longitude":-122.4313,"reserved":0,"last_update":"0001-01-01T00:00:00Z","name_a2s":"Uncletopia | San Francisco | 3 | Stopwatch Beta","protocol":17,"map":"pl_borneo","folder":"tf","game":"Team Fortress","app_id":440,"player_count":0,"max_players":24,"Bots":0,"server_type":"Dedicated","server_os":"Linux","password":true,"vac":true,"version":"7757534","steam_id":85568392924742824,"keywords":["nocrits","nodmgspread","payload","uncletopia"],"game_id":440,"stv_port":27036,"stv_name":"Uncletopia | San Francisco | 3 | Stopwatch Beta | STV","players":null},{"server_id":20,"name":"Uncletopia | San Francisco | 4 | Community","name_short":"sfo-4","host":"sfo-1.us.uncletopia.com","port":27045,"enabled":true,"region":"us-west","cc":"us","latitude":37.77397,"longitude":-122.4313,"reserved":0,"last_update":"0001-01-01T00:00:00Z","name_a2s":"Uncletopia | San Francisco | 4 | Community","protocol":17,"map":"koth_highpass","folder":"tf","game":"Team Fortress","app_id":440,"player_count":0,"max_players":24,"Bots":0,"server_type":"Dedicated","server_os":"Linux","password":true,"vac":true,"version":"7757534","steam_id":85568392924742826,"keywords":["cp","nocrits","nodmgspread","uncletopia"],"game_id":440,"stv_port":27046,"stv_name":"Uncletopia | San Francisco | 4 | Community | STV","players":null},{"server_id":141,"name":"Uncletopia | Sydney | 1 | All Maps","name_short":"syd-1","host":"syd-1.au.uncletopia.com","port":27015,"enabled":true,"region":"au","cc":"au","latitude":-33.865143,"longitude":151.2099,"reserved":0,"last_update":"0001-01-01T00:00:00Z","name_a2s":"Uncletopia | Sydney | 1 | All Maps","protocol":17,"map":"koth_viaduct","folder":"tf","game":"Team Fortress","app_id":440,"player_count":0,"max_players":24,"Bots":0,"server_type":"Dedicated","server_os":"Linux","password":true,"vac":true,"version":"7757534","steam_id":85568392924470001,"keywords":["cp","nocrits","nodmgspread","uncletopia"],"game_id":440,"stv_port":27016,"stv_name":"Uncletopia | Sydney | 1 | All Maps | STV","players":null},{"server_id":123,"name":"Uncletopia | Sydney | 2 | All Maps","name_short":"syd-2","host":"syd-1.au.uncletopia.com","port":27025,"enabled":true,"region":"au","cc":"au","latitude":-33.865143,"longitude":151.2099,"reserved":0,"last_update":"0001-01-01T00:00:00Z","name_a2s":"Uncletopia | Sydney | 2 | All Maps","protocol":17,"map":"koth_highpass","folder":"tf","game":"Team Fortress","app_id":440,"player_count":0,"max_players":24,"Bots":0,"server_type":"Dedicated","server_os":"Linux","password":true,"vac":true,"version":"7757534","steam_id":85568392924470002,"keywords":["cp","nocrits","nodmgspread","uncletopia"],"game_id":440,"stv_port":27026,"stv_name":"Uncletopia | Sydney | 2 | All Maps | STV","players":null},{"server_id":395,"name":"Uncletopia | Sydney | 3 | All Maps","name_short":"syd-3","host":"syd-1.au.uncletopia.com","port":27035,"enabled":true,"region":"au","cc":"au","latitude":-33.865143,"longitude":151.2099,"reserved":0,"last_update":"0001-01-01T00:00:00Z","name_a2s":"Uncletopia | Sydney | 3 | All Maps","protocol":17,"map":"koth_viaduct","folder":"tf","game":"Team Fortress","app_id":440,"player_count":0,"max_players":24,"Bots":0,"server_type":"Dedicated","server_os":"Linux","password":true,"vac":true,"version":"7757534","steam_id":85568392925194467,"keywords":["cp","nocrits","nodmgspread","uncletopia"],"game_id":440,"stv_port":27036,"stv_name":"Uncletopia | Sydney | 3 | All Maps | STV","players":null},{"server_id":396,"name":"Uncletopia | Sydney | 4 | All Maps","name_short":"syd-4","host":"syd-1.au.uncletopia.com","port":27045,"enabled":true,"region":"au","cc":"au","latitude":-33.865143,"longitude":151.2099,"reserved":0,"last_update":"0001-01-01T00:00:00Z","name_a2s":"Uncletopia | Sydney | 4 | All Maps","protocol":17,"map":"koth_lakeside_final","folder":"tf","game":"Team Fortress","app_id":440,"player_count":0,"max_players":24,"Bots":0,"server_type":"Dedicated","server_os":"Linux","password":true,"vac":true,"version":"7757534","steam_id":85568392925397958,"keywords":["cp","nocrits","nodmgspread","uncletopia"],"game_id":440,"stv_port":27046,"stv_name":"Uncletopia | Sydney | 4 | All Maps | STV","players":null},{"server_id":58,"name":"Uncletopia | Sydney | 5 | Stopwatch Beta","name_short":"syd-5","host":"syd-1.au.uncletopia.com","port":27055,"enabled":true,"region":"au","cc":"au","latitude":-33.865143,"longitude":151.2099,"reserved":0,"last_update":"0001-01-01T00:00:00Z","name_a2s":"Uncletopia | Sydney | 5 | Stopwatch Beta","protocol":17,"map":"workshop/koth_clearcut_b15.ugc2107050255","folder":"tf","game":"Team Fortress","app_id":440,"player_count":0,"max_players":24,"Bots":0,"server_type":"Dedicated","server_os":"Linux","password":true,"vac":true,"version":"7757534","steam_id":85568392925397959,"keywords":["cp","nocrits","nodmgspread","uncletopia"],"game_id":440,"stv_port":27056,"stv_name":"Uncletopia | Sydney | 5 | Stopwatch Beta | STV","players":null},{"server_id":59,"name":"Uncletopia | Sydney | 6 | Community","name_short":"syd-6","host":"syd-1.au.uncletopia.com","port":27065,"enabled":true,"region":"au","cc":"au","latitude":-33.865143,"longitude":151.2099,"reserved":0,"last_update":"0001-01-01T00:00:00Z","name_a2s":"Uncletopia | Sydney | 6 | Community","protocol":17,"map":"workshop/cp_caldera_rc2.ugc2834196889","folder":"tf","game":"Team Fortress","app_id":440,"player_count":0,"max_players":24,"Bots":0,"server_type":"Dedicated","server_os":"Linux","password":true,"vac":true,"version":"7757534","steam_id":85568392925397960,"keywords":["cp","nocrits","nodmgspread","uncletopia"],"game_id":440,"stv_port":27066,"stv_name":"Uncletopia | Sydney | 6 | Community | STV","players":null},{"server_id":49,"name":"Uncletopia | Warsaw | 1 | All Maps","name_short":"waw-1","host":"waw-1.pl.uncletopia.com","port":27015,"enabled":true,"region":"eu","cc":"pl","latitude":52.2297,"longitude":21.017532,"reserved":0,"last_update":"0001-01-01T00:00:00Z","name_a2s":"","protocol":0,"map":"","folder":"","game":"","app_id":0,"player_count":0,"max_players":0,"Bots":0,"server_type":"","server_os":"","password":false,"vac":false,"version":"","steam_id":0,"keywords":null,"game_id":0,"stv_port":0,"stv_name":"","players":null},{"server_id":50,"name":"Uncletopia | Warsaw | 2 | All Maps","name_short":"waw-2","host":"waw-1.pl.uncletopia.com","port":27025,"enabled":true,"region":"eu","cc":"pl","latitude":52.2297,"longitude":21.017532,"reserved":0,"last_update":"0001-01-01T00:00:00Z","name_a2s":"Uncletopia | Warsaw | 2 | All Maps","protocol":17,"map":"cp_dustbowl","folder":"tf","game":"Team Fortress","app_id":440,"player_count":8,"max_players":24,"Bots":0,"server_type":"Dedicated","server_os":"Linux","password":true,"vac":true,"version":"7757534","steam_id":85568392925397851,"keywords":["cp","nocrits","nodmgspread","uncletopia"],"game_id":440,"stv_port":27026,"stv_name":"Uncletopia | Warsaw | 2 | All Maps | STV","players":[{"user_id":176,"name":"rottenland","steam_id":76561198235776548,"connected_time":424000000000,"state":"active","ping":119},{"user_id":175,"name":"El Presidente #savetf2","steam_id":76561198302711029,"connected_time":743000000000,"state":"active","ping":57},{"user_id":177,"name":"AGamer75","steam_id":76561199045267748,"connected_time":33000000000,"state":"spawning","ping":149},{"user_id":169,"name":"Laxslow","steam_id":76561198065361846,"connected_time":1340000000000,"state":"active","ping":75},{"user_id":98,"name":"Why?","steam_id":76561198970833545,"connected_time":6158000000000,"state":"active","ping":68},{"user_id":135,"name":"Pain in a Box","steam_id":76561197990777173,"connected_time":3607000000000,"state":"active","ping":40},{"user_id":102,"name":"chicken","steam_id":76561199090424127,"connected_time":6052000000000,"state":"active","ping":164},{"user_id":145,"name":"Z.","steam_id":76561198367362266,"connected_time":3103000000000,"state":"active","ping":108}]},{"server_id":51,"name":"Uncletopia | Warsaw | 3 | All Maps","name_short":"waw-3","host":"waw-1.pl.uncletopia.com","port":27035,"enabled":true,"region":"eu","cc":"pl","latitude":52.2297,"longitude":21.017532,"reserved":0,"last_update":"0001-01-01T00:00:00Z","name_a2s":"Uncletopia | Warsaw | 3 | All Maps","protocol":17,"map":"pl_barnblitz","folder":"tf","game":"Team Fortress","app_id":440,"player_count":0,"max_players":24,"Bots":0,"server_type":"Dedicated","server_os":"Linux","password":true,"vac":true,"version":"7757534","steam_id":85568392925397852,"keywords":["nocrits","nodmgspread","payload","uncletopia"],"game_id":440,"stv_port":27036,"stv_name":"Uncletopia | Warsaw | 3 | All Maps | STV","players":null},{"server_id":52,"name":"Uncletopia | Warsaw | 4 | All Maps","name_short":"waw-4","host":"waw-1.pl.uncletopia.com","port":27045,"enabled":true,"region":"eu","cc":"pl","latitude":52.2297,"longitude":21.017532,"reserved":0,"last_update":"0001-01-01T00:00:00Z","name_a2s":"Uncletopia | Warsaw | 4 | All Maps","protocol":17,"map":"pl_snowycoast","folder":"tf","game":"Team Fortress","app_id":440,"player_count":0,"max_players":24,"Bots":0,"server_type":"Dedicated","server_os":"Linux","password":true,"vac":true,"version":"7757534","steam_id":85568392925397853,"keywords":["nocrits","nodmgspread","payload","uncletopia"],"game_id":440,"stv_port":27046,"stv_name":"Uncletopia | Warsaw | 4 | All Maps | STV","players":null},{"server_id":53,"name":"Uncletopia | Warsaw | 5 | Stopwatch Beta","name_short":"waw-5","host":"waw-1.pl.uncletopia.com","port":27055,"enabled":true,"region":"eu","cc":"pl","latitude":52.2297,"longitude":21.017532,"reserved":0,"last_update":"0001-01-01T00:00:00Z","name_a2s":"Uncletopia | Warsaw | 5 | Stopwatch Beta","protocol":17,"map":"pl_barnblitz","folder":"tf","game":"Team Fortress","app_id":440,"player_count":0,"max_players":24,"Bots":0,"server_type":"Dedicated","server_os":"Linux","password":true,"vac":true,"version":"7757534","steam_id":85568392925397854,"keywords":["nocrits","nodmgspread","payload","uncletopia"],"game_id":440,"stv_port":27056,"stv_name":"Uncletopia | Warsaw | 5 | Stopwatch Beta | STV","players":null},{"server_id":54,"name":"Uncletopia | Warsaw | 6 | Community","name_short":"waw-6","host":"waw-1.pl.uncletopia.com","port":27065,"enabled":true,"region":"eu","cc":"pl","latitude":52.2297,"longitude":21.017532,"reserved":0,"last_update":"0001-01-01T00:00:00Z","name_a2s":"Uncletopia | Warsaw | 6 | Community","protocol":17,"map":"workshop/cp_bruhstbowl_b5.ugc2878604990","folder":"tf","game":"Team Fortress","app_id":440,"player_count":0,"max_players":24,"Bots":0,"server_type":"Dedicated","server_os":"Linux","password":true,"vac":true,"version":"7757534","steam_id":85568392925397856,"keywords":["cp","nocrits","nodmgspread","uncletopia"],"game_id":440,"stv_port":27066,"stv_name":"Uncletopia | Warsaw | 6 | Community | STV","players":null}]}