{"status":true,"message":"","result":[{"server_id":2,"name":"Uncletopia | Chicago | 1 | All Maps","name_short":"chi-1","host":"chi-1.us.uncletopia.com","port":27015,"enabled":true,"region":"us-central","cc":"us","latitude":41.881832,"longitude":-87.62318,"reserved":0,"last_update":"0001-01-01T00:00:00Z","name_a2s":"Uncletopia | Chicago | 1 | All Maps","protocol":17,"map":"pl_barnblitz","folder":"tf","game":"Team Fortress","app_id":440,"player_count":24,"max_players":24,"Bots":0,"server_type":"Dedicated","server_os":"Linux","password":true,"vac":true,"version":"7961495","steam_id":85568392924469984,"keywords":["nocrits","nodmgspread","payload","uncletopia"],"game_id":440,"stv_port":27016,"stv_name":"Uncletopia | Chicago | 1 | All Maps | STV","players":[{"user_id":515,"name":"El Bozo","steam_id":76561198010370396,"connected_time":3169000000000,"state":"active","ping":46},{"user_id":488,"name":"Joker","steam_id":76561198341537452,"connected_time":5660000000000,"state":"active","ping":71},{"user_id":556,"name":"foed,","steam_id":76561198880569269,"connected_time":241000000000,"state":"active","ping":46},{"user_id":557,"name":"Cdesmondd","steam_id":76561198072774462,"connected_time":238000000000,"state":"active","ping":60},{"user_id":553,"name":"Hector Salamanca","steam_id":76561199103213955,"connected_time":858000000000,"state":"active","ping":118},{"user_id":561,"name":"Laz","steam_id":76561197990879167,"connected_time":149000000000,"state":"active","ping":51},{"user_id":551,"name":"DSM-IVCE","steam_id":76561199438515797,"connected_time":1059000000000,"state":"active","ping":109},{"user_id":554,"name":"Living_Kamikaze","steam_id":76561198147522181,"connected_time":626000000000,"state":"active","ping":83},{"user_id":529,"name":"{ST} Oxythemoron","steam_id":76561198060089965,"connected_time":2170000000000,"state":"active","ping":79},{"user_id":559,"name":"DoomsdaySnail","steam_id":76561198131444200,"connected_time":198000000000,"state":"active","ping":73},{"user_id":543,"name":"JESSY","steam_id":76561198203360432,"connected_time":1665000000000,"state":"active","ping":75},{"user_id":536,"name":"Waltre Wite","steam_id":76561199092728848,"connected_time":1837000000000,"state":"active","ping":118},{"user_id":521,"name":"jerma but crying and lesbian","steam_id":76561198110661425,"connected_time":3044000000000,"state":"active","ping":53},{"user_id":540,"name":"floofy","steam_id":76561198389769098,"connected_time":1736000000000,"state":"active","ping":81},{"user_id":549,"name":"Not Slavoj Žižek","steam_id":76561198004619616,"connected_time":1114000000000,"state":"active","ping":108},{"user_id":558,"name":"Provocator","steam_id":76561197961830410,"connected_time":202000000000,"state":"active","ping":73},{"user_id":552,"name":"Ludcmorais","steam_id":76561198359217809,"connected_time":892000000000,"state":"active","ping":180},{"user_id":562,"name":"trash beast","steam_id":76561198015792736,"connected_time":100000000000,"state":"active","ping":76},{"user_id":538,"name":"Always Here for You","steam_id":76561198219252313,"connected_time":1788000000000,"state":"active","ping":57},{"user_id":527,"name":"DJ Spit","steam_id":76561198186637025,"connected_time":2326000000000,"state":"active","ping":93},{"user_id":548,"name":"loser","steam_id":76561198259380127,"connected_time":1274000000000,"state":"active","ping":60},{"user_id":560,"name":"Teddy","steam_id":76561198048106221,"connected_time":195000000000,"state":"active","ping":104},{"user_id":496,"name":"Cosmic sR","steam_id":76561198081738675,"connected_time":5543000000000,"state":"active","ping":83},{"user_id":563,"name":"ARegularJohnDoe","steam_id":76561198015020139,"connected_time":77000000000,"state":"active","ping":61}]},{"server_id":106,"name":"Uncletopia | Chicago | 2 | All Maps","name_short":"chi-2","host":"chi-1.us.uncletopia.com","port":27025,"enabled":true,"region":"us-central","cc":"us","latitude":41.881832,"longitude":-87.62318,"reserved":0,"last_update":"0001-01-01T00:00:00Z","name_a2s":"Uncletopia | Chicago | 2 | All Maps","protocol":17,"map":"koth_highpass","folder":"tf","game":"Team Fortress","app_id":440,"player_count":0,"max_players":24,"Bots":0,"server_type":"Dedicated","server_os":"Linux","password":true,"vac":true,"version":"7961495","steam_id":85568392924469985,"keywords":["cp","nocrits","nodmgspread","uncletopia"],"game_id":440,"stv_port":27026,"stv_name":"Uncletopia | Chicago | 2 | All Maps | STV","players":null},{"server_id":402,"name":"Uncletopia | Chicago | 3 | All Maps","name_short":"chi-3","host":"chi-1.us.uncletopia.com","port":27035,"enabled":true,"region":"us-central","cc":"us","latitude":41.881832,"longitude":-87.62318,"reserved":0,"last_update":"0001-01-01T00:00:00Z","name_a2s":"Uncletopia | Chicago | 3 | All Maps","protocol":17,"map":"koth_cascade","folder":"tf","game":"Team Fortress","app_id":440,"player_count":0,"max_players":24,"Bots":0,"server_type":"Dedicated","server_os":"Linux","password":true,"vac":true,"version":"7961495","steam_id":85568392924515191,"keywords":["cp","nocrits","nodmgspread","uncletopia"],"game_id":440,"stv_port":27036,"stv_name":"Uncletopia | Chicago | 3 | All Maps | STV","players":null},{"server_id":403,"name":"Uncletopia | Chicago | 4 | All Maps","name_short":"chi-4","host":"chi-1.us.uncletopia.com","port":27045,"enabled":true,"region":"us-central","cc":"us","latitude":41.881832,"longitude":-87.62318,"reserved":0,"last_update":"0001-01-01T00:00:00Z","name_a2s":"Uncletopia | Chicago | 4 | All Maps","protocol":17,"map":"koth_lakeside_final","folder":"tf","game":"Team Fortress","app_id":440,"player_count":22,"max_players":24,"Bots":0,"server_type":"Dedicated","server_os":"Linux","password":true,"vac":true,"version":"7961495","steam_id":85568392924515193,"keywords":["cp","nocrits","nodmgspread","uncletopia"],"game_id":440,"stv_port":27046,"stv_name":"Uncletopia | Chicago | 4 | All Maps | STV","players":[{"user_id":426,"name":"Tavern Dweller","steam_id":76561198033349519,"connected_time":17000000000,"state":"active","ping":70},{"user_id":415,"name":"Jump Rope","steam_id":76561198113364714,"connected_time":1911000000000,"state":"active","ping":49},{"user_id":398,"name":"ElBentz","steam_id":76561199059582221,"connected_time":3008000000000,"state":"active","ping":101},{"user_id":417,"name":"gromit","steam_id":76561198037746805,"connected_time":1683000000000,"state":"active","ping":61},{"user_id":418,"name":"shaderoses","steam_id":76561198070800500,"connected_time":1450000000000,"state":"active","ping":61},{"user_id":416,"name":"goose","steam_id":76561198367551668,"connected_time":1904000000000,"state":"active","ping":57},{"user_id":423,"name":"Gimplor","steam_id":76561198336945932,"connected_time":413000000000,"state":"active","ping":64},{"user_id":383,"name":"同性戀猴子","steam_id":76561198117588398,"connected_time":3887000000000,"state":"active","ping":103},{"user_id":420,"name":"greggy gregsman","steam_id":76561198943598378,"connected_time":1248000000000,"state":"active","ping":49},{"user_id":421,"name":"LumaDooma","steam_id":76561198076875817,"connected_time":1012000000000,"state":"active","ping":63},{"user_id":346,"name":"Smath","steam_id":76561198059050312,"connected_time":7770000000000,"state":"active","ping":55},{"user_id":385,"name":"hayley ♥","steam_id":76561198093125555,"connected_time":3870000000000,"state":"active","ping":136},{"user_id":356,"name":"daemon","steam_id":76561198001541433,"connected_time":6238000000000,"state":"active","ping":49},{"user_id":409,"name":"Jezzus","steam_id":76561199289676387,"connected_time":2539000000000,"state":"active","ping":81},{"user_id":422,"name":"Danmar33","steam_id":76561198056453091,"connected_time":951000000000,"state":"active","ping":57},{"user_id":424,"name":"Stem*Cell","steam_id":76561198295207446,"connected_time":394000000000,"state":"active","ping":56},{"user_id":389,"name":"Stranger in a Strange Land","steam_id":76561198049843671,"connected_time":3676000000000,"state":"active","ping":61},{"user_id":390,"name":"NexFrost","steam_id":76561197985774837,"connected_time":3644000000000,"state":"active","ping":62},{"user_id":425,"name":"Heartless Ol' Me","steam_id":76561198801153303,"connected_time":229000000000,"state":"active","ping":66},{"user_id":333,"name":"suzuya","steam_id":76561199207991492,"connected_time":8706000000000,"state":"active","ping":62},{"user_id":394,"name":"Fatpoob","steam_id":76561198056730096,"connected_time":3523000000000,"state":"active","ping":55},{"user_id":411,"name":"IMM0RTAL","steam_id":76561198013747901,"connected_time":1948000000000,"state":"active","ping":76}]},{"server_id":36,"name":"Uncletopia | Chicago | 5 | All Maps","name_short":"chi-5","host":"chi-2.us.uncletopia.com","port":27015,"enabled":true,"region":"us-central","cc":"us","latitude":41.881832,"longitude":-87.62318,"reserved":0,"last_update":"0001-01-01T00:00:00Z","name_a2s":"Uncletopia | Chicago | 5 | All Maps","protocol":17,"map":"pl_snowycoast","folder":"tf","game":"Team Fortress","app_id":440,"player_count":0,"max_players":24,"Bots":0,"server_type":"Dedicated","server_os":"Linux","password":true,"vac":true,"version":"7961495","steam_id":85568392924866362,"keywords":["nocrits","nodmgspread","payload","uncletopia"],"game_id":440,"stv_port":27016,"stv_name":"Uncletopia | Chicago | 5 | All Maps | STV","players":null},{"server_id":37,"name":"Uncletopia | Chicago | 6 | All Maps","name_short":"chi-6","host":"chi-2.us.uncletopia.com","port":27025,"enabled":true,"region":"us-central","cc":"us","latitude":41.881832,"longitude":-87.62318,"reserved":0,"last_update":"0001-01-01T00:00:00Z","name_a2s":"Uncletopia | Chicago | 6 | All Maps","protocol":17,"map":"pl_pier","folder":"tf","game":"Team Fortress","app_id":440,"player_count":24,"max_players":24,"Bots":0,"server_type":"Dedicated","server_os":"Linux","password":true,"vac":true,"version":"7961495","steam_id":85568392924866363,"keywords":["nocrits","nodmgspread","payload","uncletopia"],"game_id":440,"stv_port":27026,"stv_name":"Uncletopia | Chicago | 6 | All Maps | STV","players":[{"user_id":299,"name":"Zack","steam_id":76561198308083836,"connected_time":1420000000000,"state":"active","ping":70},{"user_id":280,"name":"Boo! Boo I Say!","steam_id":76561198272427405,"connected_time":2253000000000,"state":"active","ping":75},{"user_id":295,"name":"Shpee","steam_id":76561198255776144,"connected_time":1529000000000,"state":"active","ping":137},{"user_id":278,"name":"Nrub","steam_id":76561199486344810,"connected_time":2760000000000,"state":"active","ping":68},{"user_id":312,"name":"larguu","steam_id":76561197994336210,"connected_time":567000000000,"state":"active","ping":51},{"user_id":313,"name":"FireQuiz","steam_id":76561198107357249,"connected_time":482000000000,"state":"active","ping":114},{"user_id":259,"name":"lazyhead","steam_id":76561198044358804,"connected_time":4514000000000,"state":"active","ping":57},{"user_id":310,"name":"vulcan nightclub pon farr night","steam_id":76561197974283797,"connected_time":739000000000,"state":"active","ping":43},{"user_id":303,"name":"Piss Man","steam_id":76561198802482356,"connected_time":1141000000000,"state":"active","ping":91},{"user_id":260,"name":"Pohnut","steam_id":76561198087831690,"connected_time":4164000000000,"state":"active","ping":142},{"user_id":307,"name":"CatThulhu","steam_id":76561198211620004,"connected_time":853000000000,"state":"active","ping":116},{"user_id":306,"name":"TZ","steam_id":76561198048625241,"connected_time":886000000000,"state":"active","ping":68},{"user_id":309,"name":"tsbro40","steam_id":76561199455605580,"connected_time":754000000000,"state":"active","ping":86},{"user_id":305,"name":"CaptainCreampie","steam_id":76561197992842045,"connected_time":1045000000000,"state":"active","ping":133},{"user_id":311,"name":"minecraft","steam_id":76561198104345201,"connected_time":735000000000,"state":"active","ping":68},{"user_id":262,"name":"h20verdrive","steam_id":76561198115957085,"connected_time":4012000000000,"state":"active","ping":103},{"user_id":314,"name":"Thot Patrol","steam_id":76561198138713736,"connected_time":423000000000,"state":"active","ping":53},{"user_id":269,"name":"Girl gamer","steam_id":76561198237827742,"connected_time":3470000000000,"state":"active","ping":64},{"user_id":277,"name":"Yongle","steam_id":76561198068591156,"connected_time":2846000000000,"state":"active","ping":56},{"user_id":316,"name":"yenseii","steam_id":76561198304265800,"connected_time":286000000000,"state":"active","ping":86},{"user_id":286,"name":"TGGHaze gaming","steam_id":76561199134730784,"connected_time":1912000000000,"state":"active","ping":161},{"user_id":317,"name":"Hezxp","steam_id":76561198312931111,"connected_time":273000000000,"state":"active","ping":84},{"user_id":318,"name":"ryan","steam_id":76561198139411911,"connected_time":270000000000,"state":"active","ping":76},{"user_id":272,"name":"Tat_Dead","steam_id":76561199048111391,"connected_time":3361000000000,"state":"active","ping":97}]},{"server_id":38,"name":"Uncletopia | Chicago | 7 | Stopwatch Beta","name_short":"chi-7","host":"chi-2.us.uncletopia.com","port":27035,"enabled":true,"region":"us-central","cc":"us","latitude":41.881832,"longitude":-87.62318,"reserved":0,"last_update":"0001-01-01T00:00:00Z","name_a2s":"Uncletopia | Chicago | 7 | Stopwatch Beta","protocol":17,"map":"pl_borneo","folder":"tf","game":"Team Fortress","app_id":440,"player_count":0,"max_players":24,"Bots":0,"server_type":"Dedicated","server_os":"Linux","password":true,"vac":true,"version":"7961495","steam_id":85568392924866364,"keywords":["nocrits","nodmgspread","payload","uncletopia"],"game_id":440,"stv_port":27036,"stv_name":"Uncletopia | Chicago | 7 | Stopwatch Beta | STV","players":null},{"server_id":39,"name":"Uncletopia | Chicago | 8 | Community","name_short":"chi-8","host":"chi-2.us.uncletopia.com","port":27045,"enabled":true,"region":"us-central","cc":"us","latitude":41.881832,"longitude":-87.62318,"reserved":0,"last_update":"0001-01-01T00:00:00Z","name_a2s":"Uncletopia | Chicago | 8 | Community","protocol":17,"map":"workshop/koth_product_final.ugc454272353","folder":"tf","game":"Team Fortress","app_id":440,"player_count":0,"max_players":24,"Bots":0,"server_type":"Dedicated","server_os":"Linux","password":true,"vac":true,"version":"7961495","steam_id":85568392924866365,"keywords":["cp","nocrits","nodmgspread","uncletopia"],"game_id":440,"stv_port":27046,"stv_name":"Uncletopia | Chicago | 8 | Community | STV","players":null},{"server_id":8,"name":"Uncletopia | Dallas | 1 | All Maps","name_short":"dal-1","host":"dal-1.us.uncletopia.com","port":27015,"enabled":true,"region":"us-central","cc":"us","latitude":32.779167,"longitude":-96.80889,"reserved":0,"last_update":"0001-01-01T00:00:00Z","name_a2s":"Uncletopia | Dallas | 1 | All Maps","protocol":17,"map":"pl_pier","folder":"tf","game":"Team Fortress","app_id":440,"player_count":18,"max_players":24,"Bots":0,"server_type":"Dedicated","server_os":"Linux","password":true,"vac":true,"version":"7961495","steam_id":85568392924469986,"keywords":["nocrits","nodmgspread","payload","uncletopia"],"game_id":440,"stv_port":27016,"stv_name":"Uncletopia | Dallas | 1 | All Maps | STV","players":[{"user_id":401,"name":"MithStyck","steam_id":76561198071538489,"connected_time":2383000000000,"state":"active","ping":38},{"user_id":402,"name":"Pornelius Hubert","steam_id":76561198186128723,"connected_time":2284000000000,"state":"active","ping":44},{"user_id":427,"name":"Untermensch","steam_id":76561198149634242,"connected_time":731000000000,"state":"active","ping":84},{"user_id":432,"name":"orgasmo","steam_id":76561198047355245,"connected_time":24000000000,"state":"active","ping":78},{"user_id":429,"name":"crumblejon","steam_id":76561198111273302,"connected_time":371000000000,"state":"active","ping":63},{"user_id":421,"name":"the guy inside your printer","steam_id":76561198321313604,"connected_time":1199000000000,"state":"active","ping":71},{"user_id":430,"name":"ErikG65USA","steam_id":76561199381735619,"connected_time":47000000000,"state":"active","ping":61},{"user_id":431,"name":"Meat","steam_id":76561198047911274,"connected_time":30000000000,"state":"active","ping":69},{"user_id":420,"name":"margaret","steam_id":76561198038291026,"connected_time":1310000000000,"state":"active","ping":34},{"user_id":422,"name":"AvapXia","steam_id":76561198147476096,"connected_time":1178000000000,"state":"active","ping":107},{"user_id":358,"name":"Gelliterate","steam_id":76561198107233070,"connected_time":6782000000000,"state":"active","ping":45},{"user_id":380,"name":"Pight","steam_id":76561198823422389,"connected_time":4524000000000,"state":"active","ping":84},{"user_id":428,"name":"bigbuffmen Gaming","steam_id":76561198334977151,"connected_time":641000000000,"state":"active","ping":84},{"user_id":411,"name":"Viren","steam_id":76561198012636897,"connected_time":1931000000000,"state":"active","ping":45},{"user_id":413,"name":"yesoko","steam_id":76561198072917024,"connected_time":1890000000000,"state":"active","ping":74},{"user_id":414,"name":"substance","steam_id":76561198050103868,"connected_time":1886000000000,"state":"active","ping":109},{"user_id":424,"name":"Techne","steam_id":76561198090486583,"connected_time":941000000000,"state":"active","ping":86},{"user_id":353,"name":"Stillkill","steam_id":76561198065069057,"connected_time":7209000000000,"state":"active","ping":36}]},{"server_id":108,"name":"Uncletopia | Dallas | 2 | All Maps","name_short":"dal-2","host":"dal-1.us.uncletopia.com","port":27025,"enabled":true,"region":"us-central","cc":"us","latitude":32.779167,"longitude":-96.80889,"reserved":0,"last_update":"0001-01-01T00:00:00Z","name_a2s":"Uncletopia | Dallas | 2 | All Maps","protocol":17,"map":"ctf_2fort","folder":"tf","game":"Team Fortress","app_id":440,"player_count":11,"max_players":24,"Bots":0,"server_type":"Dedicated","server_os":"Linux","password":true,"vac":true,"version":"7961495","steam_id":85568392924469988,"keywords":["ctf","nocrits","nodmgspread","uncletopia"],"game_id":440,"stv_port":27026,"stv_name":"Uncletopia | Dallas | 2 | All Maps | STV","players":[{"user_id":423,"name":"dave","steam_id":76561198135961731,"connected_time":378000000000,"state":"active","ping":61},{"user_id":420,"name":"robo gushy","steam_id":76561198060334743,"connected_time":752000000000,"state":"active","ping":60},{"user_id":410,"name":"cofferhead","steam_id":76561199191108449,"connected_time":1560000000000,"state":"active","ping":81},{"user_id":421,"name":"bigfathand6","steam_id":76561198972921439,"connected_time":632000000000,"state":"active","ping":54},{"user_id":417,"name":"Wiffle","steam_id":76561198251951402,"connected_time":992000000000,"state":"active","ping":101},{"user_id":399,"name":"Smug","steam_id":76561198448205229,"connected_time":2155000000000,"state":"active","ping":62},{"user_id":418,"name":"basilberry","steam_id":76561198145275937,"connected_time":791000000000,"state":"active","ping":60},{"user_id":422,"name":"Lollichop Purchaser","steam_id":76561198168463508,"connected_time":610000000000,"state":"active","ping":78},{"user_id":356,"name":"banan team fortes","steam_id":76561199073621650,"connected_time":4839000000000,"state":"active","ping":82},{"user_id":358,"name":"sergeant Adderall","steam_id":76561199010296481,"connected_time":4833000000000,"state":"active","ping":82},{"user_id":373,"name":"JadEDU","steam_id":76561198170648674,"connected_time":3942000000000,"state":"active","ping":58}]},{"server_id":5,"name":"Uncletopia | Frankfurt | 1 | All Maps","name_short":"frk-1","host":"frk-1.de.uncletopia.com","port":27015,"enabled":true,"region":"eu","cc":"de","latitude":50.110924,"longitude":8.682127,"reserved":0,"last_update":"0001-01-01T00:00:00Z","name_a2s":"Uncletopia | Frankfurt | 1 | All Maps","protocol":17,"map":"cp_altitude","folder":"tf","game":"Team Fortress","app_id":440,"player_count":0,"max_players":24,"Bots":0,"server_type":"Dedicated","server_os":"Linux","password":true,"vac":true,"version":"7961495","steam_id":85568392924469989,"keywords":["cp","nocrits","nodmgspread","uncletopia"],"game_id":440,"stv_port":27016,"stv_name":"Uncletopia | Frankfurt | 1 | All Maps | STV","players":null},{"server_id":110,"name":"Uncletopia | Frankfurt | 2 | All Maps","name_short":"frk-2","host":"frk-1.de.uncletopia.com","port":27025,"enabled":true,"region":"eu","cc":"de","latitude":50.110924,"longitude":8.682127,"reserved":0,"last_update":"0001-01-01T00:00:00Z","name_a2s":"Uncletopia | Frankfurt | 2 | All Maps","protocol":17,"map":"cp_sunshine","folder":"tf","game":"Team Fortress","app_id":440,"player_count":0,"max_players":24,"Bots":0,"server_type":"Dedicated","server_os":"Linux","password":true,"vac":true,"version":"7961495","steam_id":85568392924469990,"keywords":["cp","nocrits","nodmgspread","uncletopia"],"game_id":440,"stv_port":27026,"stv_name":"Uncletopia | Frankfurt | 2 | All Maps | STV","players":null},{"server_id":308,"name":"Uncletopia | Frankfurt | 3 | All Maps","name_short":"frk-3","host":"frk-1.de.uncletopia.com","port":27035,"enabled":true,"region":"eu","cc":"de","latitude":50.110924,"longitude":8.682127,"reserved":0,"last_update":"0001-01-01T00:00:00Z","name_a2s":"Uncletopia | Frankfurt | 3 | All Maps","protocol":17,"map":"cp_mountainlab","folder":"tf","game":"Team Fortress","app_id":440,"player_count":0,"max_players":24,"Bots":0,"server_type":"Dedicated","server_os":"Linux","password":true,"vac":true,"version":"7961495","steam_id":85568392924504274,"keywords":["cp","nocrits","nodmgspread","uncletopia"],"game_id":440,"stv_port":27036,"stv_name":"Uncletopia | Frankfurt | 3 | All Maps | STV","players":null},{"server_id":309,"name":"Uncletopia | Frankfurt | 4 | All Maps","name_short":"frk-4","host":"frk-1.de.uncletopia.com","port":27045,"enabled":true,"region":"eu","cc":"de","latitude":50.110924,"longitude":8.682127,"reserved":0,"last_update":"0001-01-01T00:00:00Z","name_a2s":"Uncletopia | Frankfurt | 4 | All Maps","protocol":17,"map":"cp_process_final","folder":"tf","game":"Team Fortress","app_id":440,"player_count":0,"max_players":24,"Bots":0,"server_type":"Dedicated","server_os":"Linux","password":true,"vac":true,"version":"7961495","steam_id":85568392924504275,"keywords":["cp","nocrits","nodmgspread","uncletopia"],"game_id":440,"stv_port":27046,"stv_name":"Uncletopia | Frankfurt | 4 | All Maps | STV","players":null},{"server_id":310,"name":"Uncletopia | Frankfurt | 5 | All Maps","name_short":"frk-5","host":"frk-1.de.uncletopia.com","port":27055,"enabled":true,"region":"eu","cc":"de","latitude":50.110924,"longitude":8.682127,"reserved":0,"last_update":"0001-01-01T00:00:00Z","name_a2s":"Uncletopia | Frankfurt | 5 | All Maps","protocol":17,"map":"koth_viaduct","folder":"tf","game":"Team Fortress","app_id":440,"player_count":0,"max_players":24,"Bots":0,"server_type":"Dedicated","server_os":"Linux","password":true,"vac":true,"version":"7961495","steam_id":85568392924504277,"keywords":["cp","nocrits","nodmgspread","uncletopia"],"game_id":440,"stv_port":27056,"stv_name":"Uncletopia | Frankfurt | 5 | All Maps | STV","players":null},{"server_id":311,"name":"Uncletopia | Frankfurt | 6 | All Maps","name_short":"frk-6","host":"frk-1.de.uncletopia.com","port":27065,"enabled":true,"region":"eu","cc":"de","latitude":50.110924,"longitude":8.682127,"reserved":0,"last_update":"0001-01-01T00:00:00Z","name_a2s":"Uncletopia | Frankfurt | 6 | All Maps","protocol":17,"map":"pl_pier","folder":"tf","game":"Team Fortress","app_id":440,"player_count":0,"max_players":24,"Bots":0,"server_type":"Dedicated","server_os":"Linux","password":true,"vac":true,"version":"7961495","steam_id":85568392924504278,"keywords":["nocrits","nodmgspread","payload","uncletopia"],"game_id":440,"stv_port":27066,"stv_name":"Uncletopia | Frankfurt | 6 | All Maps | STV","players":null},{"server_id":23,"name":"Uncletopia | Frankfurt | 7 | Stopwatch Beta","name_short":"frk-7","host":"frk-1.de.uncletopia.com","port":27075,"enabled":true,"region":"eu","cc":"de","latitude":50.110924,"longitude":8.682127,"reserved":0,"last_update":"0001-01-01T00:00:00Z","name_a2s":"Uncletopia | Frankfurt | 7 | Stopwatch Beta","protocol":17,"map":"koth_cascade","folder":"tf","game":"Team Fortress","app_id":440,"player_count":0,"max_players":24,"Bots":0,"server_type":"Dedicated","server_os":"Linux","password":true,"vac":true,"version":"7961495","steam_id":85568392924742827,"keywords":["cp","nocrits","nodmgspread","uncletopia"],"game_id":440,"stv_port":27076,"stv_name":"Uncletopia | Frankfurt | 7 | Stopwatch Beta | STV","players":null},{"server_id":24,"name":"Uncletopia | Frankfurt | 8 | Community","name_short":"frk-8","host":"frk-1.de.uncletopia.com","port":27085,"enabled":true,"region":"eu","cc":"de","latitude":50.110924,"longitude":8.682127,"reserved":0,"last_update":"0001-01-01T00:00:00Z","name_a2s":"Uncletopia | Frankfurt | 8 | Community","protocol":17,"map":"cp_process_final","folder":"tf","game":"Team Fortress","app_id":440,"player_count":0,"max_players":24,"Bots":0,"server_type":"Dedicated","server_os":"Linux","password":true,"vac":true,"version":"7961495","steam_id":85568392924742828,"keywords":["cp","nocrits","nodmgspread","uncletopia"],"game_id":440,"stv_port":27086,"stv_name":"Uncletopia | Frankfurt | 8 | Community | STV","players":null},{"server_id":202,"name":"Uncletopia | Hong Kong | 1 | All Maps","name_short":"hgk-1","host":"hgk-1.hk.uncletopia.com","port":27015,"enabled":true,"region":"asia","cc":"hk","latitude":22.302711,"longitude":114.177216,"reserved":0,"last_update":"0001-01-01T00:00:00Z","name_a2s":"Uncletopia | Hong Kong | 1 | All Maps","protocol":17,"map":"pl_upward","folder":"tf","game":"Team Fortress","app_id":440,"player_count":4,"max_players":24,"Bots":0,"server_type":"Dedicated","server_os":"Linux","password":true,"vac":true,"version":"7961495","steam_id":85568392924494504,"keywords":["nocrits","nodmgspread","payload","uncletopia"],"game_id":440,"stv_port":27016,"stv_name":"Uncletopia | Hong Kong | 1 | All Maps | STV","players":[{"user_id":23,"name":"TomProPlayer","steam_id":76561199223292521,"connected_time":615000000000,"state":"active","ping":59},{"user_id":24,"name":"Charmayanne","steam_id":76561199190954735,"connected_time":516000000000,"state":"active","ping":134},{"user_id":26,"name":"BabyPupa","steam_id":76561198442467591,"connected_time":263000000000,"state":"active","ping":118},{"user_id":27,"name":"Hay","steam_id":76561199438952901,"connected_time":147000000000,"state":"active","ping":51}]},{"server_id":1,"name":"Uncletopia | Los Angeles | 1 | All Maps","name_short":"lax-1","host":"lax-1.us.uncletopia.com","port":27015,"enabled":true,"region":"us-west","cc":"us","latitude":33.94279,"longitude":-118.41004,"reserved":0,"last_update":"0001-01-01T00:00:00Z","name_a2s":"Uncletopia | Los Angeles | 1 | All Maps","protocol":17,"map":"pl_snowycoast","folder":"tf","game":"Team Fortress","app_id":440,"player_count":20,"max_players":24,"Bots":0,"server_type":"Dedicated","server_os":"Linux","password":true,"vac":true,"version":"7961495","steam_id":85568392924469991,"keywords":["nocrits","nodmgspread","payload","uncletopia"],"game_id":440,"stv_port":27016,"stv_name":"Uncletopia | Los Angeles | 1 | All Maps | STV","players":[{"user_id":369,"name":"usedhalfcart","steam_id":76561198072621852,"connected_time":232000000000,"state":"active","ping":88},{"user_id":364,"name":"QBR","steam_id":76561198088024854,"connected_time":506000000000,"state":"active","ping":81},{"user_id":370,"name":"sniper tf2","steam_id":76561198117573601,"connected_time":223000000000,"state":"active","ping":152},{"user_id":324,"name":"el wokismo","steam_id":76561198058617608,"connected_time":3538000000000,"state":"active","ping":59},{"user_id":371,"name":"minerkid2004","steam_id":76561198044262827,"connected_time":168000000000,"state":"active","ping":54},{"user_id":315,"name":"Goose-8","steam_id":76561198795950093,"connected_time":4697000000000,"state":"active","ping":112},{"user_id":372,"name":"hakken","steam_id":76561199102391736,"connected_time":105000000000,"state":"active","ping":50},{"user_id":339,"name":"_Ati","steam_id":76561198339777801,"connected_time":1924000000000,"state":"active","ping":71},{"user_id":368,"name":"Mango","steam_id":76561198919918920,"connected_time":310000000000,"state":"active","ping":62},{"user_id":341,"name":"I Want That Hat","steam_id":76561198378325489,"connected_time":1876000000000,"state":"active","ping":72},{"user_id":373,"name":"W+M1","steam_id":76561199108916362,"connected_time":95000000000,"state":"active","ping":198},{"user_id":362,"name":"dare","steam_id":76561197960977496,"connected_time":608000000000,"state":"active","ping":60},{"user_id":374,"name":"【Crime】","steam_id":76561198319631200,"connected_time":73000000000,"state":"active","ping":69},{"user_id":330,"name":"Wendigo","steam_id":76561198045937454,"connected_time":2893000000000,"state":"active","ping":86},{"user_id":358,"name":"Jivin' Jigger","steam_id":76561198211677460,"connected_time":774000000000,"state":"active","ping":77},{"user_id":354,"name":"the rat","steam_id":76561198442468979,"connected_time":1295000000000,"state":"active","ping":56},{"user_id":345,"name":"V-Boy","steam_id":76561198095331845,"connected_time":1771000000000,"state":"active","ping":93},{"user_id":366,"name":"guac","steam_id":76561198070305720,"connected_time":457000000000,"state":"active","ping":89},{"user_id":331,"name":"nella","steam_id":76561198079349621,"connected_time":2884000000000,"state":"active","ping":52},{"user_id":367,"name":"how do i control my guy?","steam_id":76561198158855211,"connected_time":347000000000,"state":"active","ping":74}]},{"server_id":112,"name":"Uncletopia | Los Angeles | 2 | All Maps","name_short":"lax-2","host":"lax-1.us.uncletopia.com","port":27025,"enabled":true,"region":"us-west","cc":"us","latitude":33.94279,"longitude":-118.41004,"reserved":0,"last_update":"0001-01-01T00:00:00Z","name_a2s":"Uncletopia | Los Angeles | 2 | All Maps","protocol":17,"map":"cp_snakewater_final1","folder":"tf","game":"Team Fortress","app_id":440,"player_count":24,"max_players":24,"Bots":0,"server_type":"Dedicated","server_os":"Linux","password":true,"vac":true,"version":"7961495","steam_id":85568392924469992,"keywords":["cp","nocrits","nodmgspread","uncletopia"],"game_id":440,"stv_port":27026,"stv_name":"Uncletopia | Los Angeles | 2 | All Maps | STV","players":[{"user_id":299,"name":"seanisgone","steam_id":76561198170186101,"connected_time":677000000000,"state":"active","ping":151},{"user_id":281,"name":"no name","steam_id":76561198312741335,"connected_time":1533000000000,"state":"active","ping":92},{"user_id":274,"name":"Puppeteer","steam_id":76561198159928108,"connected_time":1663000000000,"state":"active","ping":87},{"user_id":272,"name":"flame","steam_id":76561198079321914,"connected_time":1720000000000,"state":"active","ping":63},{"user_id":283,"name":"untamed","steam_id":76561198336898193,"connected_time":1499000000000,"state":"active","ping":104},{"user_id":208,"name":"SQbuilder","steam_id":76561198076473375,"connected_time":9775000000000,"state":"active","ping":51},{"user_id":270,"name":"meme","steam_id":76561199170771700,"connected_time":1819000000000,"state":"active","ping":63},{"user_id":290,"name":"fluffers arooba","steam_id":76561199229966247,"connected_time":1047000000000,"state":"active","ping":61},{"user_id":285,"name":"endo","steam_id":76561197995204381,"connected_time":1443000000000,"state":"active","ping":74},{"user_id":291,"name":"big car","steam_id":76561198067082350,"connected_time":1035000000000,"state":"active","ping":57},{"user_id":277,"name":"dodo","steam_id":76561198045499487,"connected_time":1581000000000,"state":"active","ping":82},{"user_id":279,"name":"The Bull","steam_id":76561198143826450,"connected_time":1546000000000,"state":"active","ping":94},{"user_id":294,"name":"Ant","steam_id":76561198253062337,"connected_time":916000000000,"state":"active","ping":96},{"user_id":287,"name":"A bendy straw in disguise","steam_id":76561198257743986,"connected_time":1394000000000,"state":"active","ping":67},{"user_id":288,"name":"feel the bean","steam_id":76561198858328080,"connected_time":1382000000000,"state":"active","ping":44},{"user_id":295,"name":"Viktor Ludwig TTV","steam_id":76561198973370004,"connected_time":887000000000,"state":"active","ping":52},{"user_id":178,"name":"selvhat","steam_id":76561198114225509,"connected_time":13738000000000,"state":"active","ping":49},{"user_id":292,"name":"I'm Still Your Friend","steam_id":76561198436921672,"connected_time":1023000000000,"state":"active","ping":74},{"user_id":303,"name":"goopgrabber","steam_id":76561199029951083,"connected_time":32000000000,"state":"active","ping":57},{"user_id":296,"name":"Trips","steam_id":76561198054581597,"connected_time":870000000000,"state":"active","ping":49},{"user_id":301,"name":"akshan346","steam_id":76561198120385184,"connected_time":76000000000,"state":"active","ping":58},{"user_id":298,"name":"ena - d","steam_id":76561198072329335,"connected_time":811000000000,"state":"active","ping":100},{"user_id":300,"name":"krraaken","steam_id":76561198311776451,"connected_time":654000000000,"state":"active","ping":151},{"user_id":246,"name":"achoo","steam_id":76561198009091066,"connected_time":4529000000000,"state":"active","ping":68}]},{"server_id":324,"name":"Uncletopia | Los Angeles | 3 | All Maps","name_short":"lax-3","host":"lax-1.us.uncletopia.com","port":27035,"enabled":true,"region":"us-west","cc":"us","latitude":33.94279,"longitude":-118.41004,"reserved":0,"last_update":"0001-01-01T00:00:00Z","name_a2s":"Uncletopia | Los Angeles | 3 | All Maps","protocol":17,"map":"cp_dustbowl","folder":"tf","game":"Team Fortress","app_id":440,"player_count":24,"max_players":24,"Bots":0,"server_type":"Dedicated","server_os":"Linux","password":true,"vac":true,"version":"7961495","steam_id":85568392924510198,"keywords":["cp","nocrits","nodmgspread","uncletopia"],"game_id":440,"stv_port":27036,"stv_name":"Uncletopia | Los Angeles | 3 | All Maps | STV","players":[{"user_id":302,"name":"Livin' Like Larry","steam_id":76561198313360974,"connected_time":3827000000000,"state":"active","ping":44},{"user_id":292,"name":"scruhlman","steam_id":76561198212448060,"connected_time":4608000000000,"state":"active","ping":104},{"user_id":339,"name":"/!\\ ZOLASKI /!\\ trade.tf","steam_id":76561198101096707,"connected_time":1039000000000,"state":"active","ping":150},{"user_id":340,"name":"viedoamges","steam_id":76561198025295263,"connected_time":868000000000,"state":"active","ping":82},{"user_id":338,"name":"10HourNaps","steam_id":76561199082304859,"connected_time":1044000000000,"state":"active","ping":84},{"user_id":327,"name":"set","steam_id":76561198294281809,"connected_time":2010000000000,"state":"active","ping":50},{"user_id":343,"name":"IHateThisMap","steam_id":76561197980597646,"connected_time":690000000000,"state":"active","ping":116},{"user_id":342,"name":"lamborghini revuelto","steam_id":76561198319442494,"connected_time":797000000000,"state":"active","ping":59},{"user_id":345,"name":"°Creamy Gilligan","steam_id":76561198001569384,"connected_time":578000000000,"state":"active","ping":106},{"user_id":288,"name":"baldo","steam_id":76561198178431338,"connected_time":4765000000000,"state":"active","ping":46},{"user_id":344,"name":"Dom-nya","steam_id":76561198077443729,"connected_time":671000000000,"state":"active","ping":55},{"user_id":328,"name":"M4 Sherman","steam_id":76561198011096132,"connected_time":1963000000000,"state":"active","ping":55},{"user_id":315,"name":"demo that laughs at sentries","steam_id":76561198083561382,"connected_time":2471000000000,"state":"active","ping":98},{"user_id":346,"name":"Team Fartpiss Poo","steam_id":76561199163591880,"connected_time":330000000000,"state":"active","ping":115},{"user_id":349,"name":"PBxJAY","steam_id":76561198402471788,"connected_time":202000000000,"state":"active","ping":81},{"user_id":329,"name":"Lone_Explorer","steam_id":76561198081972715,"connected_time":1932000000000,"state":"active","ping":84},{"user_id":318,"name":"azureglxy","steam_id":76561198861388315,"connected_time":2414000000000,"state":"active","ping":33},{"user_id":351,"name":"JKEMEISTR","steam_id":76561198082146326,"connected_time":159000000000,"state":"active","ping":72},{"user_id":354,"name":"Dr. Satan™","steam_id":76561198179003795,"connected_time":7000000000,"state":"spawning","ping":68},{"user_id":301,"name":"Tosh","steam_id":76561198026948976,"connected_time":4005000000000,"state":"active","ping":65},{"user_id":352,"name":"lana fan account","steam_id":76561198151135298,"connected_time":126000000000,"state":"active","ping":30},{"user_id":324,"name":"Subject Delta","steam_id":76561199109118980,"connected_time":2201000000000,"state":"active","ping":58},{"user_id":353,"name":"oil","steam_id":76561198099980149,"connected_time":119000000000,"state":"active","ping":48},{"user_id":309,"name":"Tech Deck","steam_id":76561199070437675,"connected_time":3289000000000,"state":"active","ping":56}]},{"server_id":25,"name":"Uncletopia | Los Angeles | 4 | Stopwatch Beta","name_short":"lax-4","host":"lax-1.us.uncletopia.com","port":27045,"enabled":true,"region":"us-west","cc":"us","latitude":33.94279,"longitude":-118.41004,"reserved":0,"last_update":"0001-01-01T00:00:00Z","name_a2s":"Uncletopia | Los Angeles | 4 | Stopwatch Beta","protocol":17,"map":"pl_frontier_final","folder":"tf","game":"Team Fortress","app_id":440,"player_count":0,"max_players":24,"Bots":0,"server_type":"Dedicated","server_os":"Linux","password":true,"vac":true,"version":"7961495","steam_id":85568392924510199,"keywords":["nocrits","nodmgspread","payload","uncletopia"],"game_id":440,"stv_port":27046,"stv_name":"Uncletopia | Los Angeles | 4 | Stopwatch Beta | STV","players":null},{"server_id":11,"name":"Uncletopia | London | 1 | All Maps","name_short":"lon-1","host":"lon-1.uk.uncletopia.com","port":27015,"enabled":true,"region":"eu","cc":"gb","latitude":51.509865,"longitude":-0.118092,"reserved":0,"last_update":"0001-01-01T00:00:00Z","name_a2s":"Uncletopia | London | 1 | All Maps","protocol":17,"map":"pl_barnblitz","folder":"tf","game":"Team Fortress","app_id":440,"player_count":23,"max_players":24,"Bots":0,"server_type":"Dedicated","server_os":"Linux","password":true,"vac":true,"version":"7961495","steam_id":85568392924367362,"keywords":["nocrits","nodmgspread","payload","uncletopia"],"game_id":440,"stv_port":27016,"stv_name":"Uncletopia | London | 1 | All Maps | STV","players":[{"user_id":4,"name":"costco-pilled individual","steam_id":76561198818037965,"connected_time":10380000000000,"state":"active","ping":106},{"user_id":131,"name":"the doctor's smoke n' toke","steam_id":76561198105978107,"connected_time":861000000000,"state":"active","ping":82},{"user_id":137,"name":"tenenbaum_2","steam_id":76561198075723636,"connected_time":450000000000,"state":"active","ping":61},{"user_id":140,"name":"unconditional love","steam_id":76561199026097466,"connected_time":9000000000,"state":"spawning","ping":1439},{"user_id":125,"name":"gravity displeases me","steam_id":76561198342570528,"connected_time":1352000000000,"state":"active","ping":69},{"user_id":127,"name":"Dacia Sandero","steam_id":76561199052062415,"connected_time":1202000000000,"state":"active","ping":85},{"user_id":105,"name":"sciencenerd42","steam_id":76561198274563320,"connected_time":3377000000000,"state":"active","ping":111},{"user_id":119,"name":"lunaire","steam_id":76561198163344452,"connected_time":1863000000000,"state":"active","ping":86},{"user_id":86,"name":"Asmodeus","steam_id":76561198283156425,"connected_time":5193000000000,"state":"active","ping":85},{"user_id":126,"name":"Zembis","steam_id":76561198008017918,"connected_time":1325000000000,"state":"active","ping":101},{"user_id":136,"name":"george foreman","steam_id":76561198038748489,"connected_time":460000000000,"state":"active","ping":75},{"user_id":117,"name":"nymph","steam_id":76561199249569889,"connected_time":2000000000000,"state":"active","ping":60},{"user_id":111,"name":"Ded","steam_id":76561198186054573,"connected_time":2566000000000,"state":"active","ping":84},{"user_id":138,"name":"FatAssHaver55","steam_id":76561199142022395,"connected_time":245000000000,"state":"active","ping":96},{"user_id":122,"name":"Larry Penus","steam_id":76561198207546233,"connected_time":1603000000000,"state":"active","ping":44},{"user_id":112,"name":"a chair","steam_id":76561199085472085,"connected_time":2550000000000,"state":"active","ping":73},{"user_id":139,"name":"dunduu","steam_id":76561198875240717,"connected_time":50000000000,"state":"active","ping":79},{"user_id":135,"name":"hsn⁧⁧741","steam_id":76561198307602421,"connected_time":554000000000,"state":"active","ping":105},{"user_id":114,"name":"modavak","steam_id":76561198946290908,"connected_time":2275000000000,"state":"active","ping":99},{"user_id":80,"name":"K'aax Itzam","steam_id":76561198044024509,"connected_time":5492000000000,"state":"active","ping":73},{"user_id":130,"name":"CEO of Racism","steam_id":76561198211814371,"connected_time":960000000000,"state":"active","ping":77},{"user_id":123,"name":"(wm) Das Fleisch","steam_id":76561198001250715,"connected_time":1586000000000,"state":"active","ping":64},{"user_id":47,"name":"zasert82","steam_id":76561199043016316,"connected_time":7658000000000,"state":"active","ping":96}]},{"server_id":114,"name":"Uncletopia | London | 2 | All Maps","name_short":"lon-2","host":"lon-1.uk.uncletopia.com","port":27025,"enabled":true,"region":"eu","cc":"gb","latitude":51.509865,"longitude":-0.118092,"reserved":0,"last_update":"0001-01-01T00:00:00Z","name_a2s":"Uncletopia | London | 2 | All Maps","protocol":17,"map":"cp_altitude","folder":"tf","game":"Team Fortress","app_id":440,"player_count":0,"max_players":24,"Bots":0,"server_type":"Dedicated","server_os":"Linux","password":true,"vac":true,"version":"7961495","steam_id":85568392924470941,"keywords":["cp","nocrits","nodmgspread","uncletopia"],"game_id":440,"stv_port":27026,"stv_name":"Uncletopia | London | 2 | All Maps | STV","players":null},{"server_id":320,"name":"Uncletopia | London | 3 | All Maps","name_short":"lon-3","host":"lon-1.uk.uncletopia.com","port":27035,"enabled":true,"region":"eu","cc":"gb","latitude":51.509865,"longitude":-0.118092,"reserved":0,"last_update":"0001-01-01T00:00:00Z","name_a2s":"Uncletopia | London | 3 | All Maps","protocol":17,"map":"pl_barnblitz","folder":"tf","game":"Team Fortress","app_id":440,"player_count":0,"max_players":24,"Bots":0,"server_type":"Dedicated","server_os":"Linux","password":true,"vac":true,"version":"7961495","steam_id":85568392924510192,"keywords":["nocrits","nodmgspread","payload","uncletopia"],"game_id":440,"stv_port":27036,"stv_name":"Uncletopia | London | 3 | All Maps | STV","players":null},{"server_id":321,"name":"Uncletopia | London | 4 | All Maps","name_short":"lon-4","host":"lon-1.uk.uncletopia.com","port":27045,"enabled":true,"region":"eu","cc":"gb","latitude":51.509865,"longitude":-0.118092,"reserved":0,"last_update":"0001-01-01T00:00:00Z","name_a2s":"Uncletopia | London | 4 | All Maps","protocol":17,"map":"koth_cascade","folder":"tf","game":"Team Fortress","app_id":440,"player_count":0,"max_players":24,"Bots":0,"server_type":"Dedicated","server_os":"Linux","password":true,"vac":true,"version":"7961495","steam_id":85568392924510193,"keywords":["cp","nocrits","nodmgspread","uncletopia"],"game_id":440,"stv_port":27046,"stv_name":"Uncletopia | London | 4 | All Maps | STV","players":null},{"server_id":21,"name":"Uncletopia | London | 5 | All Maps","name_short":"lon-5","host":"lon-1.uk.uncletopia.com","port":27055,"enabled":true,"region":"eu","cc":"gb","latitude":51.509865,"longitude":-0.118092,"reserved":0,"last_update":"0001-01-01T00:00:00Z","name_a2s":"Uncletopia | London | 5 | All Maps","protocol":17,"map":"pl_snowycoast","folder":"tf","game":"Team Fortress","app_id":440,"player_count":0,"max_players":24,"Bots":0,"server_type":"Dedicated","server_os":"Linux","password":true,"vac":true,"version":"7961495","steam_id":85568392924742829,"keywords":["nocrits","nodmgspread","payload","uncletopia"],"game_id":440,"stv_port":27056,"stv_name":"Uncletopia | London | 5 | All Maps | STV","players":null},{"server_id":22,"name":"Uncletopia | London | 6 | All Maps","name_short":"lon-6","host":"lon-1.uk.uncletopia.com","port":27065,"enabled":true,"region":"eu","cc":"gb","latitude":51.509865,"longitude":-0.118092,"reserved":0,"last_update":"0001-01-01T00:00:00Z","name_a2s":"Uncletopia | London | 6 | All Maps","protocol":17,"map":"koth_lakeside_final","folder":"tf","game":"Team Fortress","app_id":440,"player_count":0,"max_players":24,"Bots":0,"server_type":"Dedicated","server_os":"Linux","password":true,"vac":true,"version":"7961495","steam_id":85568392924742830,"keywords":["cp","nocrits","nodmgspread","uncletopia"],"game_id":440,"stv_port":27066,"stv_name":"Uncletopia | London | 6 | All Maps | STV","players":null},{"server_id":40,"name":"Uncletopia | London | 7 | No Payload","name_short":"lon-7","host":"lon-1.uk.uncletopia.com","port":27075,"enabled":true,"region":"eu","cc":"gb","latitude":51.509865,"longitude":-0.118092,"reserved":0,"last_update":"0001-01-01T00:00:00Z","name_a2s":"Uncletopia | London | 7 | No Payload","protocol":17,"map":"pl_snowycoast","folder":"tf","game":"Team Fortress","app_id":440,"player_count":0,"max_players":24,"Bots":0,"server_type":"Dedicated","server_os":"Linux","password":true,"vac":true,"version":"7961495","steam_id":85568392924964314,"keywords":["nocrits","nodmgspread","payload","uncletopia"],"game_id":440,"stv_port":27076,"stv_name":"Uncletopia | London | 7 | No Payload | STV","players":null},{"server_id":41,"name":"Uncletopia | London | 8 | Community","name_short":"lon-8","host":"lon-1.uk.uncletopia.com","port":27085,"enabled":true,"region":"eu","cc":"gb","latitude":51.509865,"longitude":-0.118092,"reserved":0,"last_update":"0001-01-01T00:00:00Z","name_a2s":"Uncletopia | London | 8 | Community","protocol":17,"map":"koth_viaduct","folder":"tf","game":"Team Fortress","app_id":440,"player_count":0,"max_players":24,"Bots":0,"server_type":"Dedicated","server_os":"Linux","password":true,"vac":true,"version":"7961495","steam_id":85568392924964315,"keywords":["cp","nocrits","nodmgspread","uncletopia"],"game_id":440,"stv_port":27086,"stv_name":"Uncletopia | London | 8 | Community | STV","players":null},{"server_id":300,"name":"Uncletopia | Montréal | 1 | All Maps","name_short":"mtl-1","host":"mtl-1.ca.uncletopia.com","port":27015,"enabled":true,"region":"us-east","cc":"ca","latitude":45.50889,"longitude":-73.56167,"reserved":0,"last_update":"0001-01-01T00:00:00Z","name_a2s":"Uncletopia | Montréal | 1 | All Maps","protocol":17,"map":"koth_cascade","folder":"tf","game":"Team Fortress","app_id":440,"player_count":0,"max_players":24,"Bots":0,"server_type":"Dedicated","server_os":"Linux","password":true,"vac":true,"version":"7961495","steam_id":85568392924500087,"keywords":["cp","nocrits","nodmgspread","uncletopia"],"game_id":440,"stv_port":27016,"stv_name":"Uncletopia | Montréal | 1 | All Maps | STV","players":null},{"server_id":301,"name":"Uncletopia | Montréal | 2 | All Maps","name_short":"mtl-2","host":"mtl-1.ca.uncletopia.com","port":27025,"enabled":true,"region":"us-east","cc":"ca","latitude":45.50889,"longitude":-73.56167,"reserved":0,"last_update":"0001-01-01T00:00:00Z","name_a2s":"Uncletopia | Montréal | 2 | All Maps","protocol":17,"map":"pl_frontier_final","folder":"tf","game":"Team Fortress","app_id":440,"player_count":0,"max_players":24,"Bots":0,"server_type":"Dedicated","server_os":"Linux","password":true,"vac":true,"version":"7961495","steam_id":85568392924500088,"keywords":["nocrits","nodmgspread","payload","uncletopia"],"game_id":440,"stv_port":27026,"stv_name":"Uncletopia | Montréal | 2 | All Maps | STV","players":null},{"server_id":302,"name":"Uncletopia | Montréal | 3 | All Maps","name_short":"mtl-3","host":"mtl-1.ca.uncletopia.com","port":27035,"enabled":true,"region":"us-east","cc":"ca","latitude":45.50889,"longitude":-73.56167,"reserved":0,"last_update":"0001-01-01T00:00:00Z","name_a2s":"Uncletopia | Montréal | 3 | All Maps","protocol":17,"map":"koth_viaduct","folder":"tf","game":"Team Fortress","app_id":440,"player_count":0,"max_players":24,"Bots":0,"server_type":"Dedicated","server_os":"Linux","password":true,"vac":true,"version":"7961495","steam_id":85568392924500089,"keywords":["cp","nocrits","nodmgspread","uncletopia"],"game_id":440,"stv_port":27036,"stv_name":"Uncletopia | Montréal | 3 | All Maps | STV","players":null},{"server_id":303,"name":"Uncletopia | Montréal | 4 | No Payload","name_short":"mtl-4","host":"mtl-1.ca.uncletopia.com","port":27045,"enabled":true,"region":"us-east","cc":"ca","latitude":45.50889,"longitude":-73.56167,"reserved":0,"last_update":"0001-01-01T00:00:00Z","name_a2s":"Uncletopia | Montréal | 4 | No Payload","protocol":17,"map":"cp_mountainlab","folder":"tf","game":"Team Fortress","app_id":440,"player_count":0,"max_players":24,"Bots":0,"server_type":"Dedicated","server_os":"Linux","password":true,"vac":true,"version":"7961495","steam_id":85568392924500090,"keywords":["cp","nocrits","nodmgspread","uncletopia"],"game_id":440,"stv_port":27046,"stv_name":"Uncletopia | Montréal | 4 | No Payload | STV","players":null},{"server_id":13,"name":"Uncletopia | New York City | 1 | All Maps","name_short":"nyc-1","host":"nyc-1.us.uncletopia.com","port":27015,"enabled":true,"region":"us-east","cc":"us","latitude":40.73061,"longitude":-73.93524,"reserved":0,"last_update":"0001-01-01T00:00:00Z","name_a2s":"Uncletopia | New York City | 1 | All Maps","protocol":17,"map":"cp_dustbowl","folder":"tf","game":"Team Fortress","app_id":440,"player_count":0,"max_players":24,"Bots":0,"server_type":"Dedicated","server_os":"Linux","password":true,"vac":true,"version":"7961495","steam_id":85568392924469993,"keywords":["cp","nocrits","nodmgspread","uncletopia"],"game_id":440,"stv_port":27016,"stv_name":"Uncletopia | New York City | 1 | All Maps | STV","players":null},{"server_id":14,"name":"Uncletopia | New York City | 2 | All Maps","name_short":"nyc-2","host":"nyc-1.us.uncletopia.com","port":27025,"enabled":true,"region":"us-east","cc":"us","latitude":40.73061,"longitude":-73.93524,"reserved":0,"last_update":"0001-01-01T00:00:00Z","name_a2s":"Uncletopia | New York City | 2 | All Maps","protocol":17,"map":"cp_dustbowl","folder":"tf","game":"Team Fortress","app_id":440,"player_count":0,"max_players":24,"Bots":0,"server_type":"Dedicated","server_os":"Linux","password":true,"vac":true,"version":"7961495","steam_id":85568392924469994,"keywords":["cp","nocrits","nodmgspread","uncletopia"],"game_id":440,"stv_port":27026,"stv_name":"Uncletopia | New York City | 2 | All Maps | STV","players":null},{"server_id":15,"name":"Uncletopia | New York City | 3 | Stopwatch Beta","name_short":"nyc-3","host":"nyc-1.us.uncletopia.com","port":27035,"enabled":true,"region":"us-east","cc":"us","latitude":40.73061,"longitude":-73.93524,"reserved":0,"last_update":"0001-01-01T00:00:00Z","name_a2s":"Uncletopia | New York City | 3 | Stopwatch Beta","protocol":17,"map":"workshop/pl_badwater_pro_v12.ugc2142942074","folder":"tf","game":"Team Fortress","app_id":440,"player_count":0,"max_players":24,"Bots":0,"server_type":"Dedicated","server_os":"Linux","password":true,"vac":true,"version":"7961495","steam_id":85568392924742820,"keywords":["nocrits","nodmgspread","payload","uncletopia"],"game_id":440,"stv_port":27036,"stv_name":"Uncletopia | New York City | 3 | Stopwatch Beta | STV","players":null},{"server_id":16,"name":"Uncletopia | New York City | 4 | Community","name_short":"nyc-4","host":"nyc-1.us.uncletopia.com","port":27045,"enabled":true,"region":"us-east","cc":"us","latitude":40.73061,"longitude":-73.93524,"reserved":0,"last_update":"0001-01-01T00:00:00Z","name_a2s":"Uncletopia | New York City | 4 | Community","protocol":17,"map":"workshop/pl_corrode_rc2.ugc546577989","folder":"tf","game":"Team Fortress","app_id":440,"player_count":0,"max_players":24,"Bots":0,"server_type":"Dedicated","server_os":"Linux","password":true,"vac":true,"version":"7961495","steam_id":85568392924742821,"keywords":["nocrits","nodmgspread","payload","uncletopia"],"game_id":440,"stv_port":27046,"stv_name":"Uncletopia | New York City | 4 | Community | STV","players":null},{"server_id":142,"name":"Uncletopia | São Paulo | 1 | All Maps","name_short":"sao-1","host":"sao-1.br.uncletopia.com","port":27015,"enabled":true,"region":"sa","cc":"br","latitude":-23.533773,"longitude":-46.62529,"reserved":0,"last_update":"0001-01-01T00:00:00Z","name_a2s":"Uncletopia | São Paulo | 1 | All Maps","protocol":17,"map":"cp_process_final","folder":"tf","game":"Team Fortress","app_id":440,"player_count":0,"max_players":24,"Bots":0,"server_type":"Dedicated","server_os":"Linux","password":true,"vac":true,"version":"7961495","steam_id":85568392924469996,"keywords":["cp","nocrits","nodmgspread","uncletopia"],"game_id":440,"stv_port":27016,"stv_name":"Uncletopia | São Paulo | 1 | All Maps | STV","players":null},{"server_id":143,"name":"Uncletopia | São Paulo | 2 | All Maps","name_short":"sao-2","host":"sao-2.br.uncletopia.com","port":27015,"enabled":true,"region":"sa","cc":"br","latitude":-23.533773,"longitude":-46.62529,"reserved":0,"last_update":"0001-01-01T00:00:00Z","name_a2s":"Uncletopia | São Paulo | 2 | All Maps","protocol":17,"map":"koth_lakeside_final","folder":"tf","game":"Team Fortress","app_id":440,"player_count":0,"max_players":24,"Bots":0,"server_type":"Dedicated","server_os":"Linux","password":true,"vac":true,"version":"7961495","steam_id":85568392924485349,"keywords":["cp","nocrits","nodmgspread","uncletopia"],"game_id":440,"stv_port":27016,"stv_name":"Uncletopia | São Paulo | 2 | All Maps | STV","players":null},{"server_id":7,"name":"Uncletopia | Seattle | 1 | All Maps","name_short":"sea-1","host":"sea-1.us.uncletopia.com","port":27015,"enabled":true,"region":"us-west","cc":"us","latitude":47.608013,"longitude":-122.33517,"reserved":0,"last_update":"0001-01-01T00:00:00Z","name_a2s":"Uncletopia | Seattle | 1 | All Maps","protocol":17,"map":"pl_borneo","folder":"tf","game":"Team Fortress","app_id":440,"player_count":25,"max_players":24,"Bots":0,"server_type":"Dedicated","server_os":"Linux","password":true,"vac":true,"version":"7961495","steam_id":85568392924469997,"keywords":["nocrits","nodmgspread","payload","uncletopia"],"game_id":440,"stv_port":27016,"stv_name":"Uncletopia | Seattle | 1 | All Maps | STV","players":[{"user_id":389,"name":"swarm of bee","steam_id":76561198059604047,"connected_time":2665000000000,"state":"active","ping":38},{"user_id":315,"name":"Finkly","steam_id":76561198049828110,"connected_time":8825000000000,"state":"active","ping":44},{"user_id":295,"name":"Luca","steam_id":76561198125087140,"connected_time":11865000000000,"state":"active","ping":46},{"user_id":388,"name":"colespudzo","steam_id":76561198051127147,"connected_time":2666000000000,"state":"active","ping":45},{"user_id":406,"name":"fartstreaks enraged","steam_id":76561198046073848,"connected_time":1209000000000,"state":"active","ping":47},{"user_id":370,"name":"delight","steam_id":76561197980280272,"connected_time":4672000000000,"state":"active","ping":49},{"user_id":407,"name":"shane","steam_id":76561198060491451,"connected_time":1195000000000,"state":"active","ping":118},{"user_id":399,"name":"Scout that makes you look up","steam_id":76561198137627873,"connected_time":2161000000000,"state":"active","ping":48},{"user_id":331,"name":"rat gets the cheese","steam_id":76561198031234032,"connected_time":7516000000000,"state":"active","ping":93},{"user_id":391,"name":"A UsedNom","steam_id":76561198402832756,"connected_time":2651000000000,"state":"active","ping":85},{"user_id":387,"name":"Bishuhp","steam_id":76561198015062850,"connected_time":2670000000000,"state":"active","ping":54},{"user_id":403,"name":"gorlab","steam_id":76561198025089694,"connected_time":1234000000000,"state":"active","ping":69},{"user_id":358,"name":"im mr ____hed look at me","steam_id":76561198051751133,"connected_time":5221000000000,"state":"active","ping":61},{"user_id":404,"name":"Mii Guest C, From Wii Sports","steam_id":76561198197964803,"connected_time":1231000000000,"state":"active","ping":63},{"user_id":318,"name":"fwoov","steam_id":76561198129166260,"connected_time":8292000000000,"state":"active","ping":87},{"user_id":401,"name":"squash","steam_id":76561198150281353,"connected_time":1685000000000,"state":"active","ping":58},{"user_id":410,"name":"lavender","steam_id":76561199069518286,"connected_time":392000000000,"state":"active","ping":73},{"user_id":412,"name":"Stev the Prurient Oxymoron","steam_id":76561197999442625,"connected_time":226000000000,"state":"active","ping":66},{"user_id":376,"name":"Doctor™","steam_id":76561198134309750,"connected_time":4390000000000,"state":"active","ping":111},{"user_id":411,"name":"charm quark","steam_id":76561198098770777,"connected_time":366000000000,"state":"active","ping":59},{"user_id":408,"name":"Yammie","steam_id":76561197987304489,"connected_time":1157000000000,"state":"active","ping":51},{"user_id":384,"name":"reiidaya","steam_id":76561198325306660,"connected_time":3729000000000,"state":"active","ping":55},{"user_id":413,"name":"jorts","steam_id":76561199041179985,"connected_time":156000000000,"state":"active","ping":57},{"user_id":208,"name":"lusty","steam_id":76561198138478947,"connected_time":15829000000000,"state":"active","ping":44},{"user_id":311,"name":"NEBULA","steam_id":76561198086878595,"connected_time":9369000000000,"state":"active","ping":104}]},{"server_id":119,"name":"Uncletopia | Seattle | 2 | All Maps","name_short":"sea-2","host":"sea-1.us.uncletopia.com","port":27025,"enabled":true,"region":"us-west","cc":"us","latitude":47.608013,"longitude":-122.33517,"reserved":0,"last_update":"0001-01-01T00:00:00Z","name_a2s":"Uncletopia | Seattle | 2 | All Maps","protocol":17,"map":"koth_highpass","folder":"tf","game":"Team Fortress","app_id":440,"player_count":3,"max_players":24,"Bots":0,"server_type":"Dedicated","server_os":"Linux","password":true,"vac":true,"version":"7961495","steam_id":85568392924469998,"keywords":["nocrits","nodmgspread","payload","uncletopia"],"game_id":440,"stv_port":27026,"stv_name":"Uncletopia | Seattle | 2 | All Maps | STV","players":[{"user_id":375,"name":"Tuba","steam_id":76561198209166329,"connected_time":2743000000000,"state":"connecting","ping":112},{"user_id":379,"name":"beeble!","steam_id":76561198219538525,"connected_time":2388000000000,"state":"connecting","ping":120}]},{"server_id":406,"name":"Uncletopia | Seattle | 3 | Stopwatch Beta","name_short":"sea-3","host":"sea-1.us.uncletopia.com","port":27035,"enabled":true,"region":"us-west","cc":"us","latitude":47.608013,"longitude":-122.33517,"reserved":0,"last_update":"0001-01-01T00:00:00Z","name_a2s":"Uncletopia | Seattle | 3 | Stopwatch Beta","protocol":17,"map":"pl_swiftwater_final1","folder":"tf","game":"Team Fortress","app_id":440,"player_count":0,"max_players":24,"Bots":0,"server_type":"Dedicated","server_os":"Linux","password":true,"vac":true,"version":"7961495","steam_id":85568392924515217,"keywords":["nocrits","nodmgspread","payload","uncletopia"],"game_id":440,"stv_port":27036,"stv_name":"Uncletopia | Seattle | 3 | Stopwatch Beta | STV","players":null},{"server_id":17,"name":"Uncletopia | San Francisco | 1 | All Maps","name_short":"sfo-1","host":"sfo-1.us.uncletopia.com","port":27015,"enabled":true,"region":"us-west","cc":"us","latitude":37.77397,"longitude":-122.4313,"reserved":0,"last_update":"0001-01-01T00:00:00Z","name_a2s":"Uncletopia | San Francisco | 1 | All Maps","protocol":17,"map":"pl_frontier_final","folder":"tf","game":"Team Fortress","app_id":440,"player_count":0,"max_players":24,"Bots":0,"server_type":"Dedicated","server_os":"Linux","password":true,"vac":true,"version":"7932396","steam_id":85568392924469999,"keywords":["nocrits","nodmgspread","payload","uncletopia"],"game_id":440,"stv_port":27016,"stv_name":"Uncletopia | San Francisco | 1 | All Maps | STV","players":null},{"server_id":18,"name":"Uncletopia | San Francisco | 2 | All Maps","name_short":"sfo-2","host":"sfo-1.us.uncletopia.com","port":27025,"enabled":true,"region":"us-west","cc":"us","latitude":37.77397,"longitude":-122.4313,"reserved":0,"last_update":"0001-01-01T00:00:00Z","name_a2s":"Uncletopia | San Francisco | 2 | All Maps","protocol":17,"map":"cp_snakewater_final1","folder":"tf","game":"Team Fortress","app_id":440,"player_count":0,"max_players":24,"Bots":0,"server_type":"Dedicated","server_os":"Linux","password":true,"vac":true,"version":"7932396","steam_id":85568392924470000,"keywords":["cp","nocrits","nodmgspread","uncletopia"],"game_id":440,"stv_port":27026,"stv_name":"Uncletopia | San Francisco | 2 | All Maps | STV","players":null},{"server_id":19,"name":"Uncletopia | San Francisco | 3 | Stopwatch Beta","name_short":"sfo-3","host":"sfo-1.us.uncletopia.com","port":27035,"enabled":true,"region":"us-west","cc":"us","latitude":37.77397,"longitude":-122.4313,"reserved":0,"last_update":"0001-01-01T00:00:00Z","name_a2s":"Uncletopia | San Francisco | 3 | Stopwatch Beta","protocol":17,"map":"koth_lakeside_final","folder":"tf","game":"Team Fortress","app_id":440,"player_count":0,"max_players":24,"Bots":0,"server_type":"Dedicated","server_os":"Linux","password":true,"vac":true,"version":"7932396","steam_id":85568392924742824,"keywords":["cp","nocrits","nodmgspread","uncletopia"],"game_id":440,"stv_port":27036,"stv_name":"Uncletopia | San Francisco | 3 | Stopwatch Beta | STV","players":null},{"server_id":20,"name":"Uncletopia | San Francisco | 4 | Community","name_short":"sfo-4","host":"sfo-1.us.uncletopia.com","port":27045,"enabled":true,"region":"us-west","cc":"us","latitude":37.77397,"longitude":-122.4313,"reserved":0,"last_update":"0001-01-01T00:00:00Z","name_a2s":"Uncletopia | San Francisco | 4 | Community","protocol":17,"map":"pl_borneo","folder":"tf","game":"Team Fortress","app_id":440,"player_count":0,"max_players":24,"Bots":0,"server_type":"Dedicated","server_os":"Linux","password":true,"vac":true,"version":"7932396","steam_id":85568392924742826,"keywords":["nocrits","nodmgspread","payload","uncletopia"],"game_id":440,"stv_port":27046,"stv_name":"Uncletopia | San Francisco | 4 | Community | STV","players":null},{"server_id":141,"name":"Uncletopia | Sydney | 1 | All Maps","name_short":"syd-1","host":"syd-1.au.uncletopia.com","port":27015,"enabled":true,"region":"au","cc":"au","latitude":-33.865143,"longitude":151.2099,"reserved":0,"last_update":"0001-01-01T00:00:00Z","name_a2s":"Uncletopia | Sydney | 1 | All Maps","protocol":17,"map":"koth_cascade","folder":"tf","game":"Team Fortress","app_id":440,"player_count":2,"max_players":24,"Bots":0,"server_type":"Dedicated","server_os":"Linux","password":true,"vac":true,"version":"7961495","steam_id":85568392924470001,"keywords":["cp","nocrits","nodmgspread","uncletopia"],"game_id":440,"stv_port":27016,"stv_name":"Uncletopia | Sydney | 1 | All Maps | STV","players":[{"user_id":158,"name":"andrewhammo","steam_id":76561198312849831,"connected_time":1069000000000,"state":"active","ping":69},{"user_id":120,"name":"Hawk","steam_id":76561198135164277,"connected_time":3981000000000,"state":"active","ping":58}]},{"server_id":123,"name":"Uncletopia | Sydney | 2 | All Maps","name_short":"syd-2","host":"syd-1.au.uncletopia.com","port":27025,"enabled":true,"region":"au","cc":"au","latitude":-33.865143,"longitude":151.2099,"reserved":0,"last_update":"0001-01-01T00:00:00Z","name_a2s":"Uncletopia | Sydney | 2 | All Maps","protocol":17,"map":"cp_altitude","folder":"tf","game":"Team Fortress","app_id":440,"player_count":23,"max_players":24,"Bots":0,"server_type":"Dedicated","server_os":"Linux","password":true,"vac":true,"version":"7961495","steam_id":85568392924470002,"keywords":["cp","nocrits","nodmgspread","uncletopia"],"game_id":440,"stv_port":27026,"stv_name":"Uncletopia | Sydney | 2 | All Maps | STV","players":[{"user_id":100,"name":"Evil Dragons 11","steam_id":76561199010001803,"connected_time":1841000000000,"state":"active","ping":48},{"user_id":115,"name":"james16","steam_id":76561198362678073,"connected_time":390000000000,"state":"active","ping":40},{"user_id":116,"name":"Cock Gobbler [F2P]","steam_id":76561199205335227,"connected_time":317000000000,"state":"active","ping":200},{"user_id":107,"name":"CoolGuyMatt","steam_id":76561198009757360,"connected_time":1095000000000,"state":"active","ping":70},{"user_id":109,"name":"Qwertles","steam_id":76561198033779273,"connected_time":808000000000,"state":"active","ping":59},{"user_id":83,"name":"\u003e:FrozenDragon:\u003c","steam_id":76561198227960928,"connected_time":2789000000000,"state":"active","ping":96},{"user_id":44,"name":"A Burnt Cheeseburger","steam_id":76561198044178223,"connected_time":5420000000000,"state":"active","ping":66},{"user_id":104,"name":"spy exterminator","steam_id":76561199262584655,"connected_time":1358000000000,"state":"active","ping":62},{"user_id":105,"name":"movablellama","steam_id":76561199466321887,"connected_time":1336000000000,"state":"active","ping":79},{"user_id":113,"name":"Rashid Of The Dank Memes","steam_id":76561198281398078,"connected_time":673000000000,"state":"active","ping":63},{"user_id":93,"name":"SECT","steam_id":76561199122367855,"connected_time":2007000000000,"state":"active","ping":153},{"user_id":111,"name":"eric_","steam_id":76561198866211879,"connected_time":746000000000,"state":"active","ping":43},{"user_id":56,"name":"wom","steam_id":76561199375834537,"connected_time":4481000000000,"state":"active","ping":125},{"user_id":108,"name":"The Goon","steam_id":76561198434696450,"connected_time":984000000000,"state":"active","ping":161},{"user_id":58,"name":"Editor_Billy","steam_id":76561199165608946,"connected_time":4393000000000,"state":"active","ping":72},{"user_id":110,"name":"Penguin Wielder","steam_id":76561198169038889,"connected_time":797000000000,"state":"active","ping":58},{"user_id":92,"name":"kisses u","steam_id":76561198288970258,"connected_time":2099000000000,"state":"active","ping":52},{"user_id":117,"name":"Sandal Bomber™©","steam_id":76561198026823397,"connected_time":265000000000,"state":"active","ping":54},{"user_id":96,"name":"the children yearn for the mine","steam_id":76561198025225448,"connected_time":1927000000000,"state":"active","ping":79},{"user_id":63,"name":"Sterlingpace","steam_id":76561198217945053,"connected_time":4066000000000,"state":"active","ping":99},{"user_id":99,"name":"we stay silly :3","steam_id":76561198132937542,"connected_time":1893000000000,"state":"active","ping":61},{"user_id":98,"name":"come chill under the blanket!","steam_id":76561198150293480,"connected_time":1911000000000,"state":"active","ping":72},{"user_id":119,"name":"Johnny 2 pipes","steam_id":76561198971245592,"connected_time":32000000000,"state":"active","ping":67}]},{"server_id":395,"name":"Uncletopia | Sydney | 3 | All Maps","name_short":"syd-3","host":"syd-1.au.uncletopia.com","port":27035,"enabled":true,"region":"au","cc":"au","latitude":-33.865143,"longitude":151.2099,"reserved":0,"last_update":"0001-01-01T00:00:00Z","name_a2s":"Uncletopia | Sydney | 3 | All Maps","protocol":17,"map":"pl_pier","folder":"tf","game":"Team Fortress","app_id":440,"player_count":0,"max_players":24,"Bots":0,"server_type":"Dedicated","server_os":"Linux","password":true,"vac":true,"version":"7961495","steam_id":85568392925194467,"keywords":["nocrits","nodmgspread","payload","uncletopia"],"game_id":440,"stv_port":27036,"stv_name":"Uncletopia | Sydney | 3 | All Maps | STV","players":null},{"server_id":396,"name":"Uncletopia | Sydney | 4 | All Maps","name_short":"syd-4","host":"syd-1.au.uncletopia.com","port":27045,"enabled":true,"region":"au","cc":"au","latitude":-33.865143,"longitude":151.2099,"reserved":0,"last_update":"0001-01-01T00:00:00Z","name_a2s":"Uncletopia | Sydney | 4 | All Maps","protocol":17,"map":"koth_cascade","folder":"tf","game":"Team Fortress","app_id":440,"player_count":0,"max_players":24,"Bots":0,"server_type":"Dedicated","server_os":"Linux","password":true,"vac":true,"version":"7961495","steam_id":85568392925397958,"keywords":["cp","nocrits","nodmgspread","uncletopia"],"game_id":440,"stv_port":27046,"stv_name":"Uncletopia | Sydney | 4 | All Maps | STV","players":null},{"server_id":58,"name":"Uncletopia | Sydney | 5 | Stopwatch Beta","name_short":"syd-5","host":"syd-1.au.uncletopia.com","port":27055,"enabled":true,"region":"au","cc":"au","latitude":-33.865143,"longitude":151.2099,"reserved":0,"last_update":"0001-01-01T00:00:00Z","name_a2s":"Uncletopia | Sydney | 5 | Stopwatch Beta","protocol":17,"map":"koth_viaduct","folder":"tf","game":"Team Fortress","app_id":440,"player_count":0,"max_players":24,"Bots":0,"server_type":"Dedicated","server_os":"Linux","password":true,"vac":true,"version":"7961495","steam_id":85568392925397959,"keywords":["cp","nocrits","nodmgspread","uncletopia"],"game_id":440,"stv_port":27056,"stv_name":"Uncletopia | Sydney | 5 | Stopwatch Beta | STV","players":null},{"server_id":59,"name":"Uncletopia | Sydney | 6 | Community","name_short":"syd-6","host":"syd-1.au.uncletopia.com","port":27065,"enabled":true,"region":"au","cc":"au","latitude":-33.865143,"longitude":151.2099,"reserved":0,"last_update":"0001-01-01T00:00:00Z","name_a2s":"Uncletopia | Sydney | 6 | Community","protocol":17,"map":"pl_barnblitz","folder":"tf","game":"Team Fortress","app_id":440,"player_count":0,"max_players":24,"Bots":0,"server_type":"Dedicated","server_os":"Linux","password":true,"vac":true,"version":"7961495","steam_id":85568392925397960,"keywords":["nocrits","nodmgspread","payload","uncletopia"],"game_id":440,"stv_port":27066,"stv_name":"Uncletopia | Sydney | 6 | Community | STV","players":null},{"server_id":49,"name":"Uncletopia | Warsaw | 1 | All Maps","name_short":"waw-1","host":"waw-1.pl.uncletopia.com","port":27015,"enabled":true,"region":"eu","cc":"pl","latitude":52.2297,"longitude":21.017532,"reserved":0,"last_update":"0001-01-01T00:00:00Z","name_a2s":"","protocol":0,"map":"","folder":"","game":"","app_id":0,"player_count":0,"max_players":0,"Bots":0,"server_type":"","server_os":"","password":false,"vac":false,"version":"","steam_id":0,"keywords":null,"game_id":0,"stv_port":0,"stv_name":"","players":null},{"server_id":50,"name":"Uncletopia | Warsaw | 2 | All Maps","name_short":"waw-2","host":"waw-1.pl.uncletopia.com","port":27025,"enabled":true,"region":"eu","cc":"pl","latitude":52.2297,"longitude":21.017532,"reserved":0,"last_update":"0001-01-01T00:00:00Z","name_a2s":"Uncletopia | Warsaw | 2 | All Maps","protocol":17,"map":"cp_mountainlab","folder":"tf","game":"Team Fortress","app_id":440,"player_count":0,"max_players":24,"Bots":0,"server_type":"Dedicated","server_os":"Linux","password":true,"vac":true,"version":"7961495","steam_id":85568392925397851,"keywords":["cp","nocrits","nodmgspread","uncletopia"],"game_id":440,"stv_port":27026,"stv_name":"Uncletopia | Warsaw | 2 | All Maps | STV","players":null},{"server_id":51,"name":"Uncletopia | Warsaw | 3 | All Maps","name_short":"waw-3","host":"waw-1.pl.uncletopia.com","port":27035,"enabled":true,"region":"eu","cc":"pl","latitude":52.2297,"longitude":21.017532,"reserved":0,"last_update":"0001-01-01T00:00:00Z","name_a2s":"Uncletopia | Warsaw | 3 | All Maps","protocol":17,"map":"pl_barnblitz","folder":"tf","game":"Team Fortress","app_id":440,"player_count":0,"max_players":24,"Bots":0,"server_type":"Dedicated","server_os":"Linux","password":true,"vac":true,"version":"7961495","steam_id":85568392925397852,"keywords":["nocrits","nodmgspread","payload","uncletopia"],"game_id":440,"stv_port":27036,"stv_name":"Uncletopia | Warsaw | 3 | All Maps | STV","players":null},{"server_id":52,"name":"Uncletopia | Warsaw | 4 | All Maps","name_short":"waw-4","host":"waw-1.pl.uncletopia.com","port":27045,"enabled":true,"region":"eu","cc":"pl","latitude":52.2297,"longitude":21.017532,"reserved":0,"last_update":"0001-01-01T00:00:00Z","name_a2s":"Uncletopia | Warsaw | 4 | All Maps","protocol":17,"map":"cp_dustbowl","folder":"tf","game":"Team Fortress","app_id":440,"player_count":0,"max_players":24,"Bots":0,"server_type":"Dedicated","server_os":"Linux","password":true,"vac":true,"version":"7961495","steam_id":85568392925397853,"keywords":["cp","nocrits","nodmgspread","uncletopia"],"game_id":440,"stv_port":27046,"stv_name":"Uncletopia | Warsaw | 4 | All Maps | STV","players":null},{"server_id":53,"name":"Uncletopia | Warsaw | 5 | Stopwatch Beta","name_short":"waw-5","host":"waw-1.pl.uncletopia.com","port":27055,"enabled":true,"region":"eu","cc":"pl","latitude":52.2297,"longitude":21.017532,"reserved":0,"last_update":"0001-01-01T00:00:00Z","name_a2s":"Uncletopia | Warsaw | 5 | Stopwatch Beta","protocol":17,"map":"pl_snowycoast","folder":"tf","game":"Team Fortress","app_id":440,"player_count":0,"max_players":24,"Bots":0,"server_type":"Dedicated","server_os":"Linux","password":true,"vac":true,"version":"7961495","steam_id":85568392925397854,"keywords":["nocrits","nodmgspread","payload","uncletopia"],"game_id":440,"stv_port":27056,"stv_name":"Uncletopia | Warsaw | 5 | Stopwatch Beta | STV","players":null},{"server_id":54,"name":"Uncletopia | Warsaw | 6 | Community","name_short":"waw-6","host":"waw-1.pl.uncletopia.com","port":27065,"enabled":true,"region":"eu","cc":"pl","latitude":52.2297,"longitude":21.017532,"reserved":0,"last_update":"0001-01-01T00:00:00Z","name_a2s":"Uncletopia | Warsaw | 6 | Community","protocol":17,"map":"pl_borneo","folder":"tf","game":"Team Fortress","app_id":440,"player_count":0,"max_players":24,"Bots":0,"server_type":"Dedicated","server_os":"Linux","password":true,"vac":true,"version":"7961495","steam_id":85568392925397856,"keywords":["nocrits","nodmgspread","payload","uncletopia"],"game_id":440,"stv_port":27066,"stv_name":"Uncletopia | Warsaw | 6 | Community | STV","players":null}]}