{"status":true,"message":"","result":[{"server_id":9,"name":"Uncletopia | Atlanta | 1 | All Maps","name_short":"atl-1","host":"atl-1.us.uncletopia.com","port":27015,"enabled":true,"region":"us-east","cc":"us","latitude":33.753746,"longitude":-84.38633,"reserved":0,"last_update":"0001-01-01T00:00:00Z","name_a2s":"Uncletopia | Atlanta | 1 | All Maps","protocol":17,"map":"pl_swiftwater_final1","folder":"tf","game":"Team Fortress","app_id":440,"player_count":23,"max_players":24,"Bots":0,"server_type":"Dedicated","server_os":"Linux","password":true,"vac":true,"version":"7757534","steam_id":85568392924469982,"keywords":["nocrits","nodmgspread","payload","uncletopia"],"game_id":440,"stv_port":27016,"stv_name":"Uncletopia | Atlanta | 1 | All Maps | STV","players":[{"user_id":654,"name":"Nixie","steam_id":76561198978778718,"connected_time":1655000000000,"state":"active","ping":127},{"user_id":606,"name":"BLU1 | cola","steam_id":76561198374390458,"connected_time":6947000000000,"state":"active","ping":53},{"user_id":620,"name":"RED1 | eish","steam_id":76561198089463603,"connected_time":5254000000000,"state":"active","ping":114},{"user_id":610,"name":"RED1 | nomad","steam_id":76561197998740399,"connected_time":6704000000000,"state":"active","ping":64},{"user_id":662,"name":"rose","steam_id":76561198048882285,"connected_time":791000000000,"state":"active","ping":60},{"user_id":634,"name":"BotchyAlarm8","steam_id":76561198092682129,"connected_time":3266000000000,"state":"active","ping":81},{"user_id":635,"name":"Spy_Is_Pye","steam_id":76561199439622967,"connected_time":3248000000000,"state":"active","ping":74},{"user_id":632,"name":"Bandicario","steam_id":76561198432036026,"connected_time":3636000000000,"state":"active","ping":54},{"user_id":518,"name":"RED1 | Le4n!!!","steam_id":76561198045522596,"connected_time":19678000000000,"state":"active","ping":71},{"user_id":645,"name":"shaderoses","steam_id":76561198070800500,"connected_time":2245000000000,"state":"active","ping":72},{"user_id":568,"name":"BLU1 Save your wifi","steam_id":76561198286147372,"connected_time":12357000000000,"state":"active","ping":58},{"user_id":649,"name":"BLU1 | Psionic Box","steam_id":76561198151019322,"connected_time":2009000000000,"state":"active","ping":73},{"user_id":558,"name":"stink","steam_id":76561198099318923,"connected_time":13675000000000,"state":"active","ping":76},{"user_id":655,"name":"Psychosis","steam_id":76561198078659070,"connected_time":1639000000000,"state":"active","ping":74},{"user_id":636,"name":"Stuart Little 2","steam_id":76561198097272509,"connected_time":3247000000000,"state":"active","ping":34},{"user_id":650,"name":"Spoonful","steam_id":76561198927517471,"connected_time":1933000000000,"state":"active","ping":56},{"user_id":653,"name":"floofy","steam_id":76561198389769098,"connected_time":1747000000000,"state":"active","ping":87},{"user_id":638,"name":"xZackAttack27x","steam_id":76561198035446639,"connected_time":3197000000000,"state":"active","ping":61},{"user_id":564,"name":"melancholy","steam_id":76561198024301465,"connected_time":12423000000000,"state":"active","ping":51},{"user_id":658,"name":"joyeuxnoelle","steam_id":76561198062423120,"connected_time":1247000000000,"state":"active","ping":73},{"user_id":652,"name":"arashsmash","steam_id":76561198277649058,"connected_time":1845000000000,"state":"active","ping":75},{"user_id":663,"name":"Spiderfight1","steam_id":76561199189991528,"connected_time":519000000000,"state":"active","ping":74},{"user_id":661,"name":"Tremlin Grendel","steam_id":76561198048875455,"connected_time":800000000000,"state":"active","ping":79}]},{"server_id":400,"name":"Uncletopia | Atlanta | 3 | Stopwatch Beta","name_short":"atl-3","host":"atl-1.us.uncletopia.com","port":27035,"enabled":true,"region":"us-east","cc":"us","latitude":33.753746,"longitude":-84.38633,"reserved":0,"last_update":"0001-01-01T00:00:00Z","name_a2s":"Uncletopia | Atlanta | 3 | Stopwatch Beta","protocol":17,"map":"workshop/pl_barnblitz_pro7.ugc582280235","folder":"tf","game":"Team Fortress","app_id":440,"player_count":0,"max_players":24,"Bots":0,"server_type":"Dedicated","server_os":"Linux","password":true,"vac":true,"version":"7757534","steam_id":85568392924515187,"keywords":["nocrits","nodmgspread","payload","uncletopia"],"game_id":440,"stv_port":27036,"stv_name":"Uncletopia | Atlanta | 3 | Stopwatch Beta | STV","players":null},{"server_id":401,"name":"Uncletopia | Atlanta | 4 | No Payload","name_short":"atl-4","host":"atl-1.us.uncletopia.com","port":27045,"enabled":true,"region":"us-east","cc":"us","latitude":33.753746,"longitude":-84.38633,"reserved":0,"last_update":"0001-01-01T00:00:00Z","name_a2s":"Uncletopia | Atlanta | 4 | No Payload","protocol":17,"map":"pl_pier","folder":"tf","game":"Team Fortress","app_id":440,"player_count":0,"max_players":24,"Bots":0,"server_type":"Dedicated","server_os":"Linux","password":true,"vac":true,"version":"7723704","steam_id":85568392924515188,"keywords":["nocrits","nodmgspread","payload","uncletopia"],"game_id":440,"stv_port":27046,"stv_name":"Uncletopia | Atlanta | 4 | No Payload | STV","players":null},{"server_id":2,"name":"Uncletopia | Chicago | 1 | All Maps","name_short":"chi-1","host":"chi-1.us.uncletopia.com","port":27015,"enabled":true,"region":"us-central","cc":"us","latitude":41.881832,"longitude":-87.62318,"reserved":0,"last_update":"0001-01-01T00:00:00Z","name_a2s":"Uncletopia | Chicago | 1 | All Maps","protocol":17,"map":"pl_pier","folder":"tf","game":"Team Fortress","app_id":440,"player_count":24,"max_players":24,"Bots":0,"server_type":"Dedicated","server_os":"Linux","password":true,"vac":true,"version":"7757534","steam_id":85568392924469984,"keywords":["nocrits","nodmgspread","payload","uncletopia"],"game_id":440,"stv_port":27016,"stv_name":"Uncletopia | Chicago | 1 | All Maps | STV","players":[{"user_id":888,"name":"Random Dumbass","steam_id":76561198098144550,"connected_time":870000000000,"state":"active","ping":99},{"user_id":808,"name":"blob","steam_id":76561198122375328,"connected_time":4192000000000,"state":"active","ping":64},{"user_id":900,"name":"fred","steam_id":76561199187641532,"connected_time":447000000000,"state":"active","ping":73},{"user_id":903,"name":"Stock Medic","steam_id":76561198065479730,"connected_time":269000000000,"state":"active","ping":45},{"user_id":883,"name":"basic_shark","steam_id":76561198978549089,"connected_time":964000000000,"state":"active","ping":87},{"user_id":856,"name":"psychosuit","steam_id":76561199109551331,"connected_time":2298000000000,"state":"active","ping":88},{"user_id":877,"name":"Not Garry","steam_id":76561199386886472,"connected_time":1079000000000,"state":"active","ping":70},{"user_id":890,"name":"calube","steam_id":76561198029350858,"connected_time":785000000000,"state":"active","ping":88},{"user_id":867,"name":"GLURRIN","steam_id":76561198315690955,"connected_time":1959000000000,"state":"active","ping":57},{"user_id":878,"name":"mossy_woods","steam_id":76561198284350370,"connected_time":1065000000000,"state":"active","ping":80},{"user_id":879,"name":"Large Charles","steam_id":76561197999663001,"connected_time":1057000000000,"state":"active","ping":66},{"user_id":904,"name":"ali oop","steam_id":76561198057516213,"connected_time":204000000000,"state":"active","ping":79},{"user_id":864,"name":"redwater skooma","steam_id":76561198058013470,"connected_time":2225000000000,"state":"active","ping":72},{"user_id":905,"name":"F R O G","steam_id":76561198166604331,"connected_time":186000000000,"state":"active","ping":86},{"user_id":907,"name":"SorenMaximus","steam_id":76561198962936832,"connected_time":126000000000,"state":"active","ping":100},{"user_id":881,"name":"TheSnipersHat","steam_id":76561198057684066,"connected_time":997000000000,"state":"active","ping":49},{"user_id":902,"name":"Tyco","steam_id":76561197978414167,"connected_time":290000000000,"state":"active","ping":89},{"user_id":885,"name":"MasterGeek.MX","steam_id":76561198063355220,"connected_time":914000000000,"state":"active","ping":136},{"user_id":908,"name":"Melon Man Of Melon","steam_id":76561198074803752,"connected_time":68000000000,"state":"active","ping":91},{"user_id":899,"name":"tildebee","steam_id":76561198064203487,"connected_time":583000000000,"state":"active","ping":61},{"user_id":896,"name":"Jesus","steam_id":76561198018890911,"connected_time":706000000000,"state":"active","ping":59},{"user_id":906,"name":"CartNip","steam_id":76561198290916628,"connected_time":185000000000,"state":"active","ping":84},{"user_id":818,"name":"Notorious Criminal Prawo Jazdy","steam_id":76561198339011254,"connected_time":4071000000000,"state":"active","ping":86},{"user_id":876,"name":"Davidbruh","steam_id":76561199374143638,"connected_time":1157000000000,"state":"active","ping":84}]},{"server_id":106,"name":"Uncletopia | Chicago | 2 | All Maps","name_short":"chi-2","host":"chi-1.us.uncletopia.com","port":27025,"enabled":true,"region":"us-central","cc":"us","latitude":41.881832,"longitude":-87.62318,"reserved":0,"last_update":"0001-01-01T00:00:00Z","name_a2s":"Uncletopia | Chicago | 2 | All Maps","protocol":17,"map":"pl_badwater","folder":"tf","game":"Team Fortress","app_id":440,"player_count":24,"max_players":24,"Bots":0,"server_type":"Dedicated","server_os":"Linux","password":true,"vac":true,"version":"7757534","steam_id":85568392924469985,"keywords":["nocrits","nodmgspread","payload","uncletopia"],"game_id":440,"stv_port":27026,"stv_name":"Uncletopia | Chicago | 2 | All Maps | STV","players":[{"user_id":881,"name":"tim-","steam_id":76561199119101315,"connected_time":488000000000,"state":"active","ping":69},{"user_id":876,"name":"McDumDum","steam_id":76561198040738807,"connected_time":654000000000,"state":"active","ping":85},{"user_id":873,"name":"agent P","steam_id":76561199251829030,"connected_time":866000000000,"state":"active","ping":66},{"user_id":877,"name":"Wyv3rn_is","steam_id":76561199037791415,"connected_time":640000000000,"state":"active","ping":99},{"user_id":835,"name":"[50] domo","steam_id":76561198048026825,"connected_time":2116000000000,"state":"active","ping":104},{"user_id":870,"name":"Haula","steam_id":76561198076586592,"connected_time":1035000000000,"state":"active","ping":80},{"user_id":836,"name":"R4wbeef","steam_id":76561198178072673,"connected_time":2099000000000,"state":"active","ping":140},{"user_id":885,"name":"Double Tapp","steam_id":76561197993847700,"connected_time":363000000000,"state":"active","ping":96},{"user_id":833,"name":"I Rush ⁧⁧Russians","steam_id":76561198119454013,"connected_time":2333000000000,"state":"active","ping":78},{"user_id":886,"name":"Samantha UwUwU \u003c333","steam_id":76561198176786799,"connected_time":333000000000,"state":"active","ping":75},{"user_id":872,"name":"HiddenEgg","steam_id":76561199045105518,"connected_time":878000000000,"state":"active","ping":113},{"user_id":837,"name":"Supreme Mega Gamer Master","steam_id":76561198000715387,"connected_time":2075000000000,"state":"active","ping":115},{"user_id":875,"name":"akirajimbo","steam_id":76561197979960008,"connected_time":699000000000,"state":"active","ping":54},{"user_id":878,"name":"All 24 Pokémon movies at once","steam_id":76561198164738311,"connected_time":565000000000,"state":"active","ping":63},{"user_id":879,"name":"24dustin1","steam_id":76561198059506390,"connected_time":529000000000,"state":"active","ping":96},{"user_id":874,"name":"spaghetticonfetti","steam_id":76561198069600113,"connected_time":842000000000,"state":"active","ping":59},{"user_id":849,"name":"KritzKow","steam_id":76561198086164003,"connected_time":1919000000000,"state":"active","ping":108},{"user_id":841,"name":"MoopStoop","steam_id":76561198140936620,"connected_time":2001000000000,"state":"active","ping":73},{"user_id":844,"name":"Sham Cow","steam_id":76561198064556977,"connected_time":1995000000000,"state":"active","ping":88},{"user_id":869,"name":"dP | I'm in a Wookie Suit","steam_id":76561198083307644,"connected_time":1076000000000,"state":"active","ping":113},{"user_id":887,"name":"BigOrca54","steam_id":76561198181360271,"connected_time":258000000000,"state":"active","ping":57},{"user_id":882,"name":"3-13","steam_id":76561198063929021,"connected_time":475000000000,"state":"active","ping":79},{"user_id":821,"name":"brn","steam_id":76561198118211523,"connected_time":2915000000000,"state":"active","ping":60},{"user_id":884,"name":"󠀡󠀡","steam_id":76561198852855840,"connected_time":379000000000,"state":"active","ping":115}]},{"server_id":402,"name":"Uncletopia | Chicago | 3 | All Maps","name_short":"chi-3","host":"chi-1.us.uncletopia.com","port":27035,"enabled":true,"region":"us-central","cc":"us","latitude":41.881832,"longitude":-87.62318,"reserved":0,"last_update":"0001-01-01T00:00:00Z","name_a2s":"Uncletopia | Chicago | 3 | All Maps","protocol":17,"map":"pl_borneo","folder":"tf","game":"Team Fortress","app_id":440,"player_count":2,"max_players":24,"Bots":0,"server_type":"Dedicated","server_os":"Linux","password":true,"vac":true,"version":"7757534","steam_id":85568392924515191,"keywords":["nocrits","nodmgspread","payload","uncletopia"],"game_id":440,"stv_port":27036,"stv_name":"Uncletopia | Chicago | 3 | All Maps | STV","players":[{"user_id":638,"name":"watchfull","steam_id":76561198433266742,"connected_time":2318000000000,"state":"active","ping":112},{"user_id":639,"name":"Elegant Ejaculation","steam_id":76561198014190878,"connected_time":2270000000000,"state":"active","ping":102}]},{"server_id":403,"name":"Uncletopia | Chicago | 4 | All Maps","name_short":"chi-4","host":"chi-1.us.uncletopia.com","port":27045,"enabled":true,"region":"us-central","cc":"us","latitude":41.881832,"longitude":-87.62318,"reserved":0,"last_update":"0001-01-01T00:00:00Z","name_a2s":"Uncletopia | Chicago | 4 | All Maps","protocol":17,"map":"pl_frontier_final","folder":"tf","game":"Team Fortress","app_id":440,"player_count":24,"max_players":24,"Bots":0,"server_type":"Dedicated","server_os":"Linux","password":true,"vac":true,"version":"7757534","steam_id":85568392924515193,"keywords":["nocrits","nodmgspread","payload","uncletopia"],"game_id":440,"stv_port":27046,"stv_name":"Uncletopia | Chicago | 4 | All Maps | STV","players":[{"user_id":690,"name":"--_Cook_--","steam_id":76561198080855748,"connected_time":1420000000000,"state":"active","ping":48},{"user_id":651,"name":"Wild_Rumpus","steam_id":76561198066393719,"connected_time":3834000000000,"state":"active","ping":74},{"user_id":684,"name":"Cpapi","steam_id":76561198027779564,"connected_time":2019000000000,"state":"active","ping":56},{"user_id":691,"name":"Regi","steam_id":76561198271508598,"connected_time":1420000000000,"state":"active","ping":57},{"user_id":711,"name":"NIL8er","steam_id":76561198404909720,"connected_time":142000000000,"state":"active","ping":49},{"user_id":675,"name":"The Muffin Man","steam_id":76561199088286427,"connected_time":2673000000000,"state":"active","ping":98},{"user_id":709,"name":"KingQuaken","steam_id":76561198140733826,"connected_time":650000000000,"state":"active","ping":76},{"user_id":653,"name":"GC.sibling bane","steam_id":76561198196769297,"connected_time":3816000000000,"state":"active","ping":51},{"user_id":685,"name":"daemon","steam_id":76561198001541433,"connected_time":2004000000000,"state":"active","ping":59},{"user_id":654,"name":"GC.loafe","steam_id":76561198119679320,"connected_time":3792000000000,"state":"active","ping":60},{"user_id":702,"name":"CatLike Pigeon","steam_id":76561198171716030,"connected_time":794000000000,"state":"active","ping":114},{"user_id":703,"name":"None of that $9.99 bullshit","steam_id":76561198116169903,"connected_time":791000000000,"state":"active","ping":60},{"user_id":662,"name":"John Yakuza","steam_id":76561198112388117,"connected_time":3122000000000,"state":"active","ping":79},{"user_id":710,"name":"three three","steam_id":76561198177354155,"connected_time":261000000000,"state":"active","ping":64},{"user_id":655,"name":"Wug","steam_id":76561198084112264,"connected_time":3786000000000,"state":"active","ping":84},{"user_id":697,"name":"MoonWolf","steam_id":76561198095735033,"connected_time":981000000000,"state":"active","ping":85},{"user_id":705,"name":"Slug Warrior","steam_id":76561197996052704,"connected_time":754000000000,"state":"active","ping":80},{"user_id":666,"name":"Fresh0c0","steam_id":76561198271933283,"connected_time":2943000000000,"state":"active","ping":59},{"user_id":695,"name":"sussymeister","steam_id":76561198294281809,"connected_time":1101000000000,"state":"active","ping":90},{"user_id":694,"name":"John Taxenfraud","steam_id":76561199011358805,"connected_time":1125000000000,"state":"active","ping":82},{"user_id":707,"name":"mrstealthg","steam_id":76561198059088381,"connected_time":684000000000,"state":"active","ping":115},{"user_id":673,"name":"./nlopreste2.sh","steam_id":76561198042562744,"connected_time":2789000000000,"state":"active","ping":60},{"user_id":699,"name":"GC.windowfart","steam_id":76561198103508487,"connected_time":951000000000,"state":"active","ping":56},{"user_id":708,"name":"Boxxed","steam_id":76561198255787237,"connected_time":666000000000,"state":"active","ping":76}]},{"server_id":36,"name":"Uncletopia | Chicago | 5 | All Maps","name_short":"chi-5","host":"chi-2.us.uncletopia.com","port":27015,"enabled":true,"region":"us-central","cc":"us","latitude":41.881832,"longitude":-87.62318,"reserved":0,"last_update":"0001-01-01T00:00:00Z","name_a2s":"Uncletopia | Chicago | 5 | All Maps","protocol":17,"map":"pl_upward","folder":"tf","game":"Team Fortress","app_id":440,"player_count":24,"max_players":24,"Bots":0,"server_type":"Dedicated","server_os":"Linux","password":true,"vac":true,"version":"7757534","steam_id":85568392924866362,"keywords":["nocrits","nodmgspread","payload","uncletopia"],"game_id":440,"stv_port":27016,"stv_name":"Uncletopia | Chicago | 5 | All Maps | STV","players":[{"user_id":305,"name":"futuresauce","steam_id":76561198273727757,"connected_time":447000000000,"state":"active","ping":100},{"user_id":257,"name":"Bear Pants","steam_id":76561198078751566,"connected_time":4247000000000,"state":"active","ping":59},{"user_id":297,"name":"tree","steam_id":76561198116885731,"connected_time":1032000000000,"state":"active","ping":58},{"user_id":306,"name":"snow","steam_id":76561198018184698,"connected_time":434000000000,"state":"active","ping":70},{"user_id":302,"name":"SpinetinglingToast","steam_id":76561198099470670,"connected_time":701000000000,"state":"active","ping":76},{"user_id":301,"name":"vvichael","steam_id":76561198238148528,"connected_time":814000000000,"state":"active","ping":67},{"user_id":315,"name":"Cleric","steam_id":76561198045887994,"connected_time":128000000000,"state":"active","ping":47},{"user_id":299,"name":"Doinnoid","steam_id":76561198262276139,"connected_time":961000000000,"state":"active","ping":65},{"user_id":240,"name":"melon soda","steam_id":76561198066748230,"connected_time":4994000000000,"state":"active","ping":69},{"user_id":256,"name":"[RH] Al Fire 101","steam_id":76561197975696892,"connected_time":4258000000000,"state":"active","ping":66},{"user_id":52,"name":"Phil Collins","steam_id":76561198068868644,"connected_time":19664000000000,"state":"active","ping":104},{"user_id":259,"name":"Dylan","steam_id":76561198060996590,"connected_time":4213000000000,"state":"active","ping":101},{"user_id":310,"name":"kramer","steam_id":76561198117761965,"connected_time":321000000000,"state":"active","ping":69},{"user_id":269,"name":"deadpixel","steam_id":76561198150249843,"connected_time":2985000000000,"state":"active","ping":46},{"user_id":279,"name":"Megadesk","steam_id":76561198078219641,"connected_time":2628000000000,"state":"active","ping":82},{"user_id":308,"name":"3 spooky 5 me","steam_id":76561199049488718,"connected_time":386000000000,"state":"active","ping":86},{"user_id":290,"name":"uwutang clan","steam_id":76561198361326855,"connected_time":1536000000000,"state":"active","ping":54},{"user_id":309,"name":"Lucy","steam_id":76561198032590343,"connected_time":372000000000,"state":"active","ping":102},{"user_id":296,"name":"Cdesmondd","steam_id":76561198072774462,"connected_time":1093000000000,"state":"active","ping":64},{"user_id":311,"name":"SoZetta","steam_id":76561198058964330,"connected_time":306000000000,"state":"active","ping":101},{"user_id":105,"name":"ApricotOcelot","steam_id":76561198128393362,"connected_time":15894000000000,"state":"active","ping":70},{"user_id":248,"name":"mtnQ","steam_id":76561198024026924,"connected_time":4668000000000,"state":"active","ping":52},{"user_id":277,"name":"googy doogy","steam_id":76561199025852100,"connected_time":2817000000000,"state":"active","ping":66},{"user_id":314,"name":"North Central Positronics Rep","steam_id":76561198133718360,"connected_time":209000000000,"state":"active","ping":63}]},{"server_id":37,"name":"Uncletopia | Chicago | 6 | All Maps","name_short":"chi-6","host":"chi-2.us.uncletopia.com","port":27025,"enabled":true,"region":"us-central","cc":"us","latitude":41.881832,"longitude":-87.62318,"reserved":0,"last_update":"0001-01-01T00:00:00Z","name_a2s":"Uncletopia | Chicago | 6 | All Maps","protocol":17,"map":"cp_dustbowl","folder":"tf","game":"Team Fortress","app_id":440,"player_count":6,"max_players":24,"Bots":0,"server_type":"Dedicated","server_os":"Linux","password":true,"vac":true,"version":"7757534","steam_id":85568392924866363,"keywords":["cp","nocrits","nodmgspread","uncletopia"],"game_id":440,"stv_port":27026,"stv_name":"Uncletopia | Chicago | 6 | All Maps | STV","players":[{"user_id":408,"name":"awen","steam_id":76561198435786079,"connected_time":759000000000,"state":"active","ping":71},{"user_id":410,"name":"Zero","steam_id":76561199383267408,"connected_time":632000000000,"state":"active","ping":71},{"user_id":411,"name":"Fi \u003c3","steam_id":76561198315348942,"connected_time":516000000000,"state":"active","ping":117},{"user_id":412,"name":"frappe444","steam_id":76561199032973937,"connected_time":510000000000,"state":"active","ping":115},{"user_id":414,"name":"loco503","steam_id":76561198827495121,"connected_time":60000000000,"state":"active","ping":104},{"user_id":413,"name":"Makali","steam_id":76561198839601234,"connected_time":479000000000,"state":"active","ping":112}]},{"server_id":38,"name":"Uncletopia | Chicago | 7 | Stopwatch Beta","name_short":"chi-7","host":"chi-2.us.uncletopia.com","port":27035,"enabled":true,"region":"us-central","cc":"us","latitude":41.881832,"longitude":-87.62318,"reserved":0,"last_update":"0001-01-01T00:00:00Z","name_a2s":"Uncletopia | Chicago | 7 | Stopwatch Beta","protocol":17,"map":"cp_gullywash_final1","folder":"tf","game":"Team Fortress","app_id":440,"player_count":6,"max_players":24,"Bots":0,"server_type":"Dedicated","server_os":"Linux","password":true,"vac":true,"version":"7757534","steam_id":85568392924866364,"keywords":["cp","nocrits","nodmgspread","uncletopia"],"game_id":440,"stv_port":27036,"stv_name":"Uncletopia | Chicago | 7 | Stopwatch Beta | STV","players":[{"user_id":17,"name":"lquidtoastt","steam_id":76561199096349404,"connected_time":4390000000000,"state":"active","ping":45},{"user_id":18,"name":"toxic_raptor","steam_id":76561199387886048,"connected_time":4323000000000,"state":"active","ping":68},{"user_id":25,"name":"i_like_warhammer40k","steam_id":76561198351403725,"connected_time":716000000000,"state":"active","ping":126},{"user_id":21,"name":"DeeepSleeep","steam_id":76561198020323529,"connected_time":1924000000000,"state":"active","ping":70},{"user_id":22,"name":"Sentry gun (built by hue ganis)","steam_id":76561199192576269,"connected_time":1762000000000,"state":"active","ping":112},{"user_id":26,"name":"Hijackdoestuff","steam_id":76561198217048999,"connected_time":295000000000,"state":"active","ping":265}]},{"server_id":39,"name":"Uncletopia | Chicago | 8 | Community","name_short":"chi-8","host":"chi-2.us.uncletopia.com","port":27045,"enabled":true,"region":"us-central","cc":"us","latitude":41.881832,"longitude":-87.62318,"reserved":0,"last_update":"0001-01-01T00:00:00Z","name_a2s":"Uncletopia | Chicago | 8 | Community","protocol":17,"map":"workshop/koth_bagel_rc5.ugc2514036946","folder":"tf","game":"Team Fortress","app_id":440,"player_count":0,"max_players":24,"Bots":0,"server_type":"Dedicated","server_os":"Linux","password":true,"vac":true,"version":"7757534","steam_id":85568392924866365,"keywords":["cp","nocrits","nodmgspread","uncletopia"],"game_id":440,"stv_port":27046,"stv_name":"Uncletopia | Chicago | 8 | Community | STV","players":null},{"server_id":8,"name":"Uncletopia | Dallas | 1 | All Maps","name_short":"dal-1","host":"dal-1.us.uncletopia.com","port":27015,"enabled":true,"region":"us-central","cc":"us","latitude":32.779167,"longitude":-96.80889,"reserved":0,"last_update":"0001-01-01T00:00:00Z","name_a2s":"Uncletopia | Dallas | 1 | All Maps","protocol":17,"map":"cp_altitude","folder":"tf","game":"Team Fortress","app_id":440,"player_count":24,"max_players":24,"Bots":0,"server_type":"Dedicated","server_os":"Linux","password":true,"vac":true,"version":"7757534","steam_id":85568392924469986,"keywords":["cp","nocrits","nodmgspread","uncletopia"],"game_id":440,"stv_port":27016,"stv_name":"Uncletopia | Dallas | 1 | All Maps | STV","players":[{"user_id":686,"name":"Faust main","steam_id":76561198971799149,"connected_time":2227000000000,"state":"active","ping":66},{"user_id":702,"name":"IggyYT","steam_id":76561198317980567,"connected_time":324000000000,"state":"active","ping":72},{"user_id":697,"name":"Drake from State Farm","steam_id":76561199069029812,"connected_time":1873000000000,"state":"active","ping":84},{"user_id":666,"name":"{ST} Oxythemoron","steam_id":76561198060089965,"connected_time":4815000000000,"state":"active","ping":63},{"user_id":565,"name":"The Robot Menace","steam_id":76561198043390413,"connected_time":11514000000000,"state":"active","ping":49},{"user_id":619,"name":"Lamy","steam_id":76561198348354629,"connected_time":9039000000000,"state":"active","ping":118},{"user_id":568,"name":"Mitty","steam_id":76561198014177684,"connected_time":11367000000000,"state":"active","ping":86},{"user_id":683,"name":"peee pee man","steam_id":76561198044979205,"connected_time":2794000000000,"state":"active","ping":85},{"user_id":667,"name":"Greg Boberton 2012","steam_id":76561198983566026,"connected_time":4093000000000,"state":"active","ping":80},{"user_id":701,"name":"BeerDrinker49000000000","steam_id":76561198846515168,"connected_time":796000000000,"state":"active","ping":93},{"user_id":704,"name":"xd Clover","steam_id":76561198038905361,"connected_time":300000000000,"state":"active","ping":75},{"user_id":566,"name":"Grinski","steam_id":76561198054787727,"connected_time":11506000000000,"state":"active","ping":105},{"user_id":687,"name":"Mister Teardrop","steam_id":76561198067177025,"connected_time":2205000000000,"state":"active","ping":70},{"user_id":690,"name":"foucault","steam_id":76561198043411930,"connected_time":2167000000000,"state":"active","ping":79},{"user_id":695,"name":"kezia","steam_id":76561198059815894,"connected_time":1979000000000,"state":"active","ping":66},{"user_id":628,"name":"Dreamy Sweat from 2hu","steam_id":76561198094602446,"connected_time":7892000000000,"state":"active","ping":60},{"user_id":691,"name":"「Jimbo Reference」","steam_id":76561198016078541,"connected_time":2159000000000,"state":"active","ping":85},{"user_id":703,"name":"Tots","steam_id":76561198027485007,"connected_time":316000000000,"state":"active","ping":56},{"user_id":696,"name":"TheTinyNickel","steam_id":76561199125181471,"connected_time":1966000000000,"state":"active","ping":50},{"user_id":678,"name":"Cardboardcoin","steam_id":76561199421284163,"connected_time":3163000000000,"state":"active","ping":119},{"user_id":705,"name":"TokyoJade","steam_id":76561198136297393,"connected_time":287000000000,"state":"active","ping":93},{"user_id":659,"name":"Etomb","steam_id":76561198210017208,"connected_time":5219000000000,"state":"active","ping":113},{"user_id":706,"name":"karbomb","steam_id":76561198120744480,"connected_time":279000000000,"state":"active","ping":45},{"user_id":694,"name":"SneakyRocks","steam_id":76561198201694213,"connected_time":2123000000000,"state":"active","ping":83}]},{"server_id":108,"name":"Uncletopia | Dallas | 2 | All Maps","name_short":"dal-2","host":"dal-1.us.uncletopia.com","port":27025,"enabled":true,"region":"us-central","cc":"us","latitude":32.779167,"longitude":-96.80889,"reserved":0,"last_update":"0001-01-01T00:00:00Z","name_a2s":"Uncletopia | Dallas | 2 | All Maps","protocol":17,"map":"pl_barnblitz","folder":"tf","game":"Team Fortress","app_id":440,"player_count":0,"max_players":24,"Bots":0,"server_type":"Dedicated","server_os":"Linux","password":true,"vac":true,"version":"7757534","steam_id":85568392924469988,"keywords":["nocrits","nodmgspread","payload","uncletopia"],"game_id":440,"stv_port":27026,"stv_name":"Uncletopia | Dallas | 2 | All Maps | STV","players":null},{"server_id":5,"name":"Uncletopia | Frankfurt | 1 | All Maps","name_short":"frk-1","host":"frk-1.de.uncletopia.com","port":27015,"enabled":true,"region":"eu","cc":"de","latitude":50.110924,"longitude":8.682127,"reserved":0,"last_update":"0001-01-01T00:00:00Z","name_a2s":"Uncletopia | Frankfurt | 1 | All Maps","protocol":17,"map":"pl_borneo","folder":"tf","game":"Team Fortress","app_id":440,"player_count":0,"max_players":24,"Bots":0,"server_type":"Dedicated","server_os":"Linux","password":true,"vac":true,"version":"7757534","steam_id":85568392924469989,"keywords":["nocrits","nodmgspread","payload","uncletopia"],"game_id":440,"stv_port":27016,"stv_name":"Uncletopia | Frankfurt | 1 | All Maps | STV","players":null},{"server_id":110,"name":"Uncletopia | Frankfurt | 2 | All Maps","name_short":"frk-2","host":"frk-1.de.uncletopia.com","port":27025,"enabled":true,"region":"eu","cc":"de","latitude":50.110924,"longitude":8.682127,"reserved":0,"last_update":"0001-01-01T00:00:00Z","name_a2s":"Uncletopia | Frankfurt | 2 | All Maps","protocol":17,"map":"cp_altitude","folder":"tf","game":"Team Fortress","app_id":440,"player_count":0,"max_players":24,"Bots":0,"server_type":"Dedicated","server_os":"Linux","password":true,"vac":true,"version":"7757534","steam_id":85568392924469990,"keywords":["cp","nocrits","nodmgspread","uncletopia"],"game_id":440,"stv_port":27026,"stv_name":"Uncletopia | Frankfurt | 2 | All Maps | STV","players":null},{"server_id":308,"name":"Uncletopia | Frankfurt | 3 | All Maps","name_short":"frk-3","host":"frk-1.de.uncletopia.com","port":27035,"enabled":true,"region":"eu","cc":"de","latitude":50.110924,"longitude":8.682127,"reserved":0,"last_update":"0001-01-01T00:00:00Z","name_a2s":"Uncletopia | Frankfurt | 3 | All Maps","protocol":17,"map":"pl_barnblitz","folder":"tf","game":"Team Fortress","app_id":440,"player_count":0,"max_players":24,"Bots":0,"server_type":"Dedicated","server_os":"Linux","password":true,"vac":true,"version":"7757534","steam_id":85568392924504274,"keywords":["nocrits","nodmgspread","payload","uncletopia"],"game_id":440,"stv_port":27036,"stv_name":"Uncletopia | Frankfurt | 3 | All Maps | STV","players":null},{"server_id":309,"name":"Uncletopia | Frankfurt | 4 | All Maps","name_short":"frk-4","host":"frk-1.de.uncletopia.com","port":27045,"enabled":true,"region":"eu","cc":"de","latitude":50.110924,"longitude":8.682127,"reserved":0,"last_update":"0001-01-01T00:00:00Z","name_a2s":"Uncletopia | Frankfurt | 4 | All Maps","protocol":17,"map":"pl_snowycoast","folder":"tf","game":"Team Fortress","app_id":440,"player_count":0,"max_players":24,"Bots":0,"server_type":"Dedicated","server_os":"Linux","password":true,"vac":true,"version":"7757534","steam_id":85568392924504275,"keywords":["nocrits","nodmgspread","payload","uncletopia"],"game_id":440,"stv_port":27046,"stv_name":"Uncletopia | Frankfurt | 4 | All Maps | STV","players":null},{"server_id":310,"name":"Uncletopia | Frankfurt | 5 | All Maps","name_short":"frk-5","host":"frk-1.de.uncletopia.com","port":27055,"enabled":true,"region":"eu","cc":"de","latitude":50.110924,"longitude":8.682127,"reserved":0,"last_update":"0001-01-01T00:00:00Z","name_a2s":"Uncletopia | Frankfurt | 5 | All Maps","protocol":17,"map":"cp_altitude","folder":"tf","game":"Team Fortress","app_id":440,"player_count":0,"max_players":24,"Bots":0,"server_type":"Dedicated","server_os":"Linux","password":true,"vac":true,"version":"7757534","steam_id":85568392924504277,"keywords":["cp","nocrits","nodmgspread","uncletopia"],"game_id":440,"stv_port":27056,"stv_name":"Uncletopia | Frankfurt | 5 | All Maps | STV","players":null},{"server_id":311,"name":"Uncletopia | Frankfurt | 6 | All Maps","name_short":"frk-6","host":"frk-1.de.uncletopia.com","port":27065,"enabled":true,"region":"eu","cc":"de","latitude":50.110924,"longitude":8.682127,"reserved":0,"last_update":"0001-01-01T00:00:00Z","name_a2s":"Uncletopia | Frankfurt | 6 | All Maps","protocol":17,"map":"koth_highpass","folder":"tf","game":"Team Fortress","app_id":440,"player_count":0,"max_players":24,"Bots":0,"server_type":"Dedicated","server_os":"Linux","password":true,"vac":true,"version":"7757534","steam_id":85568392924504278,"keywords":["cp","nocrits","nodmgspread","uncletopia"],"game_id":440,"stv_port":27066,"stv_name":"Uncletopia | Frankfurt | 6 | All Maps | STV","players":null},{"server_id":23,"name":"Uncletopia | Frankfurt | 7 | Stopwatch Beta","name_short":"frk-7","host":"frk-1.de.uncletopia.com","port":27075,"enabled":true,"region":"eu","cc":"de","latitude":50.110924,"longitude":8.682127,"reserved":0,"last_update":"0001-01-01T00:00:00Z","name_a2s":"Uncletopia | Frankfurt | 7 | Stopwatch Beta","protocol":17,"map":"pl_borneo","folder":"tf","game":"Team Fortress","app_id":440,"player_count":0,"max_players":24,"Bots":0,"server_type":"Dedicated","server_os":"Linux","password":true,"vac":true,"version":"7757534","steam_id":85568392924742827,"keywords":["nocrits","nodmgspread","payload","uncletopia"],"game_id":440,"stv_port":27076,"stv_name":"Uncletopia | Frankfurt | 7 | Stopwatch Beta | STV","players":null},{"server_id":24,"name":"Uncletopia | Frankfurt | 8 | Community","name_short":"frk-8","host":"frk-1.de.uncletopia.com","port":27085,"enabled":true,"region":"eu","cc":"de","latitude":50.110924,"longitude":8.682127,"reserved":0,"last_update":"0001-01-01T00:00:00Z","name_a2s":"Uncletopia | Frankfurt | 8 | Community","protocol":17,"map":"koth_cascade","folder":"tf","game":"Team Fortress","app_id":440,"player_count":0,"max_players":24,"Bots":0,"server_type":"Dedicated","server_os":"Linux","password":true,"vac":true,"version":"7757534","steam_id":85568392924742828,"keywords":["cp","nocrits","nodmgspread","uncletopia"],"game_id":440,"stv_port":27086,"stv_name":"Uncletopia | Frankfurt | 8 | Community | STV","players":null},{"server_id":202,"name":"Uncletopia | Hong Kong | 1 | All Maps","name_short":"hgk-1","host":"hgk-1.hk.uncletopia.com","port":27015,"enabled":true,"region":"asia","cc":"hk","latitude":22.302711,"longitude":114.177216,"reserved":0,"last_update":"0001-01-01T00:00:00Z","name_a2s":"Uncletopia | Hong Kong | 1 | All Maps","protocol":17,"map":"pl_borneo","folder":"tf","game":"Team Fortress","app_id":440,"player_count":24,"max_players":24,"Bots":0,"server_type":"Dedicated","server_os":"Linux","password":true,"vac":true,"version":"7757534","steam_id":85568392924494504,"keywords":["nocrits","nodmgspread","payload","uncletopia"],"game_id":440,"stv_port":27016,"stv_name":"Uncletopia | Hong Kong | 1 | All Maps | STV","players":[{"user_id":233,"name":"water tastes good","steam_id":76561199375947670,"connected_time":1824000000000,"state":"active","ping":74},{"user_id":248,"name":"look me in the eyes","steam_id":76561199086337830,"connected_time":642000000000,"state":"active","ping":120},{"user_id":124,"name":"Bertengkar","steam_id":76561198213031155,"connected_time":9902000000000,"state":"active","ping":96},{"user_id":199,"name":"irylfaith","steam_id":76561199071455481,"connected_time":4124000000000,"state":"active","ping":111},{"user_id":242,"name":"David Keithson","steam_id":76561199279393636,"connected_time":874000000000,"state":"active","ping":69},{"user_id":236,"name":"Violezine","steam_id":76561199000502615,"connected_time":1339000000000,"state":"active","ping":90},{"user_id":249,"name":"Talkk More","steam_id":76561198305424433,"connected_time":171000000000,"state":"active","ping":96},{"user_id":225,"name":"Shades on Goggles","steam_id":76561198406067629,"connected_time":2145000000000,"state":"active","ping":59},{"user_id":238,"name":"Cá Tháng 4","steam_id":76561198047162026,"connected_time":1251000000000,"state":"active","ping":76},{"user_id":228,"name":"Windmill","steam_id":76561199230997986,"connected_time":2133000000000,"state":"active","ping":83},{"user_id":234,"name":"GravityShark","steam_id":76561198370446817,"connected_time":1824000000000,"state":"active","ping":56},{"user_id":211,"name":"momosneakeradventure","steam_id":76561199046440440,"connected_time":3507000000000,"state":"active","ping":43},{"user_id":192,"name":"LudE","steam_id":76561198828840546,"connected_time":5495000000000,"state":"active","ping":80},{"user_id":193,"name":"spinach (new mouse)","steam_id":76561198042539541,"connected_time":5455000000000,"state":"active","ping":90},{"user_id":190,"name":":)","steam_id":76561198437941450,"connected_time":5734000000000,"state":"active","ping":92},{"user_id":219,"name":"Milk❤ (most loved guy in ut)","steam_id":76561198163911560,"connected_time":2817000000000,"state":"active","ping":160},{"user_id":196,"name":"Lu","steam_id":76561198320532821,"connected_time":5102000000000,"state":"active","ping":52},{"user_id":210,"name":"iced","steam_id":76561198999114004,"connected_time":3579000000000,"state":"active","ping":106},{"user_id":179,"name":"loreley","steam_id":76561198230213828,"connected_time":6792000000000,"state":"active","ping":63},{"user_id":206,"name":"Smick","steam_id":76561199184927159,"connected_time":3889000000000,"state":"active","ping":124},{"user_id":98,"name":"煙海 | Enkai","steam_id":76561198050460825,"connected_time":11605000000000,"state":"active","ping":77},{"user_id":214,"name":"caramelCase","steam_id":76561198871689972,"connected_time":3060000000000,"state":"active","ping":182},{"user_id":130,"name":"Urotsuki","steam_id":76561198074339034,"connected_time":9032000000000,"state":"active","ping":76},{"user_id":247,"name":"axtinguisher? i hardly know er!","steam_id":76561198834445483,"connected_time":675000000000,"state":"active","ping":56}]},{"server_id":1,"name":"Uncletopia | Los Angeles | 1 | All Maps","name_short":"lax-1","host":"lax-1.us.uncletopia.com","port":27015,"enabled":true,"region":"us-west","cc":"us","latitude":33.94279,"longitude":-118.41004,"reserved":0,"last_update":"0001-01-01T00:00:00Z","name_a2s":"Uncletopia | Los Angeles | 1 | All Maps","protocol":17,"map":"cp_mercenarypark","folder":"tf","game":"Team Fortress","app_id":440,"player_count":24,"max_players":24,"Bots":0,"server_type":"Dedicated","server_os":"Linux","password":true,"vac":true,"version":"7757534","steam_id":85568392924469991,"keywords":["cp","nocrits","nodmgspread","uncletopia"],"game_id":440,"stv_port":27016,"stv_name":"Uncletopia | Los Angeles | 1 | All Maps | STV","players":[{"user_id":551,"name":"SoupDelivery","steam_id":76561198064906818,"connected_time":2397000000000,"state":"active","ping":60},{"user_id":553,"name":"[SLAG]redgunnit","steam_id":76561198058053644,"connected_time":2260000000000,"state":"active","ping":117},{"user_id":574,"name":"nescoceo","steam_id":76561198040801160,"connected_time":897000000000,"state":"active","ping":45},{"user_id":498,"name":"bad spy player","steam_id":76561198873699671,"connected_time":5886000000000,"state":"active","ping":80},{"user_id":561,"name":"nyoah","steam_id":76561198834915248,"connected_time":1841000000000,"state":"active","ping":55},{"user_id":572,"name":"babywizard","steam_id":76561198097757862,"connected_time":1186000000000,"state":"active","ping":60},{"user_id":431,"name":"Mothma","steam_id":76561198353789504,"connected_time":10571000000000,"state":"active","ping":62},{"user_id":558,"name":"Juri Han","steam_id":76561198041678517,"connected_time":2080000000000,"state":"active","ping":63},{"user_id":546,"name":"Camohno","steam_id":76561198283519918,"connected_time":3147000000000,"state":"active","ping":69},{"user_id":581,"name":"ElectronX","steam_id":76561198116034988,"connected_time":82000000000,"state":"active","ping":54},{"user_id":575,"name":"Carls Jr","steam_id":76561198047221624,"connected_time":894000000000,"state":"active","ping":55},{"user_id":576,"name":"stepho","steam_id":76561199132035586,"connected_time":807000000000,"state":"active","ping":120},{"user_id":563,"name":"Nugakku","steam_id":76561198082346219,"connected_time":1809000000000,"state":"active","ping":54},{"user_id":536,"name":"Feel the bern","steam_id":76561198078824519,"connected_time":3611000000000,"state":"active","ping":56},{"user_id":537,"name":"Mr. Stockington","steam_id":76561198091354032,"connected_time":3604000000000,"state":"active","ping":44},{"user_id":568,"name":"Yorai20XX","steam_id":76561198082235591,"connected_time":1636000000000,"state":"active","ping":46},{"user_id":550,"name":"owlchaser22","steam_id":76561199246481583,"connected_time":2575000000000,"state":"active","ping":98},{"user_id":522,"name":"drool","steam_id":76561199045901994,"connected_time":4626000000000,"state":"active","ping":62},{"user_id":552,"name":"The Greedy Grinner","steam_id":76561198124964175,"connected_time":2386000000000,"state":"active","ping":45},{"user_id":577,"name":"Stargazer A.","steam_id":76561198035479925,"connected_time":803000000000,"state":"active","ping":41},{"user_id":565,"name":"⛧","steam_id":76561198021308963,"connected_time":1776000000000,"state":"active","ping":77},{"user_id":566,"name":"Willis The Whale","steam_id":76561198240046452,"connected_time":1707000000000,"state":"active","ping":55},{"user_id":580,"name":"Victoria","steam_id":76561198283509000,"connected_time":132000000000,"state":"active","ping":59},{"user_id":542,"name":"AmyPercent","steam_id":76561198071896932,"connected_time":3471000000000,"state":"active","ping":81}]},{"server_id":112,"name":"Uncletopia | Los Angeles | 2 | All Maps","name_short":"lax-2","host":"lax-1.us.uncletopia.com","port":27025,"enabled":true,"region":"us-west","cc":"us","latitude":33.94279,"longitude":-118.41004,"reserved":0,"last_update":"0001-01-01T00:00:00Z","name_a2s":"Uncletopia | Los Angeles | 2 | All Maps","protocol":17,"map":"pl_frontier_final","folder":"tf","game":"Team Fortress","app_id":440,"player_count":24,"max_players":24,"Bots":0,"server_type":"Dedicated","server_os":"Linux","password":true,"vac":true,"version":"7757534","steam_id":85568392924469992,"keywords":["nocrits","nodmgspread","payload","uncletopia"],"game_id":440,"stv_port":27026,"stv_name":"Uncletopia | Los Angeles | 2 | All Maps | STV","players":[{"user_id":186,"name":"Phantom Thief","steam_id":76561198254482947,"connected_time":2945000000000,"state":"active","ping":47},{"user_id":254,"name":"Cute Gatito","steam_id":76561198351147780,"connected_time":627000000000,"state":"active","ping":57},{"user_id":230,"name":"Tritium","steam_id":76561198043305626,"connected_time":1627000000000,"state":"active","ping":62},{"user_id":221,"name":"Typhoid","steam_id":76561198067791086,"connected_time":1912000000000,"state":"active","ping":43},{"user_id":182,"name":"silver","steam_id":76561199020503397,"connected_time":3153000000000,"state":"active","ping":47},{"user_id":202,"name":"Jack from Jack in The Box","steam_id":76561199083594971,"connected_time":2405000000000,"state":"active","ping":61},{"user_id":178,"name":"delight","steam_id":76561197980280272,"connected_time":3899000000000,"state":"active","ping":73},{"user_id":171,"name":"WaffleCake","steam_id":76561199116787657,"connected_time":4901000000000,"state":"active","ping":68},{"user_id":231,"name":"rorywashere /ᐠ - ˕ -マ Ⳋ","steam_id":76561198065825165,"connected_time":1610000000000,"state":"active","ping":107},{"user_id":263,"name":"mage mode","steam_id":76561198169755734,"connected_time":227000000000,"state":"active","ping":60},{"user_id":257,"name":"max poop retention","steam_id":76561199050461421,"connected_time":519000000000,"state":"active","ping":71},{"user_id":258,"name":"thunderous prophet","steam_id":76561198131166135,"connected_time":491000000000,"state":"active","ping":65},{"user_id":256,"name":"Thicket","steam_id":76561198371066702,"connected_time":623000000000,"state":"active","ping":54},{"user_id":250,"name":"8Ball","steam_id":76561198168881494,"connected_time":973000000000,"state":"active","ping":105},{"user_id":261,"name":"p9 squash","steam_id":76561198150281353,"connected_time":368000000000,"state":"active","ping":89},{"user_id":262,"name":"Robert M. Slackson, DDS","steam_id":76561197963562896,"connected_time":333000000000,"state":"active","ping":62},{"user_id":252,"name":"Sudiak","steam_id":76561198119246214,"connected_time":939000000000,"state":"active","ping":77},{"user_id":260,"name":"crim#kvk2023","steam_id":76561198958504809,"connected_time":390000000000,"state":"active","ping":57},{"user_id":195,"name":"May may :)","steam_id":76561198816778484,"connected_time":2726000000000,"state":"active","ping":489},{"user_id":196,"name":"TomTheF00l","steam_id":76561198829932650,"connected_time":2702000000000,"state":"active","ping":104},{"user_id":264,"name":"Kuudere","steam_id":76561198075028016,"connected_time":151000000000,"state":"active","ping":72},{"user_id":48,"name":"YourWishes","steam_id":76561198154414336,"connected_time":15269000000000,"state":"active","ping":51},{"user_id":236,"name":"-Enter Name Here-","steam_id":76561198040358938,"connected_time":1402000000000,"state":"active","ping":107},{"user_id":89,"name":"p9 jorts","steam_id":76561199041179985,"connected_time":10540000000000,"state":"active","ping":91}]},{"server_id":324,"name":"Uncletopia | Los Angeles | 3 | All Maps","name_short":"lax-3","host":"lax-1.us.uncletopia.com","port":27035,"enabled":true,"region":"us-west","cc":"us","latitude":33.94279,"longitude":-118.41004,"reserved":0,"last_update":"0001-01-01T00:00:00Z","name_a2s":"Uncletopia | Los Angeles | 3 | All Maps","protocol":17,"map":"ctf_2fort","folder":"tf","game":"Team Fortress","app_id":440,"player_count":0,"max_players":24,"Bots":0,"server_type":"Dedicated","server_os":"Linux","password":true,"vac":true,"version":"7757534","steam_id":85568392924510198,"keywords":["ctf","nocrits","nodmgspread","uncletopia"],"game_id":440,"stv_port":27036,"stv_name":"Uncletopia | Los Angeles | 3 | All Maps | STV","players":null},{"server_id":25,"name":"Uncletopia | Los Angeles | 4 | Stopwatch Beta","name_short":"lax-4","host":"lax-1.us.uncletopia.com","port":27045,"enabled":true,"region":"us-west","cc":"us","latitude":33.94279,"longitude":-118.41004,"reserved":0,"last_update":"0001-01-01T00:00:00Z","name_a2s":"Uncletopia | Los Angeles | 4 | Stopwatch Beta","protocol":17,"map":"koth_viaduct","folder":"tf","game":"Team Fortress","app_id":440,"player_count":0,"max_players":24,"Bots":0,"server_type":"Dedicated","server_os":"Linux","password":true,"vac":true,"version":"7757534","steam_id":85568392924510199,"keywords":["cp","nocrits","nodmgspread","uncletopia"],"game_id":440,"stv_port":27046,"stv_name":"Uncletopia | Los Angeles | 4 | Stopwatch Beta | STV","players":null},{"server_id":11,"name":"Uncletopia | London | 1 | All Maps","name_short":"lon-1","host":"lon-1.uk.uncletopia.com","port":27015,"enabled":true,"region":"eu","cc":"gb","latitude":51.509865,"longitude":-0.118092,"reserved":0,"last_update":"0001-01-01T00:00:00Z","name_a2s":"Uncletopia | London | 1 | All Maps","protocol":17,"map":"pl_pier","folder":"tf","game":"Team Fortress","app_id":440,"player_count":0,"max_players":24,"Bots":0,"server_type":"Dedicated","server_os":"Linux","password":true,"vac":true,"version":"7757534","steam_id":85568392924367362,"keywords":["nocrits","nodmgspread","payload","uncletopia"],"game_id":440,"stv_port":27016,"stv_name":"Uncletopia | London | 1 | All Maps | STV","players":null},{"server_id":114,"name":"Uncletopia | London | 2 | All Maps","name_short":"lon-2","host":"lon-1.uk.uncletopia.com","port":27025,"enabled":true,"region":"eu","cc":"gb","latitude":51.509865,"longitude":-0.118092,"reserved":0,"last_update":"0001-01-01T00:00:00Z","name_a2s":"Uncletopia | London | 2 | All Maps","protocol":17,"map":"pl_barnblitz","folder":"tf","game":"Team Fortress","app_id":440,"player_count":24,"max_players":24,"Bots":0,"server_type":"Dedicated","server_os":"Linux","password":true,"vac":true,"version":"7757534","steam_id":85568392924470941,"keywords":["nocrits","nodmgspread","payload","uncletopia"],"game_id":440,"stv_port":27026,"stv_name":"Uncletopia | London | 2 | All Maps | STV","players":[{"user_id":55,"name":"MRLOLENO","steam_id":76561198450911838,"connected_time":1279000000000,"state":"active","ping":80},{"user_id":81,"name":"Carreidas","steam_id":76561198056957730,"connected_time":40000000000,"state":"active","ping":66},{"user_id":47,"name":"techno","steam_id":76561198172101254,"connected_time":1582000000000,"state":"active","ping":82},{"user_id":48,"name":"brkc_love","steam_id":76561198090152271,"connected_time":1561000000000,"state":"active","ping":46},{"user_id":73,"name":"juicerjimmy","steam_id":76561198077136032,"connected_time":508000000000,"state":"active","ping":81},{"user_id":49,"name":"Weakest Sniper Enjoyer","steam_id":76561198133597860,"connected_time":1546000000000,"state":"active","ping":85},{"user_id":70,"name":"Tata Cobraz0r","steam_id":76561198017693962,"connected_time":803000000000,"state":"active","ping":76},{"user_id":56,"name":"coPe","steam_id":76561198869055760,"connected_time":1272000000000,"state":"active","ping":114},{"user_id":13,"name":"Narvhalø","steam_id":76561198147495474,"connected_time":3164000000000,"state":"active","ping":45},{"user_id":20,"name":"hud_saytext_time 0","steam_id":76561198010327228,"connected_time":3119000000000,"state":"active","ping":78},{"user_id":51,"name":"thekoolest88","steam_id":76561199022415672,"connected_time":1531000000000,"state":"active","ping":149},{"user_id":16,"name":"Pineapple Okanつ ◕_◕ ༽\ufffd\ufffd","steam_id":76561198069199449,"connected_time":3146000000000,"state":"active","ping":111},{"user_id":53,"name":"Ebaklak","steam_id":76561198016102699,"connected_time":1481000000000,"state":"active","ping":85},{"user_id":18,"name":"naleksi","steam_id":76561198018391055,"connected_time":3139000000000,"state":"active","ping":102},{"user_id":24,"name":"desu!","steam_id":76561198052878585,"connected_time":3101000000000,"state":"active","ping":138},{"user_id":23,"name":"Cumbustible Punda #SaveTF2","steam_id":76561197974274677,"connected_time":3103000000000,"state":"active","ping":60},{"user_id":60,"name":"ZeiKii","steam_id":76561198353492370,"connected_time":1145000000000,"state":"active","ping":142},{"user_id":68,"name":"Negurescu","steam_id":76561198128777349,"connected_time":973000000000,"state":"active","ping":78},{"user_id":61,"name":"IceDreamer","steam_id":76561197997569989,"connected_time":1110000000000,"state":"active","ping":41},{"user_id":62,"name":"I LOVE THE HIGH GROUND","steam_id":76561198989449047,"connected_time":1110000000000,"state":"active","ping":141},{"user_id":63,"name":"The Dark Destoryer","steam_id":76561198831440921,"connected_time":1091000000000,"state":"active","ping":25},{"user_id":64,"name":"BrainLacking","steam_id":76561198965574196,"connected_time":1079000000000,"state":"active","ping":56},{"user_id":66,"name":"Brudii","steam_id":76561199062762891,"connected_time":1029000000000,"state":"active","ping":79},{"user_id":80,"name":"caps.","steam_id":76561198116528817,"connected_time":63000000000,"state":"active","ping":61}]},{"server_id":320,"name":"Uncletopia | London | 3 | All Maps","name_short":"lon-3","host":"lon-1.uk.uncletopia.com","port":27035,"enabled":true,"region":"eu","cc":"gb","latitude":51.509865,"longitude":-0.118092,"reserved":0,"last_update":"0001-01-01T00:00:00Z","name_a2s":"Uncletopia | London | 3 | All Maps","protocol":17,"map":"pl_badwater","folder":"tf","game":"Team Fortress","app_id":440,"player_count":0,"max_players":24,"Bots":0,"server_type":"Dedicated","server_os":"Linux","password":true,"vac":true,"version":"7757534","steam_id":85568392924510192,"keywords":["nocrits","nodmgspread","payload","uncletopia"],"game_id":440,"stv_port":27036,"stv_name":"Uncletopia | London | 3 | All Maps | STV","players":null},{"server_id":321,"name":"Uncletopia | London | 4 | All Maps","name_short":"lon-4","host":"lon-1.uk.uncletopia.com","port":27045,"enabled":true,"region":"eu","cc":"gb","latitude":51.509865,"longitude":-0.118092,"reserved":0,"last_update":"0001-01-01T00:00:00Z","name_a2s":"Uncletopia | London | 4 | All Maps","protocol":17,"map":"cp_snakewater_final1","folder":"tf","game":"Team Fortress","app_id":440,"player_count":0,"max_players":24,"Bots":0,"server_type":"Dedicated","server_os":"Linux","password":true,"vac":true,"version":"7757534","steam_id":85568392924510193,"keywords":["cp","nocrits","nodmgspread","uncletopia"],"game_id":440,"stv_port":27046,"stv_name":"Uncletopia | London | 4 | All Maps | STV","players":null},{"server_id":21,"name":"Uncletopia | London | 5 | All Maps","name_short":"lon-5","host":"lon-1.uk.uncletopia.com","port":27055,"enabled":true,"region":"eu","cc":"gb","latitude":51.509865,"longitude":-0.118092,"reserved":0,"last_update":"0001-01-01T00:00:00Z","name_a2s":"Uncletopia | London | 5 | All Maps","protocol":17,"map":"pl_snowycoast","folder":"tf","game":"Team Fortress","app_id":440,"player_count":0,"max_players":24,"Bots":0,"server_type":"Dedicated","server_os":"Linux","password":true,"vac":true,"version":"7757534","steam_id":85568392924742829,"keywords":["nocrits","nodmgspread","payload","uncletopia"],"game_id":440,"stv_port":27056,"stv_name":"Uncletopia | London | 5 | All Maps | STV","players":null},{"server_id":22,"name":"Uncletopia | London | 6 | All Maps","name_short":"lon-6","host":"lon-1.uk.uncletopia.com","port":27065,"enabled":true,"region":"eu","cc":"gb","latitude":51.509865,"longitude":-0.118092,"reserved":0,"last_update":"0001-01-01T00:00:00Z","name_a2s":"Uncletopia | London | 6 | All Maps","protocol":17,"map":"pl_snowycoast","folder":"tf","game":"Team Fortress","app_id":440,"player_count":0,"max_players":24,"Bots":0,"server_type":"Dedicated","server_os":"Linux","password":true,"vac":true,"version":"7757534","steam_id":85568392924742830,"keywords":["nocrits","nodmgspread","payload","uncletopia"],"game_id":440,"stv_port":27066,"stv_name":"Uncletopia | London | 6 | All Maps | STV","players":null},{"server_id":40,"name":"Uncletopia | London | 7 | No Payload","name_short":"lon-7","host":"lon-1.uk.uncletopia.com","port":27075,"enabled":true,"region":"eu","cc":"gb","latitude":51.509865,"longitude":-0.118092,"reserved":0,"last_update":"0001-01-01T00:00:00Z","name_a2s":"Uncletopia | London | 7 | No Payload","protocol":17,"map":"pl_upward","folder":"tf","game":"Team Fortress","app_id":440,"player_count":0,"max_players":24,"Bots":0,"server_type":"Dedicated","server_os":"Linux","password":true,"vac":true,"version":"7757534","steam_id":85568392924964314,"keywords":["nocrits","nodmgspread","payload","uncletopia"],"game_id":440,"stv_port":27076,"stv_name":"Uncletopia | London | 7 | No Payload | STV","players":null},{"server_id":41,"name":"Uncletopia | London | 8 | Community","name_short":"lon-8","host":"lon-1.uk.uncletopia.com","port":27085,"enabled":true,"region":"eu","cc":"gb","latitude":51.509865,"longitude":-0.118092,"reserved":0,"last_update":"0001-01-01T00:00:00Z","name_a2s":"Uncletopia | London | 8 | Community","protocol":17,"map":"cp_snakewater_final1","folder":"tf","game":"Team Fortress","app_id":440,"player_count":0,"max_players":24,"Bots":0,"server_type":"Dedicated","server_os":"Linux","password":true,"vac":true,"version":"7757534","steam_id":85568392924964315,"keywords":["cp","nocrits","nodmgspread","uncletopia"],"game_id":440,"stv_port":27086,"stv_name":"Uncletopia | London | 8 | Community | STV","players":null},{"server_id":300,"name":"Uncletopia | Montréal | 1 | All Maps","name_short":"mtl-1","host":"mtl-1.ca.uncletopia.com","port":27015,"enabled":true,"region":"us-east","cc":"ca","latitude":45.50889,"longitude":-73.56167,"reserved":0,"last_update":"0001-01-01T00:00:00Z","name_a2s":"Uncletopia | Montréal | 1 | All Maps","protocol":17,"map":"koth_highpass","folder":"tf","game":"Team Fortress","app_id":440,"player_count":0,"max_players":24,"Bots":0,"server_type":"Dedicated","server_os":"Linux","password":true,"vac":true,"version":"7757534","steam_id":85568392924500087,"keywords":["cp","nocrits","nodmgspread","uncletopia"],"game_id":440,"stv_port":27016,"stv_name":"Uncletopia | Montréal | 1 | All Maps | STV","players":null},{"server_id":301,"name":"Uncletopia | Montréal | 2 | All Maps","name_short":"mtl-2","host":"mtl-1.ca.uncletopia.com","port":27025,"enabled":true,"region":"us-east","cc":"ca","latitude":45.50889,"longitude":-73.56167,"reserved":0,"last_update":"0001-01-01T00:00:00Z","name_a2s":"Uncletopia | Montréal | 2 | All Maps","protocol":17,"map":"koth_lakeside_final","folder":"tf","game":"Team Fortress","app_id":440,"player_count":0,"max_players":24,"Bots":0,"server_type":"Dedicated","server_os":"Linux","password":true,"vac":true,"version":"7757534","steam_id":85568392924500088,"keywords":["cp","nocrits","nodmgspread","uncletopia"],"game_id":440,"stv_port":27026,"stv_name":"Uncletopia | Montréal | 2 | All Maps | STV","players":null},{"server_id":302,"name":"Uncletopia | Montréal | 3 | All Maps","name_short":"mtl-3","host":"mtl-1.ca.uncletopia.com","port":27035,"enabled":true,"region":"us-east","cc":"ca","latitude":45.50889,"longitude":-73.56167,"reserved":0,"last_update":"0001-01-01T00:00:00Z","name_a2s":"Uncletopia | Montréal | 3 | All Maps","protocol":17,"map":"koth_cascade","folder":"tf","game":"Team Fortress","app_id":440,"player_count":0,"max_players":24,"Bots":0,"server_type":"Dedicated","server_os":"Linux","password":true,"vac":true,"version":"7757534","steam_id":85568392924500089,"keywords":["cp","nocrits","nodmgspread","uncletopia"],"game_id":440,"stv_port":27036,"stv_name":"Uncletopia | Montréal | 3 | All Maps | STV","players":null},{"server_id":303,"name":"Uncletopia | Montréal | 4 | No Payload","name_short":"mtl-4","host":"mtl-1.ca.uncletopia.com","port":27045,"enabled":true,"region":"us-east","cc":"ca","latitude":45.50889,"longitude":-73.56167,"reserved":0,"last_update":"0001-01-01T00:00:00Z","name_a2s":"Uncletopia | Montréal | 4 | No Payload","protocol":17,"map":"koth_lakeside_final","folder":"tf","game":"Team Fortress","app_id":440,"player_count":0,"max_players":24,"Bots":0,"server_type":"Dedicated","server_os":"Linux","password":true,"vac":true,"version":"7757534","steam_id":85568392924500090,"keywords":["cp","nocrits","nodmgspread","uncletopia"],"game_id":440,"stv_port":27046,"stv_name":"Uncletopia | Montréal | 4 | No Payload | STV","players":null},{"server_id":13,"name":"Uncletopia | New York City | 1 | All Maps","name_short":"nyc-1","host":"nyc-1.us.uncletopia.com","port":27015,"enabled":true,"region":"us-east","cc":"us","latitude":40.73061,"longitude":-73.93524,"reserved":0,"last_update":"0001-01-01T00:00:00Z","name_a2s":"Uncletopia | New York City | 1 | All Maps","protocol":17,"map":"pl_pier","folder":"tf","game":"Team Fortress","app_id":440,"player_count":23,"max_players":24,"Bots":0,"server_type":"Dedicated","server_os":"Linux","password":true,"vac":true,"version":"7757534","steam_id":85568392924469993,"keywords":["nocrits","nodmgspread","payload","uncletopia"],"game_id":440,"stv_port":27016,"stv_name":"Uncletopia | New York City | 1 | All Maps | STV","players":[{"user_id":666,"name":"earthbound393","steam_id":76561199444276547,"connected_time":1181000000000,"state":"active","ping":127},{"user_id":688,"name":"SunsetRadi0","steam_id":76561198453254937,"connected_time":419000000000,"state":"active","ping":113},{"user_id":669,"name":"Pancake","steam_id":76561198212039509,"connected_time":1134000000000,"state":"active","ping":92},{"user_id":670,"name":"Garrmactad","steam_id":76561198152205651,"connected_time":1125000000000,"state":"active","ping":94},{"user_id":678,"name":"f-f-fly","steam_id":76561198160847375,"connected_time":951000000000,"state":"active","ping":130},{"user_id":679,"name":"VendoTendo","steam_id":76561198135058035,"connected_time":891000000000,"state":"active","ping":86},{"user_id":691,"name":"maybe 3 brain cells","steam_id":76561198081282228,"connected_time":159000000000,"state":"active","ping":77},{"user_id":683,"name":"ChrisHansenWithDatelineNBC","steam_id":76561199216477798,"connected_time":741000000000,"state":"active","ping":77},{"user_id":672,"name":"Vortigaunt","steam_id":76561198058653274,"connected_time":1105000000000,"state":"active","ping":119},{"user_id":673,"name":"Black Mesa Scientist","steam_id":76561198064466577,"connected_time":1070000000000,"state":"active","ping":89},{"user_id":692,"name":"Lore","steam_id":76561198098407538,"connected_time":132000000000,"state":"active","ping":66},{"user_id":654,"name":"wokwok","steam_id":76561198137743898,"connected_time":2056000000000,"state":"active","ping":68},{"user_id":684,"name":"snongBurd","steam_id":76561198071254380,"connected_time":608000000000,"state":"active","ping":126},{"user_id":681,"name":"Detective Parks","steam_id":76561198153415500,"connected_time":806000000000,"state":"active","ping":87},{"user_id":642,"name":"295.3","steam_id":76561198126358045,"connected_time":2521000000000,"state":"active","ping":59},{"user_id":682,"name":"Dr. Hugo Z. Hackenbush","steam_id":76561199203219052,"connected_time":776000000000,"state":"active","ping":77},{"user_id":553,"name":"A Puppy","steam_id":76561198828184456,"connected_time":10131000000000,"state":"active","ping":50},{"user_id":665,"name":"flora","steam_id":76561197994492154,"connected_time":1391000000000,"state":"active","ping":147},{"user_id":693,"name":"Aristotle Voulton","steam_id":76561198100174923,"connected_time":127000000000,"state":"active","ping":102},{"user_id":625,"name":"Filthy Hobo","steam_id":76561198174373015,"connected_time":3582000000000,"state":"active","ping":108},{"user_id":636,"name":"High Quality Ice","steam_id":76561198969178047,"connected_time":2709000000000,"state":"active","ping":49},{"user_id":690,"name":"engineer drip","steam_id":76561198991032570,"connected_time":349000000000,"state":"active","ping":168},{"user_id":643,"name":"pablo.drain2005","steam_id":76561199253405698,"connected_time":2520000000000,"state":"active","ping":107}]},{"server_id":14,"name":"Uncletopia | New York City | 2 | All Maps","name_short":"nyc-2","host":"nyc-1.us.uncletopia.com","port":27025,"enabled":true,"region":"us-east","cc":"us","latitude":40.73061,"longitude":-73.93524,"reserved":0,"last_update":"0001-01-01T00:00:00Z","name_a2s":"Uncletopia | New York City | 2 | All Maps","protocol":17,"map":"pl_badwater","folder":"tf","game":"Team Fortress","app_id":440,"player_count":24,"max_players":24,"Bots":0,"server_type":"Dedicated","server_os":"Linux","password":true,"vac":true,"version":"7757534","steam_id":85568392924469994,"keywords":["nocrits","nodmgspread","payload","uncletopia"],"game_id":440,"stv_port":27026,"stv_name":"Uncletopia | New York City | 2 | All Maps | STV","players":[{"user_id":586,"name":"bikerkid207","steam_id":76561198390782783,"connected_time":830000000000,"state":"active","ping":46},{"user_id":552,"name":"Ghost","steam_id":76561198110914180,"connected_time":3872000000000,"state":"active","ping":158},{"user_id":537,"name":"ROGUE-PLANET","steam_id":76561198116023052,"connected_time":4959000000000,"state":"active","ping":77},{"user_id":539,"name":"deepwoken","steam_id":76561198055439054,"connected_time":4643000000000,"state":"active","ping":55},{"user_id":581,"name":"NEO TRI-BEAAAMM!","steam_id":76561199059257565,"connected_time":1580000000000,"state":"active","ping":108},{"user_id":571,"name":"NEO","steam_id":76561198131047947,"connected_time":2225000000000,"state":"active","ping":70},{"user_id":576,"name":"MontellWilliams","steam_id":76561198172143015,"connected_time":2114000000000,"state":"active","ping":48},{"user_id":584,"name":"Cad","steam_id":76561198312145232,"connected_time":1498000000000,"state":"active","ping":99},{"user_id":582,"name":"Erikk","steam_id":76561198142699958,"connected_time":1578000000000,"state":"active","ping":42},{"user_id":560,"name":"Snazzi","steam_id":76561198085208276,"connected_time":2619000000000,"state":"active","ping":74},{"user_id":577,"name":"Dieu-Sama","steam_id":76561198002075862,"connected_time":1890000000000,"state":"active","ping":70},{"user_id":561,"name":"kris736","steam_id":76561198038208255,"connected_time":2618000000000,"state":"active","ping":60},{"user_id":575,"name":"Dr. Martin Luther","steam_id":76561198064572586,"connected_time":2194000000000,"state":"active","ping":100},{"user_id":513,"name":"what","steam_id":76561198082336619,"connected_time":5635000000000,"state":"active","ping":57},{"user_id":562,"name":"febfowl","steam_id":76561198023888890,"connected_time":2604000000000,"state":"active","ping":80},{"user_id":567,"name":"task","steam_id":76561198284992433,"connected_time":2290000000000,"state":"active","ping":62},{"user_id":578,"name":"frank","steam_id":76561198045436159,"connected_time":1886000000000,"state":"active","ping":57},{"user_id":569,"name":"eis","steam_id":76561198830293087,"connected_time":2269000000000,"state":"active","ping":63},{"user_id":549,"name":"cigarette","steam_id":76561198317827526,"connected_time":4278000000000,"state":"active","ping":70},{"user_id":550,"name":"Saturn","steam_id":76561198211622632,"connected_time":4217000000000,"state":"active","ping":46},{"user_id":583,"name":"Random","steam_id":76561198318879454,"connected_time":1574000000000,"state":"active","ping":63},{"user_id":585,"name":"Daksuki","steam_id":76561198084127751,"connected_time":981000000000,"state":"active","ping":90},{"user_id":531,"name":"matkaster","steam_id":76561197998546486,"connected_time":5136000000000,"state":"active","ping":80},{"user_id":532,"name":"alexthepenguin7","steam_id":76561198390154448,"connected_time":5122000000000,"state":"active","ping":91}]},{"server_id":15,"name":"Uncletopia | New York City | 3 | Stopwatch Beta","name_short":"nyc-3","host":"nyc-1.us.uncletopia.com","port":27035,"enabled":true,"region":"us-east","cc":"us","latitude":40.73061,"longitude":-73.93524,"reserved":0,"last_update":"0001-01-01T00:00:00Z","name_a2s":"Uncletopia | New York City | 3 | Stopwatch Beta","protocol":17,"map":"workshop/koth_clearcut_b15.ugc2107050255","folder":"tf","game":"Team Fortress","app_id":440,"player_count":0,"max_players":24,"Bots":0,"server_type":"Dedicated","server_os":"Linux","password":true,"vac":true,"version":"7757534","steam_id":85568392924742820,"keywords":["cp","nocrits","nodmgspread","uncletopia"],"game_id":440,"stv_port":27036,"stv_name":"Uncletopia | New York City | 3 | Stopwatch Beta | STV","players":null},{"server_id":16,"name":"Uncletopia | New York City | 4 | Community","name_short":"nyc-4","host":"nyc-1.us.uncletopia.com","port":27045,"enabled":true,"region":"us-east","cc":"us","latitude":40.73061,"longitude":-73.93524,"reserved":0,"last_update":"0001-01-01T00:00:00Z","name_a2s":"Uncletopia | New York City | 4 | Community","protocol":17,"map":"workshop/pl_barnblitz_pro7.ugc582280235","folder":"tf","game":"Team Fortress","app_id":440,"player_count":0,"max_players":24,"Bots":0,"server_type":"Dedicated","server_os":"Linux","password":true,"vac":true,"version":"7757534","steam_id":85568392924742821,"keywords":["nocrits","nodmgspread","payload","uncletopia"],"game_id":440,"stv_port":27046,"stv_name":"Uncletopia | New York City | 4 | Community | STV","players":null},{"server_id":142,"name":"Uncletopia | São Paulo | 1 | All Maps","name_short":"sao-1","host":"sao-1.br.uncletopia.com","port":27015,"enabled":true,"region":"sa","cc":"br","latitude":-23.533773,"longitude":-46.62529,"reserved":0,"last_update":"0001-01-01T00:00:00Z","name_a2s":"Uncletopia | São Paulo | 1 | All Maps","protocol":17,"map":"plr_pipeline","folder":"tf","game":"Team Fortress","app_id":440,"player_count":0,"max_players":24,"Bots":0,"server_type":"Dedicated","server_os":"Linux","password":true,"vac":true,"version":"7757534","steam_id":85568392924469996,"keywords":["nocrits","nodmgspread","payload","uncletopia"],"game_id":440,"stv_port":27016,"stv_name":"Uncletopia | São Paulo | 1 | All Maps | STV","players":null},{"server_id":143,"name":"Uncletopia | São Paulo | 2 | All Maps","name_short":"sao-2","host":"sao-2.br.uncletopia.com","port":27015,"enabled":true,"region":"sa","cc":"br","latitude":-23.533773,"longitude":-46.62529,"reserved":0,"last_update":"0001-01-01T00:00:00Z","name_a2s":"Uncletopia | São Paulo | 2 | All Maps","protocol":17,"map":"koth_cascade","folder":"tf","game":"Team Fortress","app_id":440,"player_count":0,"max_players":24,"Bots":0,"server_type":"Dedicated","server_os":"Linux","password":true,"vac":true,"version":"7757534","steam_id":85568392924485349,"keywords":["cp","nocrits","nodmgspread","uncletopia"],"game_id":440,"stv_port":27016,"stv_name":"Uncletopia | São Paulo | 2 | All Maps | STV","players":null},{"server_id":7,"name":"Uncletopia | Seattle | 1 | All Maps","name_short":"sea-1","host":"sea-1.us.uncletopia.com","port":27015,"enabled":true,"region":"us-west","cc":"us","latitude":47.608013,"longitude":-122.33517,"reserved":0,"last_update":"0001-01-01T00:00:00Z","name_a2s":"Uncletopia | Seattle | 1 | All Maps","protocol":17,"map":"koth_lakeside_final","folder":"tf","game":"Team Fortress","app_id":440,"player_count":24,"max_players":24,"Bots":0,"server_type":"Dedicated","server_os":"Linux","password":true,"vac":true,"version":"7757534","steam_id":85568392924469997,"keywords":["cp","nocrits","nodmgspread","uncletopia"],"game_id":440,"stv_port":27016,"stv_name":"Uncletopia | Seattle | 1 | All Maps | STV","players":[{"user_id":813,"name":"oo","steam_id":76561198119626492,"connected_time":2225000000000,"state":"active","ping":82},{"user_id":814,"name":"Real life spongebob funko pop","steam_id":76561198040865848,"connected_time":2193000000000,"state":"active","ping":112},{"user_id":769,"name":"[TrC] Dackstrus","steam_id":76561197973518509,"connected_time":6853000000000,"state":"active","ping":58},{"user_id":821,"name":"2u1t3500_______","steam_id":76561198870649125,"connected_time":1757000000000,"state":"active","ping":87},{"user_id":829,"name":"Henchie!","steam_id":76561198047567464,"connected_time":66000000000,"state":"active","ping":100},{"user_id":647,"name":"rat gets the cheese","steam_id":76561198031234032,"connected_time":17610000000000,"state":"active","ping":97},{"user_id":772,"name":"carmillaluvr1334","steam_id":76561198325306660,"connected_time":6829000000000,"state":"active","ping":46},{"user_id":808,"name":"mub","steam_id":76561197961943948,"connected_time":2317000000000,"state":"active","ping":46},{"user_id":812,"name":"Lorberry","steam_id":76561198023706058,"connected_time":2261000000000,"state":"active","ping":75},{"user_id":815,"name":"Isopentyl Ethanoate","steam_id":76561198116389072,"connected_time":2170000000000,"state":"active","ping":56},{"user_id":752,"name":"Villchip","steam_id":76561198198599982,"connected_time":9502000000000,"state":"active","ping":51},{"user_id":775,"name":"lavender","steam_id":76561199069518286,"connected_time":6777000000000,"state":"active","ping":74},{"user_id":826,"name":"raku","steam_id":76561198124069038,"connected_time":822000000000,"state":"active","ping":62},{"user_id":824,"name":"Ayayahuasca","steam_id":76561199002906056,"connected_time":1327000000000,"state":"active","ping":45},{"user_id":816,"name":"Saikyo","steam_id":76561198212461467,"connected_time":2163000000000,"state":"active","ping":105},{"user_id":827,"name":"Lavernius41","steam_id":76561198807274102,"connected_time":788000000000,"state":"active","ping":85},{"user_id":800,"name":"[TrC] Nosy","steam_id":76561197978859310,"connected_time":4646000000000,"state":"active","ping":60},{"user_id":809,"name":"Furry Futon","steam_id":76561198097745857,"connected_time":2314000000000,"state":"active","ping":99},{"user_id":662,"name":"Level 99 Mudcrab","steam_id":76561198077452771,"connected_time":16800000000000,"state":"active","ping":59},{"user_id":817,"name":"Branz","steam_id":76561198076632143,"connected_time":2152000000000,"state":"active","ping":89},{"user_id":805,"name":"\u003c3","steam_id":76561198196829267,"connected_time":4039000000000,"state":"active","ping":77},{"user_id":823,"name":"elsa \u003c3","steam_id":76561198982584470,"connected_time":1460000000000,"state":"active","ping":124},{"user_id":822,"name":"Dr. Karl, the AUS Science Guy","steam_id":76561198031278747,"connected_time":1674000000000,"state":"active","ping":48},{"user_id":825,"name":"Lime","steam_id":76561198080786408,"connected_time":1122000000000,"state":"active","ping":55}]},{"server_id":119,"name":"Uncletopia | Seattle | 2 | All Maps","name_short":"sea-2","host":"sea-1.us.uncletopia.com","port":27025,"enabled":true,"region":"us-west","cc":"us","latitude":47.608013,"longitude":-122.33517,"reserved":0,"last_update":"0001-01-01T00:00:00Z","name_a2s":"Uncletopia | Seattle | 2 | All Maps","protocol":17,"map":"cp_snakewater_final1","folder":"tf","game":"Team Fortress","app_id":440,"player_count":24,"max_players":24,"Bots":0,"server_type":"Dedicated","server_os":"Linux","password":true,"vac":true,"version":"7757534","steam_id":85568392924469998,"keywords":["cp","nocrits","nodmgspread","uncletopia"],"game_id":440,"stv_port":27026,"stv_name":"Uncletopia | Seattle | 2 | All Maps | STV","players":[{"user_id":437,"name":"Lily Thorn","steam_id":76561198305488625,"connected_time":612000000000,"state":"active","ping":69},{"user_id":420,"name":"Sticky","steam_id":76561198031581547,"connected_time":1499000000000,"state":"active","ping":75},{"user_id":402,"name":"Mike Hawk","steam_id":76561198045053326,"connected_time":3257000000000,"state":"active","ping":45},{"user_id":415,"name":"Smile","steam_id":76561198110008786,"connected_time":1753000000000,"state":"active","ping":58},{"user_id":430,"name":"SvicidalBug","steam_id":76561198221390504,"connected_time":1140000000000,"state":"active","ping":73},{"user_id":443,"name":"doopsies","steam_id":76561198083000867,"connected_time":116000000000,"state":"active","ping":39},{"user_id":441,"name":"SadFapping","steam_id":76561198076651049,"connected_time":299000000000,"state":"active","ping":54},{"user_id":401,"name":"Pneumo.","steam_id":76561197987911883,"connected_time":3435000000000,"state":"active","ping":68},{"user_id":431,"name":"Raphael","steam_id":76561198101425586,"connected_time":1046000000000,"state":"active","ping":48},{"user_id":436,"name":"_DrunkenGibberish_","steam_id":76561199123070071,"connected_time":726000000000,"state":"active","ping":119},{"user_id":411,"name":"the big pisser","steam_id":76561198143132686,"connected_time":2781000000000,"state":"active","ping":65},{"user_id":432,"name":"jackpot","steam_id":76561198065339248,"connected_time":1031000000000,"state":"active","ping":66},{"user_id":391,"name":"KingTinkerer","steam_id":76561198226856548,"connected_time":4282000000000,"state":"active","ping":73},{"user_id":335,"name":"General Fisticuffs","steam_id":76561198255721392,"connected_time":9278000000000,"state":"active","ping":116},{"user_id":438,"name":"Agentnickel","steam_id":76561199186723516,"connected_time":563000000000,"state":"active","ping":73},{"user_id":442,"name":"Aunty Frazzle","steam_id":76561198145596626,"connected_time":203000000000,"state":"active","ping":84},{"user_id":439,"name":"Shazbot","steam_id":76561198055089667,"connected_time":478000000000,"state":"active","ping":45},{"user_id":409,"name":"Wafflemuscle","steam_id":76561198868628982,"connected_time":3008000000000,"state":"active","ping":43},{"user_id":418,"name":"hamster.assassination","steam_id":76561199419949968,"connected_time":1636000000000,"state":"active","ping":144},{"user_id":426,"name":"Amogous Supreme","steam_id":76561198025476774,"connected_time":1327000000000,"state":"active","ping":74},{"user_id":444,"name":"fragadelphia","steam_id":76561198066116363,"connected_time":29000000000,"state":"active","ping":47},{"user_id":427,"name":"Blagoni","steam_id":76561198079134230,"connected_time":1325000000000,"state":"active","ping":76},{"user_id":394,"name":"Chucklemaster","steam_id":76561198023645303,"connected_time":4263000000000,"state":"active","ping":49},{"user_id":429,"name":"WaffleWithNoToppings","steam_id":76561199088280111,"connected_time":1270000000000,"state":"active","ping":54}]},{"server_id":406,"name":"Uncletopia | Seattle | 3 | Stopwatch Beta","name_short":"sea-3","host":"sea-1.us.uncletopia.com","port":27035,"enabled":true,"region":"us-west","cc":"us","latitude":47.608013,"longitude":-122.33517,"reserved":0,"last_update":"0001-01-01T00:00:00Z","name_a2s":"Uncletopia | Seattle | 3 | Stopwatch Beta","protocol":17,"map":"pl_upward","folder":"tf","game":"Team Fortress","app_id":440,"player_count":2,"max_players":24,"Bots":0,"server_type":"Dedicated","server_os":"Linux","password":true,"vac":true,"version":"7757534","steam_id":85568392924515217,"keywords":["nocrits","nodmgspread","payload","uncletopia"],"game_id":440,"stv_port":27036,"stv_name":"Uncletopia | Seattle | 3 | Stopwatch Beta | STV","players":[{"user_id":25,"name":"flamaboy","steam_id":76561198041955686,"connected_time":133000000000,"state":"active","ping":95},{"user_id":26,"name":"the molester","steam_id":76561199405234746,"connected_time":108000000000,"state":"active","ping":82}]},{"server_id":17,"name":"Uncletopia | San Francisco | 1 | All Maps","name_short":"sfo-1","host":"sfo-1.us.uncletopia.com","port":27015,"enabled":true,"region":"us-west","cc":"us","latitude":37.77397,"longitude":-122.4313,"reserved":0,"last_update":"0001-01-01T00:00:00Z","name_a2s":"Uncletopia | San Francisco | 1 | All Maps","protocol":17,"map":"pl_upward","folder":"tf","game":"Team Fortress","app_id":440,"player_count":23,"max_players":24,"Bots":0,"server_type":"Dedicated","server_os":"Linux","password":true,"vac":true,"version":"7757534","steam_id":85568392924469999,"keywords":["nocrits","nodmgspread","payload","uncletopia"],"game_id":440,"stv_port":27016,"stv_name":"Uncletopia | San Francisco | 1 | All Maps | STV","players":[{"user_id":125,"name":"mechanicvirus","steam_id":76561198038161480,"connected_time":1853000000000,"state":"active","ping":70},{"user_id":117,"name":"evan_is_sauce","steam_id":76561199086802383,"connected_time":2272000000000,"state":"active","ping":101},{"user_id":137,"name":"TheFakeApple","steam_id":76561199090113472,"connected_time":1158000000000,"state":"active","ping":78},{"user_id":114,"name":"BackToSchoolAds","steam_id":76561198870281128,"connected_time":2635000000000,"state":"active","ping":73},{"user_id":143,"name":"HOG RIDER","steam_id":76561198298589502,"connected_time":375000000000,"state":"active","ping":76},{"user_id":148,"name":"Tetra","steam_id":76561198145257468,"connected_time":361000000000,"state":"active","ping":75},{"user_id":97,"name":"borzier","steam_id":76561198069190432,"connected_time":3431000000000,"state":"active","ping":121},{"user_id":145,"name":"Fargo","steam_id":76561198044703931,"connected_time":368000000000,"state":"active","ping":75},{"user_id":136,"name":"depresso","steam_id":76561198846186475,"connected_time":1176000000000,"state":"active","ping":66},{"user_id":150,"name":"DannyM","steam_id":76561198351165570,"connected_time":151000000000,"state":"active","ping":74},{"user_id":98,"name":"scratching post enjoyer","steam_id":76561198204169516,"connected_time":3424000000000,"state":"active","ping":70},{"user_id":146,"name":"Tomoscones","steam_id":76561198813586588,"connected_time":362000000000,"state":"active","ping":59},{"user_id":139,"name":"needle_","steam_id":76561199152845426,"connected_time":616000000000,"state":"active","ping":72},{"user_id":149,"name":"times table","steam_id":76561198341452558,"connected_time":310000000000,"state":"active","ping":85},{"user_id":134,"name":"herp derp ☕","steam_id":76561198047646956,"connected_time":1356000000000,"state":"active","ping":82},{"user_id":85,"name":"dosimeter","steam_id":76561198039608940,"connected_time":4315000000000,"state":"active","ping":79},{"user_id":89,"name":"Buuw","steam_id":76561198085707714,"connected_time":3878000000000,"state":"active","ping":65},{"user_id":127,"name":"asf","steam_id":76561198994761483,"connected_time":1658000000000,"state":"active","ping":89},{"user_id":131,"name":"ninety9dragonfly","steam_id":76561198363406983,"connected_time":1554000000000,"state":"active","ping":67},{"user_id":128,"name":"hedahman","steam_id":76561198052398134,"connected_time":1637000000000,"state":"active","ping":66},{"user_id":130,"name":"The American Egele","steam_id":76561198081504766,"connected_time":1595000000000,"state":"active","ping":86},{"user_id":141,"name":"Timon's high on crack cocaine!","steam_id":76561198180396430,"connected_time":420000000000,"state":"active","ping":57},{"user_id":132,"name":"Reindmoz","steam_id":76561199102502069,"connected_time":1547000000000,"state":"active","ping":112}]},{"server_id":18,"name":"Uncletopia | San Francisco | 2 | All Maps","name_short":"sfo-2","host":"sfo-1.us.uncletopia.com","port":27025,"enabled":true,"region":"us-west","cc":"us","latitude":37.77397,"longitude":-122.4313,"reserved":0,"last_update":"0001-01-01T00:00:00Z","name_a2s":"Uncletopia | San Francisco | 2 | All Maps","protocol":17,"map":"cp_process_final","folder":"tf","game":"Team Fortress","app_id":440,"player_count":3,"max_players":24,"Bots":0,"server_type":"Dedicated","server_os":"Linux","password":true,"vac":true,"version":"7757534","steam_id":85568392924470000,"keywords":["cp","nocrits","nodmgspread","uncletopia"],"game_id":440,"stv_port":27026,"stv_name":"Uncletopia | San Francisco | 2 | All Maps | STV","players":[{"user_id":169,"name":"glue sommelier","steam_id":76561198017904867,"connected_time":732000000000,"state":"active","ping":67},{"user_id":171,"name":"cyro","steam_id":76561198146241989,"connected_time":676000000000,"state":"active","ping":108},{"user_id":172,"name":"sara","steam_id":76561198283462369,"connected_time":285000000000,"state":"active","ping":63}]},{"server_id":19,"name":"Uncletopia | San Francisco | 3 | Stopwatch Beta","name_short":"sfo-3","host":"sfo-1.us.uncletopia.com","port":27035,"enabled":true,"region":"us-west","cc":"us","latitude":37.77397,"longitude":-122.4313,"reserved":0,"last_update":"0001-01-01T00:00:00Z","name_a2s":"Uncletopia | San Francisco | 3 | Stopwatch Beta","protocol":17,"map":"koth_viaduct","folder":"tf","game":"Team Fortress","app_id":440,"player_count":0,"max_players":24,"Bots":0,"server_type":"Dedicated","server_os":"Linux","password":true,"vac":true,"version":"7757534","steam_id":85568392924742824,"keywords":["cp","nocrits","nodmgspread","uncletopia"],"game_id":440,"stv_port":27036,"stv_name":"Uncletopia | San Francisco | 3 | Stopwatch Beta | STV","players":null},{"server_id":20,"name":"Uncletopia | San Francisco | 4 | Community","name_short":"sfo-4","host":"sfo-1.us.uncletopia.com","port":27045,"enabled":true,"region":"us-west","cc":"us","latitude":37.77397,"longitude":-122.4313,"reserved":0,"last_update":"0001-01-01T00:00:00Z","name_a2s":"Uncletopia | San Francisco | 4 | Community","protocol":17,"map":"workshop/koth_slaughter_rc1.ugc1712845210","folder":"tf","game":"Team Fortress","app_id":440,"player_count":0,"max_players":24,"Bots":0,"server_type":"Dedicated","server_os":"Linux","password":true,"vac":true,"version":"7757534","steam_id":85568392924742826,"keywords":["cp","nocrits","nodmgspread","uncletopia"],"game_id":440,"stv_port":27046,"stv_name":"Uncletopia | San Francisco | 4 | Community | STV","players":null},{"server_id":141,"name":"Uncletopia | Sydney | 1 | All Maps","name_short":"syd-1","host":"syd-1.au.uncletopia.com","port":27015,"enabled":true,"region":"au","cc":"au","latitude":-33.865143,"longitude":151.2099,"reserved":0,"last_update":"0001-01-01T00:00:00Z","name_a2s":"Uncletopia | Sydney | 1 | All Maps","protocol":17,"map":"pl_upward","folder":"tf","game":"Team Fortress","app_id":440,"player_count":24,"max_players":24,"Bots":0,"server_type":"Dedicated","server_os":"Linux","password":true,"vac":true,"version":"7757534","steam_id":85568392924470001,"keywords":["nocrits","nodmgspread","payload","uncletopia"],"game_id":440,"stv_port":27016,"stv_name":"Uncletopia | Sydney | 1 | All Maps | STV","players":[{"user_id":177,"name":"Drakeo","steam_id":76561198268859184,"connected_time":358000000000,"state":"active","ping":103},{"user_id":183,"name":"fellas in paris","steam_id":76561198046025785,"connected_time":174000000000,"state":"active","ping":59},{"user_id":170,"name":"Iggy","steam_id":76561198801469956,"connected_time":751000000000,"state":"active","ping":66},{"user_id":178,"name":"wombraider","steam_id":76561199375834537,"connected_time":323000000000,"state":"active","ping":120},{"user_id":155,"name":"JoeNoodle6","steam_id":76561198858642295,"connected_time":1589000000000,"state":"active","ping":97},{"user_id":166,"name":"Piklz","steam_id":76561198043384139,"connected_time":913000000000,"state":"active","ping":59},{"user_id":179,"name":"Wild ???","steam_id":76561198133529257,"connected_time":241000000000,"state":"active","ping":56},{"user_id":180,"name":"Long_Neck","steam_id":76561198059207275,"connected_time":232000000000,"state":"active","ping":89},{"user_id":149,"name":"tweedie","steam_id":76561198063425523,"connected_time":1748000000000,"state":"active","ping":57},{"user_id":172,"name":"Rick","steam_id":76561198093630478,"connected_time":431000000000,"state":"active","ping":70},{"user_id":182,"name":"Hat","steam_id":76561199260847900,"connected_time":178000000000,"state":"active","ping":85},{"user_id":151,"name":"ToadFungus","steam_id":76561199219667039,"connected_time":1714000000000,"state":"active","ping":104},{"user_id":158,"name":"thrax","steam_id":76561197992385270,"connected_time":1531000000000,"state":"active","ping":51},{"user_id":87,"name":"bowser","steam_id":76561198271462646,"connected_time":7394000000000,"state":"active","ping":41},{"user_id":145,"name":"Agrathem","steam_id":76561198931437499,"connected_time":2240000000000,"state":"active","ping":75},{"user_id":184,"name":":)","steam_id":76561198027294230,"connected_time":105000000000,"state":"active","ping":58},{"user_id":132,"name":"Sy 4","steam_id":76561198879862702,"connected_time":3799000000000,"state":"active","ping":71},{"user_id":152,"name":"Bobby Bigman","steam_id":76561198044679656,"connected_time":1705000000000,"state":"active","ping":57},{"user_id":169,"name":"oldbie","steam_id":76561198053297711,"connected_time":765000000000,"state":"active","ping":98},{"user_id":188,"name":"A Paffendorf \u003c3","steam_id":76561199211311731,"connected_time":1000000000,"state":"spawning","ping":155},{"user_id":185,"name":"engineer gaming","steam_id":76561199218582893,"connected_time":55000000000,"state":"active","ping":355},{"user_id":186,"name":"Mitxh-","steam_id":76561198361286662,"connected_time":54000000000,"state":"active","ping":272},{"user_id":187,"name":"J959","steam_id":76561198855585931,"connected_time":16000000000,"state":"spawning","ping":81},{"user_id":173,"name":"Consolidated Fart","steam_id":76561198924101909,"connected_time":431000000000,"state":"active","ping":66}]},{"server_id":123,"name":"Uncletopia | Sydney | 2 | All Maps","name_short":"syd-2","host":"syd-1.au.uncletopia.com","port":27025,"enabled":true,"region":"au","cc":"au","latitude":-33.865143,"longitude":151.2099,"reserved":0,"last_update":"0001-01-01T00:00:00Z","name_a2s":"Uncletopia | Sydney | 2 | All Maps","protocol":17,"map":"cp_process_final","folder":"tf","game":"Team Fortress","app_id":440,"player_count":5,"max_players":24,"Bots":0,"server_type":"Dedicated","server_os":"Linux","password":true,"vac":true,"version":"7757534","steam_id":85568392924470002,"keywords":["cp","nocrits","nodmgspread","uncletopia"],"game_id":440,"stv_port":27026,"stv_name":"Uncletopia | Sydney | 2 | All Maps | STV","players":[{"user_id":437,"name":"The Bisoneer TF2","steam_id":76561199446773766,"connected_time":218000000000,"state":"active","ping":85},{"user_id":438,"name":"jhanliallainnjison","steam_id":76561199347004668,"connected_time":4000000000,"state":"spawning","ping":164},{"user_id":386,"name":"Oysenberry","steam_id":76561198125443335,"connected_time":4449000000000,"state":"active","ping":45},{"user_id":429,"name":"Cris.p bacon","steam_id":76561199230423491,"connected_time":738000000000,"state":"active","ping":106},{"user_id":411,"name":"blaze","steam_id":76561198241303512,"connected_time":1724000000000,"state":"active","ping":61}]},{"server_id":395,"name":"Uncletopia | Sydney | 3 | All Maps","name_short":"syd-3","host":"syd-1.au.uncletopia.com","port":27035,"enabled":true,"region":"au","cc":"au","latitude":-33.865143,"longitude":151.2099,"reserved":0,"last_update":"0001-01-01T00:00:00Z","name_a2s":"Uncletopia | Sydney | 3 | All Maps","protocol":17,"map":"pl_upward","folder":"tf","game":"Team Fortress","app_id":440,"player_count":0,"max_players":24,"Bots":0,"server_type":"Dedicated","server_os":"Linux","password":true,"vac":true,"version":"7757534","steam_id":85568392925194467,"keywords":["nocrits","nodmgspread","payload","uncletopia"],"game_id":440,"stv_port":27036,"stv_name":"Uncletopia | Sydney | 3 | All Maps | STV","players":null},{"server_id":396,"name":"Uncletopia | Sydney | 4 | All Maps","name_short":"syd-4","host":"syd-1.au.uncletopia.com","port":27045,"enabled":true,"region":"au","cc":"au","latitude":-33.865143,"longitude":151.2099,"reserved":0,"last_update":"0001-01-01T00:00:00Z","name_a2s":"Uncletopia | Sydney | 4 | All Maps","protocol":17,"map":"koth_highpass","folder":"tf","game":"Team Fortress","app_id":440,"player_count":0,"max_players":24,"Bots":0,"server_type":"Dedicated","server_os":"Linux","password":true,"vac":true,"version":"7757534","steam_id":85568392925397958,"keywords":["cp","nocrits","nodmgspread","uncletopia"],"game_id":440,"stv_port":27046,"stv_name":"Uncletopia | Sydney | 4 | All Maps | STV","players":null},{"server_id":58,"name":"Uncletopia | Sydney | 5 | Stopwatch Beta","name_short":"syd-5","host":"syd-1.au.uncletopia.com","port":27055,"enabled":true,"region":"au","cc":"au","latitude":-33.865143,"longitude":151.2099,"reserved":0,"last_update":"0001-01-01T00:00:00Z","name_a2s":"Uncletopia | Sydney | 5 | Stopwatch Beta","protocol":17,"map":"pl_barnblitz","folder":"tf","game":"Team Fortress","app_id":440,"player_count":0,"max_players":24,"Bots":0,"server_type":"Dedicated","server_os":"Linux","password":true,"vac":true,"version":"7757534","steam_id":85568392925397959,"keywords":["nocrits","nodmgspread","payload","uncletopia"],"game_id":440,"stv_port":27056,"stv_name":"Uncletopia | Sydney | 5 | Stopwatch Beta | STV","players":null},{"server_id":59,"name":"Uncletopia | Sydney | 6 | Community","name_short":"syd-6","host":"syd-1.au.uncletopia.com","port":27065,"enabled":true,"region":"au","cc":"au","latitude":-33.865143,"longitude":151.2099,"reserved":0,"last_update":"0001-01-01T00:00:00Z","name_a2s":"Uncletopia | Sydney | 6 | Community","protocol":17,"map":"workshop/koth_synthetic_rc6a.ugc1549817316","folder":"tf","game":"Team Fortress","app_id":440,"player_count":2,"max_players":24,"Bots":0,"server_type":"Dedicated","server_os":"Linux","password":true,"vac":true,"version":"7757534","steam_id":85568392925397960,"keywords":["cp","nocrits","nodmgspread","uncletopia"],"game_id":440,"stv_port":27066,"stv_name":"Uncletopia | Sydney | 6 | Community | STV","players":[{"user_id":12,"name":"jchthm12","steam_id":76561199376385352,"connected_time":717000000000,"state":"active","ping":61},{"user_id":13,"name":"not a giant eyeball","steam_id":76561198879150611,"connected_time":675000000000,"state":"active","ping":73}]},{"server_id":49,"name":"Uncletopia | Warsaw | 1 | All Maps","name_short":"waw-1","host":"waw-1.pl.uncletopia.com","port":27015,"enabled":true,"region":"eu","cc":"pl","latitude":52.2297,"longitude":21.017532,"reserved":0,"last_update":"0001-01-01T00:00:00Z","name_a2s":"","protocol":0,"map":"","folder":"","game":"","app_id":0,"player_count":0,"max_players":0,"Bots":0,"server_type":"","server_os":"","password":false,"vac":false,"version":"","steam_id":0,"keywords":null,"game_id":0,"stv_port":0,"stv_name":"","players":null},{"server_id":50,"name":"Uncletopia | Warsaw | 2 | All Maps","name_short":"waw-2","host":"waw-1.pl.uncletopia.com","port":27025,"enabled":true,"region":"eu","cc":"pl","latitude":52.2297,"longitude":21.017532,"reserved":0,"last_update":"0001-01-01T00:00:00Z","name_a2s":"Uncletopia | Warsaw | 2 | All Maps","protocol":17,"map":"cp_snakewater_final1","folder":"tf","game":"Team Fortress","app_id":440,"player_count":0,"max_players":24,"Bots":0,"server_type":"Dedicated","server_os":"Linux","password":true,"vac":true,"version":"7757534","steam_id":85568392925397851,"keywords":["cp","nocrits","nodmgspread","uncletopia"],"game_id":440,"stv_port":27026,"stv_name":"Uncletopia | Warsaw | 2 | All Maps | STV","players":null},{"server_id":51,"name":"Uncletopia | Warsaw | 3 | All Maps","name_short":"waw-3","host":"waw-1.pl.uncletopia.com","port":27035,"enabled":true,"region":"eu","cc":"pl","latitude":52.2297,"longitude":21.017532,"reserved":0,"last_update":"0001-01-01T00:00:00Z","name_a2s":"Uncletopia | Warsaw | 3 | All Maps","protocol":17,"map":"cp_sunshine","folder":"tf","game":"Team Fortress","app_id":440,"player_count":0,"max_players":24,"Bots":0,"server_type":"Dedicated","server_os":"Linux","password":true,"vac":true,"version":"7757534","steam_id":85568392925397852,"keywords":["cp","nocrits","nodmgspread","uncletopia"],"game_id":440,"stv_port":27036,"stv_name":"Uncletopia | Warsaw | 3 | All Maps | STV","players":null},{"server_id":52,"name":"Uncletopia | Warsaw | 4 | All Maps","name_short":"waw-4","host":"waw-1.pl.uncletopia.com","port":27045,"enabled":true,"region":"eu","cc":"pl","latitude":52.2297,"longitude":21.017532,"reserved":0,"last_update":"0001-01-01T00:00:00Z","name_a2s":"Uncletopia | Warsaw | 4 | All Maps","protocol":17,"map":"pl_borneo","folder":"tf","game":"Team Fortress","app_id":440,"player_count":0,"max_players":24,"Bots":0,"server_type":"Dedicated","server_os":"Linux","password":true,"vac":true,"version":"7757534","steam_id":85568392925397853,"keywords":["nocrits","nodmgspread","payload","uncletopia"],"game_id":440,"stv_port":27046,"stv_name":"Uncletopia | Warsaw | 4 | All Maps | STV","players":null},{"server_id":53,"name":"Uncletopia | Warsaw | 5 | Stopwatch Beta","name_short":"waw-5","host":"waw-1.pl.uncletopia.com","port":27055,"enabled":true,"region":"eu","cc":"pl","latitude":52.2297,"longitude":21.017532,"reserved":0,"last_update":"0001-01-01T00:00:00Z","name_a2s":"Uncletopia | Warsaw | 5 | Stopwatch Beta","protocol":17,"map":"pl_upward","folder":"tf","game":"Team Fortress","app_id":440,"player_count":0,"max_players":24,"Bots":0,"server_type":"Dedicated","server_os":"Linux","password":true,"vac":true,"version":"7757534","steam_id":85568392925397854,"keywords":["nocrits","nodmgspread","payload","uncletopia"],"game_id":440,"stv_port":27056,"stv_name":"Uncletopia | Warsaw | 5 | Stopwatch Beta | STV","players":null},{"server_id":54,"name":"Uncletopia | Warsaw | 6 | Community","name_short":"waw-6","host":"waw-1.pl.uncletopia.com","port":27065,"enabled":true,"region":"eu","cc":"pl","latitude":52.2297,"longitude":21.017532,"reserved":0,"last_update":"0001-01-01T00:00:00Z","name_a2s":"Uncletopia | Warsaw | 6 | Community","protocol":17,"map":"pl_barnblitz","folder":"tf","game":"Team Fortress","app_id":440,"player_count":0,"max_players":24,"Bots":0,"server_type":"Dedicated","server_os":"Linux","password":true,"vac":true,"version":"7757534","steam_id":85568392925397856,"keywords":["nocrits","nodmgspread","payload","uncletopia"],"game_id":440,"stv_port":27066,"stv_name":"Uncletopia | Warsaw | 6 | Community | STV","players":null}]}