{"status":true,"message":"","result":[{"server_id":9,"name":"Uncletopia | Atlanta | 1 | All Maps","name_short":"atl-1","host":"atl-1.us.uncletopia.com","port":27015,"enabled":true,"region":"us-east","cc":"us","latitude":33.753746,"longitude":-84.38633,"reserved":0,"last_update":"0001-01-01T00:00:00Z","name_a2s":"Uncletopia | Atlanta | 1 | All Maps","protocol":17,"map":"pl_swiftwater_final1","folder":"tf","game":"Team Fortress","app_id":440,"player_count":24,"max_players":24,"Bots":0,"server_type":"Dedicated","server_os":"Linux","password":true,"vac":true,"version":"7742253","steam_id":85568392924469982,"keywords":["nocrits","nodmgspread","payload","uncletopia"],"game_id":440,"stv_port":27016,"stv_name":"Uncletopia | Atlanta | 1 | All Maps | STV","players":[{"user_id":81,"name":"JFK Gamer","steam_id":76561199229169396,"connected_time":1933000000000,"state":"active","ping":90},{"user_id":101,"name":"Yoyo","steam_id":76561199122577289,"connected_time":443000000000,"state":"active","ping":60},{"user_id":75,"name":"Eightyy  Fourr","steam_id":76561197960374225,"connected_time":2160000000000,"state":"active","ping":72},{"user_id":17,"name":"ATL1 | Lancer Fan Club","steam_id":76561198355495948,"connected_time":5372000000000,"state":"active","ping":86},{"user_id":67,"name":"scuttles","steam_id":76561199250039100,"connected_time":2614000000000,"state":"active","ping":75},{"user_id":103,"name":"ajplays28","steam_id":76561199023537026,"connected_time":122000000000,"state":"active","ping":81},{"user_id":21,"name":"ATL1 | Kramer","steam_id":76561198083595936,"connected_time":5262000000000,"state":"active","ping":98},{"user_id":88,"name":"Farseer Ulwithy","steam_id":76561197965179245,"connected_time":842000000000,"state":"active","ping":122},{"user_id":105,"name":"(`ÔΩ•œâÔΩ•¬¥)","steam_id":76561198000045766,"connected_time":13000000000,"state":"spawning","ping":69},{"user_id":90,"name":"ford truck","steam_id":76561198051823844,"connected_time":805000000000,"state":"active","ping":83},{"user_id":102,"name":"xylrith","steam_id":76561198025493614,"connected_time":393000000000,"state":"active","ping":93},{"user_id":92,"name":"ThatGhastyBoi","steam_id":76561199243666311,"connected_time":768000000000,"state":"active","ping":62},{"user_id":66,"name":"ash","steam_id":76561198127890645,"connected_time":2661000000000,"state":"active","ping":62},{"user_id":32,"name":"Lolxdloldx","steam_id":76561198136887125,"connected_time":4726000000000,"state":"active","ping":91},{"user_id":93,"name":"Rurigade Towers","steam_id":76561198148598905,"connected_time":738000000000,"state":"active","ping":94},{"user_id":95,"name":"sam1521","steam_id":76561198027264163,"connected_time":705000000000,"state":"active","ping":85},{"user_id":96,"name":"LuisManChelo","steam_id":76561198200867246,"connected_time":627000000000,"state":"active","ping":126},{"user_id":97,"name":"The Notorious RBG","steam_id":76561198014275148,"connected_time":598000000000,"state":"active","ping":74},{"user_id":104,"name":"‚ù§ Ashley ‚ù§","steam_id":76561198056428303,"connected_time":112000000000,"state":"active","ping":108},{"user_id":45,"name":"THE BEST PLAYER IN THE WORLD","steam_id":76561199245670274,"connected_time":4487000000000,"state":"active","ping":107},{"user_id":47,"name":"DingusDongus","steam_id":76561198413472674,"connected_time":4302000000000,"state":"active","ping":33},{"user_id":98,"name":"Wheatley","steam_id":76561199059006203,"connected_time":584000000000,"state":"active","ping":78},{"user_id":99,"name":"cybercat","steam_id":76561199120774107,"connected_time":555000000000,"state":"active","ping":109},{"user_id":100,"name":"SomeCozyKid","steam_id":76561198086113234,"connected_time":497000000000,"state":"active","ping":87}]},{"server_id":400,"name":"Uncletopia | Atlanta | 3 | Stopwatch Beta","name_short":"atl-3","host":"atl-1.us.uncletopia.com","port":27035,"enabled":true,"region":"us-east","cc":"us","latitude":33.753746,"longitude":-84.38633,"reserved":0,"last_update":"0001-01-01T00:00:00Z","name_a2s":"Uncletopia | Atlanta | 3 | Stopwatch Beta","protocol":17,"map":"pl_upward","folder":"tf","game":"Team Fortress","app_id":440,"player_count":0,"max_players":24,"Bots":0,"server_type":"Dedicated","server_os":"Linux","password":true,"vac":true,"version":"7742253","steam_id":85568392924515187,"keywords":["nocrits","nodmgspread","payload","uncletopia"],"game_id":440,"stv_port":27036,"stv_name":"Uncletopia | Atlanta | 3 | Stopwatch Beta | STV","players":null},{"server_id":401,"name":"Uncletopia | Atlanta | 4 | No Payload","name_short":"atl-4","host":"atl-1.us.uncletopia.com","port":27045,"enabled":true,"region":"us-east","cc":"us","latitude":33.753746,"longitude":-84.38633,"reserved":0,"last_update":"0001-01-01T00:00:00Z","name_a2s":"Uncletopia | Atlanta | 4 | No Payload","protocol":17,"map":"pl_pier","folder":"tf","game":"Team Fortress","app_id":440,"player_count":0,"max_players":24,"Bots":0,"server_type":"Dedicated","server_os":"Linux","password":true,"vac":true,"version":"7723704","steam_id":85568392924515188,"keywords":["nocrits","nodmgspread","payload","uncletopia"],"game_id":440,"stv_port":27046,"stv_name":"Uncletopia | Atlanta | 4 | No Payload | STV","players":null},{"server_id":2,"name":"Uncletopia | Chicago | 1 | All Maps","name_short":"chi-1","host":"chi-1.us.uncletopia.com","port":27015,"enabled":true,"region":"us-central","cc":"us","latitude":41.881832,"longitude":-87.62318,"reserved":0,"last_update":"0001-01-01T00:00:00Z","name_a2s":"Uncletopia | Chicago | 1 | All Maps","protocol":17,"map":"pl_barnblitz","folder":"tf","game":"Team Fortress","app_id":440,"player_count":24,"max_players":24,"Bots":0,"server_type":"Dedicated","server_os":"Linux","password":true,"vac":true,"version":"7742253","steam_id":85568392924469984,"keywords":["nocrits","nodmgspread","payload","uncletopia"],"game_id":440,"stv_port":27016,"stv_name":"Uncletopia | Chicago | 1 | All Maps | STV","players":[{"user_id":80,"name":"fresh bowling shoes","steam_id":76561198347613238,"connected_time":3385000000000,"state":"active","ping":80},{"user_id":109,"name":"Bl√•haj","steam_id":76561198444871237,"connected_time":819000000000,"state":"active","ping":74},{"user_id":126,"name":"richard clock","steam_id":76561198048455671,"connected_time":134000000000,"state":"active","ping":56},{"user_id":117,"name":"Fungi","steam_id":76561198974448323,"connected_time":703000000000,"state":"active","ping":100},{"user_id":94,"name":"TheSmokingMan","steam_id":76561198032652995,"connected_time":2148000000000,"state":"active","ping":80},{"user_id":121,"name":"Whizzo the Clown","steam_id":76561197995910627,"connected_time":376000000000,"state":"active","ping":79},{"user_id":122,"name":"gaming was invented in 1535","steam_id":76561198212031324,"connected_time":347000000000,"state":"active","ping":55},{"user_id":95,"name":"Dank","steam_id":76561198157983180,"connected_time":2143000000000,"state":"active","ping":73},{"user_id":84,"name":"JunZI","steam_id":76561199121850793,"connected_time":3343000000000,"state":"active","ping":59},{"user_id":85,"name":"ReliableSoup","steam_id":76561199012909908,"connected_time":3342000000000,"state":"active","ping":48},{"user_id":123,"name":"tanmantincan","steam_id":76561198105044427,"connected_time":341000000000,"state":"active","ping":102},{"user_id":58,"name":"eloressa","steam_id":76561198120330867,"connected_time":5213000000000,"state":"active","ping":54},{"user_id":105,"name":"Hell's Reindeer","steam_id":76561198065310364,"connected_time":1257000000000,"state":"active","ping":57},{"user_id":106,"name":"extinct111","steam_id":76561199013696367,"connected_time":1212000000000,"state":"active","ping":59},{"user_id":118,"name":"Trollamoo","steam_id":76561198865767224,"connected_time":672000000000,"state":"active","ping":58},{"user_id":125,"name":"Fish","steam_id":76561198986516474,"connected_time":259000000000,"state":"active","ping":87},{"user_id":108,"name":"cyclops","steam_id":76561197970370198,"connected_time":821000000000,"state":"active","ping":50},{"user_id":102,"name":"notmanhattan","steam_id":76561198143117561,"connected_time":1596000000000,"state":"active","ping":45},{"user_id":120,"name":"Quantum Sauce","steam_id":76561198164034337,"connected_time":434000000000,"state":"active","ping":106},{"user_id":43,"name":"ScreamCram","steam_id":76561199114068524,"connected_time":5858000000000,"state":"active","ping":56},{"user_id":124,"name":"KingTinkerer","steam_id":76561198226856548,"connected_time":310000000000,"state":"active","ping":86},{"user_id":119,"name":"AverageRundownJoe.ttv","steam_id":76561198059359620,"connected_time":616000000000,"state":"active","ping":76},{"user_id":89,"name":"Michaelpc1","steam_id":76561198088365519,"connected_time":3183000000000,"state":"active","ping":78},{"user_id":104,"name":"dr peppah chug!","steam_id":76561198068835693,"connected_time":1308000000000,"state":"active","ping":89}]},{"server_id":106,"name":"Uncletopia | Chicago | 2 | All Maps","name_short":"chi-2","host":"chi-1.us.uncletopia.com","port":27025,"enabled":true,"region":"us-central","cc":"us","latitude":41.881832,"longitude":-87.62318,"reserved":0,"last_update":"0001-01-01T00:00:00Z","name_a2s":"Uncletopia | Chicago | 2 | All Maps","protocol":17,"map":"pl_pier","folder":"tf","game":"Team Fortress","app_id":440,"player_count":0,"max_players":24,"Bots":0,"server_type":"Dedicated","server_os":"Linux","password":true,"vac":true,"version":"7742253","steam_id":85568392924469985,"keywords":["nocrits","nodmgspread","payload","uncletopia"],"game_id":440,"stv_port":27026,"stv_name":"Uncletopia | Chicago | 2 | All Maps | STV","players":null},{"server_id":402,"name":"Uncletopia | Chicago | 3 | All Maps","name_short":"chi-3","host":"chi-1.us.uncletopia.com","port":27035,"enabled":true,"region":"us-central","cc":"us","latitude":41.881832,"longitude":-87.62318,"reserved":0,"last_update":"0001-01-01T00:00:00Z","name_a2s":"Uncletopia | Chicago | 3 | All Maps","protocol":17,"map":"koth_harvest_final","folder":"tf","game":"Team Fortress","app_id":440,"player_count":24,"max_players":24,"Bots":0,"server_type":"Dedicated","server_os":"Linux","password":true,"vac":true,"version":"7742253","steam_id":85568392924515191,"keywords":["cp","nocrits","nodmgspread","uncletopia"],"game_id":440,"stv_port":27036,"stv_name":"Uncletopia | Chicago | 3 | All Maps | STV","players":[{"user_id":225,"name":"-flagellum","steam_id":76561198006297974,"connected_time":2403000000000,"state":"active","ping":63},{"user_id":221,"name":"des","steam_id":76561198079226634,"connected_time":2866000000000,"state":"active","ping":68},{"user_id":240,"name":"Fitts1099","steam_id":76561198044986906,"connected_time":1403000000000,"state":"active","ping":48},{"user_id":261,"name":"Bruised Banana","steam_id":76561198364172677,"connected_time":53000000000,"state":"active","ping":72},{"user_id":259,"name":"I Have No Skill And I Must Frag","steam_id":76561198326052355,"connected_time":363000000000,"state":"active","ping":123},{"user_id":198,"name":"matchstick","steam_id":76561198190100027,"connected_time":4313000000000,"state":"active","ping":59},{"user_id":229,"name":"Eliza (They/She)","steam_id":76561198108938752,"connected_time":2276000000000,"state":"active","ping":66},{"user_id":179,"name":"I did meth","steam_id":76561199174310124,"connected_time":5360000000000,"state":"active","ping":53},{"user_id":254,"name":"Ze' Skipper","steam_id":76561199098330729,"connected_time":499000000000,"state":"active","ping":74},{"user_id":235,"name":"ratio","steam_id":76561198122059018,"connected_time":1899000000000,"state":"active","ping":47},{"user_id":245,"name":"Pyromainiac","steam_id":76561199259867180,"connected_time":855000000000,"state":"active","ping":100},{"user_id":247,"name":"Bearegard","steam_id":76561198061926542,"connected_time":830000000000,"state":"active","ping":60},{"user_id":230,"name":"Bitkrin","steam_id":76561198995819530,"connected_time":2263000000000,"state":"active","ping":77},{"user_id":237,"name":"Roomsky","steam_id":76561198012827494,"connected_time":1582000000000,"state":"active","ping":90},{"user_id":242,"name":"L","steam_id":76561198067556825,"connected_time":1067000000000,"state":"active","ping":64},{"user_id":249,"name":"KEEN","steam_id":76561197988436984,"connected_time":785000000000,"state":"active","ping":74},{"user_id":248,"name":"The Party Wizard","steam_id":76561198043935182,"connected_time":810000000000,"state":"active","ping":65},{"user_id":234,"name":"garmonbozia","steam_id":76561198287124402,"connected_time":2010000000000,"state":"active","ping":77},{"user_id":253,"name":"Skelitor ‚ú™","steam_id":76561198043885634,"connected_time":652000000000,"state":"active","ping":63},{"user_id":260,"name":"Gio","steam_id":76561198375206445,"connected_time":298000000000,"state":"active","ping":70},{"user_id":251,"name":"Salt","steam_id":76561198418001135,"connected_time":745000000000,"state":"active","ping":74},{"user_id":239,"name":"Madkiller Max","steam_id":76561197974470705,"connected_time":1557000000000,"state":"active","ping":73},{"user_id":255,"name":"PeopleOrderOurPatties","steam_id":76561198323144922,"connected_time":485000000000,"state":"active","ping":72},{"user_id":241,"name":"Andromeda","steam_id":76561198113620464,"connected_time":1352000000000,"state":"active","ping":91}]},{"server_id":403,"name":"Uncletopia | Chicago | 4 | All Maps","name_short":"chi-4","host":"chi-1.us.uncletopia.com","port":27045,"enabled":true,"region":"us-central","cc":"us","latitude":41.881832,"longitude":-87.62318,"reserved":0,"last_update":"0001-01-01T00:00:00Z","name_a2s":"Uncletopia | Chicago | 4 | All Maps","protocol":17,"map":"koth_lakeside_final","folder":"tf","game":"Team Fortress","app_id":440,"player_count":0,"max_players":24,"Bots":0,"server_type":"Dedicated","server_os":"Linux","password":true,"vac":true,"version":"7742253","steam_id":85568392924515193,"keywords":["cp","nocrits","nodmgspread","uncletopia"],"game_id":440,"stv_port":27046,"stv_name":"Uncletopia | Chicago | 4 | All Maps | STV","players":null},{"server_id":36,"name":"Uncletopia | Chicago | 5 | All Maps","name_short":"chi-5","host":"chi-2.us.uncletopia.com","port":27015,"enabled":true,"region":"us-central","cc":"us","latitude":41.881832,"longitude":-87.62318,"reserved":0,"last_update":"0001-01-01T00:00:00Z","name_a2s":"Uncletopia | Chicago | 5 | All Maps","protocol":17,"map":"koth_highpass","folder":"tf","game":"Team Fortress","app_id":440,"player_count":0,"max_players":24,"Bots":0,"server_type":"Dedicated","server_os":"Linux","password":true,"vac":true,"version":"7742253","steam_id":85568392924866362,"keywords":["cp","nocrits","nodmgspread","uncletopia"],"game_id":440,"stv_port":27016,"stv_name":"Uncletopia | Chicago | 5 | All Maps | STV","players":null},{"server_id":37,"name":"Uncletopia | Chicago | 6 | All Maps","name_short":"chi-6","host":"chi-2.us.uncletopia.com","port":27025,"enabled":true,"region":"us-central","cc":"us","latitude":41.881832,"longitude":-87.62318,"reserved":0,"last_update":"0001-01-01T00:00:00Z","name_a2s":"Uncletopia | Chicago | 6 | All Maps","protocol":17,"map":"koth_lakeside_final","folder":"tf","game":"Team Fortress","app_id":440,"player_count":0,"max_players":24,"Bots":0,"server_type":"Dedicated","server_os":"Linux","password":true,"vac":true,"version":"7742253","steam_id":85568392924866363,"keywords":["cp","nocrits","nodmgspread","uncletopia"],"game_id":440,"stv_port":27026,"stv_name":"Uncletopia | Chicago | 6 | All Maps | STV","players":null},{"server_id":38,"name":"Uncletopia | Chicago | 7 | Stopwatch Beta","name_short":"chi-7","host":"chi-2.us.uncletopia.com","port":27035,"enabled":true,"region":"us-central","cc":"us","latitude":41.881832,"longitude":-87.62318,"reserved":0,"last_update":"0001-01-01T00:00:00Z","name_a2s":"Uncletopia | Chicago | 7 | Stopwatch Beta","protocol":17,"map":"cp_altitude","folder":"tf","game":"Team Fortress","app_id":440,"player_count":0,"max_players":24,"Bots":0,"server_type":"Dedicated","server_os":"Linux","password":true,"vac":true,"version":"7742253","steam_id":85568392924866364,"keywords":["cp","nocrits","nodmgspread","uncletopia"],"game_id":440,"stv_port":27036,"stv_name":"Uncletopia | Chicago | 7 | Stopwatch Beta | STV","players":null},{"server_id":39,"name":"Uncletopia | Chicago | 8 | Community","name_short":"chi-8","host":"chi-2.us.uncletopia.com","port":27045,"enabled":true,"region":"us-central","cc":"us","latitude":41.881832,"longitude":-87.62318,"reserved":0,"last_update":"0001-01-01T00:00:00Z","name_a2s":"Uncletopia | Chicago | 8 | Community","protocol":17,"map":"koth_cascade","folder":"tf","game":"Team Fortress","app_id":440,"player_count":0,"max_players":24,"Bots":0,"server_type":"Dedicated","server_os":"Linux","password":true,"vac":true,"version":"7742253","steam_id":85568392924866365,"keywords":["cp","nocrits","nodmgspread","uncletopia"],"game_id":440,"stv_port":27046,"stv_name":"Uncletopia | Chicago | 8 | Community | STV","players":null},{"server_id":8,"name":"Uncletopia | Dallas | 1 | All Maps","name_short":"dal-1","host":"dal-1.us.uncletopia.com","port":27015,"enabled":true,"region":"us-central","cc":"us","latitude":32.779167,"longitude":-96.80889,"reserved":0,"last_update":"0001-01-01T00:00:00Z","name_a2s":"Uncletopia | Dallas | 1 | All Maps","protocol":17,"map":"cp_mountainlab","folder":"tf","game":"Team Fortress","app_id":440,"player_count":24,"max_players":24,"Bots":0,"server_type":"Dedicated","server_os":"Linux","password":true,"vac":true,"version":"7742253","steam_id":85568392924469986,"keywords":["cp","nocrits","nodmgspread","uncletopia"],"game_id":440,"stv_port":27016,"stv_name":"Uncletopia | Dallas | 1 | All Maps | STV","players":[{"user_id":3,"name":"Horizons","steam_id":76561198106417594,"connected_time":2568000000000,"state":"active","ping":46},{"user_id":4,"name":"[LINUX] F2P=S*(M/B)+H || Spy!","steam_id":76561198093538786,"connected_time":2537000000000,"state":"active","ping":45},{"user_id":5,"name":"sex defender","steam_id":76561199122152458,"connected_time":2333000000000,"state":"active","ping":60},{"user_id":6,"name":"tardis_946","steam_id":76561199090388860,"connected_time":2175000000000,"state":"active","ping":73},{"user_id":20,"name":"kloo_","steam_id":76561199090218013,"connected_time":1418000000000,"state":"active","ping":37},{"user_id":40,"name":"Room","steam_id":76561199174579733,"connected_time":502000000000,"state":"active","ping":100},{"user_id":41,"name":"Mr. Cheesey","steam_id":76561198153462183,"connected_time":349000000000,"state":"active","ping":74},{"user_id":39,"name":"Extreme TF2 ClipsYT","steam_id":76561198333213589,"connected_time":711000000000,"state":"active","ping":90},{"user_id":12,"name":"Chuckled","steam_id":76561198217425919,"connected_time":1770000000000,"state":"active","ping":80},{"user_id":13,"name":"5-MeO-DMT","steam_id":76561198089527768,"connected_time":1673000000000,"state":"active","ping":60},{"user_id":43,"name":"Coffeemelon","steam_id":76561198285891257,"connected_time":21000000000,"state":"spawning","ping":100},{"user_id":42,"name":"Joneatshorts","steam_id":76561199233449550,"connected_time":295000000000,"state":"active","ping":78},{"user_id":16,"name":"shadow6","steam_id":76561197979807910,"connected_time":1456000000000,"state":"active","ping":114},{"user_id":17,"name":"Carl","steam_id":76561198089399299,"connected_time":1452000000000,"state":"active","ping":49},{"user_id":18,"name":"Aldinach","steam_id":76561198079912615,"connected_time":1431000000000,"state":"active","ping":72},{"user_id":19,"name":"lauren/","steam_id":76561198048745798,"connected_time":1428000000000,"state":"active","ping":73},{"user_id":21,"name":"Weakest Touhou Fan","steam_id":76561198388363822,"connected_time":1390000000000,"state":"active","ping":117},{"user_id":22,"name":"Dwaggy","steam_id":76561198027369555,"connected_time":1379000000000,"state":"active","ping":68},{"user_id":31,"name":"FireQuiz","steam_id":76561198107357249,"connected_time":1132000000000,"state":"active","ping":109},{"user_id":38,"name":"TheOtherBrush","steam_id":76561199048222977,"connected_time":733000000000,"state":"active","ping":88},{"user_id":27,"name":"Jonatello","steam_id":76561198045699189,"connected_time":1281000000000,"state":"active","ping":99},{"user_id":28,"name":"CapnKris22","steam_id":76561198049010994,"connected_time":1240000000000,"state":"active","ping":87},{"user_id":32,"name":"highWayy","steam_id":76561198042844908,"connected_time":1129000000000,"state":"active","ping":95},{"user_id":34,"name":"Raincool","steam_id":76561198042953645,"connected_time":1046000000000,"state":"active","ping":94}]},{"server_id":108,"name":"Uncletopia | Dallas | 2 | All Maps","name_short":"dal-2","host":"dal-1.us.uncletopia.com","port":27025,"enabled":true,"region":"us-central","cc":"us","latitude":32.779167,"longitude":-96.80889,"reserved":0,"last_update":"0001-01-01T00:00:00Z","name_a2s":"Uncletopia | Dallas | 2 | All Maps","protocol":17,"map":"pl_barnblitz","folder":"tf","game":"Team Fortress","app_id":440,"player_count":0,"max_players":24,"Bots":0,"server_type":"Dedicated","server_os":"Linux","password":true,"vac":true,"version":"7742253","steam_id":85568392924469988,"keywords":["nocrits","nodmgspread","payload","uncletopia"],"game_id":440,"stv_port":27026,"stv_name":"Uncletopia | Dallas | 2 | All Maps | STV","players":null},{"server_id":5,"name":"Uncletopia | Frankfurt | 1 | All Maps","name_short":"frk-1","host":"frk-1.de.uncletopia.com","port":27015,"enabled":true,"region":"eu","cc":"de","latitude":50.110924,"longitude":8.682127,"reserved":0,"last_update":"0001-01-01T00:00:00Z","name_a2s":"Uncletopia | Frankfurt | 1 | All Maps","protocol":17,"map":"pl_badwater","folder":"tf","game":"Team Fortress","app_id":440,"player_count":24,"max_players":24,"Bots":0,"server_type":"Dedicated","server_os":"Linux","password":true,"vac":true,"version":"7742253","steam_id":85568392924469989,"keywords":["nocrits","nodmgspread","payload","uncletopia"],"game_id":440,"stv_port":27016,"stv_name":"Uncletopia | Frankfurt | 1 | All Maps | STV","players":[{"user_id":598,"name":"SirKaelan","steam_id":76561198123193384,"connected_time":473000000000,"state":"active","ping":66},{"user_id":530,"name":"SPAH","steam_id":76561199195985387,"connected_time":4286000000000,"state":"active","ping":89},{"user_id":571,"name":"Gui","steam_id":76561198072054467,"connected_time":1681000000000,"state":"active","ping":79},{"user_id":591,"name":"Goliath","steam_id":76561198088583638,"connected_time":1134000000000,"state":"active","ping":46},{"user_id":574,"name":"bANji","steam_id":76561198108898161,"connected_time":1613000000000,"state":"active","ping":90},{"user_id":595,"name":"sHIFTINGvORTEX","steam_id":76561198231648332,"connected_time":796000000000,"state":"active","ping":73},{"user_id":594,"name":"Heavy like a Brinks truck","steam_id":76561198197304886,"connected_time":821000000000,"state":"active","ping":115},{"user_id":576,"name":"‡∂ûbominasus 2137  #SaveTF2","steam_id":76561198030062981,"connected_time":1568000000000,"state":"active","ping":64},{"user_id":542,"name":"Lateguy","steam_id":76561198069446079,"connected_time":3345000000000,"state":"active","ping":92},{"user_id":578,"name":"MyLittleCube#SaveTF2","steam_id":76561198056288346,"connected_time":1550000000000,"state":"active","ping":63},{"user_id":543,"name":"tekt","steam_id":76561198044554387,"connected_time":3342000000000,"state":"active","ping":84},{"user_id":585,"name":"0","steam_id":76561198267909207,"connected_time":1377000000000,"state":"active","ping":85},{"user_id":579,"name":"BitterStep","steam_id":76561199103959197,"connected_time":1543000000000,"state":"active","ping":96},{"user_id":580,"name":"≈Ωgr√¶√êek113","steam_id":76561198306883632,"connected_time":1535000000000,"state":"active","ping":60},{"user_id":497,"name":"Icarus300","steam_id":76561198015125766,"connected_time":6534000000000,"state":"active","ping":90},{"user_id":592,"name":"The Wolf Leader","steam_id":76561198038007462,"connected_time":1115000000000,"state":"active","ping":59},{"user_id":524,"name":"An unnecessary Jojo reference","steam_id":76561198121764825,"connected_time":5214000000000,"state":"active","ping":58},{"user_id":535,"name":"Taskyy","steam_id":76561198134901175,"connected_time":3573000000000,"state":"active","ping":72},{"user_id":597,"name":"Badoglio Vittima del Fascismo","steam_id":76561198302435743,"connected_time":616000000000,"state":"active","ping":80},{"user_id":552,"name":"Shymtzack","steam_id":76561198160369616,"connected_time":2983000000000,"state":"active","ping":89},{"user_id":561,"name":"Chalky \"Calculated\" Blue","steam_id":76561199053378029,"connected_time":2498000000000,"state":"active","ping":51},{"user_id":593,"name":"Dolcelatte","steam_id":76561198038501770,"connected_time":1097000000000,"state":"active","ping":47},{"user_id":587,"name":"Tusho","steam_id":76561198115447383,"connected_time":1353000000000,"state":"active","ping":94},{"user_id":589,"name":"Doggo","steam_id":76561198091909701,"connected_time":1245000000000,"state":"active","ping":97}]},{"server_id":110,"name":"Uncletopia | Frankfurt | 2 | All Maps","name_short":"frk-2","host":"frk-1.de.uncletopia.com","port":27025,"enabled":true,"region":"eu","cc":"de","latitude":50.110924,"longitude":8.682127,"reserved":0,"last_update":"0001-01-01T00:00:00Z","name_a2s":"Uncletopia | Frankfurt | 2 | All Maps","protocol":17,"map":"pl_snowycoast","folder":"tf","game":"Team Fortress","app_id":440,"player_count":24,"max_players":24,"Bots":0,"server_type":"Dedicated","server_os":"Linux","password":true,"vac":true,"version":"7742253","steam_id":85568392924469990,"keywords":["nocrits","nodmgspread","payload","uncletopia"],"game_id":440,"stv_port":27026,"stv_name":"Uncletopia | Frankfurt | 2 | All Maps | STV","players":[{"user_id":354,"name":"Jamie Hyneman","steam_id":76561198364121077,"connected_time":995000000000,"state":"active","ping":95},{"user_id":352,"name":"marcus antonius","steam_id":76561198819699670,"connected_time":1051000000000,"state":"active","ping":118},{"user_id":374,"name":"Lukas","steam_id":76561198009118452,"connected_time":25000000000,"state":"active","ping":48},{"user_id":366,"name":"darionas221","steam_id":76561199445291817,"connected_time":285000000000,"state":"active","ping":51},{"user_id":371,"name":"lulu","steam_id":76561199147764133,"connected_time":130000000000,"state":"active","ping":67},{"user_id":360,"name":"Cosmetic brain","steam_id":76561198055936410,"connected_time":817000000000,"state":"active","ping":89},{"user_id":370,"name":"FrozenTiddies","steam_id":76561198271916832,"connected_time":151000000000,"state":"active","ping":45},{"user_id":361,"name":"Rose-Marie","steam_id":76561198055611092,"connected_time":655000000000,"state":"active","ping":57},{"user_id":311,"name":"SantiThePug #ReviveTheCaber","steam_id":76561199049615996,"connected_time":3784000000000,"state":"active","ping":65},{"user_id":367,"name":"ÍßÅ‡ºíXenon‡ºíÍßÇ","steam_id":76561198120502313,"connected_time":285000000000,"state":"active","ping":63},{"user_id":362,"name":"SoldierSo1o","steam_id":76561199109522950,"connected_time":531000000000,"state":"active","ping":70},{"user_id":368,"name":"Curlew","steam_id":76561198075884540,"connected_time":272000000000,"state":"active","ping":82},{"user_id":312,"name":"Louki","steam_id":76561198150080041,"connected_time":3758000000000,"state":"active","ping":58},{"user_id":372,"name":"ùñâùñóùñÜùñåùñîùñì","steam_id":76561199436349867,"connected_time":77000000000,"state":"active","ping":92},{"user_id":347,"name":"Codename 50","steam_id":76561198024454833,"connected_time":1684000000000,"state":"active","ping":154},{"user_id":325,"name":"Clumsy ‚ô•","steam_id":76561199049413586,"connected_time":2949000000000,"state":"active","ping":78},{"user_id":322,"name":"C√©l√©rio","steam_id":76561198088253576,"connected_time":3109000000000,"state":"active","ping":45},{"user_id":326,"name":"Trashy Gamer","steam_id":76561198980879504,"connected_time":2911000000000,"state":"active","ping":153},{"user_id":369,"name":"Gver3113","steam_id":76561198118659012,"connected_time":261000000000,"state":"active","ping":69},{"user_id":348,"name":"Leto","steam_id":76561198419429742,"connected_time":1682000000000,"state":"active","ping":52},{"user_id":357,"name":"Farmercy","steam_id":76561198000038039,"connected_time":958000000000,"state":"active","ping":59},{"user_id":359,"name":"SCruiuj","steam_id":76561198964857782,"connected_time":829000000000,"state":"active","ping":64},{"user_id":331,"name":"Mean Green Peen","steam_id":76561198228455736,"connected_time":2584000000000,"state":"active","ping":63},{"user_id":363,"name":"NNikolaiii","steam_id":76561198277293255,"connected_time":530000000000,"state":"active","ping":90}]},{"server_id":308,"name":"Uncletopia | Frankfurt | 3 | All Maps","name_short":"frk-3","host":"frk-1.de.uncletopia.com","port":27035,"enabled":true,"region":"eu","cc":"de","latitude":50.110924,"longitude":8.682127,"reserved":0,"last_update":"0001-01-01T00:00:00Z","name_a2s":"Uncletopia | Frankfurt | 3 | All Maps","protocol":17,"map":"cp_dustbowl","folder":"tf","game":"Team Fortress","app_id":440,"player_count":10,"max_players":24,"Bots":0,"server_type":"Dedicated","server_os":"Linux","password":true,"vac":true,"version":"7742253","steam_id":85568392924504274,"keywords":["cp","nocrits","nodmgspread","uncletopia"],"game_id":440,"stv_port":27036,"stv_name":"Uncletopia | Frankfurt | 3 | All Maps | STV","players":[{"user_id":19,"name":"NNCreature","steam_id":76561198136344208,"connected_time":1712000000000,"state":"active","ping":87},{"user_id":20,"name":"Master Miller","steam_id":76561198804506528,"connected_time":1689000000000,"state":"active","ping":98},{"user_id":21,"name":"VulpesIncultaüå∏","steam_id":76561199088045679,"connected_time":1674000000000,"state":"active","ping":98},{"user_id":22,"name":"TheDeadMan","steam_id":76561198372169845,"connected_time":1672000000000,"state":"active","ping":119},{"user_id":23,"name":"order6","steam_id":76561198172836773,"connected_time":1637000000000,"state":"active","ping":83},{"user_id":27,"name":"umuthun","steam_id":76561198079136194,"connected_time":1531000000000,"state":"active","ping":75},{"user_id":25,"name":"Cainrra20","steam_id":76561198301095405,"connected_time":1617000000000,"state":"active","ping":85},{"user_id":26,"name":"Xoluos","steam_id":76561199224692464,"connected_time":1601000000000,"state":"active","ping":84},{"user_id":54,"name":"cappy","steam_id":76561198231859236,"connected_time":6000000000,"state":"spawning","ping":87},{"user_id":52,"name":"Realist 40","steam_id":76561198052476979,"connected_time":47000000000,"state":"active","ping":78}]},{"server_id":309,"name":"Uncletopia | Frankfurt | 4 | All Maps","name_short":"frk-4","host":"frk-1.de.uncletopia.com","port":27045,"enabled":true,"region":"eu","cc":"de","latitude":50.110924,"longitude":8.682127,"reserved":0,"last_update":"0001-01-01T00:00:00Z","name_a2s":"Uncletopia | Frankfurt | 4 | All Maps","protocol":17,"map":"koth_viaduct","folder":"tf","game":"Team Fortress","app_id":440,"player_count":0,"max_players":24,"Bots":0,"server_type":"Dedicated","server_os":"Linux","password":true,"vac":true,"version":"7742253","steam_id":85568392924504275,"keywords":["cp","nocrits","nodmgspread","uncletopia"],"game_id":440,"stv_port":27046,"stv_name":"Uncletopia | Frankfurt | 4 | All Maps | STV","players":null},{"server_id":310,"name":"Uncletopia | Frankfurt | 5 | All Maps","name_short":"frk-5","host":"frk-1.de.uncletopia.com","port":27055,"enabled":true,"region":"eu","cc":"de","latitude":50.110924,"longitude":8.682127,"reserved":0,"last_update":"0001-01-01T00:00:00Z","name_a2s":"Uncletopia | Frankfurt | 5 | All Maps","protocol":17,"map":"koth_viaduct","folder":"tf","game":"Team Fortress","app_id":440,"player_count":0,"max_players":24,"Bots":0,"server_type":"Dedicated","server_os":"Linux","password":true,"vac":true,"version":"7742253","steam_id":85568392924504277,"keywords":["cp","nocrits","nodmgspread","uncletopia"],"game_id":440,"stv_port":27056,"stv_name":"Uncletopia | Frankfurt | 5 | All Maps | STV","players":null},{"server_id":311,"name":"Uncletopia | Frankfurt | 6 | All Maps","name_short":"frk-6","host":"frk-1.de.uncletopia.com","port":27065,"enabled":true,"region":"eu","cc":"de","latitude":50.110924,"longitude":8.682127,"reserved":0,"last_update":"0001-01-01T00:00:00Z","name_a2s":"Uncletopia | Frankfurt | 6 | All Maps","protocol":17,"map":"cp_process_final","folder":"tf","game":"Team Fortress","app_id":440,"player_count":0,"max_players":24,"Bots":0,"server_type":"Dedicated","server_os":"Linux","password":true,"vac":true,"version":"7742253","steam_id":85568392924504278,"keywords":["cp","nocrits","nodmgspread","uncletopia"],"game_id":440,"stv_port":27066,"stv_name":"Uncletopia | Frankfurt | 6 | All Maps | STV","players":null},{"server_id":23,"name":"Uncletopia | Frankfurt | 7 | Stopwatch Beta","name_short":"frk-7","host":"frk-1.de.uncletopia.com","port":27075,"enabled":true,"region":"eu","cc":"de","latitude":50.110924,"longitude":8.682127,"reserved":0,"last_update":"0001-01-01T00:00:00Z","name_a2s":"Uncletopia | Frankfurt | 7 | Stopwatch Beta","protocol":17,"map":"workshop/koth_product_final.ugc454272353","folder":"tf","game":"Team Fortress","app_id":440,"player_count":8,"max_players":24,"Bots":0,"server_type":"Dedicated","server_os":"Linux","password":true,"vac":true,"version":"7742253","steam_id":85568392924742827,"keywords":["cp","nocrits","nodmgspread","uncletopia"],"game_id":440,"stv_port":27076,"stv_name":"Uncletopia | Frankfurt | 7 | Stopwatch Beta | STV","players":[{"user_id":88,"name":"fried","steam_id":76561198307522022,"connected_time":750000000000,"state":"active","ping":53},{"user_id":54,"name":"gus","steam_id":76561198876303958,"connected_time":3352000000000,"state":"active","ping":108},{"user_id":93,"name":"dmitrijbondarenko243","steam_id":76561199257388712,"connected_time":42000000000,"state":"spawning","ping":204},{"user_id":89,"name":"kenjii|‚óáThe Rogue","steam_id":76561199434389738,"connected_time":629000000000,"state":"active","ping":78},{"user_id":55,"name":"Auditor302","steam_id":76561199150233050,"connected_time":3227000000000,"state":"active","ping":191},{"user_id":90,"name":"TheJustTeaPlayer","steam_id":76561198980203796,"connected_time":625000000000,"state":"active","ping":107},{"user_id":91,"name":"Rob Rotten","steam_id":76561198170543542,"connected_time":422000000000,"state":"active","ping":133},{"user_id":85,"name":"ddchdrn","steam_id":76561198024358566,"connected_time":1330000000000,"state":"active","ping":55}]},{"server_id":24,"name":"Uncletopia | Frankfurt | 8 | Community","name_short":"frk-8","host":"frk-1.de.uncletopia.com","port":27085,"enabled":true,"region":"eu","cc":"de","latitude":50.110924,"longitude":8.682127,"reserved":0,"last_update":"0001-01-01T00:00:00Z","name_a2s":"Uncletopia | Frankfurt | 8 | Community","protocol":17,"map":"workshop/pl_fifthcurve_rc1.ugc648227046","folder":"tf","game":"Team Fortress","app_id":440,"player_count":0,"max_players":24,"Bots":0,"server_type":"Dedicated","server_os":"Linux","password":true,"vac":true,"version":"7742253","steam_id":85568392924742828,"keywords":["nocrits","nodmgspread","payload","uncletopia"],"game_id":440,"stv_port":27086,"stv_name":"Uncletopia | Frankfurt | 8 | Community | STV","players":null},{"server_id":202,"name":"Uncletopia | Hong Kong | 1 | All Maps","name_short":"hgk-1","host":"hgk-1.hk.uncletopia.com","port":27015,"enabled":true,"region":"asia","cc":"hk","latitude":22.302711,"longitude":114.177216,"reserved":0,"last_update":"0001-01-01T00:00:00Z","name_a2s":"Uncletopia | Hong Kong | 1 | All Maps","protocol":17,"map":"pl_badwater","folder":"tf","game":"Team Fortress","app_id":440,"player_count":17,"max_players":24,"Bots":0,"server_type":"Dedicated","server_os":"Linux","password":true,"vac":true,"version":"7742253","steam_id":85568392924494504,"keywords":["nocrits","nodmgspread","payload","uncletopia"],"game_id":440,"stv_port":27016,"stv_name":"Uncletopia | Hong Kong | 1 | All Maps | STV","players":[{"user_id":669,"name":"ÊØç„ÅÆËÇâÂõ£Â≠ê","steam_id":76561198069561896,"connected_time":23000000000,"state":"active","ping":40},{"user_id":647,"name":"…îu·ó°‡∂û …ü∆®u·íê","steam_id":76561199031283970,"connected_time":1994000000000,"state":"active","ping":73},{"user_id":666,"name":"zxcvbnm","steam_id":76561198866884809,"connected_time":242000000000,"state":"active","ping":64},{"user_id":665,"name":"u/Plencers2","steam_id":76561198311052198,"connected_time":294000000000,"state":"active","ping":77},{"user_id":618,"name":"Waltuh (CEO of Chicanery)","steam_id":76561199257300024,"connected_time":4220000000000,"state":"active","ping":77},{"user_id":546,"name":"Kurtie","steam_id":76561198144737876,"connected_time":11407000000000,"state":"active","ping":68},{"user_id":668,"name":"Tribal Mana","steam_id":76561198011757567,"connected_time":173000000000,"state":"active","ping":99},{"user_id":565,"name":"yw","steam_id":76561199382726488,"connected_time":8904000000000,"state":"active","ping":67},{"user_id":661,"name":"quack","steam_id":76561198258934120,"connected_time":747000000000,"state":"active","ping":71},{"user_id":622,"name":"AmaiToxic","steam_id":76561199122491157,"connected_time":3881000000000,"state":"active","ping":79},{"user_id":662,"name":"LOLGAL","steam_id":76561198347418251,"connected_time":575000000000,"state":"active","ping":69},{"user_id":652,"name":"Silver bars","steam_id":76561198273312659,"connected_time":1742000000000,"state":"active","ping":81},{"user_id":653,"name":"Gazzor","steam_id":76561199081356069,"connected_time":1663000000000,"state":"active","ping":127},{"user_id":663,"name":"Pro-State","steam_id":76561199004578668,"connected_time":540000000000,"state":"active","ping":62},{"user_id":441,"name":"'","steam_id":76561198413116920,"connected_time":21326000000000,"state":"active","ping":76},{"user_id":633,"name":"mutwo","steam_id":76561198077043500,"connected_time":3156000000000,"state":"active","ping":76},{"user_id":654,"name":"Caff","steam_id":76561198149286308,"connected_time":1633000000000,"state":"active","ping":76}]},{"server_id":1,"name":"Uncletopia | Los Angeles | 1 | All Maps","name_short":"lax-1","host":"lax-1.us.uncletopia.com","port":27015,"enabled":true,"region":"us-west","cc":"us","latitude":33.94279,"longitude":-118.41004,"reserved":0,"last_update":"0001-01-01T00:00:00Z","name_a2s":"Uncletopia | Los Angeles | 1 | All Maps","protocol":17,"map":"pl_borneo","folder":"tf","game":"Team Fortress","app_id":440,"player_count":0,"max_players":24,"Bots":0,"server_type":"Dedicated","server_os":"Linux","password":true,"vac":true,"version":"7742253","steam_id":85568392924469991,"keywords":["nocrits","nodmgspread","payload","uncletopia"],"game_id":440,"stv_port":27016,"stv_name":"Uncletopia | Los Angeles | 1 | All Maps | STV","players":null},{"server_id":112,"name":"Uncletopia | Los Angeles | 2 | All Maps","name_short":"lax-2","host":"lax-1.us.uncletopia.com","port":27025,"enabled":true,"region":"us-west","cc":"us","latitude":33.94279,"longitude":-118.41004,"reserved":0,"last_update":"0001-01-01T00:00:00Z","name_a2s":"Uncletopia | Los Angeles | 2 | All Maps","protocol":17,"map":"pl_upward","folder":"tf","game":"Team Fortress","app_id":440,"player_count":0,"max_players":24,"Bots":0,"server_type":"Dedicated","server_os":"Linux","password":true,"vac":true,"version":"7742253","steam_id":85568392924469992,"keywords":["nocrits","nodmgspread","payload","uncletopia"],"game_id":440,"stv_port":27026,"stv_name":"Uncletopia | Los Angeles | 2 | All Maps | STV","players":null},{"server_id":324,"name":"Uncletopia | Los Angeles | 3 | All Maps","name_short":"lax-3","host":"lax-1.us.uncletopia.com","port":27035,"enabled":true,"region":"us-west","cc":"us","latitude":33.94279,"longitude":-118.41004,"reserved":0,"last_update":"0001-01-01T00:00:00Z","name_a2s":"Uncletopia | Los Angeles | 3 | All Maps","protocol":17,"map":"pl_pier","folder":"tf","game":"Team Fortress","app_id":440,"player_count":0,"max_players":24,"Bots":0,"server_type":"Dedicated","server_os":"Linux","password":true,"vac":true,"version":"7742253","steam_id":85568392924510198,"keywords":["nocrits","nodmgspread","payload","uncletopia"],"game_id":440,"stv_port":27036,"stv_name":"Uncletopia | Los Angeles | 3 | All Maps | STV","players":null},{"server_id":25,"name":"Uncletopia | Los Angeles | 4 | Stopwatch Beta","name_short":"lax-4","host":"lax-1.us.uncletopia.com","port":27045,"enabled":true,"region":"us-west","cc":"us","latitude":33.94279,"longitude":-118.41004,"reserved":0,"last_update":"0001-01-01T00:00:00Z","name_a2s":"Uncletopia | Los Angeles | 4 | Stopwatch Beta","protocol":17,"map":"cp_process_final","folder":"tf","game":"Team Fortress","app_id":440,"player_count":0,"max_players":24,"Bots":0,"server_type":"Dedicated","server_os":"Linux","password":true,"vac":true,"version":"7742253","steam_id":85568392924510199,"keywords":["cp","nocrits","nodmgspread","uncletopia"],"game_id":440,"stv_port":27046,"stv_name":"Uncletopia | Los Angeles | 4 | Stopwatch Beta | STV","players":null},{"server_id":11,"name":"Uncletopia | London | 1 | All Maps","name_short":"lon-1","host":"lon-1.uk.uncletopia.com","port":27015,"enabled":true,"region":"eu","cc":"gb","latitude":51.509865,"longitude":-0.118092,"reserved":0,"last_update":"0001-01-01T00:00:00Z","name_a2s":"Uncletopia | London | 1 | All Maps","protocol":17,"map":"pl_coal_event","folder":"tf","game":"Team Fortress","app_id":440,"player_count":24,"max_players":24,"Bots":0,"server_type":"Dedicated","server_os":"Linux","password":true,"vac":true,"version":"7742253","steam_id":85568392924367362,"keywords":["nocrits","nodmgspread","payload","uncletopia"],"game_id":440,"stv_port":27016,"stv_name":"Uncletopia | London | 1 | All Maps | STV","players":[{"user_id":440,"name":"KFC Enjoyer","steam_id":76561198840259819,"connected_time":1698000000000,"state":"active","ping":59},{"user_id":446,"name":"I hate the alarm clock I chose","steam_id":76561198101624996,"connected_time":1330000000000,"state":"active","ping":92},{"user_id":387,"name":"Beef","steam_id":76561198185375315,"connected_time":5233000000000,"state":"active","ping":107},{"user_id":455,"name":"Sunshine Moon","steam_id":76561198022604491,"connected_time":1100000000000,"state":"active","ping":49},{"user_id":453,"name":"Druid5333","steam_id":76561198348066287,"connected_time":1180000000000,"state":"active","ping":62},{"user_id":449,"name":"MG TF 2004!","steam_id":76561198042975907,"connected_time":1264000000000,"state":"active","ping":39},{"user_id":442,"name":"MerlinMelon","steam_id":76561198131601158,"connected_time":1660000000000,"state":"active","ping":76},{"user_id":445,"name":"man builds a sandcastle (rare)","steam_id":76561199012566222,"connected_time":1475000000000,"state":"active","ping":62},{"user_id":450,"name":"Untermenshh","steam_id":76561198284636705,"connected_time":1237000000000,"state":"active","ping":102},{"user_id":427,"name":"your dads bald spot","steam_id":76561199383437138,"connected_time":3019000000000,"state":"active","ping":121},{"user_id":467,"name":"kavun","steam_id":76561198023461869,"connected_time":79000000000,"state":"active","ping":81},{"user_id":451,"name":"fr√∂ga","steam_id":76561198412559828,"connected_time":1228000000000,"state":"active","ping":101},{"user_id":452,"name":"Clamor_","steam_id":76561198104368295,"connected_time":1218000000000,"state":"active","ping":90},{"user_id":438,"name":"Nugget","steam_id":76561198338916407,"connected_time":1787000000000,"state":"active","ping":67},{"user_id":463,"name":"FUKTARD2005","steam_id":76561198839121591,"connected_time":469000000000,"state":"active","ping":68},{"user_id":430,"name":"tugcan3021","steam_id":76561198236015392,"connected_time":2935000000000,"state":"active","ping":126},{"user_id":456,"name":"Chang supremacy","steam_id":76561198179324075,"connected_time":1093000000000,"state":"active","ping":63},{"user_id":466,"name":"Viki's Game","steam_id":76561199204821195,"connected_time":187000000000,"state":"active","ping":94},{"user_id":419,"name":"Videogamer","steam_id":76561198106012909,"connected_time":3513000000000,"state":"active","ping":68},{"user_id":459,"name":"The Dashing Hooligan","steam_id":76561197997263153,"connected_time":1030000000000,"state":"active","ping":59},{"user_id":460,"name":"Lolbyte","steam_id":76561199239627724,"connected_time":961000000000,"state":"active","ping":117},{"user_id":432,"name":"Kahvi","steam_id":76561198723244199,"connected_time":2555000000000,"state":"active","ping":78},{"user_id":462,"name":"bob marley","steam_id":76561198218047263,"connected_time":775000000000,"state":"active","ping":51},{"user_id":425,"name":"clunk","steam_id":76561198836460767,"connected_time":3107000000000,"state":"active","ping":75}]},{"server_id":114,"name":"Uncletopia | London | 2 | All Maps","name_short":"lon-2","host":"lon-1.uk.uncletopia.com","port":27025,"enabled":true,"region":"eu","cc":"gb","latitude":51.509865,"longitude":-0.118092,"reserved":0,"last_update":"0001-01-01T00:00:00Z","name_a2s":"Uncletopia | London | 2 | All Maps","protocol":17,"map":"cp_dustbowl","folder":"tf","game":"Team Fortress","app_id":440,"player_count":23,"max_players":24,"Bots":0,"server_type":"Dedicated","server_os":"Linux","password":true,"vac":true,"version":"7742253","steam_id":85568392924470941,"keywords":["cp","nocrits","nodmgspread","uncletopia"],"game_id":440,"stv_port":27026,"stv_name":"Uncletopia | London | 2 | All Maps | STV","players":[{"user_id":428,"name":"Mr.Manbob","steam_id":76561198308139940,"connected_time":1184000000000,"state":"active","ping":58},{"user_id":427,"name":"Autostien","steam_id":76561198060730470,"connected_time":1225000000000,"state":"active","ping":46},{"user_id":429,"name":"My pee is red","steam_id":76561198219126032,"connected_time":1074000000000,"state":"active","ping":90},{"user_id":440,"name":"AforeKingDwarf","steam_id":76561198043562926,"connected_time":708000000000,"state":"active","ping":34},{"user_id":431,"name":"waffle toaster","steam_id":76561198799089628,"connected_time":1049000000000,"state":"active","ping":50},{"user_id":426,"name":"tete","steam_id":76561198045222850,"connected_time":1513000000000,"state":"active","ping":63},{"user_id":449,"name":"Creed_","steam_id":76561198044668296,"connected_time":288000000000,"state":"active","ping":138},{"user_id":451,"name":"I wuv you \u003c3","steam_id":76561199436238409,"connected_time":156000000000,"state":"active","ping":90},{"user_id":443,"name":"no_name.dll","steam_id":76561199011969062,"connected_time":593000000000,"state":"active","ping":54},{"user_id":434,"name":"apple","steam_id":76561198116932635,"connected_time":945000000000,"state":"active","ping":45},{"user_id":450,"name":"One armed fiddle enthusiast","steam_id":76561198045847051,"connected_time":284000000000,"state":"active","ping":60},{"user_id":448,"name":"Legally Scottish","steam_id":76561199028050684,"connected_time":401000000000,"state":"active","ping":66},{"user_id":436,"name":"xX_Ep1cG4mer_Xx","steam_id":76561199067173157,"connected_time":912000000000,"state":"active","ping":41},{"user_id":347,"name":"Jar","steam_id":76561198156384007,"connected_time":6565000000000,"state":"active","ping":51},{"user_id":371,"name":"Cippo95","steam_id":76561198255311582,"connected_time":5103000000000,"state":"active","ping":88},{"user_id":444,"name":"Silent Person","steam_id":76561198107763537,"connected_time":576000000000,"state":"active","ping":72},{"user_id":452,"name":"MAG 7","steam_id":76561199013368332,"connected_time":102000000000,"state":"active","ping":50},{"user_id":398,"name":"mike finger","steam_id":76561198975521602,"connected_time":3739000000000,"state":"active","ping":89},{"user_id":360,"name":"Blondie","steam_id":76561198080631634,"connected_time":5774000000000,"state":"active","ping":46},{"user_id":308,"name":"average f2p","steam_id":76561199136308055,"connected_time":8839000000000,"state":"active","ping":52},{"user_id":439,"name":"MrBanana","steam_id":76561198116021623,"connected_time":836000000000,"state":"active","ping":67},{"user_id":414,"name":"Coac","steam_id":76561198085265740,"connected_time":2349000000000,"state":"active","ping":72},{"user_id":423,"name":"Schizophrenia","steam_id":76561198315642032,"connected_time":1876000000000,"state":"active","ping":69}]},{"server_id":320,"name":"Uncletopia | London | 3 | All Maps","name_short":"lon-3","host":"lon-1.uk.uncletopia.com","port":27035,"enabled":true,"region":"eu","cc":"gb","latitude":51.509865,"longitude":-0.118092,"reserved":0,"last_update":"0001-01-01T00:00:00Z","name_a2s":"Uncletopia | London | 3 | All Maps","protocol":17,"map":"pl_upward","folder":"tf","game":"Team Fortress","app_id":440,"player_count":24,"max_players":24,"Bots":0,"server_type":"Dedicated","server_os":"Linux","password":true,"vac":true,"version":"7742253","steam_id":85568392924510192,"keywords":["nocrits","nodmgspread","payload","uncletopia"],"game_id":440,"stv_port":27036,"stv_name":"Uncletopia | London | 3 | All Maps | STV","players":[{"user_id":198,"name":"Shawty","steam_id":76561198256704286,"connected_time":588000000000,"state":"active","ping":62},{"user_id":199,"name":"doodgie","steam_id":76561198264934115,"connected_time":554000000000,"state":"active","ping":49},{"user_id":115,"name":"Truck-Sama's Victim","steam_id":76561198826861582,"connected_time":6265000000000,"state":"active","ping":76},{"user_id":185,"name":"Nathan","steam_id":76561198040069336,"connected_time":1665000000000,"state":"active","ping":59},{"user_id":165,"name":"poliakov.noam","steam_id":76561199259322961,"connected_time":2693000000000,"state":"active","ping":95},{"user_id":200,"name":"Twin Fantasy (Mirror To Mirror)","steam_id":76561198397024973,"connected_time":554000000000,"state":"active","ping":44},{"user_id":189,"name":"Hexagon","steam_id":76561198151205758,"connected_time":1130000000000,"state":"active","ping":55},{"user_id":197,"name":"willus212","steam_id":76561199182615246,"connected_time":801000000000,"state":"active","ping":68},{"user_id":207,"name":"Fridge","steam_id":76561198071665589,"connected_time":111000000000,"state":"active","ping":105},{"user_id":180,"name":"cslevi","steam_id":76561198142858923,"connected_time":1936000000000,"state":"active","ping":80},{"user_id":186,"name":"tristan","steam_id":76561198096097448,"connected_time":1545000000000,"state":"active","ping":54},{"user_id":201,"name":"r4ngerr","steam_id":76561198111721072,"connected_time":546000000000,"state":"active","ping":96},{"user_id":131,"name":"ciliorkun18","steam_id":76561198228942500,"connected_time":4048000000000,"state":"active","ping":90},{"user_id":134,"name":"Sverhrazym","steam_id":76561198868708664,"connected_time":3894000000000,"state":"active","ping":100},{"user_id":143,"name":"mismatch","steam_id":76561198041993514,"connected_time":3567000000000,"state":"active","ping":82},{"user_id":195,"name":"FTH","steam_id":76561198066287815,"connected_time":865000000000,"state":"active","ping":120},{"user_id":144,"name":"The Hunky Squirrel","steam_id":76561198013295577,"connected_time":3541000000000,"state":"active","ping":101},{"user_id":205,"name":"hushhx","steam_id":76561198216200092,"connected_time":252000000000,"state":"active","ping":53},{"user_id":172,"name":"Axy","steam_id":76561198244029740,"connected_time":2528000000000,"state":"active","ping":44},{"user_id":196,"name":"TealSpark","steam_id":76561198024972980,"connected_time":859000000000,"state":"active","ping":44},{"user_id":203,"name":"–ò–Ω—Å–ø–µ–∫—Ç–æ—Ä –ê—Ç–∞—Å","steam_id":76561199175688390,"connected_time":497000000000,"state":"active","ping":89},{"user_id":183,"name":"SWAY","steam_id":76561198865753833,"connected_time":1721000000000,"state":"active","ping":55},{"user_id":204,"name":"Motley_","steam_id":76561198116057976,"connected_time":476000000000,"state":"active","ping":35},{"user_id":171,"name":"Blastrock64","steam_id":76561199008932704,"connected_time":2613000000000,"state":"active","ping":82}]},{"server_id":321,"name":"Uncletopia | London | 4 | All Maps","name_short":"lon-4","host":"lon-1.uk.uncletopia.com","port":27045,"enabled":true,"region":"eu","cc":"gb","latitude":51.509865,"longitude":-0.118092,"reserved":0,"last_update":"0001-01-01T00:00:00Z","name_a2s":"Uncletopia | London | 4 | All Maps","protocol":17,"map":"pl_pier","folder":"tf","game":"Team Fortress","app_id":440,"player_count":24,"max_players":24,"Bots":0,"server_type":"Dedicated","server_os":"Linux","password":true,"vac":true,"version":"7742253","steam_id":85568392924510193,"keywords":["nocrits","nodmgspread","payload","uncletopia"],"game_id":440,"stv_port":27046,"stv_name":"Uncletopia | London | 4 | All Maps | STV","players":[{"user_id":483,"name":"Raivop","steam_id":76561197980854307,"connected_time":2182000000000,"state":"active","ping":102},{"user_id":514,"name":"Anvy","steam_id":76561198330437261,"connected_time":978000000000,"state":"active","ping":101},{"user_id":534,"name":"Green Eggs And Jam","steam_id":76561198819412473,"connected_time":82000000000,"state":"active","ping":56},{"user_id":524,"name":"brtaba","steam_id":76561198796334790,"connected_time":791000000000,"state":"active","ping":79},{"user_id":512,"name":"Average Demoman Enjoyer","steam_id":76561198327637965,"connected_time":1093000000000,"state":"active","ping":79},{"user_id":515,"name":"–õ–∞–¥–Ω–æ.","steam_id":76561198931776643,"connected_time":976000000000,"state":"active","ping":96},{"user_id":517,"name":"Pepsi Man","steam_id":76561198414175953,"connected_time":882000000000,"state":"active","ping":57},{"user_id":486,"name":"Spootnak","steam_id":76561198049052518,"connected_time":2092000000000,"state":"active","ping":55},{"user_id":469,"name":"HAHA, I KNOW ALL ABOUT YOU","steam_id":76561198037810091,"connected_time":2743000000000,"state":"active","ping":120},{"user_id":518,"name":"rajAs","steam_id":76561198035928111,"connected_time":856000000000,"state":"active","ping":85},{"user_id":523,"name":"PepsiMan","steam_id":76561198996766357,"connected_time":805000000000,"state":"active","ping":50},{"user_id":519,"name":"Noob_with_source","steam_id":76561198870362103,"connected_time":823000000000,"state":"active","ping":60},{"user_id":529,"name":"Paulie Walnuts","steam_id":76561198146194820,"connected_time":369000000000,"state":"active","ping":50},{"user_id":530,"name":"abigail","steam_id":76561198132932617,"connected_time":211000000000,"state":"active","ping":60},{"user_id":494,"name":"Lwyz016","steam_id":76561199164626058,"connected_time":1789000000000,"state":"active","ping":103},{"user_id":445,"name":"trite","steam_id":76561197983765323,"connected_time":3851000000000,"state":"active","ping":50},{"user_id":528,"name":"[1stBdC]SARG Quintal","steam_id":76561198171396362,"connected_time":440000000000,"state":"active","ping":104},{"user_id":472,"name":"Koreniakis","steam_id":76561198155661476,"connected_time":2678000000000,"state":"active","ping":139},{"user_id":527,"name":"Henk_de_Patatman","steam_id":76561198070103191,"connected_time":508000000000,"state":"active","ping":44},{"user_id":453,"name":"Zepta","steam_id":76561199001659666,"connected_time":3571000000000,"state":"active","ping":111},{"user_id":521,"name":"stinkyeseses","steam_id":76561198402218127,"connected_time":814000000000,"state":"active","ping":102},{"user_id":522,"name":"arm","steam_id":76561198289650669,"connected_time":811000000000,"state":"active","ping":49},{"user_id":532,"name":"player","steam_id":76561198054474684,"connected_time":174000000000,"state":"active","ping":83},{"user_id":535,"name":"STiNGHAN","steam_id":76561198023989090,"connected_time":75000000000,"state":"active","ping":96}]},{"server_id":21,"name":"Uncletopia | London | 5 | All Maps","name_short":"lon-5","host":"lon-1.uk.uncletopia.com","port":27055,"enabled":true,"region":"eu","cc":"gb","latitude":51.509865,"longitude":-0.118092,"reserved":0,"last_update":"0001-01-01T00:00:00Z","name_a2s":"Uncletopia | London | 5 | All Maps","protocol":17,"map":"koth_highpass","folder":"tf","game":"Team Fortress","app_id":440,"player_count":0,"max_players":24,"Bots":0,"server_type":"Dedicated","server_os":"Linux","password":true,"vac":true,"version":"7742253","steam_id":85568392924742829,"keywords":["cp","nocrits","nodmgspread","uncletopia"],"game_id":440,"stv_port":27056,"stv_name":"Uncletopia | London | 5 | All Maps | STV","players":null},{"server_id":22,"name":"Uncletopia | London | 6 | All Maps","name_short":"lon-6","host":"lon-1.uk.uncletopia.com","port":27065,"enabled":true,"region":"eu","cc":"gb","latitude":51.509865,"longitude":-0.118092,"reserved":0,"last_update":"0001-01-01T00:00:00Z","name_a2s":"Uncletopia | London | 6 | All Maps","protocol":17,"map":"cp_altitude","folder":"tf","game":"Team Fortress","app_id":440,"player_count":6,"max_players":24,"Bots":0,"server_type":"Dedicated","server_os":"Linux","password":true,"vac":true,"version":"7742253","steam_id":85568392924742830,"keywords":["cp","nocrits","nodmgspread","uncletopia"],"game_id":440,"stv_port":27066,"stv_name":"Uncletopia | London | 6 | All Maps | STV","players":[{"user_id":468,"name":"Frank","steam_id":76561198086672774,"connected_time":933000000000,"state":"active","ping":51},{"user_id":469,"name":"MtnDew","steam_id":76561199100059743,"connected_time":595000000000,"state":"active","ping":110},{"user_id":470,"name":"quack","steam_id":76561198121003465,"connected_time":30000000000,"state":"active","ping":45},{"user_id":471,"name":"Bendy_Tank","steam_id":76561199438911774,"connected_time":5000000000,"state":"spawning","ping":82},{"user_id":453,"name":"Pence","steam_id":76561198124994550,"connected_time":4634000000000,"state":"active","ping":46},{"user_id":345,"name":"I'm playing with Bluetooth head","steam_id":76561198848650365,"connected_time":10690000000000,"state":"active","ping":168}]},{"server_id":40,"name":"Uncletopia | London | 7 | No Payload","name_short":"lon-7","host":"lon-1.uk.uncletopia.com","port":27075,"enabled":true,"region":"eu","cc":"gb","latitude":51.509865,"longitude":-0.118092,"reserved":0,"last_update":"0001-01-01T00:00:00Z","name_a2s":"Uncletopia | London | 7 | No Payload","protocol":17,"map":"cp_badlands","folder":"tf","game":"Team Fortress","app_id":440,"player_count":0,"max_players":24,"Bots":0,"server_type":"Dedicated","server_os":"Linux","password":true,"vac":true,"version":"7742253","steam_id":85568392924964314,"keywords":["cp","nocrits","nodmgspread","uncletopia"],"game_id":440,"stv_port":27076,"stv_name":"Uncletopia | London | 7 | No Payload | STV","players":null},{"server_id":41,"name":"Uncletopia | London | 8 | Community","name_short":"lon-8","host":"lon-1.uk.uncletopia.com","port":27085,"enabled":true,"region":"eu","cc":"gb","latitude":51.509865,"longitude":-0.118092,"reserved":0,"last_update":"0001-01-01T00:00:00Z","name_a2s":"Uncletopia | London | 8 | Community","protocol":17,"map":"workshop/cp_logjam_rc12.ugc454812035","folder":"tf","game":"Team Fortress","app_id":440,"player_count":0,"max_players":24,"Bots":0,"server_type":"Dedicated","server_os":"Linux","password":true,"vac":true,"version":"7742253","steam_id":85568392924964315,"keywords":["cp","nocrits","nodmgspread","uncletopia"],"game_id":440,"stv_port":27086,"stv_name":"Uncletopia | London | 8 | Community | STV","players":null},{"server_id":300,"name":"Uncletopia | Montr√©al | 1 | All Maps","name_short":"mtl-1","host":"mtl-1.ca.uncletopia.com","port":27015,"enabled":true,"region":"us-east","cc":"ca","latitude":45.50889,"longitude":-73.56167,"reserved":0,"last_update":"0001-01-01T00:00:00Z","name_a2s":"Uncletopia | Montr√©al | 1 | All Maps","protocol":17,"map":"koth_lakeside_final","folder":"tf","game":"Team Fortress","app_id":440,"player_count":0,"max_players":24,"Bots":0,"server_type":"Dedicated","server_os":"Linux","password":true,"vac":true,"version":"7742253","steam_id":85568392924500087,"keywords":["cp","nocrits","nodmgspread","uncletopia"],"game_id":440,"stv_port":27016,"stv_name":"Uncletopia | Montr√©al | 1 | All Maps | STV","players":null},{"server_id":301,"name":"Uncletopia | Montr√©al | 2 | All Maps","name_short":"mtl-2","host":"mtl-1.ca.uncletopia.com","port":27025,"enabled":true,"region":"us-east","cc":"ca","latitude":45.50889,"longitude":-73.56167,"reserved":0,"last_update":"0001-01-01T00:00:00Z","name_a2s":"Uncletopia | Montr√©al | 2 | All Maps","protocol":17,"map":"koth_lakeside_final","folder":"tf","game":"Team Fortress","app_id":440,"player_count":0,"max_players":24,"Bots":0,"server_type":"Dedicated","server_os":"Linux","password":true,"vac":true,"version":"7742253","steam_id":85568392924500088,"keywords":["cp","nocrits","nodmgspread","uncletopia"],"game_id":440,"stv_port":27026,"stv_name":"Uncletopia | Montr√©al | 2 | All Maps | STV","players":null},{"server_id":302,"name":"Uncletopia | Montr√©al | 3 | All Maps","name_short":"mtl-3","host":"mtl-1.ca.uncletopia.com","port":27035,"enabled":true,"region":"us-east","cc":"ca","latitude":45.50889,"longitude":-73.56167,"reserved":0,"last_update":"0001-01-01T00:00:00Z","name_a2s":"Uncletopia | Montr√©al | 3 | All Maps","protocol":17,"map":"pl_badwater","folder":"tf","game":"Team Fortress","app_id":440,"player_count":0,"max_players":24,"Bots":0,"server_type":"Dedicated","server_os":"Linux","password":true,"vac":true,"version":"7742253","steam_id":85568392924500089,"keywords":["nocrits","nodmgspread","payload","uncletopia"],"game_id":440,"stv_port":27036,"stv_name":"Uncletopia | Montr√©al | 3 | All Maps | STV","players":null},{"server_id":303,"name":"Uncletopia | Montr√©al | 4 | No Payload","name_short":"mtl-4","host":"mtl-1.ca.uncletopia.com","port":27045,"enabled":true,"region":"us-east","cc":"ca","latitude":45.50889,"longitude":-73.56167,"reserved":0,"last_update":"0001-01-01T00:00:00Z","name_a2s":"Uncletopia | Montr√©al | 4 | No Payload","protocol":17,"map":"koth_highpass","folder":"tf","game":"Team Fortress","app_id":440,"player_count":0,"max_players":24,"Bots":0,"server_type":"Dedicated","server_os":"Linux","password":true,"vac":true,"version":"7742253","steam_id":85568392924500090,"keywords":["cp","nocrits","nodmgspread","uncletopia"],"game_id":440,"stv_port":27046,"stv_name":"Uncletopia | Montr√©al | 4 | No Payload | STV","players":null},{"server_id":13,"name":"Uncletopia | New York City | 1 | All Maps","name_short":"nyc-1","host":"nyc-1.us.uncletopia.com","port":27015,"enabled":true,"region":"us-east","cc":"us","latitude":40.73061,"longitude":-73.93524,"reserved":0,"last_update":"0001-01-01T00:00:00Z","name_a2s":"Uncletopia | New York City | 1 | All Maps","protocol":17,"map":"pl_borneo","folder":"tf","game":"Team Fortress","app_id":440,"player_count":24,"max_players":24,"Bots":0,"server_type":"Dedicated","server_os":"Linux","password":true,"vac":true,"version":"7742253","steam_id":85568392924469993,"keywords":["nocrits","nodmgspread","payload","uncletopia"],"game_id":440,"stv_port":27016,"stv_name":"Uncletopia | New York City | 1 | All Maps | STV","players":[{"user_id":157,"name":"Qoora","steam_id":76561198168503920,"connected_time":317000000000,"state":"active","ping":74},{"user_id":151,"name":"Just a storm dick, sit down","steam_id":76561198404528521,"connected_time":887000000000,"state":"active","ping":77},{"user_id":114,"name":"catgirl giantess in heat","steam_id":76561198439042583,"connected_time":3125000000000,"state":"active","ping":96},{"user_id":136,"name":"Senator Armstrong","steam_id":76561199069759034,"connected_time":1867000000000,"state":"active","ping":67},{"user_id":149,"name":"hotline bling","steam_id":76561198984131011,"connected_time":1088000000000,"state":"active","ping":65},{"user_id":103,"name":"Bestswatguy","steam_id":76561199206510619,"connected_time":3555000000000,"state":"active","ping":45},{"user_id":132,"name":"Fat Man","steam_id":76561198118957055,"connected_time":1978000000000,"state":"active","ping":40},{"user_id":156,"name":"Ubadiah","steam_id":76561198329996885,"connected_time":364000000000,"state":"active","ping":52},{"user_id":138,"name":"Uncle Dan guy","steam_id":76561198972038742,"connected_time":1808000000000,"state":"active","ping":148},{"user_id":154,"name":"LobsterPot","steam_id":76561198072225973,"connected_time":746000000000,"state":"active","ping":43},{"user_id":142,"name":"ShinyOrion (She/Her)","steam_id":76561198408378321,"connected_time":1374000000000,"state":"active","ping":57},{"user_id":86,"name":"El_Jackso","steam_id":76561198126121555,"connected_time":5078000000000,"state":"active","ping":65},{"user_id":153,"name":"Nico","steam_id":76561198125701869,"connected_time":748000000000,"state":"active","ping":49},{"user_id":106,"name":"Henry Toyota?","steam_id":76561198112200175,"connected_time":3380000000000,"state":"active","ping":52},{"user_id":150,"name":"Diamond Jack","steam_id":76561198321304762,"connected_time":1001000000000,"state":"active","ping":39},{"user_id":148,"name":"Sprucelass","steam_id":76561197998391724,"connected_time":1171000000000,"state":"active","ping":67},{"user_id":120,"name":"rlty","steam_id":76561198009395055,"connected_time":2843000000000,"state":"active","ping":47},{"user_id":62,"name":"finnby","steam_id":76561198052542017,"connected_time":7103000000000,"state":"active","ping":69},{"user_id":145,"name":"moodi catgirl","steam_id":76561198124028045,"connected_time":1246000000000,"state":"active","ping":49},{"user_id":139,"name":"Loading....","steam_id":76561198063874351,"connected_time":1778000000000,"state":"active","ping":120},{"user_id":127,"name":"steakfarmasian","steam_id":76561198212754036,"connected_time":2349000000000,"state":"active","ping":46},{"user_id":135,"name":"QuinnL8","steam_id":76561199226733444,"connected_time":1947000000000,"state":"active","ping":75},{"user_id":147,"name":"puppygirl gaming","steam_id":76561198044363630,"connected_time":1218000000000,"state":"active","ping":46},{"user_id":113,"name":"Soph The Dark Elf","steam_id":76561198294426385,"connected_time":3212000000000,"state":"active","ping":82}]},{"server_id":14,"name":"Uncletopia | New York City | 2 | All Maps","name_short":"nyc-2","host":"nyc-1.us.uncletopia.com","port":27025,"enabled":true,"region":"us-east","cc":"us","latitude":40.73061,"longitude":-73.93524,"reserved":0,"last_update":"0001-01-01T00:00:00Z","name_a2s":"Uncletopia | New York City | 2 | All Maps","protocol":17,"map":"koth_nucleus","folder":"tf","game":"Team Fortress","app_id":440,"player_count":24,"max_players":24,"Bots":0,"server_type":"Dedicated","server_os":"Linux","password":true,"vac":true,"version":"7742253","steam_id":85568392924469994,"keywords":["cp","nocrits","nodmgspread","uncletopia"],"game_id":440,"stv_port":27026,"stv_name":"Uncletopia | New York City | 2 | All Maps | STV","players":[{"user_id":153,"name":"Taco","steam_id":76561198158621392,"connected_time":43000000000,"state":"active","ping":57},{"user_id":127,"name":"soldier with the p a n t s","steam_id":76561199091800420,"connected_time":1579000000000,"state":"active","ping":62},{"user_id":143,"name":"Cyborgnn","steam_id":76561198283586887,"connected_time":390000000000,"state":"active","ping":70},{"user_id":146,"name":"Polygunner","steam_id":76561199165741650,"connected_time":315000000000,"state":"active","ping":57},{"user_id":149,"name":"Jacck916","steam_id":76561198176874157,"connected_time":135000000000,"state":"active","ping":125},{"user_id":131,"name":"T-jizzle","steam_id":76561198040332264,"connected_time":1542000000000,"state":"active","ping":80},{"user_id":42,"name":"Cthulwho?","steam_id":76561198165550810,"connected_time":7093000000000,"state":"active","ping":60},{"user_id":118,"name":"Laelaps","steam_id":76561198100061416,"connected_time":2239000000000,"state":"active","ping":50},{"user_id":80,"name":"trilobita","steam_id":76561198428215606,"connected_time":4247000000000,"state":"active","ping":54},{"user_id":79,"name":"ENGINEER REQUIRES NO SKILL XMAS","steam_id":76561197995249143,"connected_time":4350000000000,"state":"active","ping":47},{"user_id":132,"name":"Goku‚Ñ¢ From Disney¬©","steam_id":76561198015327152,"connected_time":1523000000000,"state":"active","ping":40},{"user_id":135,"name":"samoclutch","steam_id":76561199094965146,"connected_time":1095000000000,"state":"active","ping":38},{"user_id":152,"name":"Typical","steam_id":76561199009805172,"connected_time":70000000000,"state":"active","ping":114},{"user_id":150,"name":"...MMMMMMMMMM RICHER","steam_id":76561198024741331,"connected_time":129000000000,"state":"active","ping":174},{"user_id":105,"name":"Bi Panic","steam_id":76561198426306122,"connected_time":2865000000000,"state":"active","ping":58},{"user_id":139,"name":"Lumpy","steam_id":76561198058840585,"connected_time":743000000000,"state":"active","ping":55},{"user_id":119,"name":"carrion goat","steam_id":76561198262064871,"connected_time":2216000000000,"state":"active","ping":43},{"user_id":147,"name":"Boycie","steam_id":76561198179116027,"connected_time":303000000000,"state":"active","ping":119},{"user_id":151,"name":"Zoombini16","steam_id":76561198324428992,"connected_time":78000000000,"state":"active","ping":63},{"user_id":107,"name":"mega giga payload hater!","steam_id":76561198039727616,"connected_time":2853000000000,"state":"active","ping":62},{"user_id":140,"name":"Uber","steam_id":76561198139793532,"connected_time":654000000000,"state":"active","ping":52},{"user_id":33,"name":"Two-Teste Tommy","steam_id":76561198064308936,"connected_time":7714000000000,"state":"active","ping":56},{"user_id":111,"name":"Irontothecore","steam_id":76561198387384844,"connected_time":2696000000000,"state":"active","ping":76},{"user_id":123,"name":"ThePacBruno","steam_id":76561198046084545,"connected_time":2012000000000,"state":"active","ping":186}]},{"server_id":15,"name":"Uncletopia | New York City | 3 | Stopwatch Beta","name_short":"nyc-3","host":"nyc-1.us.uncletopia.com","port":27035,"enabled":true,"region":"us-east","cc":"us","latitude":40.73061,"longitude":-73.93524,"reserved":0,"last_update":"0001-01-01T00:00:00Z","name_a2s":"Uncletopia | New York City | 3 | Stopwatch Beta","protocol":17,"map":"cp_altitude","folder":"tf","game":"Team Fortress","app_id":440,"player_count":0,"max_players":24,"Bots":0,"server_type":"Dedicated","server_os":"Linux","password":true,"vac":true,"version":"7742253","steam_id":85568392924742820,"keywords":["cp","nocrits","nodmgspread","uncletopia"],"game_id":440,"stv_port":27036,"stv_name":"Uncletopia | New York City | 3 | Stopwatch Beta | STV","players":null},{"server_id":16,"name":"Uncletopia | New York City | 4 | Community","name_short":"nyc-4","host":"nyc-1.us.uncletopia.com","port":27045,"enabled":true,"region":"us-east","cc":"us","latitude":40.73061,"longitude":-73.93524,"reserved":0,"last_update":"0001-01-01T00:00:00Z","name_a2s":"Uncletopia | New York City | 4 | Community","protocol":17,"map":"pl_barnblitz","folder":"tf","game":"Team Fortress","app_id":440,"player_count":0,"max_players":24,"Bots":0,"server_type":"Dedicated","server_os":"Linux","password":true,"vac":true,"version":"7742253","steam_id":85568392924742821,"keywords":["nocrits","nodmgspread","payload","uncletopia"],"game_id":440,"stv_port":27046,"stv_name":"Uncletopia | New York City | 4 | Community | STV","players":null},{"server_id":142,"name":"Uncletopia | S√£o Paulo | 1 | All Maps","name_short":"sao-1","host":"sao-1.br.uncletopia.com","port":27015,"enabled":true,"region":"sa","cc":"br","latitude":-23.533773,"longitude":-46.62529,"reserved":0,"last_update":"0001-01-01T00:00:00Z","name_a2s":"Uncletopia | S√£o Paulo | 1 | All Maps","protocol":17,"map":"cp_mountainlab","folder":"tf","game":"Team Fortress","app_id":440,"player_count":0,"max_players":24,"Bots":0,"server_type":"Dedicated","server_os":"Linux","password":true,"vac":true,"version":"7742253","steam_id":85568392924469996,"keywords":["cp","nocrits","nodmgspread","uncletopia"],"game_id":440,"stv_port":27016,"stv_name":"Uncletopia | S√£o Paulo | 1 | All Maps | STV","players":null},{"server_id":143,"name":"Uncletopia | S√£o Paulo | 2 | All Maps","name_short":"sao-2","host":"sao-2.br.uncletopia.com","port":27015,"enabled":true,"region":"sa","cc":"br","latitude":-23.533773,"longitude":-46.62529,"reserved":0,"last_update":"0001-01-01T00:00:00Z","name_a2s":"Uncletopia | S√£o Paulo | 2 | All Maps","protocol":17,"map":"koth_cascade","folder":"tf","game":"Team Fortress","app_id":440,"player_count":0,"max_players":24,"Bots":0,"server_type":"Dedicated","server_os":"Linux","password":true,"vac":true,"version":"7742253","steam_id":85568392924485349,"keywords":["cp","nocrits","nodmgspread","uncletopia"],"game_id":440,"stv_port":27016,"stv_name":"Uncletopia | S√£o Paulo | 2 | All Maps | STV","players":null},{"server_id":7,"name":"Uncletopia | Seattle | 1 | All Maps","name_short":"sea-1","host":"sea-1.us.uncletopia.com","port":27015,"enabled":true,"region":"us-west","cc":"us","latitude":47.608013,"longitude":-122.33517,"reserved":0,"last_update":"0001-01-01T00:00:00Z","name_a2s":"Uncletopia | Seattle | 1 | All Maps","protocol":17,"map":"pl_badwater","folder":"tf","game":"Team Fortress","app_id":440,"player_count":24,"max_players":24,"Bots":0,"server_type":"Dedicated","server_os":"Linux","password":true,"vac":true,"version":"7742253","steam_id":85568392924469997,"keywords":["nocrits","nodmgspread","payload","uncletopia"],"game_id":440,"stv_port":27016,"stv_name":"Uncletopia | Seattle | 1 | All Maps | STV","players":[{"user_id":198,"name":"PRO HOG CRANKER","steam_id":76561198046073848,"connected_time":1252000000000,"state":"active","ping":45},{"user_id":172,"name":"Fredfredfood","steam_id":76561198072824802,"connected_time":3739000000000,"state":"active","ping":81},{"user_id":173,"name":"Miner2495","steam_id":76561198445904523,"connected_time":3711000000000,"state":"active","ping":108},{"user_id":87,"name":"Phoenix","steam_id":76561197971265992,"connected_time":9766000000000,"state":"active","ping":46},{"user_id":202,"name":"Blurpee","steam_id":76561198057197988,"connected_time":353000000000,"state":"active","ping":55},{"user_id":180,"name":"WalkinMan","steam_id":76561198047941142,"connected_time":3209000000000,"state":"active","ping":53},{"user_id":18,"name":"Sad Sapling","steam_id":76561198075612150,"connected_time":13535000000000,"state":"active","ping":75},{"user_id":121,"name":"E4Estrogen","steam_id":76561198085813708,"connected_time":6563000000000,"state":"active","ping":109},{"user_id":171,"name":"Barton","steam_id":76561198203088523,"connected_time":4046000000000,"state":"active","ping":64},{"user_id":152,"name":"Jailbreak","steam_id":76561198802085218,"connected_time":4951000000000,"state":"active","ping":101},{"user_id":197,"name":"trackpad gaming | f2p","steam_id":76561198840414371,"connected_time":1625000000000,"state":"active","ping":61},{"user_id":185,"name":"Drive-By-Fish-Guy","steam_id":76561198105513652,"connected_time":2028000000000,"state":"active","ping":84},{"user_id":15,"name":"Little Linguine","steam_id":76561198816986370,"connected_time":13677000000000,"state":"active","ping":99},{"user_id":188,"name":"Frenzy","steam_id":76561199113589462,"connected_time":1925000000000,"state":"active","ping":108},{"user_id":181,"name":"Common","steam_id":76561198041083863,"connected_time":3043000000000,"state":"active","ping":58},{"user_id":132,"name":"if u read this ur gay","steam_id":76561198891732680,"connected_time":6083000000000,"state":"active","ping":90},{"user_id":161,"name":"BowlOfRice","steam_id":76561199239165015,"connected_time":4462000000000,"state":"active","ping":96},{"user_id":201,"name":"brum","steam_id":76561198446477539,"connected_time":579000000000,"state":"active","ping":65},{"user_id":183,"name":"Liquid Gold","steam_id":76561198347510093,"connected_time":2684000000000,"state":"active","ping":48},{"user_id":203,"name":"zinnk","steam_id":76561198092081825,"connected_time":212000000000,"state":"active","ping":59},{"user_id":163,"name":"HarveyBirdman","steam_id":76561198170367493,"connected_time":4438000000000,"state":"active","ping":66},{"user_id":184,"name":"mean penguin","steam_id":76561198174751517,"connected_time":2237000000000,"state":"active","ping":90},{"user_id":179,"name":"Sir Loincloth","steam_id":76561198033073991,"connected_time":3243000000000,"state":"active","ping":65},{"user_id":190,"name":"Tom","steam_id":76561198070630154,"connected_time":1864000000000,"state":"active","ping":81}]},{"server_id":119,"name":"Uncletopia | Seattle | 2 | All Maps","name_short":"sea-2","host":"sea-1.us.uncletopia.com","port":27025,"enabled":true,"region":"us-west","cc":"us","latitude":47.608013,"longitude":-122.33517,"reserved":0,"last_update":"0001-01-01T00:00:00Z","name_a2s":"Uncletopia | Seattle | 2 | All Maps","protocol":17,"map":"pl_swiftwater_final1","folder":"tf","game":"Team Fortress","app_id":440,"player_count":0,"max_players":24,"Bots":0,"server_type":"Dedicated","server_os":"Linux","password":true,"vac":true,"version":"7742253","steam_id":85568392924469998,"keywords":["nocrits","nodmgspread","payload","uncletopia"],"game_id":440,"stv_port":27026,"stv_name":"Uncletopia | Seattle | 2 | All Maps | STV","players":null},{"server_id":406,"name":"Uncletopia | Seattle | 3 | Stopwatch Beta","name_short":"sea-3","host":"sea-1.us.uncletopia.com","port":27035,"enabled":true,"region":"us-west","cc":"us","latitude":47.608013,"longitude":-122.33517,"reserved":0,"last_update":"0001-01-01T00:00:00Z","name_a2s":"Uncletopia | Seattle | 3 | Stopwatch Beta","protocol":17,"map":"pl_upward","folder":"tf","game":"Team Fortress","app_id":440,"player_count":0,"max_players":24,"Bots":0,"server_type":"Dedicated","server_os":"Linux","password":true,"vac":false,"version":"7742253","steam_id":0,"keywords":["nocrits","nodmgspread","payload","uncletopia"],"game_id":440,"stv_port":27036,"stv_name":"Uncletopia | Seattle | 3 | Stopwatch Beta | STV","players":null},{"server_id":17,"name":"Uncletopia | San Francisco | 1 | All Maps","name_short":"sfo-1","host":"sfo-1.us.uncletopia.com","port":27015,"enabled":true,"region":"us-west","cc":"us","latitude":37.77397,"longitude":-122.4313,"reserved":0,"last_update":"0001-01-01T00:00:00Z","name_a2s":"Uncletopia | San Francisco | 1 | All Maps","protocol":17,"map":"pl_badwater","folder":"tf","game":"Team Fortress","app_id":440,"player_count":3,"max_players":24,"Bots":0,"server_type":"Dedicated","server_os":"Linux","password":true,"vac":true,"version":"7742253","steam_id":85568392924469999,"keywords":["nocrits","nodmgspread","payload","uncletopia"],"game_id":440,"stv_port":27016,"stv_name":"Uncletopia | San Francisco | 1 | All Maps | STV","players":[{"user_id":3,"name":"DragonFlame2681","steam_id":76561199134670419,"connected_time":1018000000000,"state":"active","ping":86},{"user_id":4,"name":"Dr.Disco","steam_id":76561199128163692,"connected_time":965000000000,"state":"active","ping":78},{"user_id":6,"name":"sockgobblin","steam_id":76561198853494675,"connected_time":153000000000,"state":"active","ping":67}]},{"server_id":18,"name":"Uncletopia | San Francisco | 2 | All Maps","name_short":"sfo-2","host":"sfo-1.us.uncletopia.com","port":27025,"enabled":true,"region":"us-west","cc":"us","latitude":37.77397,"longitude":-122.4313,"reserved":0,"last_update":"0001-01-01T00:00:00Z","name_a2s":"Uncletopia | San Francisco | 2 | All Maps","protocol":17,"map":"cp_process_final","folder":"tf","game":"Team Fortress","app_id":440,"player_count":0,"max_players":24,"Bots":0,"server_type":"Dedicated","server_os":"Linux","password":true,"vac":true,"version":"7742253","steam_id":85568392924470000,"keywords":["cp","nocrits","nodmgspread","uncletopia"],"game_id":440,"stv_port":27026,"stv_name":"Uncletopia | San Francisco | 2 | All Maps | STV","players":null},{"server_id":19,"name":"Uncletopia | San Francisco | 3 | Stopwatch Beta","name_short":"sfo-3","host":"sfo-1.us.uncletopia.com","port":27035,"enabled":true,"region":"us-west","cc":"us","latitude":37.77397,"longitude":-122.4313,"reserved":0,"last_update":"0001-01-01T00:00:00Z","name_a2s":"Uncletopia | San Francisco | 3 | Stopwatch Beta","protocol":17,"map":"cp_snakewater_final1","folder":"tf","game":"Team Fortress","app_id":440,"player_count":0,"max_players":24,"Bots":0,"server_type":"Dedicated","server_os":"Linux","password":true,"vac":true,"version":"7742253","steam_id":85568392924742824,"keywords":["cp","nocrits","nodmgspread","uncletopia"],"game_id":440,"stv_port":27036,"stv_name":"Uncletopia | San Francisco | 3 | Stopwatch Beta | STV","players":null},{"server_id":20,"name":"Uncletopia | San Francisco | 4 | Community","name_short":"sfo-4","host":"sfo-1.us.uncletopia.com","port":27045,"enabled":true,"region":"us-west","cc":"us","latitude":37.77397,"longitude":-122.4313,"reserved":0,"last_update":"0001-01-01T00:00:00Z","name_a2s":"Uncletopia | San Francisco | 4 | Community","protocol":17,"map":"workshop/cp_reckoner_rc6.ugc674719999","folder":"tf","game":"Team Fortress","app_id":440,"player_count":0,"max_players":24,"Bots":0,"server_type":"Dedicated","server_os":"Linux","password":true,"vac":true,"version":"7742253","steam_id":85568392924742826,"keywords":["cp","nocrits","nodmgspread","uncletopia"],"game_id":440,"stv_port":27046,"stv_name":"Uncletopia | San Francisco | 4 | Community | STV","players":null},{"server_id":141,"name":"Uncletopia | Sydney | 1 | All Maps","name_short":"syd-1","host":"syd-1.au.uncletopia.com","port":27015,"enabled":true,"region":"au","cc":"au","latitude":-33.865143,"longitude":151.2099,"reserved":0,"last_update":"0001-01-01T00:00:00Z","name_a2s":"Uncletopia | Sydney | 1 | All Maps","protocol":17,"map":"koth_highpass","folder":"tf","game":"Team Fortress","app_id":440,"player_count":0,"max_players":24,"Bots":0,"server_type":"Dedicated","server_os":"Linux","password":true,"vac":true,"version":"7742253","steam_id":85568392924470001,"keywords":["cp","nocrits","nodmgspread","uncletopia"],"game_id":440,"stv_port":27016,"stv_name":"Uncletopia | Sydney | 1 | All Maps | STV","players":null},{"server_id":123,"name":"Uncletopia | Sydney | 2 | All Maps","name_short":"syd-2","host":"syd-1.au.uncletopia.com","port":27025,"enabled":true,"region":"au","cc":"au","latitude":-33.865143,"longitude":151.2099,"reserved":0,"last_update":"0001-01-01T00:00:00Z","name_a2s":"Uncletopia | Sydney | 2 | All Maps","protocol":17,"map":"cp_snakewater_final1","folder":"tf","game":"Team Fortress","app_id":440,"player_count":0,"max_players":24,"Bots":0,"server_type":"Dedicated","server_os":"Linux","password":true,"vac":true,"version":"7742253","steam_id":85568392924470002,"keywords":["cp","nocrits","nodmgspread","uncletopia"],"game_id":440,"stv_port":27026,"stv_name":"Uncletopia | Sydney | 2 | All Maps | STV","players":null},{"server_id":395,"name":"Uncletopia | Sydney | 3 | All Maps","name_short":"syd-3","host":"syd-1.au.uncletopia.com","port":27035,"enabled":true,"region":"au","cc":"au","latitude":-33.865143,"longitude":151.2099,"reserved":0,"last_update":"0001-01-01T00:00:00Z","name_a2s":"Uncletopia | Sydney | 3 | All Maps","protocol":17,"map":"koth_lakeside_final","folder":"tf","game":"Team Fortress","app_id":440,"player_count":0,"max_players":24,"Bots":0,"server_type":"Dedicated","server_os":"Linux","password":true,"vac":true,"version":"7742253","steam_id":85568392925194467,"keywords":["cp","nocrits","nodmgspread","uncletopia"],"game_id":440,"stv_port":27036,"stv_name":"Uncletopia | Sydney | 3 | All Maps | STV","players":null},{"server_id":396,"name":"Uncletopia | Sydney | 4 | All Maps","name_short":"syd-4","host":"syd-1.au.uncletopia.com","port":27045,"enabled":true,"region":"au","cc":"au","latitude":-33.865143,"longitude":151.2099,"reserved":0,"last_update":"0001-01-01T00:00:00Z","name_a2s":"Uncletopia | Sydney | 4 | All Maps","protocol":17,"map":"pl_borneo","folder":"tf","game":"Team Fortress","app_id":440,"player_count":0,"max_players":24,"Bots":0,"server_type":"Dedicated","server_os":"Linux","password":true,"vac":true,"version":"7742253","steam_id":85568392925397958,"keywords":["nocrits","nodmgspread","payload","uncletopia"],"game_id":440,"stv_port":27046,"stv_name":"Uncletopia | Sydney | 4 | All Maps | STV","players":null},{"server_id":58,"name":"Uncletopia | Sydney | 5 | Stopwatch Beta","name_short":"syd-5","host":"syd-1.au.uncletopia.com","port":27055,"enabled":true,"region":"au","cc":"au","latitude":-33.865143,"longitude":151.2099,"reserved":0,"last_update":"0001-01-01T00:00:00Z","name_a2s":"Uncletopia | Sydney | 5 | Stopwatch Beta","protocol":17,"map":"workshop/koth_ashville_final.ugc2130459942","folder":"tf","game":"Team Fortress","app_id":440,"player_count":0,"max_players":24,"Bots":0,"server_type":"Dedicated","server_os":"Linux","password":true,"vac":true,"version":"7742253","steam_id":85568392925397959,"keywords":["cp","nocrits","nodmgspread","uncletopia"],"game_id":440,"stv_port":27056,"stv_name":"Uncletopia | Sydney | 5 | Stopwatch Beta | STV","players":null},{"server_id":59,"name":"Uncletopia | Sydney | 6 | Community","name_short":"syd-6","host":"syd-1.au.uncletopia.com","port":27065,"enabled":true,"region":"au","cc":"au","latitude":-33.865143,"longitude":151.2099,"reserved":0,"last_update":"0001-01-01T00:00:00Z","name_a2s":"Uncletopia | Sydney | 6 | Community","protocol":17,"map":"workshop/pl_fifthcurve_rc1.ugc648227046","folder":"tf","game":"Team Fortress","app_id":440,"player_count":0,"max_players":24,"Bots":0,"server_type":"Dedicated","server_os":"Linux","password":true,"vac":true,"version":"7742253","steam_id":85568392925397960,"keywords":["nocrits","nodmgspread","payload","uncletopia"],"game_id":440,"stv_port":27066,"stv_name":"Uncletopia | Sydney | 6 | Community | STV","players":null},{"server_id":49,"name":"Uncletopia | Warsaw | 1 | All Maps","name_short":"waw-1","host":"waw-1.pl.uncletopia.com","port":27015,"enabled":true,"region":"eu","cc":"pl","latitude":52.2297,"longitude":21.017532,"reserved":0,"last_update":"0001-01-01T00:00:00Z","name_a2s":"Uncletopia | Warsaw | 1 | All Maps","protocol":17,"map":"koth_lakeside_final","folder":"tf","game":"Team Fortress","app_id":440,"player_count":0,"max_players":24,"Bots":0,"server_type":"Dedicated","server_os":"Linux","password":true,"vac":true,"version":"7723704","steam_id":85568392925397850,"keywords":["cp","nocrits","nodmgspread","uncletopia"],"game_id":440,"stv_port":27016,"stv_name":"Uncletopia | Warsaw | 1 | All Maps | STV","players":null},{"server_id":50,"name":"Uncletopia | Warsaw | 2 | All Maps","name_short":"waw-2","host":"waw-1.pl.uncletopia.com","port":27025,"enabled":true,"region":"eu","cc":"pl","latitude":52.2297,"longitude":21.017532,"reserved":0,"last_update":"0001-01-01T00:00:00Z","name_a2s":"Uncletopia | Warsaw | 2 | All Maps","protocol":17,"map":"cp_mountainlab","folder":"tf","game":"Team Fortress","app_id":440,"player_count":0,"max_players":24,"Bots":0,"server_type":"Dedicated","server_os":"Linux","password":true,"vac":true,"version":"7742253","steam_id":85568392925397851,"keywords":["cp","nocrits","nodmgspread","uncletopia"],"game_id":440,"stv_port":27026,"stv_name":"Uncletopia | Warsaw | 2 | All Maps | STV","players":null},{"server_id":51,"name":"Uncletopia | Warsaw | 3 | All Maps","name_short":"waw-3","host":"waw-1.pl.uncletopia.com","port":27035,"enabled":true,"region":"eu","cc":"pl","latitude":52.2297,"longitude":21.017532,"reserved":0,"last_update":"0001-01-01T00:00:00Z","name_a2s":"Uncletopia | Warsaw | 3 | All Maps","protocol":17,"map":"koth_lakeside_final","folder":"tf","game":"Team Fortress","app_id":440,"player_count":0,"max_players":24,"Bots":0,"server_type":"Dedicated","server_os":"Linux","password":true,"vac":true,"version":"7742253","steam_id":85568392925397852,"keywords":["cp","nocrits","nodmgspread","uncletopia"],"game_id":440,"stv_port":27036,"stv_name":"Uncletopia | Warsaw | 3 | All Maps | STV","players":null},{"server_id":52,"name":"Uncletopia | Warsaw | 4 | All Maps","name_short":"waw-4","host":"waw-1.pl.uncletopia.com","port":27045,"enabled":true,"region":"eu","cc":"pl","latitude":52.2297,"longitude":21.017532,"reserved":0,"last_update":"0001-01-01T00:00:00Z","name_a2s":"Uncletopia | Warsaw | 4 | All Maps","protocol":17,"map":"cp_mountainlab","folder":"tf","game":"Team Fortress","app_id":440,"player_count":0,"max_players":24,"Bots":0,"server_type":"Dedicated","server_os":"Linux","password":true,"vac":true,"version":"7742253","steam_id":85568392925397853,"keywords":["cp","nocrits","nodmgspread","uncletopia"],"game_id":440,"stv_port":27046,"stv_name":"Uncletopia | Warsaw | 4 | All Maps | STV","players":null},{"server_id":53,"name":"Uncletopia | Warsaw | 5 | Stopwatch Beta","name_short":"waw-5","host":"waw-1.pl.uncletopia.com","port":27055,"enabled":true,"region":"eu","cc":"pl","latitude":52.2297,"longitude":21.017532,"reserved":0,"last_update":"0001-01-01T00:00:00Z","name_a2s":"Uncletopia | Warsaw | 5 | Stopwatch Beta","protocol":17,"map":"pl_pier","folder":"tf","game":"Team Fortress","app_id":440,"player_count":0,"max_players":24,"Bots":0,"server_type":"Dedicated","server_os":"Linux","password":true,"vac":true,"version":"7742253","steam_id":85568392925397854,"keywords":["nocrits","nodmgspread","payload","uncletopia"],"game_id":440,"stv_port":27056,"stv_name":"Uncletopia | Warsaw | 5 | Stopwatch Beta | STV","players":null},{"server_id":54,"name":"Uncletopia | Warsaw | 6 | Community","name_short":"waw-6","host":"waw-1.pl.uncletopia.com","port":27065,"enabled":true,"region":"eu","cc":"pl","latitude":52.2297,"longitude":21.017532,"reserved":0,"last_update":"0001-01-01T00:00:00Z","name_a2s":"Uncletopia | Warsaw | 6 | Community","protocol":17,"map":"workshop/koth_slaughter_rc1.ugc1712845210","folder":"tf","game":"Team Fortress","app_id":440,"player_count":0,"max_players":24,"Bots":0,"server_type":"Dedicated","server_os":"Linux","password":true,"vac":true,"version":"7742253","steam_id":85568392925397856,"keywords":["cp","nocrits","nodmgspread","uncletopia"],"game_id":440,"stv_port":27066,"stv_name":"Uncletopia | Warsaw | 6 | Community | STV","players":null}]}