{"status":true,"message":"","result":[{"server_id":9,"name":"Uncletopia | Atlanta | 1 | All Maps","name_short":"atl-1","host":"atl-1.us.uncletopia.com","port":27015,"enabled":true,"region":"us-east","cc":"us","latitude":33.753746,"longitude":-84.38633,"reserved":0,"last_update":"0001-01-01T00:00:00Z","name_a2s":"Uncletopia | Atlanta | 1 | All Maps","protocol":17,"map":"pl_borneo","folder":"tf","game":"Team Fortress","app_id":440,"player_count":19,"max_players":24,"Bots":0,"server_type":"Dedicated","server_os":"Linux","password":true,"vac":true,"version":"7882260","steam_id":85568392924469982,"keywords":["nocrits","nodmgspread","payload","uncletopia"],"game_id":440,"stv_port":27016,"stv_name":"Uncletopia | Atlanta | 1 | All Maps | STV","players":[{"user_id":94,"name":"Uncle Dane Wannabe","steam_id":76561199088646500,"connected_time":1478000000000,"state":"active","ping":93},{"user_id":117,"name":"metalfan666","steam_id":76561198386344068,"connected_time":204000000000,"state":"active","ping":72},{"user_id":65,"name":"B.","steam_id":76561198040445907,"connected_time":5478000000000,"state":"active","ping":59},{"user_id":80,"name":"yomommasabitch","steam_id":76561198323217150,"connected_time":3684000000000,"state":"active","ping":54},{"user_id":112,"name":"starkiller_141","steam_id":76561198162426849,"connected_time":352000000000,"state":"active","ping":47},{"user_id":115,"name":"your new best friend","steam_id":76561199239926014,"connected_time":239000000000,"state":"active","ping":60},{"user_id":118,"name":"Shock","steam_id":76561199221742390,"connected_time":119000000000,"state":"active","ping":92},{"user_id":78,"name":"potatotomato","steam_id":76561199092769902,"connected_time":3826000000000,"state":"active","ping":72},{"user_id":119,"name":"Batman in one piece","steam_id":76561199129969202,"connected_time":53000000000,"state":"active","ping":63},{"user_id":110,"name":"Skinny pete","steam_id":76561198801608576,"connected_time":1000000000000,"state":"active","ping":63},{"user_id":60,"name":"troll","steam_id":76561198040890252,"connected_time":6507000000000,"state":"active","ping":45},{"user_id":120,"name":"RuinLucky","steam_id":76561199481172481,"connected_time":13000000000,"state":"active","ping":59},{"user_id":22,"name":"jay","steam_id":76561199474493516,"connected_time":9325000000000,"state":"active","ping":104},{"user_id":99,"name":"pip","steam_id":76561198193784201,"connected_time":1439000000000,"state":"active","ping":44},{"user_id":114,"name":"Spoons","steam_id":76561198042006848,"connected_time":269000000000,"state":"active","ping":62},{"user_id":83,"name":"Voodo133","steam_id":76561198042670351,"connected_time":3173000000000,"state":"active","ping":81},{"user_id":90,"name":"Magma","steam_id":76561198108261173,"connected_time":2075000000000,"state":"active","ping":62},{"user_id":98,"name":"DragonFalcon‚Ñ¢","steam_id":76561198044559930,"connected_time":1462000000000,"state":"active","ping":57},{"user_id":109,"name":"DiGiorno's Pizza","steam_id":76561198142244035,"connected_time":1070000000000,"state":"active","ping":68}]},{"server_id":104,"name":"Uncletopia | Atlanta | 2 | All Maps","name_short":"atl-2","host":"atl-1.us.uncletopia.com","port":27025,"enabled":true,"region":"us-east","cc":"us","latitude":33.753746,"longitude":-84.38633,"reserved":0,"last_update":"0001-01-01T00:00:00Z","name_a2s":"Uncletopia | Atlanta | 2 | All Maps","protocol":17,"map":"pl_frontier_final","folder":"tf","game":"Team Fortress","app_id":440,"player_count":0,"max_players":24,"Bots":0,"server_type":"Dedicated","server_os":"Linux","password":true,"vac":true,"version":"7882260","steam_id":85568392924469983,"keywords":["nocrits","nodmgspread","payload","uncletopia"],"game_id":440,"stv_port":27026,"stv_name":"Uncletopia | Atlanta | 2 | All Maps | STV","players":null},{"server_id":400,"name":"Uncletopia | Atlanta | 3 | Community","name_short":"atl-3","host":"atl-1.us.uncletopia.com","port":27035,"enabled":true,"region":"us-east","cc":"us","latitude":33.753746,"longitude":-84.38633,"reserved":0,"last_update":"0001-01-01T00:00:00Z","name_a2s":"Uncletopia | Atlanta | 3 | Community","protocol":17,"map":"pl_borneo","folder":"tf","game":"Team Fortress","app_id":440,"player_count":0,"max_players":24,"Bots":0,"server_type":"Dedicated","server_os":"Linux","password":true,"vac":true,"version":"7882260","steam_id":85568392924515187,"keywords":["nocrits","nodmgspread","payload","uncletopia"],"game_id":440,"stv_port":27036,"stv_name":"Uncletopia | Atlanta | 3 | Community | STV","players":null},{"server_id":401,"name":"Uncletopia | Atlanta | 4 | No Payload","name_short":"atl-4","host":"atl-1.us.uncletopia.com","port":27045,"enabled":true,"region":"us-east","cc":"us","latitude":33.753746,"longitude":-84.38633,"reserved":0,"last_update":"0001-01-01T00:00:00Z","name_a2s":"","protocol":0,"map":"","folder":"","game":"","app_id":0,"player_count":0,"max_players":0,"Bots":0,"server_type":"","server_os":"","password":false,"vac":false,"version":"","steam_id":0,"keywords":null,"game_id":0,"stv_port":0,"stv_name":"","players":null},{"server_id":2,"name":"Uncletopia | Chicago | 1 | All Maps","name_short":"chi-1","host":"chi-1.us.uncletopia.com","port":27015,"enabled":true,"region":"us-central","cc":"us","latitude":41.881832,"longitude":-87.62318,"reserved":0,"last_update":"0001-01-01T00:00:00Z","name_a2s":"Uncletopia | Chicago | 1 | All Maps","protocol":17,"map":"pl_hoodoo_final","folder":"tf","game":"Team Fortress","app_id":440,"player_count":24,"max_players":24,"Bots":0,"server_type":"Dedicated","server_os":"Linux","password":true,"vac":true,"version":"7882260","steam_id":85568392924469984,"keywords":["nocrits","nodmgspread","payload","uncletopia"],"game_id":440,"stv_port":27016,"stv_name":"Uncletopia | Chicago | 1 | All Maps | STV","players":[{"user_id":115,"name":"viagra addict","steam_id":76561198017705248,"connected_time":5071000000000,"state":"active","ping":49},{"user_id":140,"name":"Totally not CIA","steam_id":76561198237827742,"connected_time":2448000000000,"state":"active","ping":65},{"user_id":5,"name":"blossom","steam_id":76561198042735130,"connected_time":15240000000000,"state":"active","ping":114},{"user_id":135,"name":"‚ô• kiss me! ‚ô•","steam_id":76561198014557455,"connected_time":3100000000000,"state":"active","ping":59},{"user_id":145,"name":"‚õßelly bell‚õß","steam_id":76561198117032513,"connected_time":2010000000000,"state":"active","ping":103},{"user_id":137,"name":"Xeno808","steam_id":76561198103758081,"connected_time":3085000000000,"state":"active","ping":60},{"user_id":127,"name":"elyktsorb","steam_id":76561198158964488,"connected_time":3971000000000,"state":"active","ping":60},{"user_id":93,"name":"Hope","steam_id":76561199201900779,"connected_time":7548000000000,"state":"active","ping":83},{"user_id":166,"name":"Nic0","steam_id":76561198305690218,"connected_time":648000000000,"state":"active","ping":67},{"user_id":132,"name":"iyed","steam_id":76561198982141827,"connected_time":3462000000000,"state":"active","ping":75},{"user_id":150,"name":"Daso","steam_id":76561198219209367,"connected_time":1853000000000,"state":"active","ping":71},{"user_id":167,"name":"Maverick","steam_id":76561198322829814,"connected_time":622000000000,"state":"active","ping":79},{"user_id":162,"name":"capybara(happy womens month)","steam_id":76561198798828328,"connected_time":940000000000,"state":"active","ping":52},{"user_id":158,"name":"sinisterMayo","steam_id":76561198087244649,"connected_time":1078000000000,"state":"active","ping":72},{"user_id":161,"name":"Whorse","steam_id":76561198114141445,"connected_time":1011000000000,"state":"active","ping":72},{"user_id":152,"name":"Maple","steam_id":76561198140401872,"connected_time":1713000000000,"state":"active","ping":181},{"user_id":114,"name":"Joshua31704","steam_id":76561198125898714,"connected_time":5399000000000,"state":"active","ping":81},{"user_id":144,"name":"roto","steam_id":76561198138735860,"connected_time":2042000000000,"state":"active","ping":73},{"user_id":169,"name":"HOTA","steam_id":76561199002778841,"connected_time":213000000000,"state":"active","ping":82},{"user_id":163,"name":"yup","steam_id":76561199190800520,"connected_time":912000000000,"state":"active","ping":89},{"user_id":118,"name":"firstlastmcgee","steam_id":76561198170187989,"connected_time":4626000000000,"state":"active","ping":67},{"user_id":70,"name":"Tyler\u0026Fingers","steam_id":76561198085154485,"connected_time":9972000000000,"state":"active","ping":90},{"user_id":139,"name":"GoofyAhGamingGuy","steam_id":76561199331315881,"connected_time":3002000000000,"state":"active","ping":81}]},{"server_id":106,"name":"Uncletopia | Chicago | 2 | All Maps","name_short":"chi-2","host":"chi-1.us.uncletopia.com","port":27025,"enabled":true,"region":"us-central","cc":"us","latitude":41.881832,"longitude":-87.62318,"reserved":0,"last_update":"0001-01-01T00:00:00Z","name_a2s":"Uncletopia | Chicago | 2 | All Maps","protocol":17,"map":"koth_cascade","folder":"tf","game":"Team Fortress","app_id":440,"player_count":24,"max_players":24,"Bots":0,"server_type":"Dedicated","server_os":"Linux","password":true,"vac":true,"version":"7882260","steam_id":85568392924469985,"keywords":["cp","nocrits","nodmgspread","uncletopia"],"game_id":440,"stv_port":27026,"stv_name":"Uncletopia | Chicago | 2 | All Maps | STV","players":[{"user_id":11,"name":"Dante","steam_id":76561198798234838,"connected_time":1845000000000,"state":"active","ping":116},{"user_id":9,"name":"Fablor","steam_id":76561198175644926,"connected_time":2001000000000,"state":"active","ping":101},{"user_id":43,"name":"maxie","steam_id":76561198043145751,"connected_time":565000000000,"state":"active","ping":63},{"user_id":15,"name":"Dr. Tropen","steam_id":76561198405271669,"connected_time":1559000000000,"state":"active","ping":68},{"user_id":12,"name":"JelloMotion","steam_id":76561198045892038,"connected_time":1821000000000,"state":"active","ping":60},{"user_id":42,"name":"MidSobbes08","steam_id":76561199013101925,"connected_time":573000000000,"state":"active","ping":246},{"user_id":14,"name":"twizted","steam_id":76561197960407274,"connected_time":1787000000000,"state":"active","ping":62},{"user_id":49,"name":"SylviePuff","steam_id":76561198067030601,"connected_time":159000000000,"state":"active","ping":45},{"user_id":47,"name":"Alecto","steam_id":76561198042476864,"connected_time":337000000000,"state":"active","ping":46},{"user_id":50,"name":"831FINN678","steam_id":76561198997284347,"connected_time":84000000000,"state":"active","ping":93},{"user_id":22,"name":"Big D","steam_id":76561198100336053,"connected_time":1291000000000,"state":"active","ping":137},{"user_id":23,"name":"brainboggler 2","steam_id":76561198000158531,"connected_time":1274000000000,"state":"active","ping":90},{"user_id":21,"name":"Old man jenkins","steam_id":76561199209016136,"connected_time":1340000000000,"state":"active","ping":61},{"user_id":25,"name":"-=|FYG|=- Mr. Generous","steam_id":76561198047350765,"connected_time":1136000000000,"state":"active","ping":48},{"user_id":48,"name":"ScaryTree","steam_id":76561199384362833,"connected_time":325000000000,"state":"active","ping":142},{"user_id":27,"name":"0x01FE","steam_id":76561198838881917,"connected_time":987000000000,"state":"active","ping":71},{"user_id":28,"name":"teybob","steam_id":76561198042620016,"connected_time":947000000000,"state":"active","ping":70},{"user_id":29,"name":"a narwhal","steam_id":76561198014527353,"connected_time":939000000000,"state":"active","ping":69},{"user_id":45,"name":"BuncusBeffer","steam_id":76561198285936616,"connected_time":526000000000,"state":"active","ping":101},{"user_id":46,"name":"Onyiun","steam_id":76561199124107338,"connected_time":508000000000,"state":"active","ping":87},{"user_id":34,"name":"HighOnCrackPyro","steam_id":76561199201099781,"connected_time":815000000000,"state":"active","ping":104},{"user_id":35,"name":"adda","steam_id":76561198309013410,"connected_time":810000000000,"state":"active","ping":87},{"user_id":38,"name":"Still Alive","steam_id":76561198042523000,"connected_time":733000000000,"state":"active","ping":55},{"user_id":39,"name":"Kid named download","steam_id":76561199192074448,"connected_time":725000000000,"state":"active","ping":82}]},{"server_id":402,"name":"Uncletopia | Chicago | 3 | All Maps","name_short":"chi-3","host":"chi-1.us.uncletopia.com","port":27035,"enabled":true,"region":"us-central","cc":"us","latitude":41.881832,"longitude":-87.62318,"reserved":0,"last_update":"0001-01-01T00:00:00Z","name_a2s":"Uncletopia | Chicago | 3 | All Maps","protocol":17,"map":"pl_snowycoast","folder":"tf","game":"Team Fortress","app_id":440,"player_count":24,"max_players":24,"Bots":0,"server_type":"Dedicated","server_os":"Linux","password":true,"vac":true,"version":"7882260","steam_id":85568392924515191,"keywords":["nocrits","nodmgspread","payload","uncletopia"],"game_id":440,"stv_port":27036,"stv_name":"Uncletopia | Chicago | 3 | All Maps | STV","players":[{"user_id":92,"name":"Sarah","steam_id":76561199013702818,"connected_time":869000000000,"state":"active","ping":165},{"user_id":87,"name":"sagekiss","steam_id":76561198038831240,"connected_time":1446000000000,"state":"active","ping":115},{"user_id":110,"name":"[ZP] Dip (She/They)","steam_id":76561198327303411,"connected_time":66000000000,"state":"active","ping":65},{"user_id":101,"name":"jobin","steam_id":76561198081593895,"connected_time":416000000000,"state":"active","ping":93},{"user_id":60,"name":"JoJoJo","steam_id":76561198067153390,"connected_time":3304000000000,"state":"active","ping":52},{"user_id":49,"name":"ü§®","steam_id":76561199365672047,"connected_time":4165000000000,"state":"active","ping":85},{"user_id":58,"name":"lucky","steam_id":76561198323426623,"connected_time":3520000000000,"state":"active","ping":101},{"user_id":24,"name":"aisu","steam_id":76561198043768507,"connected_time":5086000000000,"state":"active","ping":66},{"user_id":102,"name":"Ripheart","steam_id":76561198089661561,"connected_time":288000000000,"state":"active","ping":47},{"user_id":99,"name":"Cassini","steam_id":76561198318526294,"connected_time":625000000000,"state":"active","ping":60},{"user_id":79,"name":"Triples_","steam_id":76561198094249561,"connected_time":1826000000000,"state":"active","ping":55},{"user_id":85,"name":"fnkwgn","steam_id":76561198036884600,"connected_time":1557000000000,"state":"active","ping":63},{"user_id":100,"name":"Mecha","steam_id":76561198014927379,"connected_time":562000000000,"state":"active","ping":79},{"user_id":90,"name":"SpongeBob","steam_id":76561198843313898,"connected_time":935000000000,"state":"active","ping":67},{"user_id":103,"name":"to sem ideia #savetf2","steam_id":76561199052177486,"connected_time":285000000000,"state":"active","ping":179},{"user_id":106,"name":"AceDeuce","steam_id":76561198049904924,"connected_time":173000000000,"state":"active","ping":52},{"user_id":104,"name":"Mr Nep Nep","steam_id":76561198198179821,"connected_time":264000000000,"state":"active","ping":97},{"user_id":107,"name":"ROGRAR","steam_id":76561198967082529,"connected_time":150000000000,"state":"active","ping":167},{"user_id":91,"name":"Boo-womp","steam_id":76561198082593038,"connected_time":882000000000,"state":"active","ping":82},{"user_id":97,"name":"TurnupDig75","steam_id":76561198852375121,"connected_time":811000000000,"state":"active","ping":95},{"user_id":42,"name":"Playing from TempleOS","steam_id":76561199144640325,"connected_time":4339000000000,"state":"active","ping":62},{"user_id":83,"name":"fruitpunch","steam_id":76561198156516161,"connected_time":1789000000000,"state":"active","ping":77},{"user_id":89,"name":"Lovedaddy","steam_id":76561198006569710,"connected_time":963000000000,"state":"active","ping":81},{"user_id":76,"name":"feenman","steam_id":76561199383834799,"connected_time":2090000000000,"state":"active","ping":92}]},{"server_id":403,"name":"Uncletopia | Chicago | 4 | All Maps","name_short":"chi-4","host":"chi-1.us.uncletopia.com","port":27045,"enabled":true,"region":"us-central","cc":"us","latitude":41.881832,"longitude":-87.62318,"reserved":0,"last_update":"0001-01-01T00:00:00Z","name_a2s":"Uncletopia | Chicago | 4 | All Maps","protocol":17,"map":"koth_lakeside_final","folder":"tf","game":"Team Fortress","app_id":440,"player_count":0,"max_players":24,"Bots":0,"server_type":"Dedicated","server_os":"Linux","password":true,"vac":true,"version":"7882260","steam_id":85568392924515193,"keywords":["cp","nocrits","nodmgspread","uncletopia"],"game_id":440,"stv_port":27046,"stv_name":"Uncletopia | Chicago | 4 | All Maps | STV","players":null},{"server_id":36,"name":"Uncletopia | Chicago | 5 | All Maps","name_short":"chi-5","host":"chi-2.us.uncletopia.com","port":27015,"enabled":true,"region":"us-central","cc":"us","latitude":41.881832,"longitude":-87.62318,"reserved":0,"last_update":"0001-01-01T00:00:00Z","name_a2s":"Uncletopia | Chicago | 5 | All Maps","protocol":17,"map":"cp_dustbowl","folder":"tf","game":"Team Fortress","app_id":440,"player_count":0,"max_players":24,"Bots":0,"server_type":"Dedicated","server_os":"Linux","password":true,"vac":true,"version":"7882260","steam_id":85568392924866362,"keywords":["cp","nocrits","nodmgspread","uncletopia"],"game_id":440,"stv_port":27016,"stv_name":"Uncletopia | Chicago | 5 | All Maps | STV","players":null},{"server_id":37,"name":"Uncletopia | Chicago | 6 | All Maps","name_short":"chi-6","host":"chi-2.us.uncletopia.com","port":27025,"enabled":true,"region":"us-central","cc":"us","latitude":41.881832,"longitude":-87.62318,"reserved":0,"last_update":"0001-01-01T00:00:00Z","name_a2s":"Uncletopia | Chicago | 6 | All Maps","protocol":17,"map":"cp_altitude","folder":"tf","game":"Team Fortress","app_id":440,"player_count":0,"max_players":24,"Bots":0,"server_type":"Dedicated","server_os":"Linux","password":true,"vac":true,"version":"7882260","steam_id":85568392924866363,"keywords":["cp","nocrits","nodmgspread","uncletopia"],"game_id":440,"stv_port":27026,"stv_name":"Uncletopia | Chicago | 6 | All Maps | STV","players":null},{"server_id":38,"name":"Uncletopia | Chicago | 7 | Stopwatch Beta","name_short":"chi-7","host":"chi-2.us.uncletopia.com","port":27035,"enabled":true,"region":"us-central","cc":"us","latitude":41.881832,"longitude":-87.62318,"reserved":0,"last_update":"0001-01-01T00:00:00Z","name_a2s":"Uncletopia | Chicago | 7 | Stopwatch Beta","protocol":17,"map":"pl_upward","folder":"tf","game":"Team Fortress","app_id":440,"player_count":0,"max_players":24,"Bots":0,"server_type":"Dedicated","server_os":"Linux","password":true,"vac":true,"version":"7882260","steam_id":85568392924866364,"keywords":["nocrits","nodmgspread","payload","uncletopia"],"game_id":440,"stv_port":27036,"stv_name":"Uncletopia | Chicago | 7 | Stopwatch Beta | STV","players":null},{"server_id":39,"name":"Uncletopia | Chicago | 8 | Community","name_short":"chi-8","host":"chi-2.us.uncletopia.com","port":27045,"enabled":true,"region":"us-central","cc":"us","latitude":41.881832,"longitude":-87.62318,"reserved":0,"last_update":"0001-01-01T00:00:00Z","name_a2s":"Uncletopia | Chicago | 8 | Community","protocol":17,"map":"workshop/cp_glassworks_rc6a.ugc454118349","folder":"tf","game":"Team Fortress","app_id":440,"player_count":0,"max_players":24,"Bots":0,"server_type":"Dedicated","server_os":"Linux","password":true,"vac":true,"version":"7882260","steam_id":85568392924866365,"keywords":["cp","nocrits","nodmgspread","uncletopia"],"game_id":440,"stv_port":27046,"stv_name":"Uncletopia | Chicago | 8 | Community | STV","players":null},{"server_id":8,"name":"Uncletopia | Dallas | 1 | All Maps","name_short":"dal-1","host":"dal-1.us.uncletopia.com","port":27015,"enabled":true,"region":"us-central","cc":"us","latitude":32.779167,"longitude":-96.80889,"reserved":0,"last_update":"0001-01-01T00:00:00Z","name_a2s":"Uncletopia | Dallas | 1 | All Maps","protocol":17,"map":"koth_viaduct","folder":"tf","game":"Team Fortress","app_id":440,"player_count":2,"max_players":24,"Bots":0,"server_type":"Dedicated","server_os":"Linux","password":true,"vac":true,"version":"7882260","steam_id":85568392924469986,"keywords":["cp","nocrits","nodmgspread","uncletopia"],"game_id":440,"stv_port":27016,"stv_name":"Uncletopia | Dallas | 1 | All Maps | STV","players":[{"user_id":12,"name":"odacovA","steam_id":76561199383345208,"connected_time":372000000000,"state":"active","ping":38},{"user_id":13,"name":"Aisforlike","steam_id":76561199482110668,"connected_time":357000000000,"state":"active","ping":32}]},{"server_id":108,"name":"Uncletopia | Dallas | 2 | All Maps","name_short":"dal-2","host":"dal-1.us.uncletopia.com","port":27025,"enabled":true,"region":"us-central","cc":"us","latitude":32.779167,"longitude":-96.80889,"reserved":0,"last_update":"0001-01-01T00:00:00Z","name_a2s":"Uncletopia | Dallas | 2 | All Maps","protocol":17,"map":"cp_snakewater_final1","folder":"tf","game":"Team Fortress","app_id":440,"player_count":0,"max_players":24,"Bots":0,"server_type":"Dedicated","server_os":"Linux","password":true,"vac":true,"version":"7882260","steam_id":85568392924469988,"keywords":["cp","nocrits","nodmgspread","uncletopia"],"game_id":440,"stv_port":27026,"stv_name":"Uncletopia | Dallas | 2 | All Maps | STV","players":null},{"server_id":5,"name":"Uncletopia | Frankfurt | 1 | All Maps","name_short":"frk-1","host":"frk-1.de.uncletopia.com","port":27015,"enabled":true,"region":"eu","cc":"de","latitude":50.110924,"longitude":8.682127,"reserved":0,"last_update":"0001-01-01T00:00:00Z","name_a2s":"Uncletopia | Frankfurt | 1 | All Maps","protocol":17,"map":"pl_barnblitz","folder":"tf","game":"Team Fortress","app_id":440,"player_count":24,"max_players":24,"Bots":0,"server_type":"Dedicated","server_os":"Linux","password":true,"vac":true,"version":"7882260","steam_id":85568392924469989,"keywords":["nocrits","nodmgspread","payload","uncletopia"],"game_id":440,"stv_port":27016,"stv_name":"Uncletopia | Frankfurt | 1 | All Maps | STV","players":[{"user_id":146,"name":"ricky pee pee","steam_id":76561198152620745,"connected_time":2181000000000,"state":"active","ping":70},{"user_id":186,"name":"DDUUCCKK","steam_id":76561198141953050,"connected_time":344000000000,"state":"active","ping":71},{"user_id":180,"name":"Zeta","steam_id":76561198101917105,"connected_time":575000000000,"state":"active","ping":149},{"user_id":182,"name":"kam1x.","steam_id":76561199116494921,"connected_time":533000000000,"state":"active","ping":69},{"user_id":164,"name":"iIMOFIi","steam_id":76561199000483925,"connected_time":966000000000,"state":"active","ping":161},{"user_id":187,"name":"Draku","steam_id":76561198129801642,"connected_time":320000000000,"state":"active","ping":80},{"user_id":179,"name":"Salabombo","steam_id":76561198127765356,"connected_time":819000000000,"state":"active","ping":101},{"user_id":191,"name":"gegit08","steam_id":76561199040010283,"connected_time":6000000000,"state":"spawning","ping":85},{"user_id":149,"name":"Thisguywillkillyou","steam_id":76561198961308850,"connected_time":2051000000000,"state":"active","ping":54},{"user_id":163,"name":"pakin157","steam_id":76561198035125667,"connected_time":1080000000000,"state":"active","ping":73},{"user_id":189,"name":"vdl","steam_id":76561198044583116,"connected_time":283000000000,"state":"active","ping":92},{"user_id":190,"name":"Skuld","steam_id":76561198064734905,"connected_time":281000000000,"state":"active","ping":90},{"user_id":125,"name":"Tea guy","steam_id":76561198797847641,"connected_time":3804000000000,"state":"active","ping":76},{"user_id":158,"name":"Mr.Bee","steam_id":76561198986621220,"connected_time":1460000000000,"state":"active","ping":173},{"user_id":183,"name":"mp1mp2mp3","steam_id":76561198088967665,"connected_time":377000000000,"state":"active","ping":89},{"user_id":119,"name":"Cars","steam_id":76561198173329977,"connected_time":4465000000000,"state":"active","ping":63},{"user_id":123,"name":"Philosophos_Alpha","steam_id":76561198951264580,"connected_time":4185000000000,"state":"active","ping":103},{"user_id":99,"name":"modavak","steam_id":76561198946290908,"connected_time":5854000000000,"state":"active","ping":90},{"user_id":150,"name":"zircon226","steam_id":76561198332529555,"connected_time":1950000000000,"state":"active","ping":86},{"user_id":131,"name":"avenje","steam_id":76561198155824845,"connected_time":3412000000000,"state":"active","ping":56},{"user_id":142,"name":"Zmora","steam_id":76561199057422095,"connected_time":2247000000000,"state":"active","ping":71},{"user_id":133,"name":"Joipoi","steam_id":76561198042915122,"connected_time":3345000000000,"state":"active","ping":58},{"user_id":118,"name":"mook","steam_id":76561198175543442,"connected_time":4512000000000,"state":"active","ping":69},{"user_id":145,"name":"AleXandriX","steam_id":76561198035203950,"connected_time":2205000000000,"state":"active","ping":54}]},{"server_id":110,"name":"Uncletopia | Frankfurt | 2 | All Maps","name_short":"frk-2","host":"frk-1.de.uncletopia.com","port":27025,"enabled":true,"region":"eu","cc":"de","latitude":50.110924,"longitude":8.682127,"reserved":0,"last_update":"0001-01-01T00:00:00Z","name_a2s":"Uncletopia | Frankfurt | 2 | All Maps","protocol":17,"map":"pl_frontier_final","folder":"tf","game":"Team Fortress","app_id":440,"player_count":0,"max_players":24,"Bots":0,"server_type":"Dedicated","server_os":"Linux","password":true,"vac":true,"version":"7882260","steam_id":85568392924469990,"keywords":["nocrits","nodmgspread","payload","uncletopia"],"game_id":440,"stv_port":27026,"stv_name":"Uncletopia | Frankfurt | 2 | All Maps | STV","players":null},{"server_id":308,"name":"Uncletopia | Frankfurt | 3 | All Maps","name_short":"frk-3","host":"frk-1.de.uncletopia.com","port":27035,"enabled":true,"region":"eu","cc":"de","latitude":50.110924,"longitude":8.682127,"reserved":0,"last_update":"0001-01-01T00:00:00Z","name_a2s":"Uncletopia | Frankfurt | 3 | All Maps","protocol":17,"map":"koth_viaduct","folder":"tf","game":"Team Fortress","app_id":440,"player_count":5,"max_players":24,"Bots":0,"server_type":"Dedicated","server_os":"Linux","password":true,"vac":true,"version":"7882260","steam_id":85568392924504274,"keywords":["cp","nocrits","nodmgspread","uncletopia"],"game_id":440,"stv_port":27036,"stv_name":"Uncletopia | Frankfurt | 3 | All Maps | STV","players":[{"user_id":5,"name":"you are sus","steam_id":76561199291362833,"connected_time":1366000000000,"state":"active","ping":95},{"user_id":6,"name":"teufort resident","steam_id":76561199061893308,"connected_time":1180000000000,"state":"active","ping":99},{"user_id":7,"name":"Niels","steam_id":76561198285033328,"connected_time":629000000000,"state":"active","ping":55},{"user_id":8,"name":"Log","steam_id":76561198439616085,"connected_time":464000000000,"state":"active","ping":54},{"user_id":9,"name":"Rat King","steam_id":76561198256783599,"connected_time":341000000000,"state":"active","ping":68}]},{"server_id":309,"name":"Uncletopia | Frankfurt | 4 | All Maps","name_short":"frk-4","host":"frk-1.de.uncletopia.com","port":27045,"enabled":true,"region":"eu","cc":"de","latitude":50.110924,"longitude":8.682127,"reserved":0,"last_update":"0001-01-01T00:00:00Z","name_a2s":"Uncletopia | Frankfurt | 4 | All Maps","protocol":17,"map":"pl_swiftwater_final1","folder":"tf","game":"Team Fortress","app_id":440,"player_count":0,"max_players":24,"Bots":0,"server_type":"Dedicated","server_os":"Linux","password":true,"vac":true,"version":"7882260","steam_id":85568392924504275,"keywords":["nocrits","nodmgspread","payload","uncletopia"],"game_id":440,"stv_port":27046,"stv_name":"Uncletopia | Frankfurt | 4 | All Maps | STV","players":null},{"server_id":310,"name":"Uncletopia | Frankfurt | 5 | All Maps","name_short":"frk-5","host":"frk-1.de.uncletopia.com","port":27055,"enabled":true,"region":"eu","cc":"de","latitude":50.110924,"longitude":8.682127,"reserved":0,"last_update":"0001-01-01T00:00:00Z","name_a2s":"Uncletopia | Frankfurt | 5 | All Maps","protocol":17,"map":"cp_snakewater_final1","folder":"tf","game":"Team Fortress","app_id":440,"player_count":0,"max_players":24,"Bots":0,"server_type":"Dedicated","server_os":"Linux","password":true,"vac":true,"version":"7882260","steam_id":85568392924504277,"keywords":["cp","nocrits","nodmgspread","uncletopia"],"game_id":440,"stv_port":27056,"stv_name":"Uncletopia | Frankfurt | 5 | All Maps | STV","players":null},{"server_id":311,"name":"Uncletopia | Frankfurt | 6 | All Maps","name_short":"frk-6","host":"frk-1.de.uncletopia.com","port":27065,"enabled":true,"region":"eu","cc":"de","latitude":50.110924,"longitude":8.682127,"reserved":0,"last_update":"0001-01-01T00:00:00Z","name_a2s":"Uncletopia | Frankfurt | 6 | All Maps","protocol":17,"map":"koth_lakeside_final","folder":"tf","game":"Team Fortress","app_id":440,"player_count":0,"max_players":24,"Bots":0,"server_type":"Dedicated","server_os":"Linux","password":true,"vac":true,"version":"7882260","steam_id":85568392924504278,"keywords":["cp","nocrits","nodmgspread","uncletopia"],"game_id":440,"stv_port":27066,"stv_name":"Uncletopia | Frankfurt | 6 | All Maps | STV","players":null},{"server_id":23,"name":"Uncletopia | Frankfurt | 7 | Stopwatch Beta","name_short":"frk-7","host":"frk-1.de.uncletopia.com","port":27075,"enabled":true,"region":"eu","cc":"de","latitude":50.110924,"longitude":8.682127,"reserved":0,"last_update":"0001-01-01T00:00:00Z","name_a2s":"Uncletopia | Frankfurt | 7 | Stopwatch Beta","protocol":17,"map":"workshop/pl_barnblitz_pro7.ugc582280235","folder":"tf","game":"Team Fortress","app_id":440,"player_count":0,"max_players":24,"Bots":0,"server_type":"Dedicated","server_os":"Linux","password":true,"vac":true,"version":"7882260","steam_id":85568392924742827,"keywords":["nocrits","nodmgspread","payload","uncletopia"],"game_id":440,"stv_port":27076,"stv_name":"Uncletopia | Frankfurt | 7 | Stopwatch Beta | STV","players":null},{"server_id":24,"name":"Uncletopia | Frankfurt | 8 | Community","name_short":"frk-8","host":"frk-1.de.uncletopia.com","port":27085,"enabled":true,"region":"eu","cc":"de","latitude":50.110924,"longitude":8.682127,"reserved":0,"last_update":"0001-01-01T00:00:00Z","name_a2s":"Uncletopia | Frankfurt | 8 | Community","protocol":17,"map":"cp_mountainlab","folder":"tf","game":"Team Fortress","app_id":440,"player_count":0,"max_players":24,"Bots":0,"server_type":"Dedicated","server_os":"Linux","password":true,"vac":true,"version":"7882260","steam_id":85568392924742828,"keywords":["cp","nocrits","nodmgspread","uncletopia"],"game_id":440,"stv_port":27086,"stv_name":"Uncletopia | Frankfurt | 8 | Community | STV","players":null},{"server_id":202,"name":"Uncletopia | Hong Kong | 1 | All Maps","name_short":"hgk-1","host":"hgk-1.hk.uncletopia.com","port":27015,"enabled":true,"region":"asia","cc":"hk","latitude":22.302711,"longitude":114.177216,"reserved":0,"last_update":"0001-01-01T00:00:00Z","name_a2s":"Uncletopia | Hong Kong | 1 | All Maps","protocol":17,"map":"pl_borneo","folder":"tf","game":"Team Fortress","app_id":440,"player_count":24,"max_players":24,"Bots":0,"server_type":"Dedicated","server_os":"Linux","password":true,"vac":true,"version":"7882260","steam_id":85568392924494504,"keywords":["nocrits","nodmgspread","payload","uncletopia"],"game_id":440,"stv_port":27016,"stv_name":"Uncletopia | Hong Kong | 1 | All Maps | STV","players":[{"user_id":508,"name":"Othopeus","steam_id":76561198283534382,"connected_time":849000000000,"state":"active","ping":67},{"user_id":470,"name":"ÊØç„ÅÆËÇâÂõ£Â≠ê@hao123.com","steam_id":76561198069561896,"connected_time":1497000000000,"state":"active","ping":39},{"user_id":471,"name":"Ivy","steam_id":76561198400698408,"connected_time":1495000000000,"state":"active","ping":90},{"user_id":510,"name":"„Åµ„Çè„Åµ„ÇèÊØõÂ∏É","steam_id":76561198088403016,"connected_time":166000000000,"state":"active","ping":95},{"user_id":460,"name":"GAMA","steam_id":76561198049755630,"connected_time":3889000000000,"state":"active","ping":91},{"user_id":408,"name":"cstr","steam_id":76561198125946388,"connected_time":5524000000000,"state":"active","ping":91},{"user_id":428,"name":"Ïø†ÌÇ§","steam_id":76561197997220367,"connected_time":5100000000000,"state":"active","ping":49},{"user_id":473,"name":"H·∫±ng Ra ƒë∆°","steam_id":76561199373637717,"connected_time":1489000000000,"state":"active","ping":70},{"user_id":429,"name":"tiden2000","steam_id":76561198092969425,"connected_time":5060000000000,"state":"active","ping":119},{"user_id":311,"name":"Milf (The fan O'Milk)","steam_id":76561198213031155,"connected_time":7122000000000,"state":"active","ping":99},{"user_id":483,"name":"NootNoot","steam_id":76561199122109977,"connected_time":1393000000000,"state":"active","ping":111},{"user_id":475,"name":"Hay","steam_id":76561199438952901,"connected_time":1473000000000,"state":"active","ping":55},{"user_id":509,"name":"r/sinkpissers","steam_id":76561198413116920,"connected_time":180000000000,"state":"active","ping":78},{"user_id":511,"name":"P","steam_id":76561198304514505,"connected_time":164000000000,"state":"active","ping":82},{"user_id":404,"name":"nyakky","steam_id":76561198927779787,"connected_time":5642000000000,"state":"active","ping":94},{"user_id":437,"name":"silverhouse7","steam_id":76561198349634906,"connected_time":4975000000000,"state":"active","ping":98},{"user_id":477,"name":"709394","steam_id":76561198058389122,"connected_time":1469000000000,"state":"active","ping":63},{"user_id":427,"name":"Lelouch","steam_id":76561198828840546,"connected_time":5134000000000,"state":"active","ping":82},{"user_id":481,"name":"\"CBT Enjoyer\"","steam_id":76561199058105528,"connected_time":1438000000000,"state":"active","ping":153},{"user_id":486,"name":"TheChainsaw","steam_id":76561198312001455,"connected_time":1302000000000,"state":"active","ping":113},{"user_id":442,"name":"Cornelius Cuntwad","steam_id":76561199122491157,"connected_time":4433000000000,"state":"active","ping":106},{"user_id":480,"name":"1203231567","steam_id":76561198813103989,"connected_time":1449000000000,"state":"active","ping":105},{"user_id":468,"name":"Drutzhfer","steam_id":76561198299948446,"connected_time":1506000000000,"state":"active","ping":112},{"user_id":501,"name":"aaaaaaaron","steam_id":76561198146842225,"connected_time":1065000000000,"state":"active","ping":130}]},{"server_id":1,"name":"Uncletopia | Los Angeles | 1 | All Maps","name_short":"lax-1","host":"lax-1.us.uncletopia.com","port":27015,"enabled":true,"region":"us-west","cc":"us","latitude":33.94279,"longitude":-118.41004,"reserved":0,"last_update":"0001-01-01T00:00:00Z","name_a2s":"Uncletopia | Los Angeles | 1 | All Maps","protocol":17,"map":"pl_badwater","folder":"tf","game":"Team Fortress","app_id":440,"player_count":0,"max_players":24,"Bots":0,"server_type":"Dedicated","server_os":"Linux","password":true,"vac":true,"version":"7882260","steam_id":85568392924469991,"keywords":["nocrits","nodmgspread","payload","uncletopia"],"game_id":440,"stv_port":27016,"stv_name":"Uncletopia | Los Angeles | 1 | All Maps | STV","players":null},{"server_id":112,"name":"Uncletopia | Los Angeles | 2 | All Maps","name_short":"lax-2","host":"lax-1.us.uncletopia.com","port":27025,"enabled":true,"region":"us-west","cc":"us","latitude":33.94279,"longitude":-118.41004,"reserved":0,"last_update":"0001-01-01T00:00:00Z","name_a2s":"Uncletopia | Los Angeles | 2 | All Maps","protocol":17,"map":"pl_borneo","folder":"tf","game":"Team Fortress","app_id":440,"player_count":25,"max_players":24,"Bots":0,"server_type":"Dedicated","server_os":"Linux","password":true,"vac":true,"version":"7882260","steam_id":85568392924469992,"keywords":["nocrits","nodmgspread","payload","uncletopia"],"game_id":440,"stv_port":27026,"stv_name":"Uncletopia | Los Angeles | 2 | All Maps | STV","players":[{"user_id":94,"name":"Crunchy","steam_id":76561198240523882,"connected_time":1544000000000,"state":"active","ping":49},{"user_id":4,"name":"Ant","steam_id":76561198253062337,"connected_time":8064000000000,"state":"active","ping":89},{"user_id":89,"name":"Chorizo","steam_id":76561198208080773,"connected_time":1952000000000,"state":"active","ping":59},{"user_id":86,"name":"chikin.sauce","steam_id":76561198042464635,"connected_time":2331000000000,"state":"active","ping":83},{"user_id":49,"name":"Highground","steam_id":76561199197544789,"connected_time":5597000000000,"state":"active","ping":151},{"user_id":110,"name":"Spanky","steam_id":76561198037780636,"connected_time":73000000000,"state":"active","ping":117},{"user_id":95,"name":"MellowBoy-2354","steam_id":76561199080630632,"connected_time":1525000000000,"state":"active","ping":122},{"user_id":78,"name":"PaC","steam_id":76561198081053203,"connected_time":2996000000000,"state":"active","ping":76},{"user_id":17,"name":"blozet","steam_id":76561199120161035,"connected_time":6864000000000,"state":"active","ping":109},{"user_id":70,"name":"Squishy","steam_id":76561198066798426,"connected_time":3633000000000,"state":"active","ping":87},{"user_id":71,"name":"Sovontor","steam_id":76561198084699288,"connected_time":3614000000000,"state":"active","ping":105},{"user_id":109,"name":"Dob Bole","steam_id":76561198056367220,"connected_time":155000000000,"state":"active","ping":44},{"user_id":108,"name":"Cooki","steam_id":76561198051705314,"connected_time":315000000000,"state":"active","ping":116},{"user_id":54,"name":"Sprit ‚ô•","steam_id":76561198268780781,"connected_time":4925000000000,"state":"active","ping":101},{"user_id":104,"name":"D.E.O","steam_id":76561198096992957,"connected_time":444000000000,"state":"active","ping":152},{"user_id":106,"name":"Spraxinator","steam_id":76561199083563607,"connected_time":399000000000,"state":"active","ping":144},{"user_id":107,"name":"toodles","steam_id":76561198127639913,"connected_time":336000000000,"state":"active","ping":45},{"user_id":74,"name":"‚òÇBliffenstimmers‚òÇ","steam_id":76561198059984896,"connected_time":3342000000000,"state":"active","ping":104},{"user_id":111,"name":"Flare Dance","steam_id":76561198260443137,"connected_time":39000000000,"state":"active","ping":57},{"user_id":76,"name":"SAD MOSCOVIA","steam_id":76561198101081520,"connected_time":3270000000000,"state":"active","ping":85},{"user_id":77,"name":"Goldensliv","steam_id":76561198161673891,"connected_time":3071000000000,"state":"active","ping":35},{"user_id":112,"name":"funny scout haha funny lol XD","steam_id":76561199474391695,"connected_time":18000000000,"state":"spawning","ping":211},{"user_id":41,"name":"Carnamate","steam_id":76561198138077990,"connected_time":5985000000000,"state":"active","ping":88},{"user_id":93,"name":"Line","steam_id":76561198086222096,"connected_time":1822000000000,"state":"active","ping":75},{"user_id":114,"name":"Mury","steam_id":76561198069743049,"connected_time":15000000000,"state":"spawning","ping":117}]},{"server_id":324,"name":"Uncletopia | Los Angeles | 3 | All Maps","name_short":"lax-3","host":"lax-1.us.uncletopia.com","port":27035,"enabled":true,"region":"us-west","cc":"us","latitude":33.94279,"longitude":-118.41004,"reserved":0,"last_update":"0001-01-01T00:00:00Z","name_a2s":"Uncletopia | Los Angeles | 3 | All Maps","protocol":17,"map":"pl_swiftwater_final1","folder":"tf","game":"Team Fortress","app_id":440,"player_count":0,"max_players":24,"Bots":0,"server_type":"Dedicated","server_os":"Linux","password":true,"vac":true,"version":"7882260","steam_id":85568392924510198,"keywords":["nocrits","nodmgspread","payload","uncletopia"],"game_id":440,"stv_port":27036,"stv_name":"Uncletopia | Los Angeles | 3 | All Maps | STV","players":null},{"server_id":25,"name":"Uncletopia | Los Angeles | 4 | Stopwatch Beta","name_short":"lax-4","host":"lax-1.us.uncletopia.com","port":27045,"enabled":true,"region":"us-west","cc":"us","latitude":33.94279,"longitude":-118.41004,"reserved":0,"last_update":"0001-01-01T00:00:00Z","name_a2s":"Uncletopia | Los Angeles | 4 | Stopwatch Beta","protocol":17,"map":"koth_viaduct","folder":"tf","game":"Team Fortress","app_id":440,"player_count":0,"max_players":24,"Bots":0,"server_type":"Dedicated","server_os":"Linux","password":true,"vac":true,"version":"7882260","steam_id":85568392924510199,"keywords":["cp","nocrits","nodmgspread","uncletopia"],"game_id":440,"stv_port":27046,"stv_name":"Uncletopia | Los Angeles | 4 | Stopwatch Beta | STV","players":null},{"server_id":11,"name":"Uncletopia | London | 1 | All Maps","name_short":"lon-1","host":"lon-1.uk.uncletopia.com","port":27015,"enabled":true,"region":"eu","cc":"gb","latitude":51.509865,"longitude":-0.118092,"reserved":0,"last_update":"0001-01-01T00:00:00Z","name_a2s":"Uncletopia | London | 1 | All Maps","protocol":17,"map":"koth_nucleus","folder":"tf","game":"Team Fortress","app_id":440,"player_count":24,"max_players":24,"Bots":0,"server_type":"Dedicated","server_os":"Linux","password":true,"vac":true,"version":"7882260","steam_id":85568392924367362,"keywords":["cp","nocrits","nodmgspread","uncletopia"],"game_id":440,"stv_port":27016,"stv_name":"Uncletopia | London | 1 | All Maps | STV","players":[{"user_id":13,"name":"Jackie Chan","steam_id":76561199378865926,"connected_time":5385000000000,"state":"active","ping":82},{"user_id":90,"name":"Gubbly Bubbins","steam_id":76561198101451654,"connected_time":810000000000,"state":"active","ping":48},{"user_id":82,"name":"MrFish #SAVETF2","steam_id":76561199060805463,"connected_time":1499000000000,"state":"active","ping":61},{"user_id":20,"name":"antnt","steam_id":76561198112546748,"connected_time":4481000000000,"state":"active","ping":48},{"user_id":18,"name":"Nyhde","steam_id":76561198012771416,"connected_time":4874000000000,"state":"active","ping":109},{"user_id":91,"name":"shr1mple","steam_id":76561198173537027,"connected_time":782000000000,"state":"active","ping":46},{"user_id":50,"name":"Jonkheervanflep","steam_id":76561198006853101,"connected_time":3095000000000,"state":"active","ping":81},{"user_id":77,"name":"Osmo","steam_id":76561199286764992,"connected_time":1640000000000,"state":"active","ping":81},{"user_id":27,"name":"Flying skyhigh","steam_id":76561198372971096,"connected_time":3690000000000,"state":"active","ping":69},{"user_id":96,"name":"Consuelo Shelton","steam_id":76561198152392309,"connected_time":363000000000,"state":"active","ping":46},{"user_id":89,"name":"Amandus","steam_id":76561198036281079,"connected_time":888000000000,"state":"active","ping":61},{"user_id":97,"name":"oskar.collins2","steam_id":76561199092232637,"connected_time":58000000000,"state":"active","ping":81},{"user_id":31,"name":"cister0","steam_id":76561198130195469,"connected_time":3604000000000,"state":"active","ping":81},{"user_id":36,"name":"DelaNo","steam_id":76561199125086655,"connected_time":3521000000000,"state":"active","ping":43},{"user_id":68,"name":"Espa√±aa","steam_id":76561198879587832,"connected_time":2167000000000,"state":"active","ping":76},{"user_id":85,"name":"JareJare","steam_id":76561199040893751,"connected_time":1315000000000,"state":"active","ping":75},{"user_id":35,"name":"Von Leining","steam_id":76561198859983504,"connected_time":3584000000000,"state":"active","ping":66},{"user_id":94,"name":"robsan","steam_id":76561198137375391,"connected_time":624000000000,"state":"active","ping":86},{"user_id":88,"name":"Pootis penser","steam_id":76561198944032480,"connected_time":1078000000000,"state":"active","ping":98},{"user_id":83,"name":"Wyro","steam_id":76561199176835169,"connected_time":1386000000000,"state":"active","ping":53},{"user_id":87,"name":"Envy","steam_id":76561198132723219,"connected_time":1177000000000,"state":"active","ping":107},{"user_id":52,"name":"fume.","steam_id":76561197960476801,"connected_time":3038000000000,"state":"active","ping":55},{"user_id":48,"name":"Borkz","steam_id":76561198287461065,"connected_time":3189000000000,"state":"active","ping":54},{"user_id":66,"name":"Mika","steam_id":76561199183780280,"connected_time":2298000000000,"state":"active","ping":131}]},{"server_id":114,"name":"Uncletopia | London | 2 | All Maps","name_short":"lon-2","host":"lon-1.uk.uncletopia.com","port":27025,"enabled":true,"region":"eu","cc":"gb","latitude":51.509865,"longitude":-0.118092,"reserved":0,"last_update":"0001-01-01T00:00:00Z","name_a2s":"Uncletopia | London | 2 | All Maps","protocol":17,"map":"pl_badwater","folder":"tf","game":"Team Fortress","app_id":440,"player_count":23,"max_players":24,"Bots":0,"server_type":"Dedicated","server_os":"Linux","password":true,"vac":true,"version":"7882260","steam_id":85568392924470941,"keywords":["nocrits","nodmgspread","payload","uncletopia"],"game_id":440,"stv_port":27026,"stv_name":"Uncletopia | London | 2 | All Maps | STV","players":[{"user_id":286,"name":"Kristianma","steam_id":76561198021772843,"connected_time":1633000000000,"state":"active","ping":66},{"user_id":313,"name":"Javier dorsaless","steam_id":76561198179324075,"connected_time":605000000000,"state":"active","ping":63},{"user_id":283,"name":"meow (they/them)","steam_id":76561198416657815,"connected_time":1741000000000,"state":"active","ping":137},{"user_id":309,"name":"MajorKlebstoff","steam_id":76561198035489363,"connected_time":660000000000,"state":"active","ping":60},{"user_id":312,"name":"Eggman (Full Power)","steam_id":76561199042470246,"connected_time":628000000000,"state":"active","ping":60},{"user_id":199,"name":"PrimeTarget","steam_id":76561198046409289,"connected_time":7335000000000,"state":"active","ping":73},{"user_id":297,"name":"Marckal","steam_id":76561199044292961,"connected_time":1322000000000,"state":"active","ping":64},{"user_id":292,"name":"Butt","steam_id":76561198115496457,"connected_time":1558000000000,"state":"active","ping":41},{"user_id":234,"name":"Jonathan","steam_id":76561198087988880,"connected_time":5098000000000,"state":"active","ping":50},{"user_id":314,"name":"Lukas","steam_id":76561198009118452,"connected_time":579000000000,"state":"active","ping":69},{"user_id":316,"name":"violent monkey porn","steam_id":76561199285074344,"connected_time":549000000000,"state":"active","ping":146},{"user_id":305,"name":"kalofko","steam_id":76561198102765507,"connected_time":931000000000,"state":"active","ping":85},{"user_id":271,"name":"PyroToaster","steam_id":76561198053057346,"connected_time":2667000000000,"state":"active","ping":123},{"user_id":280,"name":"Uncle Terry","steam_id":76561198396415736,"connected_time":2013000000000,"state":"active","ping":56},{"user_id":261,"name":"The Third Degree collector","steam_id":76561199165355017,"connected_time":3008000000000,"state":"active","ping":107},{"user_id":262,"name":"soup","steam_id":76561198386933065,"connected_time":3006000000000,"state":"active","ping":66},{"user_id":306,"name":"Dalm (She/Her)","steam_id":76561198010878552,"connected_time":926000000000,"state":"active","ping":52},{"user_id":272,"name":"Twiggu","steam_id":76561198070853128,"connected_time":2516000000000,"state":"active","ping":78},{"user_id":307,"name":"pano","steam_id":76561198157446722,"connected_time":702000000000,"state":"active","ping":72},{"user_id":317,"name":"KnugenIV","steam_id":76561198127091993,"connected_time":549000000000,"state":"active","ping":62},{"user_id":289,"name":"Commit Persona 3","steam_id":76561198060503243,"connected_time":1632000000000,"state":"active","ping":45},{"user_id":298,"name":"JeanCorben","steam_id":76561197965133561,"connected_time":1320000000000,"state":"active","ping":39},{"user_id":269,"name":"shankz","steam_id":76561198128803260,"connected_time":2859000000000,"state":"active","ping":46}]},{"server_id":320,"name":"Uncletopia | London | 3 | All Maps","name_short":"lon-3","host":"lon-1.uk.uncletopia.com","port":27035,"enabled":true,"region":"eu","cc":"gb","latitude":51.509865,"longitude":-0.118092,"reserved":0,"last_update":"0001-01-01T00:00:00Z","name_a2s":"Uncletopia | London | 3 | All Maps","protocol":17,"map":"pl_goldrush","folder":"tf","game":"Team Fortress","app_id":440,"player_count":25,"max_players":24,"Bots":0,"server_type":"Dedicated","server_os":"Linux","password":true,"vac":true,"version":"7882260","steam_id":85568392924510192,"keywords":["nocrits","nodmgspread","payload","uncletopia"],"game_id":440,"stv_port":27036,"stv_name":"Uncletopia | London | 3 | All Maps | STV","players":[{"user_id":328,"name":"Kocham Wode z Filtra","steam_id":76561198016042113,"connected_time":1025000000000,"state":"active","ping":87},{"user_id":347,"name":"Felbot","steam_id":76561198022179767,"connected_time":623000000000,"state":"active","ping":77},{"user_id":305,"name":"Lyncurion","steam_id":76561199260022725,"connected_time":2733000000000,"state":"active","ping":85},{"user_id":356,"name":"ceruleanix","steam_id":76561198159100379,"connected_time":383000000000,"state":"active","ping":65},{"user_id":286,"name":"1 kill a day","steam_id":76561198059674196,"connected_time":3977000000000,"state":"active","ping":43},{"user_id":334,"name":"Chicken nugget consumer","steam_id":76561199121061299,"connected_time":878000000000,"state":"active","ping":160},{"user_id":326,"name":"B@yka","steam_id":76561198986736592,"connected_time":1472000000000,"state":"active","ping":70},{"user_id":287,"name":"another day of gaming","steam_id":76561198278967055,"connected_time":3965000000000,"state":"active","ping":65},{"user_id":348,"name":"Enigmus","steam_id":76561197994063627,"connected_time":576000000000,"state":"active","ping":92},{"user_id":265,"name":"Miss.Sparklez","steam_id":76561198101745576,"connected_time":4752000000000,"state":"active","ping":79},{"user_id":349,"name":"Zwphyr | TourBot.TF","steam_id":76561198160772793,"connected_time":556000000000,"state":"active","ping":61},{"user_id":350,"name":"red‚ãÜmits","steam_id":76561198015590113,"connected_time":547000000000,"state":"active","ping":43},{"user_id":325,"name":"You're Local Pybro","steam_id":76561198801472157,"connected_time":1484000000000,"state":"active","ping":44},{"user_id":351,"name":"Floris Kakadoris","steam_id":76561198258458741,"connected_time":539000000000,"state":"active","ping":59},{"user_id":352,"name":"germinator","steam_id":76561199387893648,"connected_time":529000000000,"state":"active","ping":113},{"user_id":358,"name":"Mrforgetful","steam_id":76561198869654419,"connected_time":76000000000,"state":"active","ping":61},{"user_id":316,"name":"Kernel Panic","steam_id":76561198215811047,"connected_time":2339000000000,"state":"active","ping":35},{"user_id":327,"name":"curious femboy","steam_id":76561199199388221,"connected_time":1462000000000,"state":"active","ping":59},{"user_id":359,"name":"Max Power","steam_id":76561198019269089,"connected_time":3000000000,"state":"spawning","ping":59},{"user_id":354,"name":"wG papi coolines","steam_id":76561198075312767,"connected_time":479000000000,"state":"active","ping":45},{"user_id":323,"name":"Dolcelatte","steam_id":76561198038501770,"connected_time":1733000000000,"state":"active","ping":60},{"user_id":346,"name":"Mr.MemeMaker","steam_id":76561198909088766,"connected_time":655000000000,"state":"active","ping":61},{"user_id":298,"name":"davechapele","steam_id":76561198085279053,"connected_time":3388000000000,"state":"active","ping":80},{"user_id":357,"name":"Cotton Eye Joe","steam_id":76561198080594207,"connected_time":151000000000,"state":"active","ping":55},{"user_id":360,"name":"Insain Bolt!","steam_id":76561198025687726,"connected_time":3000000000,"state":"spawning","ping":81}]},{"server_id":321,"name":"Uncletopia | London | 4 | All Maps","name_short":"lon-4","host":"lon-1.uk.uncletopia.com","port":27045,"enabled":true,"region":"eu","cc":"gb","latitude":51.509865,"longitude":-0.118092,"reserved":0,"last_update":"0001-01-01T00:00:00Z","name_a2s":"Uncletopia | London | 4 | All Maps","protocol":17,"map":"pl_snowycoast","folder":"tf","game":"Team Fortress","app_id":440,"player_count":24,"max_players":24,"Bots":0,"server_type":"Dedicated","server_os":"Linux","password":true,"vac":true,"version":"7882260","steam_id":85568392924510193,"keywords":["nocrits","nodmgspread","payload","uncletopia"],"game_id":440,"stv_port":27046,"stv_name":"Uncletopia | London | 4 | All Maps | STV","players":[{"user_id":532,"name":"strideŒî","steam_id":76561199007826093,"connected_time":530000000000,"state":"active","ping":74},{"user_id":511,"name":"Sandvich","steam_id":76561199079493666,"connected_time":1235000000000,"state":"active","ping":103},{"user_id":533,"name":"png.png","steam_id":76561198444446521,"connected_time":366000000000,"state":"active","ping":106},{"user_id":501,"name":"Margaret \"Gamer\" Thatcher","steam_id":76561198819871606,"connected_time":1824000000000,"state":"active","ping":109},{"user_id":538,"name":"trans werewolf","steam_id":76561198107235989,"connected_time":154000000000,"state":"active","ping":58},{"user_id":531,"name":"beurgeur","steam_id":76561198872426314,"connected_time":592000000000,"state":"active","ping":32},{"user_id":524,"name":"P I S S","steam_id":76561199197497757,"connected_time":963000000000,"state":"active","ping":125},{"user_id":540,"name":"–ë–æ–µ–≤–æ–π –∫–æ–º–∞—Ä","steam_id":76561198796564094,"connected_time":126000000000,"state":"active","ping":87},{"user_id":512,"name":"[P-roc] Cmm Bert","steam_id":76561198016658674,"connected_time":1228000000000,"state":"active","ping":64},{"user_id":481,"name":"‚ô£–ì–µ–Ω—Å–µ–∫ –ü–æ–Ω–æ—Å–∞","steam_id":76561198796404149,"connected_time":3360000000000,"state":"active","ping":117},{"user_id":518,"name":"Faking.","steam_id":76561198823540483,"connected_time":1154000000000,"state":"active","ping":77},{"user_id":466,"name":"yer_nerd","steam_id":76561199435454093,"connected_time":4414000000000,"state":"active","ping":126},{"user_id":506,"name":"MrBigStu234","steam_id":76561198211599767,"connected_time":1517000000000,"state":"active","ping":52},{"user_id":534,"name":"Feigelman","steam_id":76561199404585461,"connected_time":340000000000,"state":"active","ping":96},{"user_id":520,"name":"Jetstream Samuel Beckett","steam_id":76561198072017971,"connected_time":1032000000000,"state":"active","ping":52},{"user_id":428,"name":"john fortress","steam_id":76561198013237629,"connected_time":6014000000000,"state":"active","ping":95},{"user_id":485,"name":"Some bub","steam_id":76561199077211138,"connected_time":3221000000000,"state":"active","ping":27},{"user_id":475,"name":"Joejee","steam_id":76561199122423976,"connected_time":3911000000000,"state":"active","ping":65},{"user_id":537,"name":"Medieval Doktor","steam_id":76561198075373362,"connected_time":221000000000,"state":"active","ping":40},{"user_id":541,"name":"the_Qcumber","steam_id":76561199152515819,"connected_time":113000000000,"state":"active","ping":70},{"user_id":522,"name":"clunk","steam_id":76561198836460767,"connected_time":1000000000000,"state":"active","ping":65},{"user_id":525,"name":"POU cherry","steam_id":76561199006915718,"connected_time":797000000000,"state":"active","ping":61},{"user_id":418,"name":"d u k k i","steam_id":76561198071807437,"connected_time":6741000000000,"state":"active","ping":81},{"user_id":536,"name":"Kokos","steam_id":76561198085501501,"connected_time":315000000000,"state":"active","ping":89}]},{"server_id":21,"name":"Uncletopia | London | 5 | All Maps","name_short":"lon-5","host":"lon-1.uk.uncletopia.com","port":27055,"enabled":true,"region":"eu","cc":"gb","latitude":51.509865,"longitude":-0.118092,"reserved":0,"last_update":"0001-01-01T00:00:00Z","name_a2s":"Uncletopia | London | 5 | All Maps","protocol":17,"map":"koth_viaduct","folder":"tf","game":"Team Fortress","app_id":440,"player_count":0,"max_players":24,"Bots":0,"server_type":"Dedicated","server_os":"Linux","password":true,"vac":true,"version":"7882260","steam_id":85568392924742829,"keywords":["cp","nocrits","nodmgspread","uncletopia"],"game_id":440,"stv_port":27056,"stv_name":"Uncletopia | London | 5 | All Maps | STV","players":null},{"server_id":22,"name":"Uncletopia | London | 6 | All Maps","name_short":"lon-6","host":"lon-1.uk.uncletopia.com","port":27065,"enabled":true,"region":"eu","cc":"gb","latitude":51.509865,"longitude":-0.118092,"reserved":0,"last_update":"0001-01-01T00:00:00Z","name_a2s":"Uncletopia | London | 6 | All Maps","protocol":17,"map":"koth_lakeside_final","folder":"tf","game":"Team Fortress","app_id":440,"player_count":0,"max_players":24,"Bots":0,"server_type":"Dedicated","server_os":"Linux","password":true,"vac":true,"version":"7882260","steam_id":85568392924742830,"keywords":["cp","nocrits","nodmgspread","uncletopia"],"game_id":440,"stv_port":27066,"stv_name":"Uncletopia | London | 6 | All Maps | STV","players":null},{"server_id":40,"name":"Uncletopia | London | 7 | No Payload","name_short":"lon-7","host":"lon-1.uk.uncletopia.com","port":27075,"enabled":true,"region":"eu","cc":"gb","latitude":51.509865,"longitude":-0.118092,"reserved":0,"last_update":"0001-01-01T00:00:00Z","name_a2s":"Uncletopia | London | 7 | No Payload","protocol":17,"map":"koth_viaduct","folder":"tf","game":"Team Fortress","app_id":440,"player_count":3,"max_players":24,"Bots":0,"server_type":"Dedicated","server_os":"Linux","password":true,"vac":true,"version":"7882260","steam_id":85568392924964314,"keywords":["cp","nocrits","nodmgspread","uncletopia"],"game_id":440,"stv_port":27076,"stv_name":"Uncletopia | London | 7 | No Payload | STV","players":[{"user_id":5,"name":"ran is running","steam_id":76561199443185667,"connected_time":895000000000,"state":"active","ping":129},{"user_id":9,"name":"n.mob","steam_id":76561198389356439,"connected_time":446000000000,"state":"active","ping":73},{"user_id":8,"name":"piss man (real)","steam_id":76561198839843428,"connected_time":669000000000,"state":"active","ping":118}]},{"server_id":41,"name":"Uncletopia | London | 8 | Community","name_short":"lon-8","host":"lon-1.uk.uncletopia.com","port":27085,"enabled":true,"region":"eu","cc":"gb","latitude":51.509865,"longitude":-0.118092,"reserved":0,"last_update":"0001-01-01T00:00:00Z","name_a2s":"Uncletopia | London | 8 | Community","protocol":17,"map":"workshop/koth_kemptown_rc1.ugc767410655","folder":"tf","game":"Team Fortress","app_id":440,"player_count":9,"max_players":24,"Bots":0,"server_type":"Dedicated","server_os":"Linux","password":true,"vac":true,"version":"7882260","steam_id":85568392924964315,"keywords":["cp","nocrits","nodmgspread","uncletopia"],"game_id":440,"stv_port":27086,"stv_name":"Uncletopia | London | 8 | Community | STV","players":[{"user_id":31,"name":"Kakuszita","steam_id":76561199243924475,"connected_time":143000000000,"state":"active","ping":80},{"user_id":19,"name":"Dragon's Fury \u003e You","steam_id":76561198799097492,"connected_time":784000000000,"state":"active","ping":45},{"user_id":17,"name":"Drybooones","steam_id":76561198834232656,"connected_time":948000000000,"state":"active","ping":70},{"user_id":22,"name":"RocketBoy08","steam_id":76561198833978944,"connected_time":648000000000,"state":"active","ping":103},{"user_id":23,"name":"SkyNet-","steam_id":76561199048059547,"connected_time":583000000000,"state":"active","ping":59},{"user_id":24,"name":"Û†Ä°Û†Ä°","steam_id":76561198399390201,"connected_time":549000000000,"state":"active","ping":92},{"user_id":16,"name":"ƒêesmond","steam_id":76561198097676225,"connected_time":1596000000000,"state":"active","ping":61},{"user_id":25,"name":"Ray Lilith","steam_id":76561198133946866,"connected_time":490000000000,"state":"active","ping":60},{"user_id":27,"name":"pidgeonlord","steam_id":76561198297290160,"connected_time":403000000000,"state":"active","ping":79}]},{"server_id":300,"name":"Uncletopia | Montr√©al | 1 | All Maps","name_short":"mtl-1","host":"mtl-1.ca.uncletopia.com","port":27015,"enabled":true,"region":"us-east","cc":"ca","latitude":45.50889,"longitude":-73.56167,"reserved":0,"last_update":"0001-01-01T00:00:00Z","name_a2s":"Uncletopia | Montr√©al | 1 | All Maps","protocol":17,"map":"cp_dustbowl","folder":"tf","game":"Team Fortress","app_id":440,"player_count":0,"max_players":24,"Bots":0,"server_type":"Dedicated","server_os":"Linux","password":true,"vac":true,"version":"7882260","steam_id":85568392924500087,"keywords":["cp","nocrits","nodmgspread","uncletopia"],"game_id":440,"stv_port":27016,"stv_name":"Uncletopia | Montr√©al | 1 | All Maps | STV","players":null},{"server_id":301,"name":"Uncletopia | Montr√©al | 2 | All Maps","name_short":"mtl-2","host":"mtl-1.ca.uncletopia.com","port":27025,"enabled":true,"region":"us-east","cc":"ca","latitude":45.50889,"longitude":-73.56167,"reserved":0,"last_update":"0001-01-01T00:00:00Z","name_a2s":"Uncletopia | Montr√©al | 2 | All Maps","protocol":17,"map":"pl_swiftwater_final1","folder":"tf","game":"Team Fortress","app_id":440,"player_count":0,"max_players":24,"Bots":0,"server_type":"Dedicated","server_os":"Linux","password":true,"vac":true,"version":"7882260","steam_id":85568392924500088,"keywords":["nocrits","nodmgspread","payload","uncletopia"],"game_id":440,"stv_port":27026,"stv_name":"Uncletopia | Montr√©al | 2 | All Maps | STV","players":null},{"server_id":302,"name":"Uncletopia | Montr√©al | 3 | All Maps","name_short":"mtl-3","host":"mtl-1.ca.uncletopia.com","port":27035,"enabled":true,"region":"us-east","cc":"ca","latitude":45.50889,"longitude":-73.56167,"reserved":0,"last_update":"0001-01-01T00:00:00Z","name_a2s":"Uncletopia | Montr√©al | 3 | All Maps","protocol":17,"map":"koth_highpass","folder":"tf","game":"Team Fortress","app_id":440,"player_count":0,"max_players":24,"Bots":0,"server_type":"Dedicated","server_os":"Linux","password":true,"vac":true,"version":"7882260","steam_id":85568392924500089,"keywords":["cp","nocrits","nodmgspread","uncletopia"],"game_id":440,"stv_port":27036,"stv_name":"Uncletopia | Montr√©al | 3 | All Maps | STV","players":null},{"server_id":303,"name":"Uncletopia | Montr√©al | 4 | No Payload","name_short":"mtl-4","host":"mtl-1.ca.uncletopia.com","port":27045,"enabled":true,"region":"us-east","cc":"ca","latitude":45.50889,"longitude":-73.56167,"reserved":0,"last_update":"0001-01-01T00:00:00Z","name_a2s":"Uncletopia | Montr√©al | 4 | No Payload","protocol":17,"map":"koth_highpass","folder":"tf","game":"Team Fortress","app_id":440,"player_count":0,"max_players":24,"Bots":0,"server_type":"Dedicated","server_os":"Linux","password":true,"vac":true,"version":"7882260","steam_id":85568392924500090,"keywords":["cp","nocrits","nodmgspread","uncletopia"],"game_id":440,"stv_port":27046,"stv_name":"Uncletopia | Montr√©al | 4 | No Payload | STV","players":null},{"server_id":13,"name":"Uncletopia | New York City | 1 | All Maps","name_short":"nyc-1","host":"nyc-1.us.uncletopia.com","port":27015,"enabled":true,"region":"us-east","cc":"us","latitude":40.73061,"longitude":-73.93524,"reserved":0,"last_update":"0001-01-01T00:00:00Z","name_a2s":"Uncletopia | New York City | 1 | All Maps","protocol":17,"map":"pl_frontier_final","folder":"tf","game":"Team Fortress","app_id":440,"player_count":0,"max_players":24,"Bots":0,"server_type":"Dedicated","server_os":"Linux","password":true,"vac":true,"version":"7882260","steam_id":85568392924469993,"keywords":["nocrits","nodmgspread","payload","uncletopia"],"game_id":440,"stv_port":27016,"stv_name":"Uncletopia | New York City | 1 | All Maps | STV","players":null},{"server_id":14,"name":"Uncletopia | New York City | 2 | All Maps","name_short":"nyc-2","host":"nyc-1.us.uncletopia.com","port":27025,"enabled":true,"region":"us-east","cc":"us","latitude":40.73061,"longitude":-73.93524,"reserved":0,"last_update":"0001-01-01T00:00:00Z","name_a2s":"Uncletopia | New York City | 2 | All Maps","protocol":17,"map":"koth_lakeside_final","folder":"tf","game":"Team Fortress","app_id":440,"player_count":0,"max_players":24,"Bots":0,"server_type":"Dedicated","server_os":"Linux","password":true,"vac":true,"version":"7882260","steam_id":85568392924469994,"keywords":["cp","nocrits","nodmgspread","uncletopia"],"game_id":440,"stv_port":27026,"stv_name":"Uncletopia | New York City | 2 | All Maps | STV","players":null},{"server_id":15,"name":"Uncletopia | New York City | 3 | Stopwatch Beta","name_short":"nyc-3","host":"nyc-1.us.uncletopia.com","port":27035,"enabled":true,"region":"us-east","cc":"us","latitude":40.73061,"longitude":-73.93524,"reserved":0,"last_update":"0001-01-01T00:00:00Z","name_a2s":"Uncletopia | New York City | 3 | Stopwatch Beta","protocol":17,"map":"pl_borneo","folder":"tf","game":"Team Fortress","app_id":440,"player_count":0,"max_players":24,"Bots":0,"server_type":"Dedicated","server_os":"Linux","password":true,"vac":true,"version":"7882260","steam_id":85568392924742820,"keywords":["nocrits","nodmgspread","payload","uncletopia"],"game_id":440,"stv_port":27036,"stv_name":"Uncletopia | New York City | 3 | Stopwatch Beta | STV","players":null},{"server_id":16,"name":"Uncletopia | New York City | 4 | Community","name_short":"nyc-4","host":"nyc-1.us.uncletopia.com","port":27045,"enabled":true,"region":"us-east","cc":"us","latitude":40.73061,"longitude":-73.93524,"reserved":0,"last_update":"0001-01-01T00:00:00Z","name_a2s":"Uncletopia | New York City | 4 | Community","protocol":17,"map":"cp_altitude","folder":"tf","game":"Team Fortress","app_id":440,"player_count":0,"max_players":24,"Bots":0,"server_type":"Dedicated","server_os":"Linux","password":true,"vac":true,"version":"7882260","steam_id":85568392924742821,"keywords":["cp","nocrits","nodmgspread","uncletopia"],"game_id":440,"stv_port":27046,"stv_name":"Uncletopia | New York City | 4 | Community | STV","players":null},{"server_id":142,"name":"Uncletopia | S√£o Paulo | 1 | All Maps","name_short":"sao-1","host":"sao-1.br.uncletopia.com","port":27015,"enabled":true,"region":"sa","cc":"br","latitude":-23.533773,"longitude":-46.62529,"reserved":0,"last_update":"0001-01-01T00:00:00Z","name_a2s":"Uncletopia | S√£o Paulo | 1 | All Maps","protocol":17,"map":"cp_dustbowl","folder":"tf","game":"Team Fortress","app_id":440,"player_count":0,"max_players":24,"Bots":0,"server_type":"Dedicated","server_os":"Linux","password":true,"vac":true,"version":"7882260","steam_id":85568392924469996,"keywords":["cp","nocrits","nodmgspread","uncletopia"],"game_id":440,"stv_port":27016,"stv_name":"Uncletopia | S√£o Paulo | 1 | All Maps | STV","players":null},{"server_id":143,"name":"Uncletopia | S√£o Paulo | 2 | All Maps","name_short":"sao-2","host":"sao-2.br.uncletopia.com","port":27015,"enabled":true,"region":"sa","cc":"br","latitude":-23.533773,"longitude":-46.62529,"reserved":0,"last_update":"0001-01-01T00:00:00Z","name_a2s":"Uncletopia | S√£o Paulo | 2 | All Maps","protocol":17,"map":"koth_cascade","folder":"tf","game":"Team Fortress","app_id":440,"player_count":1,"max_players":24,"Bots":0,"server_type":"Dedicated","server_os":"Linux","password":true,"vac":true,"version":"7882260","steam_id":85568392924485349,"keywords":["cp","nocrits","nodmgspread","uncletopia"],"game_id":440,"stv_port":27016,"stv_name":"Uncletopia | S√£o Paulo | 2 | All Maps | STV","players":[{"user_id":4,"name":"NickOfZueira","steam_id":76561198092792802,"connected_time":64000000000,"state":"active","ping":45}]},{"server_id":7,"name":"Uncletopia | Seattle | 1 | All Maps","name_short":"sea-1","host":"sea-1.us.uncletopia.com","port":27015,"enabled":true,"region":"us-west","cc":"us","latitude":47.608013,"longitude":-122.33517,"reserved":0,"last_update":"0001-01-01T00:00:00Z","name_a2s":"Uncletopia | Seattle | 1 | All Maps","protocol":17,"map":"koth_suijin","folder":"tf","game":"Team Fortress","app_id":440,"player_count":7,"max_players":24,"Bots":0,"server_type":"Dedicated","server_os":"Linux","password":true,"vac":true,"version":"7882260","steam_id":85568392924469997,"keywords":["nocrits","nodmgspread","payload","uncletopia"],"game_id":440,"stv_port":27016,"stv_name":"Uncletopia | Seattle | 1 | All Maps | STV","players":[{"user_id":13,"name":"Bee_Pirate","steam_id":76561199000599111,"connected_time":3978000000000,"state":"connecting","ping":138},{"user_id":32,"name":"lox","steam_id":76561198288531493,"connected_time":1338000000000,"state":"connecting","ping":54},{"user_id":24,"name":"Jones","steam_id":76561198046037216,"connected_time":2076000000000,"state":"connecting","ping":78},{"user_id":35,"name":"SibilantSerpent","steam_id":76561198154488754,"connected_time":1082000000000,"state":"connecting","ping":50},{"user_id":41,"name":"BlazedBunny","steam_id":76561198243610560,"connected_time":414000000000,"state":"connecting","ping":76},{"user_id":43,"name":"ggandymann","steam_id":76561198159236060,"connected_time":347000000000,"state":"connecting","ping":192}]},{"server_id":119,"name":"Uncletopia | Seattle | 2 | All Maps","name_short":"sea-2","host":"sea-1.us.uncletopia.com","port":27025,"enabled":true,"region":"us-west","cc":"us","latitude":47.608013,"longitude":-122.33517,"reserved":0,"last_update":"0001-01-01T00:00:00Z","name_a2s":"Uncletopia | Seattle | 2 | All Maps","protocol":17,"map":"pl_barnblitz","folder":"tf","game":"Team Fortress","app_id":440,"player_count":0,"max_players":24,"Bots":0,"server_type":"Dedicated","server_os":"Linux","password":true,"vac":true,"version":"7882260","steam_id":85568392924469998,"keywords":["nocrits","nodmgspread","payload","uncletopia"],"game_id":440,"stv_port":27026,"stv_name":"Uncletopia | Seattle | 2 | All Maps | STV","players":null},{"server_id":406,"name":"Uncletopia | Seattle | 3 | Stopwatch Beta","name_short":"sea-3","host":"sea-1.us.uncletopia.com","port":27035,"enabled":true,"region":"us-west","cc":"us","latitude":47.608013,"longitude":-122.33517,"reserved":0,"last_update":"0001-01-01T00:00:00Z","name_a2s":"Uncletopia | Seattle | 3 | Stopwatch Beta","protocol":17,"map":"koth_viaduct","folder":"tf","game":"Team Fortress","app_id":440,"player_count":0,"max_players":24,"Bots":0,"server_type":"Dedicated","server_os":"Linux","password":true,"vac":true,"version":"7882260","steam_id":85568392924515217,"keywords":["cp","nocrits","nodmgspread","uncletopia"],"game_id":440,"stv_port":27036,"stv_name":"Uncletopia | Seattle | 3 | Stopwatch Beta | STV","players":null},{"server_id":17,"name":"Uncletopia | San Francisco | 1 | All Maps","name_short":"sfo-1","host":"sfo-1.us.uncletopia.com","port":27015,"enabled":true,"region":"us-west","cc":"us","latitude":37.77397,"longitude":-122.4313,"reserved":0,"last_update":"0001-01-01T00:00:00Z","name_a2s":"Uncletopia | San Francisco | 1 | All Maps","protocol":17,"map":"pl_pier","folder":"tf","game":"Team Fortress","app_id":440,"player_count":0,"max_players":24,"Bots":0,"server_type":"Dedicated","server_os":"Linux","password":true,"vac":true,"version":"7882260","steam_id":85568392924469999,"keywords":["nocrits","nodmgspread","payload","uncletopia"],"game_id":440,"stv_port":27016,"stv_name":"Uncletopia | San Francisco | 1 | All Maps | STV","players":null},{"server_id":18,"name":"Uncletopia | San Francisco | 2 | All Maps","name_short":"sfo-2","host":"sfo-1.us.uncletopia.com","port":27025,"enabled":true,"region":"us-west","cc":"us","latitude":37.77397,"longitude":-122.4313,"reserved":0,"last_update":"0001-01-01T00:00:00Z","name_a2s":"Uncletopia | San Francisco | 2 | All Maps","protocol":17,"map":"cp_sunshine","folder":"tf","game":"Team Fortress","app_id":440,"player_count":0,"max_players":24,"Bots":0,"server_type":"Dedicated","server_os":"Linux","password":true,"vac":true,"version":"7882260","steam_id":85568392924470000,"keywords":["cp","nocrits","nodmgspread","uncletopia"],"game_id":440,"stv_port":27026,"stv_name":"Uncletopia | San Francisco | 2 | All Maps | STV","players":null},{"server_id":19,"name":"Uncletopia | San Francisco | 3 | Stopwatch Beta","name_short":"sfo-3","host":"sfo-1.us.uncletopia.com","port":27035,"enabled":true,"region":"us-west","cc":"us","latitude":37.77397,"longitude":-122.4313,"reserved":0,"last_update":"0001-01-01T00:00:00Z","name_a2s":"Uncletopia | San Francisco | 3 | Stopwatch Beta","protocol":17,"map":"pl_snowycoast","folder":"tf","game":"Team Fortress","app_id":440,"player_count":0,"max_players":24,"Bots":0,"server_type":"Dedicated","server_os":"Linux","password":true,"vac":true,"version":"7882260","steam_id":85568392924742824,"keywords":["nocrits","nodmgspread","payload","uncletopia"],"game_id":440,"stv_port":27036,"stv_name":"Uncletopia | San Francisco | 3 | Stopwatch Beta | STV","players":null},{"server_id":20,"name":"Uncletopia | San Francisco | 4 | Community","name_short":"sfo-4","host":"sfo-1.us.uncletopia.com","port":27045,"enabled":true,"region":"us-west","cc":"us","latitude":37.77397,"longitude":-122.4313,"reserved":0,"last_update":"0001-01-01T00:00:00Z","name_a2s":"Uncletopia | San Francisco | 4 | Community","protocol":17,"map":"pl_swiftwater_final1","folder":"tf","game":"Team Fortress","app_id":440,"player_count":0,"max_players":24,"Bots":0,"server_type":"Dedicated","server_os":"Linux","password":true,"vac":true,"version":"7882260","steam_id":85568392924742826,"keywords":["nocrits","nodmgspread","payload","uncletopia"],"game_id":440,"stv_port":27046,"stv_name":"Uncletopia | San Francisco | 4 | Community | STV","players":null},{"server_id":141,"name":"Uncletopia | Sydney | 1 | All Maps","name_short":"syd-1","host":"syd-1.au.uncletopia.com","port":27015,"enabled":true,"region":"au","cc":"au","latitude":-33.865143,"longitude":151.2099,"reserved":0,"last_update":"0001-01-01T00:00:00Z","name_a2s":"Uncletopia | Sydney | 1 | All Maps","protocol":17,"map":"koth_viaduct","folder":"tf","game":"Team Fortress","app_id":440,"player_count":2,"max_players":24,"Bots":0,"server_type":"Dedicated","server_os":"Linux","password":true,"vac":true,"version":"7882260","steam_id":85568392924470001,"keywords":["cp","nocrits","nodmgspread","uncletopia"],"game_id":440,"stv_port":27016,"stv_name":"Uncletopia | Sydney | 1 | All Maps | STV","players":[{"user_id":505,"name":"–ß–∞–ô–∫–ê","steam_id":76561198981294609,"connected_time":423000000000,"state":"active","ping":311},{"user_id":506,"name":"notnewbot01","steam_id":76561199405037828,"connected_time":237000000000,"state":"active","ping":322}]},{"server_id":123,"name":"Uncletopia | Sydney | 2 | All Maps","name_short":"syd-2","host":"syd-1.au.uncletopia.com","port":27025,"enabled":true,"region":"au","cc":"au","latitude":-33.865143,"longitude":151.2099,"reserved":0,"last_update":"0001-01-01T00:00:00Z","name_a2s":"Uncletopia | Sydney | 2 | All Maps","protocol":17,"map":"cp_sunshine","folder":"tf","game":"Team Fortress","app_id":440,"player_count":0,"max_players":24,"Bots":0,"server_type":"Dedicated","server_os":"Linux","password":true,"vac":true,"version":"7882260","steam_id":85568392924470002,"keywords":["cp","nocrits","nodmgspread","uncletopia"],"game_id":440,"stv_port":27026,"stv_name":"Uncletopia | Sydney | 2 | All Maps | STV","players":null},{"server_id":395,"name":"Uncletopia | Sydney | 3 | All Maps","name_short":"syd-3","host":"syd-1.au.uncletopia.com","port":27035,"enabled":true,"region":"au","cc":"au","latitude":-33.865143,"longitude":151.2099,"reserved":0,"last_update":"0001-01-01T00:00:00Z","name_a2s":"Uncletopia | Sydney | 3 | All Maps","protocol":17,"map":"koth_viaduct","folder":"tf","game":"Team Fortress","app_id":440,"player_count":0,"max_players":24,"Bots":0,"server_type":"Dedicated","server_os":"Linux","password":true,"vac":true,"version":"7882260","steam_id":85568392925194467,"keywords":["cp","nocrits","nodmgspread","uncletopia"],"game_id":440,"stv_port":27036,"stv_name":"Uncletopia | Sydney | 3 | All Maps | STV","players":null},{"server_id":396,"name":"Uncletopia | Sydney | 4 | All Maps","name_short":"syd-4","host":"syd-1.au.uncletopia.com","port":27045,"enabled":true,"region":"au","cc":"au","latitude":-33.865143,"longitude":151.2099,"reserved":0,"last_update":"0001-01-01T00:00:00Z","name_a2s":"Uncletopia | Sydney | 4 | All Maps","protocol":17,"map":"cp_snakewater_final1","folder":"tf","game":"Team Fortress","app_id":440,"player_count":0,"max_players":24,"Bots":0,"server_type":"Dedicated","server_os":"Linux","password":true,"vac":true,"version":"7882260","steam_id":85568392925397958,"keywords":["cp","nocrits","nodmgspread","uncletopia"],"game_id":440,"stv_port":27046,"stv_name":"Uncletopia | Sydney | 4 | All Maps | STV","players":null},{"server_id":58,"name":"Uncletopia | Sydney | 5 | Stopwatch Beta","name_short":"syd-5","host":"syd-1.au.uncletopia.com","port":27055,"enabled":true,"region":"au","cc":"au","latitude":-33.865143,"longitude":151.2099,"reserved":0,"last_update":"0001-01-01T00:00:00Z","name_a2s":"Uncletopia | Sydney | 5 | Stopwatch Beta","protocol":17,"map":"koth_viaduct","folder":"tf","game":"Team Fortress","app_id":440,"player_count":0,"max_players":24,"Bots":0,"server_type":"Dedicated","server_os":"Linux","password":true,"vac":true,"version":"7882260","steam_id":85568392925397959,"keywords":["cp","nocrits","nodmgspread","uncletopia"],"game_id":440,"stv_port":27056,"stv_name":"Uncletopia | Sydney | 5 | Stopwatch Beta | STV","players":null},{"server_id":59,"name":"Uncletopia | Sydney | 6 | Community","name_short":"syd-6","host":"syd-1.au.uncletopia.com","port":27065,"enabled":true,"region":"au","cc":"au","latitude":-33.865143,"longitude":151.2099,"reserved":0,"last_update":"0001-01-01T00:00:00Z","name_a2s":"Uncletopia | Sydney | 6 | Community","protocol":17,"map":"workshop/koth_ashville_final.ugc2130459942","folder":"tf","game":"Team Fortress","app_id":440,"player_count":0,"max_players":24,"Bots":0,"server_type":"Dedicated","server_os":"Linux","password":true,"vac":true,"version":"7882260","steam_id":85568392925397960,"keywords":["cp","nocrits","nodmgspread","uncletopia"],"game_id":440,"stv_port":27066,"stv_name":"Uncletopia | Sydney | 6 | Community | STV","players":null},{"server_id":49,"name":"Uncletopia | Warsaw | 1 | All Maps","name_short":"waw-1","host":"waw-1.pl.uncletopia.com","port":27015,"enabled":true,"region":"eu","cc":"pl","latitude":52.2297,"longitude":21.017532,"reserved":0,"last_update":"0001-01-01T00:00:00Z","name_a2s":"","protocol":0,"map":"","folder":"","game":"","app_id":0,"player_count":0,"max_players":0,"Bots":0,"server_type":"","server_os":"","password":false,"vac":false,"version":"","steam_id":0,"keywords":null,"game_id":0,"stv_port":0,"stv_name":"","players":null},{"server_id":50,"name":"Uncletopia | Warsaw | 2 | All Maps","name_short":"waw-2","host":"waw-1.pl.uncletopia.com","port":27025,"enabled":true,"region":"eu","cc":"pl","latitude":52.2297,"longitude":21.017532,"reserved":0,"last_update":"0001-01-01T00:00:00Z","name_a2s":"Uncletopia | Warsaw | 2 | All Maps","protocol":17,"map":"koth_viaduct","folder":"tf","game":"Team Fortress","app_id":440,"player_count":0,"max_players":24,"Bots":0,"server_type":"Dedicated","server_os":"Linux","password":true,"vac":true,"version":"7882260","steam_id":85568392925397851,"keywords":["cp","nocrits","nodmgspread","uncletopia"],"game_id":440,"stv_port":27026,"stv_name":"Uncletopia | Warsaw | 2 | All Maps | STV","players":null},{"server_id":51,"name":"Uncletopia | Warsaw | 3 | All Maps","name_short":"waw-3","host":"waw-1.pl.uncletopia.com","port":27035,"enabled":true,"region":"eu","cc":"pl","latitude":52.2297,"longitude":21.017532,"reserved":0,"last_update":"0001-01-01T00:00:00Z","name_a2s":"Uncletopia | Warsaw | 3 | All Maps","protocol":17,"map":"pl_badwater","folder":"tf","game":"Team Fortress","app_id":440,"player_count":0,"max_players":24,"Bots":0,"server_type":"Dedicated","server_os":"Linux","password":true,"vac":true,"version":"7882260","steam_id":85568392925397852,"keywords":["nocrits","nodmgspread","payload","uncletopia"],"game_id":440,"stv_port":27036,"stv_name":"Uncletopia | Warsaw | 3 | All Maps | STV","players":null},{"server_id":52,"name":"Uncletopia | Warsaw | 4 | All Maps","name_short":"waw-4","host":"waw-1.pl.uncletopia.com","port":27045,"enabled":true,"region":"eu","cc":"pl","latitude":52.2297,"longitude":21.017532,"reserved":0,"last_update":"0001-01-01T00:00:00Z","name_a2s":"Uncletopia | Warsaw | 4 | All Maps","protocol":17,"map":"koth_cascade","folder":"tf","game":"Team Fortress","app_id":440,"player_count":0,"max_players":24,"Bots":0,"server_type":"Dedicated","server_os":"Linux","password":true,"vac":true,"version":"7882260","steam_id":85568392925397853,"keywords":["cp","nocrits","nodmgspread","uncletopia"],"game_id":440,"stv_port":27046,"stv_name":"Uncletopia | Warsaw | 4 | All Maps | STV","players":null},{"server_id":53,"name":"Uncletopia | Warsaw | 5 | Stopwatch Beta","name_short":"waw-5","host":"waw-1.pl.uncletopia.com","port":27055,"enabled":true,"region":"eu","cc":"pl","latitude":52.2297,"longitude":21.017532,"reserved":0,"last_update":"0001-01-01T00:00:00Z","name_a2s":"Uncletopia | Warsaw | 5 | Stopwatch Beta","protocol":17,"map":"cp_dustbowl","folder":"tf","game":"Team Fortress","app_id":440,"player_count":0,"max_players":24,"Bots":0,"server_type":"Dedicated","server_os":"Linux","password":true,"vac":true,"version":"7882260","steam_id":85568392925397854,"keywords":["cp","nocrits","nodmgspread","uncletopia"],"game_id":440,"stv_port":27056,"stv_name":"Uncletopia | Warsaw | 5 | Stopwatch Beta | STV","players":null},{"server_id":54,"name":"Uncletopia | Warsaw | 6 | Community","name_short":"waw-6","host":"waw-1.pl.uncletopia.com","port":27065,"enabled":true,"region":"eu","cc":"pl","latitude":52.2297,"longitude":21.017532,"reserved":0,"last_update":"0001-01-01T00:00:00Z","name_a2s":"Uncletopia | Warsaw | 6 | Community","protocol":17,"map":"cp_dustbowl","folder":"tf","game":"Team Fortress","app_id":440,"player_count":0,"max_players":24,"Bots":0,"server_type":"Dedicated","server_os":"Linux","password":true,"vac":true,"version":"7882260","steam_id":85568392925397856,"keywords":["cp","nocrits","nodmgspread","uncletopia"],"game_id":440,"stv_port":27066,"stv_name":"Uncletopia | Warsaw | 6 | Community | STV","players":null}]}