{"status":true,"message":"","result":[{"server_id":9,"name":"Uncletopia | Atlanta | 1 | All Maps","name_short":"atl-1","host":"atl-1.us.uncletopia.com","port":27015,"enabled":true,"region":"us-east","cc":"us","latitude":33.753746,"longitude":-84.38633,"reserved":0,"last_update":"0001-01-01T00:00:00Z","name_a2s":"Uncletopia | Atlanta | 1 | All Maps","protocol":17,"map":"pl_upward","folder":"tf","game":"Team Fortress","app_id":440,"player_count":23,"max_players":24,"Bots":0,"server_type":"Dedicated","server_os":"Linux","password":true,"vac":true,"version":"7961495","steam_id":85568392924469982,"keywords":["nocrits","nodmgspread","payload","uncletopia"],"game_id":440,"stv_port":27016,"stv_name":"Uncletopia | Atlanta | 1 | All Maps | STV","players":[{"user_id":827,"name":"Mountain Man","steam_id":76561198841559088,"connected_time":935000000000,"state":"active","ping":60},{"user_id":836,"name":"John16Mark","steam_id":76561198119445407,"connected_time":630000000000,"state":"active","ping":89},{"user_id":719,"name":"CoffeeZombee","steam_id":76561198172708053,"connected_time":8694000000000,"state":"active","ping":61},{"user_id":820,"name":"yoyo","steam_id":76561198285758098,"connected_time":1367000000000,"state":"active","ping":96},{"user_id":824,"name":"immortal peak","steam_id":76561198368259821,"connected_time":1005000000000,"state":"active","ping":134},{"user_id":816,"name":"Kantamoe","steam_id":76561198046661611,"connected_time":1514000000000,"state":"active","ping":63},{"user_id":848,"name":"U Not Groovy Like Me","steam_id":76561198083851689,"connected_time":343000000000,"state":"active","ping":51},{"user_id":819,"name":"Adolf Rizzler","steam_id":76561198324352035,"connected_time":1415000000000,"state":"active","ping":64},{"user_id":843,"name":"Russell","steam_id":76561198024159373,"connected_time":446000000000,"state":"active","ping":60},{"user_id":834,"name":"slowdeath","steam_id":76561198300550331,"connected_time":725000000000,"state":"active","ping":80},{"user_id":850,"name":"Melounek","steam_id":76561198357387946,"connected_time":269000000000,"state":"active","ping":167},{"user_id":828,"name":"uthgarthegiant","steam_id":76561198348616230,"connected_time":892000000000,"state":"active","ping":62},{"user_id":846,"name":"Poppet","steam_id":76561198012301951,"connected_time":403000000000,"state":"active","ping":81},{"user_id":839,"name":"Sparse","steam_id":76561198865084441,"connected_time":579000000000,"state":"active","ping":66},{"user_id":832,"name":"SuperRPGgamer","steam_id":76561198288017834,"connected_time":750000000000,"state":"active","ping":118},{"user_id":811,"name":"exa*✩‧₊˚","steam_id":76561198044511912,"connected_time":1722000000000,"state":"active","ping":105},{"user_id":799,"name":"zzz","steam_id":76561198090531755,"connected_time":2202000000000,"state":"active","ping":66},{"user_id":759,"name":"chrischrischris3018@yahoo.com","steam_id":76561198137316053,"connected_time":5016000000000,"state":"active","ping":56},{"user_id":851,"name":"phantom","steam_id":76561197963860777,"connected_time":254000000000,"state":"active","ping":70},{"user_id":835,"name":"anni","steam_id":76561198017686306,"connected_time":717000000000,"state":"active","ping":149},{"user_id":758,"name":"Jaymowe","steam_id":76561198353959514,"connected_time":5076000000000,"state":"active","ping":106},{"user_id":852,"name":"Ludcmorais","steam_id":76561198359217809,"connected_time":247000000000,"state":"active","ping":188},{"user_id":845,"name":"Jujubee","steam_id":76561198034377946,"connected_time":443000000000,"state":"active","ping":68}]},{"server_id":104,"name":"Uncletopia | Atlanta | 2 | All Maps","name_short":"atl-2","host":"atl-1.us.uncletopia.com","port":27025,"enabled":true,"region":"us-east","cc":"us","latitude":33.753746,"longitude":-84.38633,"reserved":0,"last_update":"0001-01-01T00:00:00Z","name_a2s":"Uncletopia | Atlanta | 2 | All Maps","protocol":17,"map":"pl_borneo","folder":"tf","game":"Team Fortress","app_id":440,"player_count":0,"max_players":24,"Bots":0,"server_type":"Dedicated","server_os":"Linux","password":true,"vac":true,"version":"7961495","steam_id":85568392924469983,"keywords":["nocrits","nodmgspread","payload","uncletopia"],"game_id":440,"stv_port":27026,"stv_name":"Uncletopia | Atlanta | 2 | All Maps | STV","players":null},{"server_id":400,"name":"Uncletopia | Atlanta | 3 | Stopwatch","name_short":"atl-3","host":"atl-1.us.uncletopia.com","port":27035,"enabled":true,"region":"us-east","cc":"us","latitude":33.753746,"longitude":-84.38633,"reserved":0,"last_update":"0001-01-01T00:00:00Z","name_a2s":"Uncletopia | Atlanta | 3 | Stopwatch","protocol":17,"map":"workshop/koth_ramjam_rc1.ugc459778887","folder":"tf","game":"Team Fortress","app_id":440,"player_count":0,"max_players":24,"Bots":0,"server_type":"Dedicated","server_os":"Linux","password":true,"vac":true,"version":"7961495","steam_id":85568392924515187,"keywords":["cp","nocrits","nodmgspread","uncletopia"],"game_id":440,"stv_port":27036,"stv_name":"Uncletopia | Atlanta | 3 | Stopwatch | STV","players":null},{"server_id":401,"name":"Uncletopia | Atlanta | 4 | Community","name_short":"atl-4","host":"atl-1.us.uncletopia.com","port":27045,"enabled":true,"region":"us-east","cc":"us","latitude":33.753746,"longitude":-84.38633,"reserved":0,"last_update":"0001-01-01T00:00:00Z","name_a2s":"Uncletopia | Atlanta | 4 | Community","protocol":17,"map":"workshop/koth_kemptown_rc1.ugc767410655","folder":"tf","game":"Team Fortress","app_id":440,"player_count":0,"max_players":24,"Bots":0,"server_type":"Dedicated","server_os":"Linux","password":true,"vac":true,"version":"7961495","steam_id":85568392924515188,"keywords":["cp","nocrits","nodmgspread","uncletopia"],"game_id":440,"stv_port":27046,"stv_name":"Uncletopia | Atlanta | 4 | Community | STV","players":null},{"server_id":2,"name":"Uncletopia | Chicago | 1 | All Maps","name_short":"chi-1","host":"chi-1.us.uncletopia.com","port":27015,"enabled":true,"region":"us-central","cc":"us","latitude":41.881832,"longitude":-87.62318,"reserved":0,"last_update":"0001-01-01T00:00:00Z","name_a2s":"Uncletopia | Chicago | 1 | All Maps","protocol":17,"map":"pl_swiftwater_final1","folder":"tf","game":"Team Fortress","app_id":440,"player_count":24,"max_players":24,"Bots":0,"server_type":"Dedicated","server_os":"Linux","password":true,"vac":true,"version":"7961495","steam_id":85568392924469984,"keywords":["nocrits","nodmgspread","payload","uncletopia"],"game_id":440,"stv_port":27016,"stv_name":"Uncletopia | Chicago | 1 | All Maps | STV","players":[{"user_id":978,"name":"Varveer","steam_id":76561198218897383,"connected_time":1072000000000,"state":"active","ping":62},{"user_id":949,"name":"SCATTER","steam_id":76561198405168492,"connected_time":2862000000000,"state":"active","ping":76},{"user_id":963,"name":"schalldämpfer","steam_id":76561198178303726,"connected_time":1584000000000,"state":"active","ping":60},{"user_id":975,"name":"bruce","steam_id":76561198145949369,"connected_time":1271000000000,"state":"active","ping":85},{"user_id":940,"name":"malvery","steam_id":76561198076554933,"connected_time":3597000000000,"state":"active","ping":93},{"user_id":977,"name":"Glanderson booper","steam_id":76561198021223747,"connected_time":1173000000000,"state":"active","ping":102},{"user_id":973,"name":"Durazorn","steam_id":76561198096327396,"connected_time":1322000000000,"state":"active","ping":111},{"user_id":962,"name":"Raizen","steam_id":76561199092445367,"connected_time":1596000000000,"state":"active","ping":54},{"user_id":974,"name":"Hope Haver","steam_id":76561198048564906,"connected_time":1293000000000,"state":"active","ping":75},{"user_id":971,"name":"kees","steam_id":76561198115798074,"connected_time":1500000000000,"state":"active","ping":97},{"user_id":983,"name":"ryann","steam_id":76561198042996639,"connected_time":586000000000,"state":"active","ping":106},{"user_id":932,"name":"Hey","steam_id":76561198447517893,"connected_time":4126000000000,"state":"active","ping":75},{"user_id":984,"name":"rellik","steam_id":76561198066701976,"connected_time":324000000000,"state":"active","ping":62},{"user_id":958,"name":"Dead_Stranger","steam_id":76561198120804563,"connected_time":1902000000000,"state":"active","ping":90},{"user_id":952,"name":"Mormon Jesus","steam_id":76561198079492689,"connected_time":2768000000000,"state":"active","ping":64},{"user_id":895,"name":"Blur","steam_id":76561198062314111,"connected_time":6716000000000,"state":"active","ping":76},{"user_id":957,"name":"Bleebi","steam_id":76561197971264259,"connected_time":1979000000000,"state":"active","ping":56},{"user_id":953,"name":"Beef Cheeks","steam_id":76561198042327637,"connected_time":2748000000000,"state":"active","ping":67},{"user_id":981,"name":"sailor","steam_id":76561198091015050,"connected_time":865000000000,"state":"active","ping":48},{"user_id":968,"name":"inshallah","steam_id":76561198165212575,"connected_time":1558000000000,"state":"active","ping":62},{"user_id":976,"name":"Gardangle","steam_id":76561198394173831,"connected_time":1228000000000,"state":"active","ping":110},{"user_id":979,"name":"Vlad the Himpaler...wait","steam_id":76561198010708247,"connected_time":1019000000000,"state":"active","ping":105},{"user_id":969,"name":"werecat","steam_id":76561198005091213,"connected_time":1552000000000,"state":"active","ping":63},{"user_id":982,"name":"Richard","steam_id":76561198044115685,"connected_time":819000000000,"state":"active","ping":60}]},{"server_id":106,"name":"Uncletopia | Chicago | 2 | All Maps","name_short":"chi-2","host":"chi-1.us.uncletopia.com","port":27025,"enabled":true,"region":"us-central","cc":"us","latitude":41.881832,"longitude":-87.62318,"reserved":0,"last_update":"0001-01-01T00:00:00Z","name_a2s":"Uncletopia | Chicago | 2 | All Maps","protocol":17,"map":"pl_frontier_final","folder":"tf","game":"Team Fortress","app_id":440,"player_count":0,"max_players":24,"Bots":0,"server_type":"Dedicated","server_os":"Linux","password":true,"vac":true,"version":"7961495","steam_id":85568392924469985,"keywords":["nocrits","nodmgspread","payload","uncletopia"],"game_id":440,"stv_port":27026,"stv_name":"Uncletopia | Chicago | 2 | All Maps | STV","players":null},{"server_id":402,"name":"Uncletopia | Chicago | 3 | All Maps","name_short":"chi-3","host":"chi-1.us.uncletopia.com","port":27035,"enabled":true,"region":"us-central","cc":"us","latitude":41.881832,"longitude":-87.62318,"reserved":0,"last_update":"0001-01-01T00:00:00Z","name_a2s":"Uncletopia | Chicago | 3 | All Maps","protocol":17,"map":"koth_cascade","folder":"tf","game":"Team Fortress","app_id":440,"player_count":0,"max_players":24,"Bots":0,"server_type":"Dedicated","server_os":"Linux","password":true,"vac":true,"version":"7961495","steam_id":85568392924515191,"keywords":["cp","nocrits","nodmgspread","uncletopia"],"game_id":440,"stv_port":27036,"stv_name":"Uncletopia | Chicago | 3 | All Maps | STV","players":null},{"server_id":403,"name":"Uncletopia | Chicago | 4 | All Maps","name_short":"chi-4","host":"chi-1.us.uncletopia.com","port":27045,"enabled":true,"region":"us-central","cc":"us","latitude":41.881832,"longitude":-87.62318,"reserved":0,"last_update":"0001-01-01T00:00:00Z","name_a2s":"Uncletopia | Chicago | 4 | All Maps","protocol":17,"map":"koth_highpass","folder":"tf","game":"Team Fortress","app_id":440,"player_count":0,"max_players":24,"Bots":0,"server_type":"Dedicated","server_os":"Linux","password":true,"vac":true,"version":"7961495","steam_id":85568392924515193,"keywords":["cp","nocrits","nodmgspread","uncletopia"],"game_id":440,"stv_port":27046,"stv_name":"Uncletopia | Chicago | 4 | All Maps | STV","players":null},{"server_id":36,"name":"Uncletopia | Chicago | 5 | All Maps","name_short":"chi-5","host":"chi-2.us.uncletopia.com","port":27015,"enabled":true,"region":"us-central","cc":"us","latitude":41.881832,"longitude":-87.62318,"reserved":0,"last_update":"0001-01-01T00:00:00Z","name_a2s":"Uncletopia | Chicago | 5 | All Maps","protocol":17,"map":"koth_highpass","folder":"tf","game":"Team Fortress","app_id":440,"player_count":2,"max_players":24,"Bots":0,"server_type":"Dedicated","server_os":"Linux","password":true,"vac":true,"version":"7961495","steam_id":85568392924866362,"keywords":["cp","nocrits","nodmgspread","uncletopia"],"game_id":440,"stv_port":27016,"stv_name":"Uncletopia | Chicago | 5 | All Maps | STV","players":[{"user_id":699,"name":"PoofBallzZzZ","steam_id":76561197992257816,"connected_time":960000000000,"state":"active","ping":84},{"user_id":700,"name":"kilamgnik","steam_id":76561198069747518,"connected_time":956000000000,"state":"active","ping":125}]},{"server_id":37,"name":"Uncletopia | Chicago | 6 | All Maps","name_short":"chi-6","host":"chi-2.us.uncletopia.com","port":27025,"enabled":true,"region":"us-central","cc":"us","latitude":41.881832,"longitude":-87.62318,"reserved":0,"last_update":"0001-01-01T00:00:00Z","name_a2s":"Uncletopia | Chicago | 6 | All Maps","protocol":17,"map":"pl_badwater","folder":"tf","game":"Team Fortress","app_id":440,"player_count":24,"max_players":24,"Bots":0,"server_type":"Dedicated","server_os":"Linux","password":true,"vac":true,"version":"7961495","steam_id":85568392924866363,"keywords":["nocrits","nodmgspread","payload","uncletopia"],"game_id":440,"stv_port":27026,"stv_name":"Uncletopia | Chicago | 6 | All Maps | STV","players":[{"user_id":425,"name":"スパイロ","steam_id":76561197964687439,"connected_time":1976000000000,"state":"active","ping":84},{"user_id":421,"name":"Jay","steam_id":76561198084129048,"connected_time":2168000000000,"state":"active","ping":70},{"user_id":368,"name":"dragonfish","steam_id":76561198108938632,"connected_time":5134000000000,"state":"active","ping":45},{"user_id":423,"name":"kaputon's ego","steam_id":76561198175839309,"connected_time":2107000000000,"state":"active","ping":71},{"user_id":436,"name":"Cottoneyes","steam_id":76561197994730627,"connected_time":432000000000,"state":"active","ping":74},{"user_id":367,"name":"AkimboAoki","steam_id":76561198158323058,"connected_time":5157000000000,"state":"active","ping":95},{"user_id":422,"name":"Rambly Dambly","steam_id":76561198844496567,"connected_time":2143000000000,"state":"active","ping":65},{"user_id":417,"name":"Pongallow","steam_id":76561198146876078,"connected_time":2305000000000,"state":"active","ping":54},{"user_id":424,"name":"Lord_Manship","steam_id":76561198045168765,"connected_time":2094000000000,"state":"active","ping":81},{"user_id":431,"name":"big nyaturals","steam_id":76561199011773970,"connected_time":1376000000000,"state":"active","ping":68},{"user_id":402,"name":"Warzard","steam_id":76561199154051413,"connected_time":2780000000000,"state":"active","ping":97},{"user_id":437,"name":"Eloi","steam_id":76561198081193565,"connected_time":391000000000,"state":"active","ping":78},{"user_id":349,"name":"coda","steam_id":76561198092052685,"connected_time":7335000000000,"state":"active","ping":61},{"user_id":440,"name":"dipro5","steam_id":76561199237413016,"connected_time":3000000000,"state":"spawning","ping":72},{"user_id":385,"name":"videogame toddler","steam_id":76561198051310816,"connected_time":4383000000000,"state":"active","ping":72},{"user_id":427,"name":"Alejandro","steam_id":76561197970051493,"connected_time":1922000000000,"state":"active","ping":128},{"user_id":435,"name":"Da McSpanker","steam_id":76561198208743000,"connected_time":501000000000,"state":"active","ping":78},{"user_id":304,"name":"Dementophobic_Dude","steam_id":76561199470601524,"connected_time":9821000000000,"state":"active","ping":87},{"user_id":439,"name":"SgtSardine","steam_id":76561198254729868,"connected_time":349000000000,"state":"active","ping":136},{"user_id":387,"name":"tf2 noob vs pro","steam_id":76561198120973162,"connected_time":4305000000000,"state":"active","ping":70},{"user_id":430,"name":"itzii","steam_id":76561198090412935,"connected_time":1735000000000,"state":"active","ping":81},{"user_id":405,"name":"TJGSASQUATCH","steam_id":76561198077806921,"connected_time":2711000000000,"state":"active","ping":75},{"user_id":384,"name":"kaputon","steam_id":76561198146299782,"connected_time":4440000000000,"state":"active","ping":70},{"user_id":406,"name":"Poopisviel Von Einzbern","steam_id":76561198259260433,"connected_time":2666000000000,"state":"active","ping":84}]},{"server_id":38,"name":"Uncletopia | Chicago | 7 | Stopwatch","name_short":"chi-7","host":"chi-2.us.uncletopia.com","port":27035,"enabled":true,"region":"us-central","cc":"us","latitude":41.881832,"longitude":-87.62318,"reserved":0,"last_update":"0001-01-01T00:00:00Z","name_a2s":"Uncletopia | Chicago | 7 | Stopwatch","protocol":17,"map":"cp_gullywash_final1","folder":"tf","game":"Team Fortress","app_id":440,"player_count":0,"max_players":24,"Bots":0,"server_type":"Dedicated","server_os":"Linux","password":true,"vac":true,"version":"7961495","steam_id":85568392924866364,"keywords":["cp","nocrits","nodmgspread","uncletopia"],"game_id":440,"stv_port":27036,"stv_name":"Uncletopia | Chicago | 7 | Stopwatch | STV","players":null},{"server_id":39,"name":"Uncletopia | Chicago | 8 | Community","name_short":"chi-8","host":"chi-2.us.uncletopia.com","port":27045,"enabled":true,"region":"us-central","cc":"us","latitude":41.881832,"longitude":-87.62318,"reserved":0,"last_update":"0001-01-01T00:00:00Z","name_a2s":"Uncletopia | Chicago | 8 | Community","protocol":17,"map":"workshop/koth_slaughter_rc1.ugc1712845210","folder":"tf","game":"Team Fortress","app_id":440,"player_count":0,"max_players":24,"Bots":0,"server_type":"Dedicated","server_os":"Linux","password":true,"vac":true,"version":"7961495","steam_id":85568392924866365,"keywords":["cp","nocrits","nodmgspread","uncletopia"],"game_id":440,"stv_port":27046,"stv_name":"Uncletopia | Chicago | 8 | Community | STV","players":null},{"server_id":8,"name":"Uncletopia | Dallas | 1 | All Maps","name_short":"dal-1","host":"dal-1.us.uncletopia.com","port":27015,"enabled":true,"region":"us-central","cc":"us","latitude":32.779167,"longitude":-96.80889,"reserved":0,"last_update":"0001-01-01T00:00:00Z","name_a2s":"Uncletopia | Dallas | 1 | All Maps","protocol":17,"map":"pl_snowycoast","folder":"tf","game":"Team Fortress","app_id":440,"player_count":0,"max_players":24,"Bots":0,"server_type":"Dedicated","server_os":"Linux","password":true,"vac":true,"version":"7961495","steam_id":85568392924469986,"keywords":["nocrits","nodmgspread","payload","uncletopia"],"game_id":440,"stv_port":27016,"stv_name":"Uncletopia | Dallas | 1 | All Maps | STV","players":null},{"server_id":108,"name":"Uncletopia | Dallas | 2 | All Maps","name_short":"dal-2","host":"dal-1.us.uncletopia.com","port":27025,"enabled":true,"region":"us-central","cc":"us","latitude":32.779167,"longitude":-96.80889,"reserved":0,"last_update":"0001-01-01T00:00:00Z","name_a2s":"Uncletopia | Dallas | 2 | All Maps","protocol":17,"map":"pl_borneo","folder":"tf","game":"Team Fortress","app_id":440,"player_count":23,"max_players":24,"Bots":0,"server_type":"Dedicated","server_os":"Linux","password":true,"vac":true,"version":"7961495","steam_id":85568392924469988,"keywords":["nocrits","nodmgspread","payload","uncletopia"],"game_id":440,"stv_port":27026,"stv_name":"Uncletopia | Dallas | 2 | All Maps | STV","players":[{"user_id":794,"name":"axolotl","steam_id":76561198028490882,"connected_time":373000000000,"state":"active","ping":70},{"user_id":782,"name":"Cloey","steam_id":76561199161591235,"connected_time":1388000000000,"state":"active","ping":50},{"user_id":800,"name":"Zezhest","steam_id":76561198038521979,"connected_time":100000000000,"state":"active","ping":83},{"user_id":790,"name":"Boston","steam_id":76561198061078236,"connected_time":1074000000000,"state":"active","ping":60},{"user_id":783,"name":"Coolgoat2005","steam_id":76561198284935250,"connected_time":1336000000000,"state":"active","ping":66},{"user_id":803,"name":"Olitude","steam_id":76561199238964574,"connected_time":10000000000,"state":"spawning","ping":74},{"user_id":754,"name":"Bolbi","steam_id":76561198051811597,"connected_time":4031000000000,"state":"active","ping":89},{"user_id":793,"name":"the thighs of surprise","steam_id":76561198014326643,"connected_time":773000000000,"state":"active","ping":100},{"user_id":787,"name":"Bobby Ray","steam_id":76561198044131188,"connected_time":1211000000000,"state":"active","ping":75},{"user_id":743,"name":"Trashgaming","steam_id":76561199184268442,"connected_time":4396000000000,"state":"active","ping":103},{"user_id":796,"name":"Azeerthe","steam_id":76561198045728214,"connected_time":345000000000,"state":"active","ping":133},{"user_id":776,"name":"Phosu","steam_id":76561198180162801,"connected_time":2453000000000,"state":"active","ping":64},{"user_id":749,"name":"JakeOwlsky","steam_id":76561198139194230,"connected_time":4310000000000,"state":"active","ping":112},{"user_id":746,"name":"Asrael","steam_id":76561197986044901,"connected_time":4350000000000,"state":"active","ping":93},{"user_id":797,"name":"Boobie and vagene","steam_id":76561198078464924,"connected_time":276000000000,"state":"active","ping":98},{"user_id":763,"name":"paddle gaming","steam_id":76561199250055131,"connected_time":3486000000000,"state":"active","ping":76},{"user_id":788,"name":"Friendly Neighborhood Engineer","steam_id":76561199074181200,"connected_time":1179000000000,"state":"active","ping":150},{"user_id":771,"name":"EvilPi99let","steam_id":76561197987243470,"connected_time":2918000000000,"state":"active","ping":75},{"user_id":752,"name":"DolphinTime","steam_id":76561197999079405,"connected_time":4293000000000,"state":"active","ping":111},{"user_id":799,"name":"MarioManz","steam_id":76561198123454475,"connected_time":140000000000,"state":"active","ping":45},{"user_id":795,"name":"Gut125","steam_id":76561198101787225,"connected_time":364000000000,"state":"active","ping":73},{"user_id":770,"name":"Zelda","steam_id":76561199008634102,"connected_time":3045000000000,"state":"active","ping":65},{"user_id":802,"name":"dax","steam_id":76561198045335319,"connected_time":89000000000,"state":"active","ping":85}]},{"server_id":404,"name":"Uncletopia | Dallas | 3 | All Maps","name_short":"dal-3","host":"dal-1.us.uncletopia.com","port":27035,"enabled":true,"region":"us-central","cc":"us","latitude":32.779167,"longitude":-96.80889,"reserved":0,"last_update":"0001-01-01T00:00:00Z","name_a2s":"Uncletopia | Dallas | 3 | All Maps","protocol":17,"map":"cp_snakewater_final1","folder":"tf","game":"Team Fortress","app_id":440,"player_count":0,"max_players":24,"Bots":0,"server_type":"Dedicated","server_os":"Linux","password":true,"vac":true,"version":"7961495","steam_id":85568392924515219,"keywords":["cp","nocrits","nodmgspread","uncletopia"],"game_id":440,"stv_port":27036,"stv_name":"Uncletopia | Dallas | 3 | All Maps | STV","players":null},{"server_id":405,"name":"Uncletopia | Dallas | 4 | Community","name_short":"dal-4","host":"dal-1.us.uncletopia.com","port":27045,"enabled":true,"region":"us-central","cc":"us","latitude":32.779167,"longitude":-96.80889,"reserved":0,"last_update":"0001-01-01T00:00:00Z","name_a2s":"Uncletopia | Dallas | 4 | Community","protocol":17,"map":"workshop/koth_kemptown_rc1.ugc767410655","folder":"tf","game":"Team Fortress","app_id":440,"player_count":0,"max_players":24,"Bots":0,"server_type":"Dedicated","server_os":"Linux","password":true,"vac":true,"version":"7961495","steam_id":85568392924515220,"keywords":["cp","nocrits","nodmgspread","uncletopia"],"game_id":440,"stv_port":27046,"stv_name":"Uncletopia | Dallas | 4 | Community | STV","players":null},{"server_id":5,"name":"Uncletopia | Frankfurt | 1 | All Maps","name_short":"frk-1","host":"frk-1.de.uncletopia.com","port":27015,"enabled":true,"region":"eu","cc":"de","latitude":50.110924,"longitude":8.682127,"reserved":0,"last_update":"0001-01-01T00:00:00Z","name_a2s":"Uncletopia | Frankfurt | 1 | All Maps","protocol":17,"map":"koth_highpass","folder":"tf","game":"Team Fortress","app_id":440,"player_count":0,"max_players":24,"Bots":0,"server_type":"Dedicated","server_os":"Linux","password":true,"vac":true,"version":"7961495","steam_id":85568392924469989,"keywords":["cp","nocrits","nodmgspread","uncletopia"],"game_id":440,"stv_port":27016,"stv_name":"Uncletopia | Frankfurt | 1 | All Maps | STV","players":null},{"server_id":110,"name":"Uncletopia | Frankfurt | 2 | All Maps","name_short":"frk-2","host":"frk-1.de.uncletopia.com","port":27025,"enabled":true,"region":"eu","cc":"de","latitude":50.110924,"longitude":8.682127,"reserved":0,"last_update":"0001-01-01T00:00:00Z","name_a2s":"Uncletopia | Frankfurt | 2 | All Maps","protocol":17,"map":"cp_dustbowl","folder":"tf","game":"Team Fortress","app_id":440,"player_count":0,"max_players":24,"Bots":0,"server_type":"Dedicated","server_os":"Linux","password":true,"vac":true,"version":"7961495","steam_id":85568392924469990,"keywords":["cp","nocrits","nodmgspread","uncletopia"],"game_id":440,"stv_port":27026,"stv_name":"Uncletopia | Frankfurt | 2 | All Maps | STV","players":null},{"server_id":308,"name":"Uncletopia | Frankfurt | 3 | All Maps","name_short":"frk-3","host":"frk-1.de.uncletopia.com","port":27035,"enabled":true,"region":"eu","cc":"de","latitude":50.110924,"longitude":8.682127,"reserved":0,"last_update":"0001-01-01T00:00:00Z","name_a2s":"Uncletopia | Frankfurt | 3 | All Maps","protocol":17,"map":"pl_barnblitz","folder":"tf","game":"Team Fortress","app_id":440,"player_count":0,"max_players":24,"Bots":0,"server_type":"Dedicated","server_os":"Linux","password":true,"vac":true,"version":"7961495","steam_id":85568392924504274,"keywords":["nocrits","nodmgspread","payload","uncletopia"],"game_id":440,"stv_port":27036,"stv_name":"Uncletopia | Frankfurt | 3 | All Maps | STV","players":null},{"server_id":309,"name":"Uncletopia | Frankfurt | 4 | All Maps","name_short":"frk-4","host":"frk-1.de.uncletopia.com","port":27045,"enabled":true,"region":"eu","cc":"de","latitude":50.110924,"longitude":8.682127,"reserved":0,"last_update":"0001-01-01T00:00:00Z","name_a2s":"Uncletopia | Frankfurt | 4 | All Maps","protocol":17,"map":"koth_highpass","folder":"tf","game":"Team Fortress","app_id":440,"player_count":0,"max_players":24,"Bots":0,"server_type":"Dedicated","server_os":"Linux","password":true,"vac":true,"version":"7961495","steam_id":85568392924504275,"keywords":["cp","nocrits","nodmgspread","uncletopia"],"game_id":440,"stv_port":27046,"stv_name":"Uncletopia | Frankfurt | 4 | All Maps | STV","players":null},{"server_id":310,"name":"Uncletopia | Frankfurt | 5 | All Maps","name_short":"frk-5","host":"frk-1.de.uncletopia.com","port":27055,"enabled":true,"region":"eu","cc":"de","latitude":50.110924,"longitude":8.682127,"reserved":0,"last_update":"0001-01-01T00:00:00Z","name_a2s":"Uncletopia | Frankfurt | 5 | All Maps","protocol":17,"map":"pl_badwater","folder":"tf","game":"Team Fortress","app_id":440,"player_count":0,"max_players":24,"Bots":0,"server_type":"Dedicated","server_os":"Linux","password":true,"vac":true,"version":"7961495","steam_id":85568392924504277,"keywords":["nocrits","nodmgspread","payload","uncletopia"],"game_id":440,"stv_port":27056,"stv_name":"Uncletopia | Frankfurt | 5 | All Maps | STV","players":null},{"server_id":311,"name":"Uncletopia | Frankfurt | 6 | All Maps","name_short":"frk-6","host":"frk-1.de.uncletopia.com","port":27065,"enabled":true,"region":"eu","cc":"de","latitude":50.110924,"longitude":8.682127,"reserved":0,"last_update":"0001-01-01T00:00:00Z","name_a2s":"Uncletopia | Frankfurt | 6 | All Maps","protocol":17,"map":"cp_altitude","folder":"tf","game":"Team Fortress","app_id":440,"player_count":18,"max_players":24,"Bots":0,"server_type":"Dedicated","server_os":"Linux","password":true,"vac":true,"version":"7961495","steam_id":85568392924504278,"keywords":["cp","nocrits","nodmgspread","uncletopia"],"game_id":440,"stv_port":27066,"stv_name":"Uncletopia | Frankfurt | 6 | All Maps | STV","players":[{"user_id":3,"name":"Miloleopard","steam_id":76561199196616680,"connected_time":1201000000000,"state":"active","ping":71},{"user_id":4,"name":"Calsim","steam_id":76561198164877219,"connected_time":1167000000000,"state":"active","ping":52},{"user_id":5,"name":"IkiCzech","steam_id":76561199160356884,"connected_time":1117000000000,"state":"active","ping":50},{"user_id":9,"name":"my_keyboard_is_brocken","steam_id":76561198369317770,"connected_time":693000000000,"state":"active","ping":67},{"user_id":10,"name":"Random","steam_id":76561199079951047,"connected_time":679000000000,"state":"active","ping":83},{"user_id":19,"name":"Autumnsky","steam_id":76561198055161203,"connected_time":317000000000,"state":"active","ping":57},{"user_id":12,"name":"Drix","steam_id":76561198056810212,"connected_time":579000000000,"state":"active","ping":58},{"user_id":13,"name":"Richard_HUN","steam_id":76561198299050967,"connected_time":559000000000,"state":"active","ping":93},{"user_id":17,"name":"sinkuchan","steam_id":76561198054012474,"connected_time":456000000000,"state":"active","ping":49},{"user_id":16,"name":"ramedlaV^^","steam_id":76561198074352339,"connected_time":540000000000,"state":"active","ping":72},{"user_id":18,"name":"tube sock","steam_id":76561198073576350,"connected_time":389000000000,"state":"active","ping":70},{"user_id":20,"name":"HornyFrog","steam_id":76561199094581752,"connected_time":209000000000,"state":"active","ping":125},{"user_id":21,"name":"ASS?!?!?!?!?","steam_id":76561199159262388,"connected_time":128000000000,"state":"spawning","ping":96},{"user_id":22,"name":"Cjeff","steam_id":76561198078099059,"connected_time":108000000000,"state":"active","ping":45},{"user_id":23,"name":"hella","steam_id":76561198112817599,"connected_time":99000000000,"state":"active","ping":75},{"user_id":24,"name":"Hungeryan","steam_id":76561198887299930,"connected_time":49000000000,"state":"active","ping":92},{"user_id":25,"name":"♥♥TGA♥♥","steam_id":76561198853016656,"connected_time":44000000000,"state":"active","ping":45},{"user_id":26,"name":"I miss Vine","steam_id":76561197999590959,"connected_time":24000000000,"state":"spawning","ping":44}]},{"server_id":23,"name":"Uncletopia | Frankfurt | 7 | Stopwatch","name_short":"frk-7","host":"frk-1.de.uncletopia.com","port":27075,"enabled":true,"region":"eu","cc":"de","latitude":50.110924,"longitude":8.682127,"reserved":0,"last_update":"0001-01-01T00:00:00Z","name_a2s":"Uncletopia | Frankfurt | 7 | Stopwatch","protocol":17,"map":"pl_frontier_final","folder":"tf","game":"Team Fortress","app_id":440,"player_count":0,"max_players":24,"Bots":0,"server_type":"Dedicated","server_os":"Linux","password":true,"vac":true,"version":"7961495","steam_id":85568392924742827,"keywords":["nocrits","nodmgspread","payload","uncletopia"],"game_id":440,"stv_port":27076,"stv_name":"Uncletopia | Frankfurt | 7 | Stopwatch | STV","players":null},{"server_id":24,"name":"Uncletopia | Frankfurt | 8 | Community","name_short":"frk-8","host":"frk-1.de.uncletopia.com","port":27085,"enabled":true,"region":"eu","cc":"de","latitude":50.110924,"longitude":8.682127,"reserved":0,"last_update":"0001-01-01T00:00:00Z","name_a2s":"Uncletopia | Frankfurt | 8 | Community","protocol":17,"map":"cp_mountainlab","folder":"tf","game":"Team Fortress","app_id":440,"player_count":0,"max_players":24,"Bots":0,"server_type":"Dedicated","server_os":"Linux","password":true,"vac":true,"version":"7961495","steam_id":85568392924742828,"keywords":["cp","nocrits","nodmgspread","uncletopia"],"game_id":440,"stv_port":27086,"stv_name":"Uncletopia | Frankfurt | 8 | Community | STV","players":null},{"server_id":202,"name":"Uncletopia | Hong Kong | 1 | All Maps","name_short":"hgk-1","host":"hgk-1.hk.uncletopia.com","port":27015,"enabled":true,"region":"asia","cc":"hk","latitude":22.302711,"longitude":114.177216,"reserved":0,"last_update":"0001-01-01T00:00:00Z","name_a2s":"Uncletopia | Hong Kong | 1 | All Maps","protocol":17,"map":"pl_badwater","folder":"tf","game":"Team Fortress","app_id":440,"player_count":24,"max_players":24,"Bots":0,"server_type":"Dedicated","server_os":"Linux","password":true,"vac":true,"version":"7961495","steam_id":85568392924494504,"keywords":["nocrits","nodmgspread","payload","uncletopia"],"game_id":440,"stv_port":27016,"stv_name":"Uncletopia | Hong Kong | 1 | All Maps | STV","players":[{"user_id":173,"name":"Ivy","steam_id":76561198400698408,"connected_time":4729000000000,"state":"active","ping":94},{"user_id":179,"name":"2746","steam_id":76561199390507975,"connected_time":3948000000000,"state":"active","ping":54},{"user_id":74,"name":"P","steam_id":76561198304514505,"connected_time":14196000000000,"state":"active","ping":76},{"user_id":191,"name":"Hay","steam_id":76561199438952901,"connected_time":1382000000000,"state":"active","ping":53},{"user_id":153,"name":"Exquisite hentai connoisseur","steam_id":76561198403808601,"connected_time":6473000000000,"state":"active","ping":88},{"user_id":166,"name":"Joilee32","steam_id":76561199226255440,"connected_time":5243000000000,"state":"active","ping":82},{"user_id":152,"name":"Kyo","steam_id":76561198088550274,"connected_time":7312000000000,"state":"active","ping":44},{"user_id":195,"name":"elite anarchest","steam_id":76561198411982822,"connected_time":1333000000000,"state":"active","ping":76},{"user_id":171,"name":"Cheesey","steam_id":76561198975684137,"connected_time":4744000000000,"state":"active","ping":80},{"user_id":199,"name":"villy","steam_id":76561198169263597,"connected_time":370000000000,"state":"active","ping":40},{"user_id":183,"name":"MrPauling","steam_id":76561198989168133,"connected_time":2149000000000,"state":"active","ping":87},{"user_id":201,"name":"P E N I S SCOUT","steam_id":76561199379089094,"connected_time":1000000000,"state":"spawning","ping":26},{"user_id":114,"name":"Lu","steam_id":76561198320532821,"connected_time":10098000000000,"state":"active","ping":68},{"user_id":190,"name":"U・♀・U kitty","steam_id":76561198149684436,"connected_time":1385000000000,"state":"active","ping":44},{"user_id":176,"name":"14","steam_id":76561198113401862,"connected_time":4225000000000,"state":"active","ping":92},{"user_id":170,"name":"marisaloses","steam_id":76561199033032870,"connected_time":4751000000000,"state":"active","ping":75},{"user_id":182,"name":"im_0ff","steam_id":76561198339346695,"connected_time":2342000000000,"state":"active","ping":128},{"user_id":106,"name":"soh.cayden","steam_id":76561198985588227,"connected_time":10360000000000,"state":"active","ping":95},{"user_id":200,"name":"Pizza_Jammies1345","steam_id":76561199228950246,"connected_time":122000000000,"state":"active","ping":160},{"user_id":168,"name":"Skyler White yo","steam_id":76561198895193247,"connected_time":4764000000000,"state":"active","ping":84},{"user_id":193,"name":"StewBツ","steam_id":76561198131423270,"connected_time":1378000000000,"state":"active","ping":102},{"user_id":194,"name":"Samoyed","steam_id":76561198299150410,"connected_time":1357000000000,"state":"active","ping":80},{"user_id":151,"name":"my gun can shoot now!","steam_id":76561199249938987,"connected_time":7361000000000,"state":"active","ping":43},{"user_id":198,"name":"avered","steam_id":76561199480939609,"connected_time":624000000000,"state":"active","ping":84}]},{"server_id":1,"name":"Uncletopia | Los Angeles | 1 | All Maps","name_short":"lax-1","host":"lax-1.us.uncletopia.com","port":27015,"enabled":true,"region":"us-west","cc":"us","latitude":33.94279,"longitude":-118.41004,"reserved":0,"last_update":"0001-01-01T00:00:00Z","name_a2s":"Uncletopia | Los Angeles | 1 | All Maps","protocol":17,"map":"pl_frontier_final","folder":"tf","game":"Team Fortress","app_id":440,"player_count":22,"max_players":24,"Bots":0,"server_type":"Dedicated","server_os":"Linux","password":true,"vac":true,"version":"7961495","steam_id":85568392924469991,"keywords":["nocrits","nodmgspread","payload","uncletopia"],"game_id":440,"stv_port":27016,"stv_name":"Uncletopia | Los Angeles | 1 | All Maps | STV","players":[{"user_id":668,"name":"Wendall555","steam_id":76561198985637603,"connected_time":1162000000000,"state":"active","ping":45},{"user_id":665,"name":"Artic_Ryuu","steam_id":76561198182194918,"connected_time":1671000000000,"state":"active","ping":69},{"user_id":671,"name":"JellyPopTM","steam_id":76561198099975634,"connected_time":1030000000000,"state":"active","ping":116},{"user_id":587,"name":"Gen-E  /geneoftf2","steam_id":76561199497800989,"connected_time":7359000000000,"state":"active","ping":122},{"user_id":613,"name":"Quigi","steam_id":76561198144645874,"connected_time":5970000000000,"state":"active","ping":84},{"user_id":615,"name":"toast","steam_id":76561198843031197,"connected_time":5955000000000,"state":"active","ping":59},{"user_id":655,"name":"The Grim Heaper","steam_id":76561197987759101,"connected_time":2834000000000,"state":"active","ping":93},{"user_id":649,"name":"Arc","steam_id":76561199215227692,"connected_time":3548000000000,"state":"active","ping":57},{"user_id":675,"name":"jadene11","steam_id":76561199369221113,"connected_time":34000000000,"state":"spawning","ping":43},{"user_id":658,"name":"Livin' Like Larry","steam_id":76561198313360974,"connected_time":2695000000000,"state":"active","ping":45},{"user_id":673,"name":"Giga","steam_id":76561198057351539,"connected_time":876000000000,"state":"active","ping":61},{"user_id":654,"name":"blast a hoe","steam_id":76561198294281809,"connected_time":2860000000000,"state":"active","ping":51},{"user_id":646,"name":"CaiGaming","steam_id":76561198313023508,"connected_time":3799000000000,"state":"active","ping":57},{"user_id":669,"name":"✿ PoutyBun ✿","steam_id":76561197965762847,"connected_time":1118000000000,"state":"active","ping":61},{"user_id":632,"name":"a mouse with a gun","steam_id":76561198066154333,"connected_time":4505000000000,"state":"active","ping":96},{"user_id":670,"name":"lordstinkdemon666","steam_id":76561198073914311,"connected_time":1110000000000,"state":"active","ping":43},{"user_id":666,"name":"QuesaDiaz","steam_id":76561198355667850,"connected_time":1600000000000,"state":"active","ping":41},{"user_id":653,"name":"kwetzal","steam_id":76561198845749671,"connected_time":2872000000000,"state":"active","ping":68},{"user_id":650,"name":"Mr.Rogers","steam_id":76561198043878683,"connected_time":3330000000000,"state":"active","ping":66},{"user_id":661,"name":"Myra1090","steam_id":76561198060917191,"connected_time":2281000000000,"state":"active","ping":70},{"user_id":652,"name":"Dezzithediscoduck","steam_id":76561198037043489,"connected_time":2873000000000,"state":"active","ping":54},{"user_id":610,"name":"Faster 07","steam_id":76561199001109571,"connected_time":6551000000000,"state":"active","ping":69}]},{"server_id":112,"name":"Uncletopia | Los Angeles | 2 | All Maps","name_short":"lax-2","host":"lax-1.us.uncletopia.com","port":27025,"enabled":true,"region":"us-west","cc":"us","latitude":33.94279,"longitude":-118.41004,"reserved":0,"last_update":"0001-01-01T00:00:00Z","name_a2s":"Uncletopia | Los Angeles | 2 | All Maps","protocol":17,"map":"ctf_landfall","folder":"tf","game":"Team Fortress","app_id":440,"player_count":23,"max_players":24,"Bots":0,"server_type":"Dedicated","server_os":"Linux","password":true,"vac":true,"version":"7961495","steam_id":85568392924469992,"keywords":["ctf","nocrits","nodmgspread","uncletopia"],"game_id":440,"stv_port":27026,"stv_name":"Uncletopia | Los Angeles | 2 | All Maps | STV","players":[{"user_id":403,"name":"Therapy Goth","steam_id":76561198048448497,"connected_time":1474000000000,"state":"active","ping":105},{"user_id":417,"name":"Snoopist","steam_id":76561198144023761,"connected_time":792000000000,"state":"active","ping":82},{"user_id":384,"name":"the pizza","steam_id":76561198221331476,"connected_time":2078000000000,"state":"active","ping":45},{"user_id":415,"name":"ScoutBox","steam_id":76561198111539895,"connected_time":1026000000000,"state":"active","ping":48},{"user_id":399,"name":"Boocin","steam_id":76561198083195283,"connected_time":1671000000000,"state":"active","ping":88},{"user_id":421,"name":"Evan_braddock","steam_id":76561199033707012,"connected_time":395000000000,"state":"active","ping":73},{"user_id":324,"name":"Pescado Juegos","steam_id":76561198798161131,"connected_time":6620000000000,"state":"active","ping":77},{"user_id":407,"name":"BitPieStudios","steam_id":76561198059216393,"connected_time":1298000000000,"state":"active","ping":49},{"user_id":284,"name":"Gummy","steam_id":76561199200969139,"connected_time":9653000000000,"state":"active","ping":110},{"user_id":397,"name":"caca sniffer","steam_id":76561199099914725,"connected_time":1743000000000,"state":"active","ping":75},{"user_id":390,"name":"Sakio","steam_id":76561198327087049,"connected_time":1888000000000,"state":"active","ping":71},{"user_id":422,"name":"josie","steam_id":76561198170848553,"connected_time":378000000000,"state":"active","ping":72},{"user_id":365,"name":"netoc6","steam_id":76561199065312168,"connected_time":3703000000000,"state":"active","ping":116},{"user_id":414,"name":"GoldtoothFour","steam_id":76561198055529332,"connected_time":1036000000000,"state":"active","ping":103},{"user_id":423,"name":"crazey","steam_id":76561198286510667,"connected_time":362000000000,"state":"active","ping":75},{"user_id":349,"name":"Burny Sanders","steam_id":76561197961879048,"connected_time":4826000000000,"state":"active","ping":69},{"user_id":409,"name":"Styck","steam_id":76561199130187039,"connected_time":1225000000000,"state":"active","ping":59},{"user_id":410,"name":"Big Jon","steam_id":76561198402285099,"connected_time":1218000000000,"state":"active","ping":71},{"user_id":376,"name":"LaChancla","steam_id":76561198971528917,"connected_time":2549000000000,"state":"active","ping":82},{"user_id":398,"name":"Smonk","steam_id":76561199275830628,"connected_time":1739000000000,"state":"active","ping":83},{"user_id":424,"name":"Facepalm","steam_id":76561198001935226,"connected_time":319000000000,"state":"active","ping":62},{"user_id":416,"name":"UGInfernobroblazeslash gamehag.","steam_id":76561198054745240,"connected_time":992000000000,"state":"active","ping":55},{"user_id":413,"name":"Xanathar","steam_id":76561197985749277,"connected_time":1124000000000,"state":"active","ping":58}]},{"server_id":324,"name":"Uncletopia | Los Angeles | 3 | All Maps","name_short":"lax-3","host":"lax-1.us.uncletopia.com","port":27035,"enabled":true,"region":"us-west","cc":"us","latitude":33.94279,"longitude":-118.41004,"reserved":0,"last_update":"0001-01-01T00:00:00Z","name_a2s":"Uncletopia | Los Angeles | 3 | All Maps","protocol":17,"map":"cp_mountainlab","folder":"tf","game":"Team Fortress","app_id":440,"player_count":17,"max_players":24,"Bots":0,"server_type":"Dedicated","server_os":"Linux","password":true,"vac":true,"version":"7961495","steam_id":85568392924510198,"keywords":["cp","nocrits","nodmgspread","uncletopia"],"game_id":440,"stv_port":27036,"stv_name":"Uncletopia | Los Angeles | 3 | All Maps | STV","players":[{"user_id":321,"name":"Spiceitwithred","steam_id":76561198313150295,"connected_time":244000000000,"state":"active","ping":79},{"user_id":283,"name":"Seriously Bruh","steam_id":76561198070408485,"connected_time":2635000000000,"state":"active","ping":74},{"user_id":322,"name":"UncleMuscles","steam_id":76561198032539981,"connected_time":243000000000,"state":"active","ping":63},{"user_id":323,"name":"Ebby","steam_id":76561198124284351,"connected_time":58000000000,"state":"spawning","ping":93},{"user_id":306,"name":"NoAuto.Shed","steam_id":76561198206177593,"connected_time":1183000000000,"state":"active","ping":44},{"user_id":315,"name":"Cigarette Fish","steam_id":76561199086973797,"connected_time":637000000000,"state":"active","ping":119},{"user_id":316,"name":"JustAnormalUsername","steam_id":76561198891545498,"connected_time":611000000000,"state":"active","ping":91},{"user_id":264,"name":"sillygoon","steam_id":76561199086142678,"connected_time":4186000000000,"state":"active","ping":68},{"user_id":265,"name":"Oliver Klozoff","steam_id":76561198024788419,"connected_time":4169000000000,"state":"active","ping":99},{"user_id":324,"name":"type \"bad med\" to kick","steam_id":76561198076402476,"connected_time":6000000000,"state":"spawning","ping":56},{"user_id":266,"name":"Tummy Sunday","steam_id":76561198031336957,"connected_time":4157000000000,"state":"active","ping":90},{"user_id":312,"name":"Polar","steam_id":76561198055781237,"connected_time":817000000000,"state":"active","ping":71},{"user_id":313,"name":"jesus marie they're minerals","steam_id":76561198168492250,"connected_time":812000000000,"state":"active","ping":66},{"user_id":320,"name":"XenPie","steam_id":76561198814382153,"connected_time":403000000000,"state":"active","ping":55},{"user_id":246,"name":"Randle of John","steam_id":76561198328210524,"connected_time":6359000000000,"state":"active","ping":45},{"user_id":319,"name":"porksoda","steam_id":76561198021451377,"connected_time":540000000000,"state":"active","ping":70},{"user_id":296,"name":"Miss Tate☼","steam_id":76561199096263556,"connected_time":1903000000000,"state":"active","ping":59}]},{"server_id":25,"name":"Uncletopia | Los Angeles | 4 | Stopwatch","name_short":"lax-4","host":"lax-1.us.uncletopia.com","port":27045,"enabled":true,"region":"us-west","cc":"us","latitude":33.94279,"longitude":-118.41004,"reserved":0,"last_update":"0001-01-01T00:00:00Z","name_a2s":"Uncletopia | Los Angeles | 4 | Stopwatch","protocol":17,"map":"workshop/koth_clearcut_b15.ugc2107050255","folder":"tf","game":"Team Fortress","app_id":440,"player_count":0,"max_players":24,"Bots":0,"server_type":"Dedicated","server_os":"Linux","password":true,"vac":true,"version":"7961495","steam_id":85568392924510199,"keywords":["cp","nocrits","nodmgspread","uncletopia"],"game_id":440,"stv_port":27046,"stv_name":"Uncletopia | Los Angeles | 4 | Stopwatch | STV","players":null},{"server_id":11,"name":"Uncletopia | London | 1 | All Maps","name_short":"lon-1","host":"lon-1.uk.uncletopia.com","port":27015,"enabled":true,"region":"eu","cc":"gb","latitude":51.509865,"longitude":-0.118092,"reserved":0,"last_update":"0001-01-01T00:00:00Z","name_a2s":"Uncletopia | London | 1 | All Maps","protocol":17,"map":"pl_borneo","folder":"tf","game":"Team Fortress","app_id":440,"player_count":24,"max_players":24,"Bots":0,"server_type":"Dedicated","server_os":"Linux","password":true,"vac":true,"version":"7961495","steam_id":85568392924367362,"keywords":["nocrits","nodmgspread","payload","uncletopia"],"game_id":440,"stv_port":27016,"stv_name":"Uncletopia | London | 1 | All Maps | STV","players":[{"user_id":91,"name":"axl","steam_id":76561198991661832,"connected_time":1921000000000,"state":"active","ping":70},{"user_id":81,"name":"tony","steam_id":76561199382978934,"connected_time":2420000000000,"state":"active","ping":84},{"user_id":105,"name":"Jørn","steam_id":76561199073257952,"connected_time":149000000000,"state":"active","ping":64},{"user_id":82,"name":"British Disapproval","steam_id":76561198001375260,"connected_time":2311000000000,"state":"active","ping":56},{"user_id":89,"name":"Pan","steam_id":76561198436871448,"connected_time":1943000000000,"state":"active","ping":37},{"user_id":92,"name":"greek femboy connoisseur","steam_id":76561198010662796,"connected_time":1904000000000,"state":"active","ping":44},{"user_id":93,"name":"GMsU | Rebikas","steam_id":76561198077053764,"connected_time":1815000000000,"state":"active","ping":55},{"user_id":100,"name":"Wilson","steam_id":76561198992452882,"connected_time":1352000000000,"state":"active","ping":74},{"user_id":97,"name":"Bai lan do","steam_id":76561198176442942,"connected_time":1368000000000,"state":"active","ping":78},{"user_id":46,"name":"Whos Me Bloody Valentine","steam_id":76561198046873337,"connected_time":7207000000000,"state":"active","ping":58},{"user_id":71,"name":"Horny Femboy","steam_id":76561198413275515,"connected_time":4042000000000,"state":"active","ping":93},{"user_id":90,"name":"frequeNt_","steam_id":76561198087457220,"connected_time":1943000000000,"state":"active","ping":73},{"user_id":101,"name":"ZA SOUL","steam_id":76561198211277765,"connected_time":1222000000000,"state":"active","ping":80},{"user_id":70,"name":"the FREAK !!!","steam_id":76561198076219289,"connected_time":4050000000000,"state":"active","ping":58},{"user_id":72,"name":"night.s","steam_id":76561198326287823,"connected_time":3929000000000,"state":"active","ping":67},{"user_id":73,"name":"Neimon","steam_id":76561198343485710,"connected_time":3655000000000,"state":"active","ping":131},{"user_id":66,"name":"jais","steam_id":76561198043801650,"connected_time":5196000000000,"state":"active","ping":169},{"user_id":79,"name":"Catsanddogs123","steam_id":76561198030868386,"connected_time":2470000000000,"state":"active","ping":118},{"user_id":39,"name":"Rin-Nakaret","steam_id":76561197971051188,"connected_time":7488000000000,"state":"active","ping":55},{"user_id":98,"name":"JGV","steam_id":76561198094654971,"connected_time":1367000000000,"state":"active","ping":85},{"user_id":95,"name":"Fearly","steam_id":76561198798684016,"connected_time":1376000000000,"state":"active","ping":46},{"user_id":103,"name":"Senior","steam_id":76561198065014164,"connected_time":871000000000,"state":"active","ping":50},{"user_id":86,"name":"Killroywashere","steam_id":76561198169854979,"connected_time":2166000000000,"state":"active","ping":89},{"user_id":107,"name":"Csau","steam_id":76561198080501788,"connected_time":105000000000,"state":"active","ping":95}]},{"server_id":114,"name":"Uncletopia | London | 2 | All Maps","name_short":"lon-2","host":"lon-1.uk.uncletopia.com","port":27025,"enabled":true,"region":"eu","cc":"gb","latitude":51.509865,"longitude":-0.118092,"reserved":0,"last_update":"0001-01-01T00:00:00Z","name_a2s":"Uncletopia | London | 2 | All Maps","protocol":17,"map":"koth_lakeside_final","folder":"tf","game":"Team Fortress","app_id":440,"player_count":0,"max_players":24,"Bots":0,"server_type":"Dedicated","server_os":"Linux","password":true,"vac":true,"version":"7961495","steam_id":85568392924470941,"keywords":["cp","nocrits","nodmgspread","uncletopia"],"game_id":440,"stv_port":27026,"stv_name":"Uncletopia | London | 2 | All Maps | STV","players":null},{"server_id":320,"name":"Uncletopia | London | 3 | All Maps","name_short":"lon-3","host":"lon-1.uk.uncletopia.com","port":27035,"enabled":true,"region":"eu","cc":"gb","latitude":51.509865,"longitude":-0.118092,"reserved":0,"last_update":"0001-01-01T00:00:00Z","name_a2s":"Uncletopia | London | 3 | All Maps","protocol":17,"map":"cp_process_final","folder":"tf","game":"Team Fortress","app_id":440,"player_count":0,"max_players":24,"Bots":0,"server_type":"Dedicated","server_os":"Linux","password":true,"vac":true,"version":"7961495","steam_id":85568392924510192,"keywords":["cp","nocrits","nodmgspread","uncletopia"],"game_id":440,"stv_port":27036,"stv_name":"Uncletopia | London | 3 | All Maps | STV","players":null},{"server_id":321,"name":"Uncletopia | London | 4 | All Maps","name_short":"lon-4","host":"lon-1.uk.uncletopia.com","port":27045,"enabled":true,"region":"eu","cc":"gb","latitude":51.509865,"longitude":-0.118092,"reserved":0,"last_update":"0001-01-01T00:00:00Z","name_a2s":"Uncletopia | London | 4 | All Maps","protocol":17,"map":"koth_cascade","folder":"tf","game":"Team Fortress","app_id":440,"player_count":0,"max_players":24,"Bots":0,"server_type":"Dedicated","server_os":"Linux","password":true,"vac":true,"version":"7961495","steam_id":85568392924510193,"keywords":["cp","nocrits","nodmgspread","uncletopia"],"game_id":440,"stv_port":27046,"stv_name":"Uncletopia | London | 4 | All Maps | STV","players":null},{"server_id":21,"name":"Uncletopia | London | 5 | All Maps","name_short":"lon-5","host":"lon-1.uk.uncletopia.com","port":27055,"enabled":true,"region":"eu","cc":"gb","latitude":51.509865,"longitude":-0.118092,"reserved":0,"last_update":"0001-01-01T00:00:00Z","name_a2s":"Uncletopia | London | 5 | All Maps","protocol":17,"map":"koth_lakeside_final","folder":"tf","game":"Team Fortress","app_id":440,"player_count":0,"max_players":24,"Bots":0,"server_type":"Dedicated","server_os":"Linux","password":true,"vac":true,"version":"7961495","steam_id":85568392924742829,"keywords":["cp","nocrits","nodmgspread","uncletopia"],"game_id":440,"stv_port":27056,"stv_name":"Uncletopia | London | 5 | All Maps | STV","players":null},{"server_id":22,"name":"Uncletopia | London | 6 | All Maps","name_short":"lon-6","host":"lon-1.uk.uncletopia.com","port":27065,"enabled":true,"region":"eu","cc":"gb","latitude":51.509865,"longitude":-0.118092,"reserved":0,"last_update":"0001-01-01T00:00:00Z","name_a2s":"Uncletopia | London | 6 | All Maps","protocol":17,"map":"cp_dustbowl","folder":"tf","game":"Team Fortress","app_id":440,"player_count":0,"max_players":24,"Bots":0,"server_type":"Dedicated","server_os":"Linux","password":true,"vac":true,"version":"7961495","steam_id":85568392924742830,"keywords":["cp","nocrits","nodmgspread","uncletopia"],"game_id":440,"stv_port":27066,"stv_name":"Uncletopia | London | 6 | All Maps | STV","players":null},{"server_id":40,"name":"Uncletopia | London | 7 | Stopwatch","name_short":"lon-7","host":"lon-1.uk.uncletopia.com","port":27075,"enabled":true,"region":"eu","cc":"gb","latitude":51.509865,"longitude":-0.118092,"reserved":0,"last_update":"0001-01-01T00:00:00Z","name_a2s":"Uncletopia | London | 7 | Stopwatch","protocol":17,"map":"koth_lakeside_final","folder":"tf","game":"Team Fortress","app_id":440,"player_count":0,"max_players":24,"Bots":0,"server_type":"Dedicated","server_os":"Linux","password":true,"vac":true,"version":"7961495","steam_id":85568392924964314,"keywords":["cp","nocrits","nodmgspread","uncletopia"],"game_id":440,"stv_port":27076,"stv_name":"Uncletopia | London | 7 | Stopwatch | STV","players":null},{"server_id":41,"name":"Uncletopia | London | 8 | Community","name_short":"lon-8","host":"lon-1.uk.uncletopia.com","port":27085,"enabled":true,"region":"eu","cc":"gb","latitude":51.509865,"longitude":-0.118092,"reserved":0,"last_update":"0001-01-01T00:00:00Z","name_a2s":"Uncletopia | London | 8 | Community","protocol":17,"map":"cp_snakewater_final1","folder":"tf","game":"Team Fortress","app_id":440,"player_count":0,"max_players":24,"Bots":0,"server_type":"Dedicated","server_os":"Linux","password":true,"vac":true,"version":"7961495","steam_id":85568392924964315,"keywords":["cp","nocrits","nodmgspread","uncletopia"],"game_id":440,"stv_port":27086,"stv_name":"Uncletopia | London | 8 | Community | STV","players":null},{"server_id":300,"name":"Uncletopia | Montréal | 1 | One Thousand Uncles","name_short":"mtl-1","host":"mtl-1.ca.uncletopia.com","port":27015,"enabled":true,"region":"us-east","cc":"ca","latitude":45.50889,"longitude":-73.56167,"reserved":0,"last_update":"0001-01-01T00:00:00Z","name_a2s":"","protocol":0,"map":"","folder":"","game":"","app_id":0,"player_count":3,"max_players":0,"Bots":0,"server_type":"","server_os":"","password":false,"vac":false,"version":"","steam_id":0,"keywords":null,"game_id":0,"stv_port":0,"stv_name":"","players":[{"user_id":597,"name":"Millennial on phone","steam_id":76561199083638722,"connected_time":1768000000000,"state":"active","ping":130},{"user_id":598,"name":"Lumpenspitz","steam_id":76561198371956616,"connected_time":1746000000000,"state":"active","ping":150},{"user_id":599,"name":"A SODA FROM THE FRIDGE","steam_id":76561199393312258,"connected_time":1692000000000,"state":"active","ping":122}]},{"server_id":301,"name":"Uncletopia | Montréal | 2 | One Thousand Uncles","name_short":"mtl-2","host":"mtl-1.ca.uncletopia.com","port":27025,"enabled":true,"region":"us-east","cc":"ca","latitude":45.50889,"longitude":-73.56167,"reserved":0,"last_update":"0001-01-01T00:00:00Z","name_a2s":"","protocol":0,"map":"","folder":"","game":"","app_id":0,"player_count":0,"max_players":0,"Bots":0,"server_type":"","server_os":"","password":false,"vac":false,"version":"","steam_id":0,"keywords":null,"game_id":0,"stv_port":0,"stv_name":"","players":null},{"server_id":302,"name":"Uncletopia | Montréal | 3 | One Thousand Uncles","name_short":"mtl-3","host":"mtl-1.ca.uncletopia.com","port":27035,"enabled":true,"region":"us-east","cc":"ca","latitude":45.50889,"longitude":-73.56167,"reserved":0,"last_update":"0001-01-01T00:00:00Z","name_a2s":"","protocol":0,"map":"","folder":"","game":"","app_id":0,"player_count":0,"max_players":0,"Bots":0,"server_type":"","server_os":"","password":false,"vac":false,"version":"","steam_id":0,"keywords":null,"game_id":0,"stv_port":0,"stv_name":"","players":null},{"server_id":13,"name":"Uncletopia | New York City | 1 | All Maps","name_short":"nyc-1","host":"nyc-1.us.uncletopia.com","port":27015,"enabled":true,"region":"us-east","cc":"us","latitude":40.73061,"longitude":-73.93524,"reserved":0,"last_update":"0001-01-01T00:00:00Z","name_a2s":"Uncletopia | New York City | 1 | All Maps","protocol":17,"map":"koth_lakeside_final","folder":"tf","game":"Team Fortress","app_id":440,"player_count":0,"max_players":24,"Bots":0,"server_type":"Dedicated","server_os":"Linux","password":true,"vac":true,"version":"7961495","steam_id":85568392924469993,"keywords":["cp","nocrits","nodmgspread","uncletopia"],"game_id":440,"stv_port":27016,"stv_name":"Uncletopia | New York City | 1 | All Maps | STV","players":null},{"server_id":14,"name":"Uncletopia | New York City | 2 | All Maps","name_short":"nyc-2","host":"nyc-1.us.uncletopia.com","port":27025,"enabled":true,"region":"us-east","cc":"us","latitude":40.73061,"longitude":-73.93524,"reserved":0,"last_update":"0001-01-01T00:00:00Z","name_a2s":"Uncletopia | New York City | 2 | All Maps","protocol":17,"map":"cp_dustbowl","folder":"tf","game":"Team Fortress","app_id":440,"player_count":0,"max_players":24,"Bots":0,"server_type":"Dedicated","server_os":"Linux","password":true,"vac":true,"version":"7961495","steam_id":85568392924469994,"keywords":["cp","nocrits","nodmgspread","uncletopia"],"game_id":440,"stv_port":27026,"stv_name":"Uncletopia | New York City | 2 | All Maps | STV","players":null},{"server_id":15,"name":"Uncletopia | New York City | 3 | Stopwatch","name_short":"nyc-3","host":"nyc-1.us.uncletopia.com","port":27035,"enabled":true,"region":"us-east","cc":"us","latitude":40.73061,"longitude":-73.93524,"reserved":0,"last_update":"0001-01-01T00:00:00Z","name_a2s":"Uncletopia | New York City | 3 | Stopwatch","protocol":17,"map":"pl_snowycoast","folder":"tf","game":"Team Fortress","app_id":440,"player_count":0,"max_players":24,"Bots":0,"server_type":"Dedicated","server_os":"Linux","password":true,"vac":true,"version":"7961495","steam_id":85568392924742820,"keywords":["nocrits","nodmgspread","payload","uncletopia"],"game_id":440,"stv_port":27036,"stv_name":"Uncletopia | New York City | 3 | Stopwatch | STV","players":null},{"server_id":16,"name":"Uncletopia | New York City | 4 | Community","name_short":"nyc-4","host":"nyc-1.us.uncletopia.com","port":27045,"enabled":true,"region":"us-east","cc":"us","latitude":40.73061,"longitude":-73.93524,"reserved":0,"last_update":"0001-01-01T00:00:00Z","name_a2s":"Uncletopia | New York City | 4 | Community","protocol":17,"map":"workshop/koth_product_final.ugc454272353","folder":"tf","game":"Team Fortress","app_id":440,"player_count":0,"max_players":24,"Bots":0,"server_type":"Dedicated","server_os":"Linux","password":true,"vac":true,"version":"7961495","steam_id":85568392924742821,"keywords":["cp","nocrits","nodmgspread","uncletopia"],"game_id":440,"stv_port":27046,"stv_name":"Uncletopia | New York City | 4 | Community | STV","players":null},{"server_id":142,"name":"Uncletopia | São Paulo | 1 | All Maps","name_short":"sao-1","host":"sao-1.br.uncletopia.com","port":27015,"enabled":true,"region":"sa","cc":"br","latitude":-23.533773,"longitude":-46.62529,"reserved":0,"last_update":"0001-01-01T00:00:00Z","name_a2s":"Uncletopia | São Paulo | 1 | All Maps","protocol":17,"map":"koth_viaduct","folder":"tf","game":"Team Fortress","app_id":440,"player_count":0,"max_players":24,"Bots":0,"server_type":"Dedicated","server_os":"Linux","password":true,"vac":true,"version":"7961495","steam_id":85568392924469996,"keywords":["cp","nocrits","nodmgspread","uncletopia"],"game_id":440,"stv_port":27016,"stv_name":"Uncletopia | São Paulo | 1 | All Maps | STV","players":null},{"server_id":143,"name":"Uncletopia | São Paulo | 2 | Community","name_short":"sao-2","host":"sao-2.br.uncletopia.com","port":27015,"enabled":true,"region":"sa","cc":"br","latitude":-23.533773,"longitude":-46.62529,"reserved":0,"last_update":"0001-01-01T00:00:00Z","name_a2s":"Uncletopia | São Paulo | 2 | Community","protocol":17,"map":"workshop/koth_kemptown_rc1.ugc767410655","folder":"tf","game":"Team Fortress","app_id":440,"player_count":0,"max_players":24,"Bots":0,"server_type":"Dedicated","server_os":"Linux","password":true,"vac":true,"version":"7961495","steam_id":85568392924485349,"keywords":["cp","nocrits","nodmgspread","uncletopia"],"game_id":440,"stv_port":27016,"stv_name":"Uncletopia | São Paulo | 2 | Community | STV","players":null},{"server_id":7,"name":"Uncletopia | Seattle | 1 | All Maps","name_short":"sea-1","host":"sea-1.us.uncletopia.com","port":27015,"enabled":true,"region":"us-west","cc":"us","latitude":47.608013,"longitude":-122.33517,"reserved":0,"last_update":"0001-01-01T00:00:00Z","name_a2s":"Uncletopia | Seattle | 1 | All Maps","protocol":17,"map":"pl_upward","folder":"tf","game":"Team Fortress","app_id":440,"player_count":24,"max_players":24,"Bots":0,"server_type":"Dedicated","server_os":"Linux","password":true,"vac":true,"version":"7961495","steam_id":85568392924469997,"keywords":["nocrits","nodmgspread","payload","uncletopia"],"game_id":440,"stv_port":27016,"stv_name":"Uncletopia | Seattle | 1 | All Maps | STV","players":[{"user_id":490,"name":"Monte","steam_id":76561198097499917,"connected_time":2204000000000,"state":"active","ping":76},{"user_id":466,"name":"And The Radio Up","steam_id":76561198405865400,"connected_time":4966000000000,"state":"active","ping":91},{"user_id":419,"name":"Lord Hater","steam_id":76561199158148782,"connected_time":9515000000000,"state":"active","ping":58},{"user_id":495,"name":"havarti gaming","steam_id":76561198069895678,"connected_time":931000000000,"state":"active","ping":60},{"user_id":469,"name":"Lord Fortnite","steam_id":76561198246800264,"connected_time":3946000000000,"state":"active","ping":36},{"user_id":472,"name":"Hawksgamer","steam_id":76561198152405941,"connected_time":3910000000000,"state":"active","ping":36},{"user_id":477,"name":"Conseq","steam_id":76561198335652179,"connected_time":3318000000000,"state":"active","ping":49},{"user_id":453,"name":"Nom Skirrett","steam_id":76561198014600788,"connected_time":5396000000000,"state":"active","ping":61},{"user_id":428,"name":"Havi","steam_id":76561198197832829,"connected_time":8625000000000,"state":"active","ping":46},{"user_id":468,"name":"Mr8bittripper","steam_id":76561198133894229,"connected_time":4106000000000,"state":"active","ping":68},{"user_id":499,"name":"poundcake","steam_id":76561198796548083,"connected_time":442000000000,"state":"active","ping":45},{"user_id":441,"name":"gorlab","steam_id":76561198025089694,"connected_time":7255000000000,"state":"active","ping":66},{"user_id":491,"name":"GameMaster555","steam_id":76561198040563049,"connected_time":1667000000000,"state":"active","ping":45},{"user_id":500,"name":"AckWhack","steam_id":76561199060503258,"connected_time":428000000000,"state":"active","ping":76},{"user_id":493,"name":":(){ :|:\u0026 };:","steam_id":76561198115242460,"connected_time":1496000000000,"state":"active","ping":57},{"user_id":483,"name":"hart","steam_id":76561198046073848,"connected_time":3123000000000,"state":"active","ping":44},{"user_id":484,"name":"JOHN WICK","steam_id":76561198091877422,"connected_time":2812000000000,"state":"active","ping":51},{"user_id":448,"name":"TROY","steam_id":76561197983852176,"connected_time":5810000000000,"state":"active","ping":78},{"user_id":492,"name":"zee","steam_id":76561198148876424,"connected_time":1597000000000,"state":"active","ping":54},{"user_id":388,"name":"Donny Q","steam_id":76561198020901703,"connected_time":11518000000000,"state":"active","ping":45},{"user_id":497,"name":"Arsonist Goose","steam_id":76561198147441830,"connected_time":728000000000,"state":"active","ping":76},{"user_id":431,"name":"rat gets the cheese","steam_id":76561198031234032,"connected_time":7549000000000,"state":"active","ping":95},{"user_id":496,"name":"Cobra","steam_id":76561198392514273,"connected_time":887000000000,"state":"active","ping":58},{"user_id":476,"name":"Sniff","steam_id":76561198010270922,"connected_time":3814000000000,"state":"active","ping":76}]},{"server_id":119,"name":"Uncletopia | Seattle | 2 | All Maps","name_short":"sea-2","host":"sea-1.us.uncletopia.com","port":27025,"enabled":true,"region":"us-west","cc":"us","latitude":47.608013,"longitude":-122.33517,"reserved":0,"last_update":"0001-01-01T00:00:00Z","name_a2s":"Uncletopia | Seattle | 2 | All Maps","protocol":17,"map":"pl_frontier_final","folder":"tf","game":"Team Fortress","app_id":440,"player_count":11,"max_players":24,"Bots":0,"server_type":"Dedicated","server_os":"Linux","password":true,"vac":true,"version":"7961495","steam_id":85568392924469998,"keywords":["nocrits","nodmgspread","payload","uncletopia"],"game_id":440,"stv_port":27026,"stv_name":"Uncletopia | Seattle | 2 | All Maps | STV","players":[{"user_id":1029,"name":"Stinky","steam_id":76561198971257562,"connected_time":621000000000,"state":"active","ping":47},{"user_id":1007,"name":"♥Chara喜生子♥","steam_id":76561198080500920,"connected_time":2595000000000,"state":"active","ping":75},{"user_id":1026,"name":"Princess_Luciana","steam_id":76561198085157993,"connected_time":835000000000,"state":"active","ping":45},{"user_id":1027,"name":"Hex4827","steam_id":76561198038790698,"connected_time":829000000000,"state":"active","ping":45},{"user_id":1009,"name":"Micc","steam_id":76561199447744486,"connected_time":2567000000000,"state":"active","ping":68},{"user_id":1001,"name":"JustaTroll","steam_id":76561198351004116,"connected_time":3220000000000,"state":"active","ping":73},{"user_id":1028,"name":"the shower shitter","steam_id":76561199217457666,"connected_time":735000000000,"state":"active","ping":253},{"user_id":1032,"name":"SleepyTrout (Charging My PsP)","steam_id":76561198118082897,"connected_time":539000000000,"state":"active","ping":37},{"user_id":1033,"name":"AstralLucario","steam_id":76561198075427665,"connected_time":517000000000,"state":"active","ping":104},{"user_id":1014,"name":"delight","steam_id":76561197980280272,"connected_time":2278000000000,"state":"active","ping":44},{"user_id":1010,"name":"CookieMeister","steam_id":76561198112646899,"connected_time":2539000000000,"state":"active","ping":45}]},{"server_id":406,"name":"Uncletopia | Seattle | 3 | Stopwatch","name_short":"sea-3","host":"sea-1.us.uncletopia.com","port":27035,"enabled":true,"region":"us-west","cc":"us","latitude":47.608013,"longitude":-122.33517,"reserved":0,"last_update":"0001-01-01T00:00:00Z","name_a2s":"Uncletopia | Seattle | 3 | Stopwatch","protocol":17,"map":"workshop/koth_ramjam_rc1.ugc459778887","folder":"tf","game":"Team Fortress","app_id":440,"player_count":0,"max_players":24,"Bots":0,"server_type":"Dedicated","server_os":"Linux","password":true,"vac":true,"version":"7961495","steam_id":85568392924515217,"keywords":["cp","nocrits","nodmgspread","uncletopia"],"game_id":440,"stv_port":27036,"stv_name":"Uncletopia | Seattle | 3 | Stopwatch | STV","players":null},{"server_id":17,"name":"Uncletopia | San Francisco | 1 | All Maps","name_short":"sfo-1","host":"sfo-1.us.uncletopia.com","port":27015,"enabled":true,"region":"us-west","cc":"us","latitude":37.77397,"longitude":-122.4313,"reserved":0,"last_update":"0001-01-01T00:00:00Z","name_a2s":"Uncletopia | San Francisco | 1 | All Maps","protocol":17,"map":"koth_cascade","folder":"tf","game":"Team Fortress","app_id":440,"player_count":0,"max_players":24,"Bots":0,"server_type":"Dedicated","server_os":"Linux","password":true,"vac":true,"version":"7961495","steam_id":85568392924469999,"keywords":["cp","nocrits","nodmgspread","uncletopia"],"game_id":440,"stv_port":27016,"stv_name":"Uncletopia | San Francisco | 1 | All Maps | STV","players":null},{"server_id":18,"name":"Uncletopia | San Francisco | 2 | All Maps","name_short":"sfo-2","host":"sfo-1.us.uncletopia.com","port":27025,"enabled":true,"region":"us-west","cc":"us","latitude":37.77397,"longitude":-122.4313,"reserved":0,"last_update":"0001-01-01T00:00:00Z","name_a2s":"Uncletopia | San Francisco | 2 | All Maps","protocol":17,"map":"cp_snakewater_final1","folder":"tf","game":"Team Fortress","app_id":440,"player_count":0,"max_players":24,"Bots":0,"server_type":"Dedicated","server_os":"Linux","password":true,"vac":true,"version":"7961495","steam_id":85568392924470000,"keywords":["cp","nocrits","nodmgspread","uncletopia"],"game_id":440,"stv_port":27026,"stv_name":"Uncletopia | San Francisco | 2 | All Maps | STV","players":null},{"server_id":19,"name":"Uncletopia | San Francisco | 3 | Stopwatch","name_short":"sfo-3","host":"sfo-1.us.uncletopia.com","port":27035,"enabled":true,"region":"us-west","cc":"us","latitude":37.77397,"longitude":-122.4313,"reserved":0,"last_update":"0001-01-01T00:00:00Z","name_a2s":"Uncletopia | San Francisco | 3 | Stopwatch","protocol":17,"map":"cp_snakewater_final1","folder":"tf","game":"Team Fortress","app_id":440,"player_count":0,"max_players":24,"Bots":0,"server_type":"Dedicated","server_os":"Linux","password":true,"vac":true,"version":"7961495","steam_id":85568392924742824,"keywords":["cp","nocrits","nodmgspread","uncletopia"],"game_id":440,"stv_port":27036,"stv_name":"Uncletopia | San Francisco | 3 | Stopwatch | STV","players":null},{"server_id":20,"name":"Uncletopia | San Francisco | 4 | Community","name_short":"sfo-4","host":"sfo-1.us.uncletopia.com","port":27045,"enabled":true,"region":"us-west","cc":"us","latitude":37.77397,"longitude":-122.4313,"reserved":0,"last_update":"0001-01-01T00:00:00Z","name_a2s":"Uncletopia | San Francisco | 4 | Community","protocol":17,"map":"workshop/koth_ashville_final.ugc2130459942","folder":"tf","game":"Team Fortress","app_id":440,"player_count":0,"max_players":24,"Bots":0,"server_type":"Dedicated","server_os":"Linux","password":true,"vac":true,"version":"7961495","steam_id":85568392924742826,"keywords":["cp","nocrits","nodmgspread","uncletopia"],"game_id":440,"stv_port":27046,"stv_name":"Uncletopia | San Francisco | 4 | Community | STV","players":null},{"server_id":141,"name":"Uncletopia | Sydney | 1 | All Maps","name_short":"syd-1","host":"syd-1.au.uncletopia.com","port":27015,"enabled":true,"region":"au","cc":"au","latitude":-33.865143,"longitude":151.2099,"reserved":0,"last_update":"0001-01-01T00:00:00Z","name_a2s":"Uncletopia | Sydney | 1 | All Maps","protocol":17,"map":"pl_upward","folder":"tf","game":"Team Fortress","app_id":440,"player_count":24,"max_players":24,"Bots":0,"server_type":"Dedicated","server_os":"Linux","password":true,"vac":true,"version":"7961495","steam_id":85568392924470001,"keywords":["nocrits","nodmgspread","payload","uncletopia"],"game_id":440,"stv_port":27016,"stv_name":"Uncletopia | Sydney | 1 | All Maps | STV","players":[{"user_id":241,"name":"papa","steam_id":76561198163034070,"connected_time":1319000000000,"state":"active","ping":51},{"user_id":197,"name":"Glassy-Eyed Automaton Exploitin","steam_id":76561198072845816,"connected_time":3837000000000,"state":"active","ping":45},{"user_id":250,"name":"soupy","steam_id":76561198073734936,"connected_time":50000000000,"state":"active","ping":90},{"user_id":239,"name":"CypressFluff (she/her)","steam_id":76561198174667818,"connected_time":1325000000000,"state":"active","ping":66},{"user_id":240,"name":"Chooka","steam_id":76561197992307814,"connected_time":1324000000000,"state":"active","ping":69},{"user_id":230,"name":"coggo","steam_id":76561198079351541,"connected_time":1633000000000,"state":"active","ping":45},{"user_id":243,"name":"Ᵽ𐌄Ť𐌄Ұ (Yep/Cock)","steam_id":76561199140764838,"connected_time":1079000000000,"state":"active","ping":60},{"user_id":232,"name":"zingertoon glittergert","steam_id":76561198063481761,"connected_time":1602000000000,"state":"active","ping":39},{"user_id":116,"name":"h20","steam_id":76561198133490050,"connected_time":8998000000000,"state":"active","ping":108},{"user_id":179,"name":"Attling","steam_id":76561198087595494,"connected_time":5294000000000,"state":"active","ping":45},{"user_id":196,"name":"fart simulator 2013","steam_id":76561198166909147,"connected_time":3844000000000,"state":"active","ping":32},{"user_id":175,"name":"Zeal","steam_id":76561198060829393,"connected_time":5325000000000,"state":"active","ping":69},{"user_id":248,"name":"mealuns","steam_id":76561198059318461,"connected_time":245000000000,"state":"active","ping":87},{"user_id":238,"name":"diamond","steam_id":76561198206754736,"connected_time":1328000000000,"state":"active","ping":55},{"user_id":247,"name":"SpeedDealer","steam_id":76561199407076668,"connected_time":437000000000,"state":"active","ping":68},{"user_id":186,"name":"I suspect... worms","steam_id":76561198060024585,"connected_time":4862000000000,"state":"active","ping":34},{"user_id":228,"name":"SLOW START HOLDS ME BACK","steam_id":76561198067978287,"connected_time":2062000000000,"state":"active","ping":96},{"user_id":216,"name":"Woopdycow","steam_id":76561198008975606,"connected_time":2649000000000,"state":"active","ping":73},{"user_id":235,"name":"FascismSalad","steam_id":76561198262410973,"connected_time":1389000000000,"state":"active","ping":53},{"user_id":249,"name":"hhhh","steam_id":76561198019740135,"connected_time":51000000000,"state":"active","ping":59},{"user_id":198,"name":"Orewell","steam_id":76561198013119116,"connected_time":3834000000000,"state":"active","ping":70},{"user_id":200,"name":"11/10 would cook spider again","steam_id":76561198285714724,"connected_time":3692000000000,"state":"active","ping":68},{"user_id":246,"name":"King Stan II","steam_id":76561198890742309,"connected_time":470000000000,"state":"active","ping":112},{"user_id":213,"name":"riverdrift","steam_id":76561198012251972,"connected_time":2937000000000,"state":"active","ping":53}]},{"server_id":123,"name":"Uncletopia | Sydney | 2 | All Maps","name_short":"syd-2","host":"syd-1.au.uncletopia.com","port":27025,"enabled":true,"region":"au","cc":"au","latitude":-33.865143,"longitude":151.2099,"reserved":0,"last_update":"0001-01-01T00:00:00Z","name_a2s":"Uncletopia | Sydney | 2 | All Maps","protocol":17,"map":"pl_swiftwater_final1","folder":"tf","game":"Team Fortress","app_id":440,"player_count":21,"max_players":24,"Bots":0,"server_type":"Dedicated","server_os":"Linux","password":true,"vac":true,"version":"7961495","steam_id":85568392924470002,"keywords":["nocrits","nodmgspread","payload","uncletopia"],"game_id":440,"stv_port":27026,"stv_name":"Uncletopia | Sydney | 2 | All Maps | STV","players":[{"user_id":15,"name":"tim88435","steam_id":76561198089653987,"connected_time":2162000000000,"state":"active","ping":149},{"user_id":45,"name":"Tazzy","steam_id":76561198365105111,"connected_time":413000000000,"state":"active","ping":100},{"user_id":35,"name":"please be patient i have autism","steam_id":76561199219741520,"connected_time":694000000000,"state":"active","ping":85},{"user_id":39,"name":"SkoKiE","steam_id":76561198283542986,"connected_time":591000000000,"state":"active","ping":61},{"user_id":46,"name":"ShadowHunter","steam_id":76561198022981215,"connected_time":404000000000,"state":"active","ping":125},{"user_id":47,"name":"Maestro[FmJ]","steam_id":76561197996842734,"connected_time":393000000000,"state":"active","ping":64},{"user_id":37,"name":"T-10a","steam_id":76561198054765522,"connected_time":606000000000,"state":"active","ping":56},{"user_id":26,"name":"Mikey","steam_id":76561198438203131,"connected_time":1228000000000,"state":"active","ping":59},{"user_id":59,"name":"menorah spinner","steam_id":76561198040496346,"connected_time":108000000000,"state":"active","ping":58},{"user_id":49,"name":"sav","steam_id":76561198058760041,"connected_time":355000000000,"state":"active","ping":71},{"user_id":40,"name":"Smylez","steam_id":76561198072273373,"connected_time":584000000000,"state":"active","ping":91},{"user_id":41,"name":"Rizeo","steam_id":76561198147901488,"connected_time":581000000000,"state":"active","ping":68},{"user_id":42,"name":"jeff","steam_id":76561198327306842,"connected_time":574000000000,"state":"active","ping":129},{"user_id":43,"name":"electro599","steam_id":76561198058148858,"connected_time":532000000000,"state":"active","ping":59},{"user_id":44,"name":"Kyve","steam_id":76561199437134429,"connected_time":531000000000,"state":"active","ping":92},{"user_id":51,"name":"KtX99","steam_id":76561198261930883,"connected_time":318000000000,"state":"active","ping":70},{"user_id":53,"name":"...","steam_id":76561198309750355,"connected_time":297000000000,"state":"active","ping":50},{"user_id":54,"name":"hypenn","steam_id":76561198123804870,"connected_time":263000000000,"state":"active","ping":99},{"user_id":55,"name":"top 10 boing momenta","steam_id":76561198179045463,"connected_time":202000000000,"state":"active","ping":53},{"user_id":57,"name":"Resin","steam_id":76561198054911792,"connected_time":190000000000,"state":"active","ping":55},{"user_id":58,"name":"neffy the reanimated corpse","steam_id":76561198018687985,"connected_time":177000000000,"state":"active","ping":75}]},{"server_id":395,"name":"Uncletopia | Sydney | 3 | All Maps","name_short":"syd-3","host":"syd-1.au.uncletopia.com","port":27035,"enabled":true,"region":"au","cc":"au","latitude":-33.865143,"longitude":151.2099,"reserved":0,"last_update":"0001-01-01T00:00:00Z","name_a2s":"Uncletopia | Sydney | 3 | All Maps","protocol":17,"map":"pl_pier","folder":"tf","game":"Team Fortress","app_id":440,"player_count":0,"max_players":24,"Bots":0,"server_type":"Dedicated","server_os":"Linux","password":true,"vac":true,"version":"7961495","steam_id":85568392925194467,"keywords":["nocrits","nodmgspread","payload","uncletopia"],"game_id":440,"stv_port":27036,"stv_name":"Uncletopia | Sydney | 3 | All Maps | STV","players":null},{"server_id":396,"name":"Uncletopia | Sydney | 4 | All Maps","name_short":"syd-4","host":"syd-1.au.uncletopia.com","port":27045,"enabled":true,"region":"au","cc":"au","latitude":-33.865143,"longitude":151.2099,"reserved":0,"last_update":"0001-01-01T00:00:00Z","name_a2s":"Uncletopia | Sydney | 4 | All Maps","protocol":17,"map":"cp_process_final","folder":"tf","game":"Team Fortress","app_id":440,"player_count":0,"max_players":24,"Bots":0,"server_type":"Dedicated","server_os":"Linux","password":true,"vac":true,"version":"7961495","steam_id":85568392925397958,"keywords":["cp","nocrits","nodmgspread","uncletopia"],"game_id":440,"stv_port":27046,"stv_name":"Uncletopia | Sydney | 4 | All Maps | STV","players":null},{"server_id":58,"name":"Uncletopia | Sydney | 5 | Stopwatch","name_short":"syd-5","host":"syd-1.au.uncletopia.com","port":27055,"enabled":true,"region":"au","cc":"au","latitude":-33.865143,"longitude":151.2099,"reserved":0,"last_update":"0001-01-01T00:00:00Z","name_a2s":"Uncletopia | Sydney | 5 | Stopwatch","protocol":17,"map":"pl_frontier_final","folder":"tf","game":"Team Fortress","app_id":440,"player_count":0,"max_players":24,"Bots":0,"server_type":"Dedicated","server_os":"Linux","password":true,"vac":true,"version":"7961495","steam_id":85568392925397959,"keywords":["nocrits","nodmgspread","payload","uncletopia"],"game_id":440,"stv_port":27056,"stv_name":"Uncletopia | Sydney | 5 | Stopwatch | STV","players":null},{"server_id":59,"name":"Uncletopia | Sydney | 6 | Community","name_short":"syd-6","host":"syd-1.au.uncletopia.com","port":27065,"enabled":true,"region":"au","cc":"au","latitude":-33.865143,"longitude":151.2099,"reserved":0,"last_update":"0001-01-01T00:00:00Z","name_a2s":"Uncletopia | Sydney | 6 | Community","protocol":17,"map":"workshop/pl_corrode_rc2.ugc546577989","folder":"tf","game":"Team Fortress","app_id":440,"player_count":0,"max_players":24,"Bots":0,"server_type":"Dedicated","server_os":"Linux","password":true,"vac":true,"version":"7961495","steam_id":85568392925397960,"keywords":["nocrits","nodmgspread","payload","uncletopia"],"game_id":440,"stv_port":27066,"stv_name":"Uncletopia | Sydney | 6 | Community | STV","players":null},{"server_id":49,"name":"Uncletopia | Warsaw | 1 | One Thousand Uncles","name_short":"waw-1","host":"waw-1.pl.uncletopia.com","port":27015,"enabled":true,"region":"eu","cc":"pl","latitude":52.2297,"longitude":21.017532,"reserved":0,"last_update":"0001-01-01T00:00:00Z","name_a2s":"Uncletopia | Warsaw | 1 | One Thousand Uncles","protocol":17,"map":"cp_dustbowl","folder":"tf","game":"Team Fortress","app_id":440,"player_count":27,"max_players":32,"Bots":16,"server_type":"Dedicated","server_os":"Linux","password":true,"vac":true,"version":"7961495","steam_id":85568392925397850,"keywords":["alltalk","bots","cp","danepve","increased_maxplayers","nocrits","norespawntime","uncletopia"],"game_id":440,"stv_port":0,"stv_name":"","players":[{"user_id":55,"name":"d u k k i","steam_id":76561198071807437,"connected_time":1821000000000,"state":"active","ping":58},{"user_id":44,"name":"mark.pridalko","steam_id":76561199178348857,"connected_time":3543000000000,"state":"active","ping":88},{"user_id":21,"name":"teh epic duck","steam_id":76561199093375505,"connected_time":6910000000000,"state":"active","ping":124},{"user_id":67,"name":"Ern(x)","steam_id":76561198141807070,"connected_time":272000000000,"state":"active","ping":57},{"user_id":64,"name":"lofimonkeyjazz","steam_id":76561198117059662,"connected_time":633000000000,"state":"active","ping":90},{"user_id":68,"name":"professional dingus","steam_id":76561199127774008,"connected_time":266000000000,"state":"active","ping":31},{"user_id":46,"name":"Janekowskii","steam_id":76561199131053042,"connected_time":3343000000000,"state":"active","ping":43},{"user_id":49,"name":"clubmate v nosu","steam_id":76561199185525063,"connected_time":2529000000000,"state":"active","ping":60},{"user_id":66,"name":"Grishan21","steam_id":76561198282228084,"connected_time":304000000000,"state":"active","ping":49},{"user_id":61,"name":"°Soul°","steam_id":76561198217277725,"connected_time":850000000000,"state":"active","ping":155},{"user_id":62,"name":"Sashko Gupalo","steam_id":76561198253252434,"connected_time":787000000000,"state":"active","ping":52}]},{"server_id":50,"name":"Uncletopia | Warsaw | 2 | One Thousand Uncles","name_short":"waw-2","host":"waw-1.pl.uncletopia.com","port":27025,"enabled":true,"region":"eu","cc":"pl","latitude":52.2297,"longitude":21.017532,"reserved":0,"last_update":"0001-01-01T00:00:00Z","name_a2s":"Uncletopia | Warsaw | 2 | One Thousand Uncles","protocol":17,"map":"pl_goldrush","folder":"tf","game":"Team Fortress","app_id":440,"player_count":0,"max_players":32,"Bots":0,"server_type":"Dedicated","server_os":"Linux","password":true,"vac":true,"version":"7961495","steam_id":85568392925397851,"keywords":["alltalk","danepve","increased_maxplayers","nocrits","norespawntime","payload","uncletopia"],"game_id":440,"stv_port":0,"stv_name":"","players":null},{"server_id":51,"name":"Uncletopia | Warsaw | 3 | All Maps","name_short":"waw-3","host":"waw-1.pl.uncletopia.com","port":27035,"enabled":true,"region":"eu","cc":"pl","latitude":52.2297,"longitude":21.017532,"reserved":0,"last_update":"0001-01-01T00:00:00Z","name_a2s":"Uncletopia | Warsaw | 3 | All Maps","protocol":17,"map":"plr_pipeline","folder":"tf","game":"Team Fortress","app_id":440,"player_count":0,"max_players":24,"Bots":0,"server_type":"Dedicated","server_os":"Linux","password":true,"vac":true,"version":"7961495","steam_id":85568392925397852,"keywords":["nocrits","nodmgspread","payload","uncletopia"],"game_id":440,"stv_port":27036,"stv_name":"Uncletopia | Warsaw | 3 | All Maps | STV","players":null},{"server_id":52,"name":"Uncletopia | Warsaw | 4 | All Maps","name_short":"waw-4","host":"waw-1.pl.uncletopia.com","port":27045,"enabled":true,"region":"eu","cc":"pl","latitude":52.2297,"longitude":21.017532,"reserved":0,"last_update":"0001-01-01T00:00:00Z","name_a2s":"Uncletopia | Warsaw | 4 | All Maps","protocol":17,"map":"cp_coldfront","folder":"tf","game":"Team Fortress","app_id":440,"player_count":0,"max_players":24,"Bots":0,"server_type":"Dedicated","server_os":"Linux","password":true,"vac":true,"version":"7961495","steam_id":85568392925397853,"keywords":["cp","nocrits","nodmgspread","uncletopia"],"game_id":440,"stv_port":27046,"stv_name":"Uncletopia | Warsaw | 4 | All Maps | STV","players":null},{"server_id":53,"name":"Uncletopia | Warsaw | 5 | Stopwatch","name_short":"waw-5","host":"waw-1.pl.uncletopia.com","port":27055,"enabled":true,"region":"eu","cc":"pl","latitude":52.2297,"longitude":21.017532,"reserved":0,"last_update":"0001-01-01T00:00:00Z","name_a2s":"Uncletopia | Warsaw | 5 | Stopwatch","protocol":17,"map":"workshop/koth_bagel_rc6.ugc2514036946","folder":"tf","game":"Team Fortress","app_id":440,"player_count":0,"max_players":24,"Bots":0,"server_type":"Dedicated","server_os":"Linux","password":true,"vac":true,"version":"7961495","steam_id":85568392925397854,"keywords":["cp","nocrits","nodmgspread","uncletopia"],"game_id":440,"stv_port":27056,"stv_name":"Uncletopia | Warsaw | 5 | Stopwatch | STV","players":null},{"server_id":54,"name":"Uncletopia | Warsaw | 6 | Community","name_short":"waw-6","host":"waw-1.pl.uncletopia.com","port":27065,"enabled":true,"region":"eu","cc":"pl","latitude":52.2297,"longitude":21.017532,"reserved":0,"last_update":"0001-01-01T00:00:00Z","name_a2s":"Uncletopia | Warsaw | 6 | Community","protocol":17,"map":"workshop/pl_badwater_pro_v12.ugc2142942074","folder":"tf","game":"Team Fortress","app_id":440,"player_count":0,"max_players":24,"Bots":0,"server_type":"Dedicated","server_os":"Linux","password":true,"vac":true,"version":"7961495","steam_id":85568392925397856,"keywords":["nocrits","nodmgspread","payload","uncletopia"],"game_id":440,"stv_port":27066,"stv_name":"Uncletopia | Warsaw | 6 | Community | STV","players":null}]}