{"status":true,"message":"","result":[{"server_id":9,"name":"Uncletopia | Atlanta | 1 | All Maps","name_short":"atl-1","host":"atl-1.us.uncletopia.com","port":27015,"enabled":true,"region":"us-east","cc":"us","latitude":33.753746,"longitude":-84.38633,"reserved":0,"last_update":"0001-01-01T00:00:00Z","name_a2s":"Uncletopia | Atlanta | 1 | All Maps","protocol":17,"map":"pl_pier","folder":"tf","game":"Team Fortress","app_id":440,"player_count":24,"max_players":24,"Bots":0,"server_type":"Dedicated","server_os":"Linux","password":true,"vac":true,"version":"7723704","steam_id":85568392924469982,"keywords":["nocrits","nodmgspread","payload","uncletopia"],"game_id":440,"stv_port":27016,"stv_name":"Uncletopia | Atlanta | 1 | All Maps | STV","players":[{"user_id":15,"name":"ATL1 | on my hunting trip","steam_id":76561198315341646,"connected_time":11279000000000,"state":"active","ping":61},{"user_id":88,"name":"tell me about it","steam_id":76561198277799227,"connected_time":5329000000000,"state":"active","ping":61},{"user_id":139,"name":"A_Malebolgia","steam_id":76561198097722818,"connected_time":1559000000000,"state":"active","ping":91},{"user_id":156,"name":"AssCancerNecromancer","steam_id":76561198942215141,"connected_time":754000000000,"state":"active","ping":65},{"user_id":147,"name":"Iggy","steam_id":76561198237693240,"connected_time":1064000000000,"state":"active","ping":62},{"user_id":135,"name":"Chef","steam_id":76561198086523798,"connected_time":2400000000000,"state":"active","ping":64},{"user_id":145,"name":"Rappitor","steam_id":76561198105613110,"connected_time":1077000000000,"state":"active","ping":74},{"user_id":97,"name":"็You got Killed by --\u003e","steam_id":76561198039763676,"connected_time":4425000000000,"state":"active","ping":56},{"user_id":159,"name":"CoherentCarpet (ノಠ益ಠ)\ufffd\ufffd","steam_id":76561198045625360,"connected_time":493000000000,"state":"active","ping":130},{"user_id":120,"name":"TTV AhoyK","steam_id":76561198274742715,"connected_time":3746000000000,"state":"active","ping":53},{"user_id":146,"name":"SeaBass","steam_id":76561198278914206,"connected_time":1070000000000,"state":"active","ping":91},{"user_id":154,"name":"★ ★ AL ★ ★","steam_id":76561199020764069,"connected_time":879000000000,"state":"active","ping":104},{"user_id":107,"name":"Twa","steam_id":76561198295529541,"connected_time":4350000000000,"state":"active","ping":64},{"user_id":160,"name":"citrus","steam_id":76561198294606679,"connected_time":357000000000,"state":"active","ping":90},{"user_id":118,"name":"Frederica Bernkastel","steam_id":76561198063315650,"connected_time":4081000000000,"state":"active","ping":86},{"user_id":153,"name":"Jordicr100","steam_id":76561198030999491,"connected_time":882000000000,"state":"active","ping":97},{"user_id":157,"name":"Smiles","steam_id":76561198107197973,"connected_time":712000000000,"state":"active","ping":80},{"user_id":128,"name":"abomination","steam_id":76561198167974713,"connected_time":2935000000000,"state":"active","ping":55},{"user_id":144,"name":"Zee❤","steam_id":76561198274550638,"connected_time":1117000000000,"state":"active","ping":67},{"user_id":123,"name":"Lingus Loopus","steam_id":76561198041426868,"connected_time":3186000000000,"state":"active","ping":76},{"user_id":134,"name":"AtlasWarMachine","steam_id":76561198309487226,"connected_time":2653000000000,"state":"active","ping":94},{"user_id":96,"name":"Looneymunkey","steam_id":76561198414675183,"connected_time":4516000000000,"state":"active","ping":73},{"user_id":149,"name":"yomokha","steam_id":76561198063175935,"connected_time":1057000000000,"state":"active","ping":58},{"user_id":138,"name":"ATL1 | Crystron","steam_id":76561198880437428,"connected_time":1743000000000,"state":"active","ping":85}]},{"server_id":400,"name":"Uncletopia | Atlanta | 3 | Stopwatch Beta","name_short":"atl-3","host":"atl-1.us.uncletopia.com","port":27035,"enabled":true,"region":"us-east","cc":"us","latitude":33.753746,"longitude":-84.38633,"reserved":0,"last_update":"0001-01-01T00:00:00Z","name_a2s":"Uncletopia | Atlanta | 3 | Stopwatch Beta","protocol":17,"map":"koth_cascade","folder":"tf","game":"Team Fortress","app_id":440,"player_count":0,"max_players":24,"Bots":0,"server_type":"Dedicated","server_os":"Linux","password":true,"vac":true,"version":"7723704","steam_id":85568392924515187,"keywords":["cp","nocrits","nodmgspread","uncletopia"],"game_id":440,"stv_port":27036,"stv_name":"Uncletopia | Atlanta | 3 | Stopwatch Beta | STV","players":null},{"server_id":401,"name":"Uncletopia | Atlanta | 4 | No Payload","name_short":"atl-4","host":"atl-1.us.uncletopia.com","port":27045,"enabled":true,"region":"us-east","cc":"us","latitude":33.753746,"longitude":-84.38633,"reserved":0,"last_update":"0001-01-01T00:00:00Z","name_a2s":"Uncletopia | Atlanta | 4 | No Payload","protocol":17,"map":"pl_pier","folder":"tf","game":"Team Fortress","app_id":440,"player_count":0,"max_players":24,"Bots":0,"server_type":"Dedicated","server_os":"Linux","password":true,"vac":true,"version":"7723704","steam_id":85568392924515188,"keywords":["nocrits","nodmgspread","payload","uncletopia"],"game_id":440,"stv_port":27046,"stv_name":"Uncletopia | Atlanta | 4 | No Payload | STV","players":null},{"server_id":2,"name":"Uncletopia | Chicago | 1 | All Maps","name_short":"chi-1","host":"chi-1.us.uncletopia.com","port":27015,"enabled":true,"region":"us-central","cc":"us","latitude":41.881832,"longitude":-87.62318,"reserved":0,"last_update":"0001-01-01T00:00:00Z","name_a2s":"Uncletopia | Chicago | 1 | All Maps","protocol":17,"map":"cp_dustbowl","folder":"tf","game":"Team Fortress","app_id":440,"player_count":24,"max_players":24,"Bots":0,"server_type":"Dedicated","server_os":"Linux","password":true,"vac":true,"version":"7723704","steam_id":85568392924469984,"keywords":["cp","nocrits","nodmgspread","uncletopia"],"game_id":440,"stv_port":27016,"stv_name":"Uncletopia | Chicago | 1 | All Maps | STV","players":[{"user_id":239,"name":"ENORMOUS HOG","steam_id":76561198079923652,"connected_time":1659000000000,"state":"active","ping":79},{"user_id":235,"name":"Gheeotine","steam_id":76561198010181698,"connected_time":2074000000000,"state":"active","ping":92},{"user_id":253,"name":"\u003cNULL\u003e","steam_id":76561198079489150,"connected_time":616000000000,"state":"active","ping":112},{"user_id":215,"name":"✧･ﾟlovely!!","steam_id":76561198874149130,"connected_time":2563000000000,"state":"active","ping":66},{"user_id":248,"name":"BAT BOY","steam_id":76561198034611414,"connected_time":1079000000000,"state":"active","ping":92},{"user_id":249,"name":"LIN♡","steam_id":76561199411560141,"connected_time":884000000000,"state":"active","ping":100},{"user_id":255,"name":"Stev | Trade.tf","steam_id":76561198061516631,"connected_time":107000000000,"state":"active","ping":40},{"user_id":240,"name":"SuperJagops","steam_id":76561198034689716,"connected_time":1433000000000,"state":"active","ping":64},{"user_id":229,"name":"give me your baby faces blaster","steam_id":76561199013442982,"connected_time":2276000000000,"state":"active","ping":82},{"user_id":256,"name":"Spectre","steam_id":76561198025652246,"connected_time":39000000000,"state":"active","ping":74},{"user_id":250,"name":"A Sun","steam_id":76561198142545364,"connected_time":688000000000,"state":"active","ping":69},{"user_id":243,"name":"Le","steam_id":76561198817754233,"connected_time":1239000000000,"state":"active","ping":58},{"user_id":164,"name":"kablong","steam_id":76561199094392047,"connected_time":6639000000000,"state":"active","ping":74},{"user_id":211,"name":"nalezinik","steam_id":76561198030026119,"connected_time":3223000000000,"state":"active","ping":62},{"user_id":244,"name":"mommy hog","steam_id":76561199230929836,"connected_time":1238000000000,"state":"active","ping":91},{"user_id":224,"name":"Liquid Oxycodone","steam_id":76561198154162664,"connected_time":2470000000000,"state":"active","ping":77},{"user_id":246,"name":"HyperOrange|#SaveTF2","steam_id":76561198068071327,"connected_time":1227000000000,"state":"active","ping":70},{"user_id":245,"name":"Cooldog","steam_id":76561198155754968,"connected_time":1237000000000,"state":"active","ping":57},{"user_id":247,"name":"Mister36","steam_id":76561198019132100,"connected_time":1224000000000,"state":"active","ping":66},{"user_id":228,"name":"AreYouJoshinMe","steam_id":76561199444580542,"connected_time":2378000000000,"state":"active","ping":55},{"user_id":251,"name":"PKBEAST_7","steam_id":76561198177136537,"connected_time":688000000000,"state":"active","ping":85},{"user_id":167,"name":"ItsRoy","steam_id":76561198119525485,"connected_time":6418000000000,"state":"active","ping":56},{"user_id":213,"name":"Daksuki","steam_id":76561198084127751,"connected_time":2987000000000,"state":"active","ping":75},{"user_id":193,"name":"Jellyboi","steam_id":76561197995758438,"connected_time":5004000000000,"state":"active","ping":115}]},{"server_id":106,"name":"Uncletopia | Chicago | 2 | All Maps","name_short":"chi-2","host":"chi-1.us.uncletopia.com","port":27025,"enabled":true,"region":"us-central","cc":"us","latitude":41.881832,"longitude":-87.62318,"reserved":0,"last_update":"0001-01-01T00:00:00Z","name_a2s":"Uncletopia | Chicago | 2 | All Maps","protocol":17,"map":"pl_upward","folder":"tf","game":"Team Fortress","app_id":440,"player_count":24,"max_players":24,"Bots":0,"server_type":"Dedicated","server_os":"Linux","password":true,"vac":true,"version":"7723704","steam_id":85568392924469985,"keywords":["nocrits","nodmgspread","payload","uncletopia"],"game_id":440,"stv_port":27026,"stv_name":"Uncletopia | Chicago | 2 | All Maps | STV","players":[{"user_id":7,"name":"Curly-Haired Rogue","steam_id":76561198101915594,"connected_time":3356000000000,"state":"active","ping":76},{"user_id":47,"name":"the12xu","steam_id":76561198197086561,"connected_time":458000000000,"state":"active","ping":58},{"user_id":49,"name":"Rornir","steam_id":76561198081829615,"connected_time":377000000000,"state":"active","ping":42},{"user_id":45,"name":"rkp!","steam_id":76561199053070819,"connected_time":724000000000,"state":"active","ping":53},{"user_id":12,"name":"Challenger Charles","steam_id":76561198005576553,"connected_time":2304000000000,"state":"active","ping":82},{"user_id":17,"name":"MILK MAN","steam_id":76561199012860639,"connected_time":1598000000000,"state":"active","ping":53},{"user_id":16,"name":"stungoperation","steam_id":76561199162409918,"connected_time":1677000000000,"state":"active","ping":62},{"user_id":42,"name":"roln","steam_id":76561198041066271,"connected_time":914000000000,"state":"active","ping":74},{"user_id":52,"name":"bsampson0330","steam_id":76561198199502507,"connected_time":339000000000,"state":"active","ping":67},{"user_id":22,"name":"Calvin_Canada","steam_id":76561199036110310,"connected_time":1392000000000,"state":"active","ping":80},{"user_id":26,"name":"William Wallace","steam_id":76561199343316814,"connected_time":1335000000000,"state":"active","ping":65},{"user_id":56,"name":"BOT Bot","steam_id":76561197995225620,"connected_time":39000000000,"state":"active","ping":65},{"user_id":24,"name":"Bee_Pirate","steam_id":76561199000599111,"connected_time":1375000000000,"state":"active","ping":74},{"user_id":50,"name":"womthedom","steam_id":76561198088768287,"connected_time":353000000000,"state":"active","ping":57},{"user_id":28,"name":"The Medic","steam_id":76561198288892120,"connected_time":1268000000000,"state":"active","ping":80},{"user_id":46,"name":"Micro","steam_id":76561198319239296,"connected_time":492000000000,"state":"active","ping":77},{"user_id":51,"name":"notmanhattan","steam_id":76561198143117561,"connected_time":351000000000,"state":"active","ping":43},{"user_id":31,"name":"trick","steam_id":76561199057591137,"connected_time":1219000000000,"state":"active","ping":84},{"user_id":32,"name":"Evolution","steam_id":76561198144767370,"connected_time":1180000000000,"state":"active","ping":48},{"user_id":55,"name":"Cuttle's Fish","steam_id":76561198280483257,"connected_time":155000000000,"state":"active","ping":57},{"user_id":35,"name":"SrJuliusIV","steam_id":76561198341803148,"connected_time":1105000000000,"state":"active","ping":151},{"user_id":38,"name":"maze","steam_id":76561198068443860,"connected_time":1064000000000,"state":"active","ping":47},{"user_id":40,"name":"Emka","steam_id":76561198203357580,"connected_time":1060000000000,"state":"active","ping":74},{"user_id":53,"name":"recycle","steam_id":76561198819562111,"connected_time":268000000000,"state":"active","ping":59}]},{"server_id":402,"name":"Uncletopia | Chicago | 3 | All Maps","name_short":"chi-3","host":"chi-1.us.uncletopia.com","port":27035,"enabled":true,"region":"us-central","cc":"us","latitude":41.881832,"longitude":-87.62318,"reserved":0,"last_update":"0001-01-01T00:00:00Z","name_a2s":"Uncletopia | Chicago | 3 | All Maps","protocol":17,"map":"cp_mountainlab","folder":"tf","game":"Team Fortress","app_id":440,"player_count":0,"max_players":24,"Bots":0,"server_type":"Dedicated","server_os":"Linux","password":true,"vac":true,"version":"7723704","steam_id":85568392924515191,"keywords":["cp","nocrits","nodmgspread","uncletopia"],"game_id":440,"stv_port":27036,"stv_name":"Uncletopia | Chicago | 3 | All Maps | STV","players":null},{"server_id":403,"name":"Uncletopia | Chicago | 4 | All Maps","name_short":"chi-4","host":"chi-1.us.uncletopia.com","port":27045,"enabled":true,"region":"us-central","cc":"us","latitude":41.881832,"longitude":-87.62318,"reserved":0,"last_update":"0001-01-01T00:00:00Z","name_a2s":"Uncletopia | Chicago | 4 | All Maps","protocol":17,"map":"cp_mountainlab","folder":"tf","game":"Team Fortress","app_id":440,"player_count":0,"max_players":24,"Bots":0,"server_type":"Dedicated","server_os":"Linux","password":true,"vac":true,"version":"7723704","steam_id":85568392924515193,"keywords":["cp","nocrits","nodmgspread","uncletopia"],"game_id":440,"stv_port":27046,"stv_name":"Uncletopia | Chicago | 4 | All Maps | STV","players":null},{"server_id":36,"name":"Uncletopia | Chicago | 5 | All Maps","name_short":"chi-5","host":"chi-2.us.uncletopia.com","port":27015,"enabled":true,"region":"us-central","cc":"us","latitude":41.881832,"longitude":-87.62318,"reserved":0,"last_update":"0001-01-01T00:00:00Z","name_a2s":"Uncletopia | Chicago | 5 | All Maps","protocol":17,"map":"pl_badwater","folder":"tf","game":"Team Fortress","app_id":440,"player_count":10,"max_players":24,"Bots":0,"server_type":"Dedicated","server_os":"Linux","password":true,"vac":true,"version":"7723704","steam_id":85568392924866362,"keywords":["nocrits","nodmgspread","payload","uncletopia"],"game_id":440,"stv_port":27016,"stv_name":"Uncletopia | Chicago | 5 | All Maps | STV","players":[{"user_id":5,"name":"CrimsonJay","steam_id":76561198068299192,"connected_time":807000000000,"state":"active","ping":67},{"user_id":7,"name":"the core when it breaks","steam_id":76561198149063013,"connected_time":577000000000,"state":"active","ping":55},{"user_id":8,"name":"HobHob","steam_id":76561198145646314,"connected_time":253000000000,"state":"active","ping":71},{"user_id":9,"name":"Urist","steam_id":76561198840019109,"connected_time":209000000000,"state":"active","ping":59},{"user_id":10,"name":"Goldlewis Dickinson","steam_id":76561198090697410,"connected_time":209000000000,"state":"active","ping":71},{"user_id":11,"name":"Taste the Pain","steam_id":76561198081617990,"connected_time":201000000000,"state":"active","ping":76},{"user_id":12,"name":"Squatchamo","steam_id":76561198012968239,"connected_time":169000000000,"state":"active","ping":66},{"user_id":13,"name":"Jamie Hyneman","steam_id":76561199196036481,"connected_time":161000000000,"state":"active","ping":72},{"user_id":14,"name":"CassandraRC7 (She/her)","steam_id":76561198094123940,"connected_time":113000000000,"state":"active","ping":56},{"user_id":15,"name":"hauntaholic","steam_id":76561198095051652,"connected_time":73000000000,"state":"active","ping":56}]},{"server_id":37,"name":"Uncletopia | Chicago | 6 | All Maps","name_short":"chi-6","host":"chi-2.us.uncletopia.com","port":27025,"enabled":true,"region":"us-central","cc":"us","latitude":41.881832,"longitude":-87.62318,"reserved":0,"last_update":"0001-01-01T00:00:00Z","name_a2s":"Uncletopia | Chicago | 6 | All Maps","protocol":17,"map":"koth_viaduct","folder":"tf","game":"Team Fortress","app_id":440,"player_count":0,"max_players":24,"Bots":0,"server_type":"Dedicated","server_os":"Linux","password":true,"vac":true,"version":"7723704","steam_id":85568392924866363,"keywords":["cp","nocrits","nodmgspread","uncletopia"],"game_id":440,"stv_port":27026,"stv_name":"Uncletopia | Chicago | 6 | All Maps | STV","players":null},{"server_id":38,"name":"Uncletopia | Chicago | 7 | Stopwatch Beta","name_short":"chi-7","host":"chi-2.us.uncletopia.com","port":27035,"enabled":true,"region":"us-central","cc":"us","latitude":41.881832,"longitude":-87.62318,"reserved":0,"last_update":"0001-01-01T00:00:00Z","name_a2s":"Uncletopia | Chicago | 7 | Stopwatch Beta","protocol":17,"map":"pl_upward","folder":"tf","game":"Team Fortress","app_id":440,"player_count":0,"max_players":24,"Bots":0,"server_type":"Dedicated","server_os":"Linux","password":true,"vac":true,"version":"7723704","steam_id":85568392924866364,"keywords":["nocrits","nodmgspread","payload","uncletopia"],"game_id":440,"stv_port":27036,"stv_name":"Uncletopia | Chicago | 7 | Stopwatch Beta | STV","players":null},{"server_id":39,"name":"Uncletopia | Chicago | 8 | Community","name_short":"chi-8","host":"chi-2.us.uncletopia.com","port":27045,"enabled":true,"region":"us-central","cc":"us","latitude":41.881832,"longitude":-87.62318,"reserved":0,"last_update":"0001-01-01T00:00:00Z","name_a2s":"Uncletopia | Chicago | 8 | Community","protocol":17,"map":"pl_frontier_final","folder":"tf","game":"Team Fortress","app_id":440,"player_count":0,"max_players":24,"Bots":0,"server_type":"Dedicated","server_os":"Linux","password":true,"vac":true,"version":"7723704","steam_id":85568392924866365,"keywords":["nocrits","nodmgspread","payload","uncletopia"],"game_id":440,"stv_port":27046,"stv_name":"Uncletopia | Chicago | 8 | Community | STV","players":null},{"server_id":8,"name":"Uncletopia | Dallas | 1 | All Maps","name_short":"dal-1","host":"dal-1.us.uncletopia.com","port":27015,"enabled":true,"region":"us-central","cc":"us","latitude":32.779167,"longitude":-96.80889,"reserved":0,"last_update":"0001-01-01T00:00:00Z","name_a2s":"Uncletopia | Dallas | 1 | All Maps","protocol":17,"map":"pl_rumford_event","folder":"tf","game":"Team Fortress","app_id":440,"player_count":24,"max_players":24,"Bots":0,"server_type":"Dedicated","server_os":"Linux","password":true,"vac":true,"version":"7723704","steam_id":85568392924469986,"keywords":["nocrits","nodmgspread","payload","uncletopia"],"game_id":440,"stv_port":27016,"stv_name":"Uncletopia | Dallas | 1 | All Maps | STV","players":[{"user_id":58,"name":"amagicowl","steam_id":76561199060487814,"connected_time":942000000000,"state":"active","ping":77},{"user_id":54,"name":"epic cheeseburger","steam_id":76561198041995180,"connected_time":1849000000000,"state":"active","ping":86},{"user_id":60,"name":"cinna.gamer.2007","steam_id":76561198309760791,"connected_time":937000000000,"state":"active","ping":123},{"user_id":37,"name":"pinglefingle","steam_id":76561198216580197,"connected_time":2503000000000,"state":"active","ping":51},{"user_id":11,"name":"[㏈] Bumpercars","steam_id":76561198061591743,"connected_time":3134000000000,"state":"active","ping":83},{"user_id":68,"name":"pocket medic BOT","steam_id":76561198433185982,"connected_time":24000000000,"state":"active","ping":159},{"user_id":57,"name":"Eightyy  Fourr","steam_id":76561197960374225,"connected_time":947000000000,"state":"active","ping":46},{"user_id":56,"name":"The creator(made twitter)","steam_id":76561198870900265,"connected_time":1078000000000,"state":"active","ping":62},{"user_id":19,"name":"Null | Crack Clan","steam_id":76561198895762836,"connected_time":2777000000000,"state":"active","ping":77},{"user_id":20,"name":"Mr. Poliedro","steam_id":76561198873854696,"connected_time":2754000000000,"state":"active","ping":125},{"user_id":21,"name":"Shark Sandwich","steam_id":76561198025007938,"connected_time":2718000000000,"state":"active","ping":97},{"user_id":65,"name":"HybridSolly","steam_id":76561198125067997,"connected_time":104000000000,"state":"active","ping":36},{"user_id":24,"name":"the gamer hermit crab","steam_id":76561198969402276,"connected_time":2669000000000,"state":"active","ping":47},{"user_id":62,"name":"robert","steam_id":76561198001196512,"connected_time":803000000000,"state":"active","ping":63},{"user_id":26,"name":"Nnyllazxz","steam_id":76561198247797436,"connected_time":2655000000000,"state":"active","ping":82},{"user_id":64,"name":"Spy on cart","steam_id":76561198025466913,"connected_time":770000000000,"state":"active","ping":62},{"user_id":28,"name":"ozymandias","steam_id":76561198983415087,"connected_time":2631000000000,"state":"active","ping":74},{"user_id":59,"name":"OCDkitty","steam_id":76561198266296221,"connected_time":941000000000,"state":"active","ping":45},{"user_id":32,"name":"Max_Attack","steam_id":76561198944028607,"connected_time":2582000000000,"state":"active","ping":98},{"user_id":69,"name":"Fanta","steam_id":76561199004512348,"connected_time":24000000000,"state":"active","ping":46},{"user_id":41,"name":"Olitude","steam_id":76561199238964574,"connected_time":2341000000000,"state":"active","ping":75},{"user_id":42,"name":"-W3E- grim10465","steam_id":76561198045698581,"connected_time":2334000000000,"state":"active","ping":74},{"user_id":52,"name":"industriousnail","steam_id":76561198805491437,"connected_time":2041000000000,"state":"active","ping":69},{"user_id":71,"name":"Salmon","steam_id":76561198098295862,"connected_time":12000000000,"state":"spawning","ping":96}]},{"server_id":108,"name":"Uncletopia | Dallas | 2 | All Maps","name_short":"dal-2","host":"dal-1.us.uncletopia.com","port":27025,"enabled":true,"region":"us-central","cc":"us","latitude":32.779167,"longitude":-96.80889,"reserved":0,"last_update":"0001-01-01T00:00:00Z","name_a2s":"Uncletopia | Dallas | 2 | All Maps","protocol":17,"map":"pl_borneo","folder":"tf","game":"Team Fortress","app_id":440,"player_count":0,"max_players":24,"Bots":0,"server_type":"Dedicated","server_os":"Linux","password":true,"vac":true,"version":"7723704","steam_id":85568392924469988,"keywords":["nocrits","nodmgspread","payload","uncletopia"],"game_id":440,"stv_port":27026,"stv_name":"Uncletopia | Dallas | 2 | All Maps | STV","players":null},{"server_id":5,"name":"Uncletopia | Frankfurt | 1 | All Maps","name_short":"frk-1","host":"frk-1.de.uncletopia.com","port":27015,"enabled":true,"region":"eu","cc":"de","latitude":50.110924,"longitude":8.682127,"reserved":0,"last_update":"0001-01-01T00:00:00Z","name_a2s":"Uncletopia | Frankfurt | 1 | All Maps","protocol":17,"map":"koth_viaduct","folder":"tf","game":"Team Fortress","app_id":440,"player_count":22,"max_players":24,"Bots":0,"server_type":"Dedicated","server_os":"Linux","password":true,"vac":true,"version":"7723704","steam_id":85568392924469989,"keywords":["cp","nocrits","nodmgspread","uncletopia"],"game_id":440,"stv_port":27016,"stv_name":"Uncletopia | Frankfurt | 1 | All Maps | STV","players":[{"user_id":312,"name":"_sXimik","steam_id":76561198018236969,"connected_time":567000000000,"state":"active","ping":63},{"user_id":288,"name":"Octoblue64","steam_id":76561198388997283,"connected_time":2496000000000,"state":"active","ping":55},{"user_id":266,"name":"Optimist 50","steam_id":76561198039631442,"connected_time":3280000000000,"state":"active","ping":75},{"user_id":307,"name":"Milosz52","steam_id":76561199060940204,"connected_time":1111000000000,"state":"active","ping":77},{"user_id":263,"name":"Piox","steam_id":76561198125689157,"connected_time":3626000000000,"state":"active","ping":76},{"user_id":305,"name":"Tutel","steam_id":76561198944058412,"connected_time":1304000000000,"state":"active","ping":47},{"user_id":313,"name":"Zateske","steam_id":76561198047446276,"connected_time":518000000000,"state":"active","ping":60},{"user_id":315,"name":"Vollys","steam_id":76561198018077773,"connected_time":257000000000,"state":"active","ping":51},{"user_id":293,"name":"Krof enjoyer","steam_id":76561199101777637,"connected_time":2181000000000,"state":"active","ping":72},{"user_id":306,"name":"player","steam_id":76561198054474684,"connected_time":1179000000000,"state":"active","ping":74},{"user_id":311,"name":"Slooshie","steam_id":76561198008749909,"connected_time":688000000000,"state":"active","ping":67},{"user_id":319,"name":"WUNNA","steam_id":76561198999848273,"connected_time":3000000000,"state":"spawning","ping":88},{"user_id":274,"name":"LesaPán","steam_id":76561198158691758,"connected_time":3068000000000,"state":"active","ping":71},{"user_id":296,"name":"spy gaming","steam_id":76561198992856112,"connected_time":1976000000000,"state":"active","ping":95},{"user_id":309,"name":"Carl","steam_id":76561198045638738,"connected_time":989000000000,"state":"active","ping":62},{"user_id":281,"name":"1 month Big Earner challenge","steam_id":76561198799097492,"connected_time":2784000000000,"state":"active","ping":47},{"user_id":257,"name":"KFC Enjoyer","steam_id":76561198840259819,"connected_time":3945000000000,"state":"active","ping":45},{"user_id":275,"name":"Typical","steam_id":76561199009805172,"connected_time":3064000000000,"state":"active","ping":49},{"user_id":282,"name":"the joy of recycling","steam_id":76561198415564349,"connected_time":2778000000000,"state":"active","ping":73},{"user_id":318,"name":"Videogamer","steam_id":76561198106012909,"connected_time":115000000000,"state":"active","ping":62},{"user_id":216,"name":"LOBZIK","steam_id":76561198114830120,"connected_time":6241000000000,"state":"active","ping":73},{"user_id":308,"name":"Dramagizio","steam_id":76561198047935918,"connected_time":999000000000,"state":"active","ping":59}]},{"server_id":110,"name":"Uncletopia | Frankfurt | 2 | All Maps","name_short":"frk-2","host":"frk-1.de.uncletopia.com","port":27025,"enabled":true,"region":"eu","cc":"de","latitude":50.110924,"longitude":8.682127,"reserved":0,"last_update":"0001-01-01T00:00:00Z","name_a2s":"Uncletopia | Frankfurt | 2 | All Maps","protocol":17,"map":"koth_highpass","folder":"tf","game":"Team Fortress","app_id":440,"player_count":4,"max_players":24,"Bots":0,"server_type":"Dedicated","server_os":"Linux","password":true,"vac":true,"version":"7723704","steam_id":85568392924469990,"keywords":["cp","nocrits","nodmgspread","uncletopia"],"game_id":440,"stv_port":27026,"stv_name":"Uncletopia | Frankfurt | 2 | All Maps | STV","players":[{"user_id":17,"name":"AforeKingDwarf","steam_id":76561198043562926,"connected_time":388000000000,"state":"active","ping":55},{"user_id":18,"name":"DOCTOR SEX","steam_id":76561199210767484,"connected_time":173000000000,"state":"active","ping":62},{"user_id":12,"name":"Spanougy_Man","steam_id":76561198319813938,"connected_time":1604000000000,"state":"active","ping":98},{"user_id":15,"name":"Radegast the Brown","steam_id":76561198075489505,"connected_time":1232000000000,"state":"active","ping":56}]},{"server_id":308,"name":"Uncletopia | Frankfurt | 3 | All Maps","name_short":"frk-3","host":"frk-1.de.uncletopia.com","port":27035,"enabled":true,"region":"eu","cc":"de","latitude":50.110924,"longitude":8.682127,"reserved":0,"last_update":"0001-01-01T00:00:00Z","name_a2s":"Uncletopia | Frankfurt | 3 | All Maps","protocol":17,"map":"pl_upward","folder":"tf","game":"Team Fortress","app_id":440,"player_count":23,"max_players":24,"Bots":0,"server_type":"Dedicated","server_os":"Linux","password":true,"vac":true,"version":"7723704","steam_id":85568392924504274,"keywords":["nocrits","nodmgspread","payload","uncletopia"],"game_id":440,"stv_port":27036,"stv_name":"Uncletopia | Frankfurt | 3 | All Maps | STV","players":[{"user_id":238,"name":"Pabs :D","steam_id":76561198000016962,"connected_time":78000000000,"state":"active","ping":59},{"user_id":239,"name":"Qatuk","steam_id":76561198857696199,"connected_time":53000000000,"state":"active","ping":60},{"user_id":234,"name":"dolo","steam_id":76561198206672297,"connected_time":374000000000,"state":"active","ping":49},{"user_id":220,"name":"Dicartal","steam_id":76561198295793592,"connected_time":697000000000,"state":"active","ping":121},{"user_id":235,"name":"Pachakamakk","steam_id":76561197989010401,"connected_time":369000000000,"state":"active","ping":52},{"user_id":209,"name":"allegro","steam_id":76561198971389390,"connected_time":1337000000000,"state":"active","ping":68},{"user_id":236,"name":"shrrrrrrekkkkk","steam_id":76561198347241576,"connected_time":352000000000,"state":"active","ping":60},{"user_id":206,"name":"garbage mikuknight","steam_id":76561198361819054,"connected_time":1424000000000,"state":"active","ping":84},{"user_id":237,"name":"G6 sherlock","steam_id":76561198802967796,"connected_time":334000000000,"state":"active","ping":120},{"user_id":223,"name":"DrExplosive","steam_id":76561198063678579,"connected_time":634000000000,"state":"active","ping":48},{"user_id":196,"name":"Thorfinn","steam_id":76561198813640500,"connected_time":2189000000000,"state":"active","ping":54},{"user_id":201,"name":"iMac G3","steam_id":76561199039424416,"connected_time":1864000000000,"state":"active","ping":171},{"user_id":228,"name":"Festive Charly","steam_id":76561197961895147,"connected_time":549000000000,"state":"active","ping":49},{"user_id":224,"name":"that was your fault","steam_id":76561198000369215,"connected_time":624000000000,"state":"active","ping":61},{"user_id":240,"name":"Juno4","steam_id":76561198034518616,"connected_time":40000000000,"state":"spawning","ping":89},{"user_id":241,"name":"V l e d u t z","steam_id":76561198836251435,"connected_time":13000000000,"state":"active","ping":114},{"user_id":226,"name":"limiter","steam_id":76561198260569123,"connected_time":591000000000,"state":"active","ping":135},{"user_id":227,"name":"Warped","steam_id":76561197989916494,"connected_time":583000000000,"state":"active","ping":50},{"user_id":229,"name":"MiGGo","steam_id":76561198041645362,"connected_time":548000000000,"state":"active","ping":86},{"user_id":233,"name":"Formaly_Dressed","steam_id":76561198364309719,"connected_time":449000000000,"state":"active","ping":78},{"user_id":190,"name":"Papa sniper","steam_id":76561198941117244,"connected_time":2405000000000,"state":"active","ping":107},{"user_id":191,"name":"Ged","steam_id":76561198079288943,"connected_time":2396000000000,"state":"active","ping":106},{"user_id":215,"name":"Cpt BBC","steam_id":76561198047378437,"connected_time":1256000000000,"state":"active","ping":73}]},{"server_id":309,"name":"Uncletopia | Frankfurt | 4 | All Maps","name_short":"frk-4","host":"frk-1.de.uncletopia.com","port":27045,"enabled":true,"region":"eu","cc":"de","latitude":50.110924,"longitude":8.682127,"reserved":0,"last_update":"0001-01-01T00:00:00Z","name_a2s":"Uncletopia | Frankfurt | 4 | All Maps","protocol":17,"map":"pl_barnblitz","folder":"tf","game":"Team Fortress","app_id":440,"player_count":19,"max_players":24,"Bots":0,"server_type":"Dedicated","server_os":"Linux","password":true,"vac":true,"version":"7723704","steam_id":85568392924504275,"keywords":["nocrits","nodmgspread","payload","uncletopia"],"game_id":440,"stv_port":27046,"stv_name":"Uncletopia | Frankfurt | 4 | All Maps | STV","players":[{"user_id":183,"name":"Mclovin567","steam_id":76561198799105302,"connected_time":1754000000000,"state":"active","ping":46},{"user_id":201,"name":".quickfast.","steam_id":76561199438900919,"connected_time":431000000000,"state":"active","ping":64},{"user_id":202,"name":"Rob Rotten","steam_id":76561198170543542,"connected_time":399000000000,"state":"active","ping":146},{"user_id":171,"name":"tf2 is a souls-like","steam_id":76561198311044984,"connected_time":2143000000000,"state":"active","ping":62},{"user_id":212,"name":"Pruff","steam_id":76561198377084417,"connected_time":99000000000,"state":"active","ping":62},{"user_id":204,"name":"Pico","steam_id":76561198399294147,"connected_time":282000000000,"state":"active","ping":102},{"user_id":209,"name":"Burgoo_King","steam_id":76561198133572225,"connected_time":144000000000,"state":"active","ping":71},{"user_id":213,"name":"Dr. Chapsticky","steam_id":76561198148185178,"connected_time":32000000000,"state":"active","ping":63},{"user_id":206,"name":"Combat Wombat","steam_id":76561197994720068,"connected_time":271000000000,"state":"active","ping":64},{"user_id":172,"name":"99 Gabbagools","steam_id":76561198271798194,"connected_time":2119000000000,"state":"active","ping":90},{"user_id":190,"name":"ReDsinat0r","steam_id":76561198365973345,"connected_time":1116000000000,"state":"active","ping":61},{"user_id":214,"name":"Raulca25","steam_id":76561199068256964,"connected_time":14000000000,"state":"spawning","ping":89},{"user_id":208,"name":"Raldow","steam_id":76561198021389301,"connected_time":238000000000,"state":"active","ping":71},{"user_id":137,"name":"germanhamburgers96","steam_id":76561198044189114,"connected_time":4698000000000,"state":"active","ping":60},{"user_id":210,"name":"Grand ChouFleur","steam_id":76561198010329501,"connected_time":144000000000,"state":"active","ping":58},{"user_id":211,"name":"Denialman (Muted)","steam_id":76561198309182092,"connected_time":143000000000,"state":"active","ping":50},{"user_id":157,"name":"FaceShackle","steam_id":76561198038371397,"connected_time":3933000000000,"state":"active","ping":43},{"user_id":163,"name":"Gver3113","steam_id":76561198118659012,"connected_time":3216000000000,"state":"active","ping":74},{"user_id":173,"name":"TrocheDrewno","steam_id":76561198043662503,"connected_time":2116000000000,"state":"active","ping":64}]},{"server_id":310,"name":"Uncletopia | Frankfurt | 5 | All Maps","name_short":"frk-5","host":"frk-1.de.uncletopia.com","port":27055,"enabled":true,"region":"eu","cc":"de","latitude":50.110924,"longitude":8.682127,"reserved":0,"last_update":"0001-01-01T00:00:00Z","name_a2s":"Uncletopia | Frankfurt | 5 | All Maps","protocol":17,"map":"cp_process_final","folder":"tf","game":"Team Fortress","app_id":440,"player_count":18,"max_players":24,"Bots":0,"server_type":"Dedicated","server_os":"Linux","password":true,"vac":true,"version":"7723704","steam_id":85568392924504277,"keywords":["cp","nocrits","nodmgspread","uncletopia"],"game_id":440,"stv_port":27056,"stv_name":"Uncletopia | Frankfurt | 5 | All Maps | STV","players":[{"user_id":252,"name":"yeet24/7","steam_id":76561198063340018,"connected_time":58000000000,"state":"active","ping":55},{"user_id":228,"name":"0xDEADBEEF","steam_id":76561199075416111,"connected_time":1069000000000,"state":"active","ping":90},{"user_id":241,"name":"pootis dispenser","steam_id":76561198818060075,"connected_time":457000000000,"state":"active","ping":182},{"user_id":242,"name":"schmick","steam_id":76561198039537958,"connected_time":441000000000,"state":"active","ping":70},{"user_id":210,"name":"dustee","steam_id":76561198023486582,"connected_time":2322000000000,"state":"active","ping":76},{"user_id":249,"name":"DeepBlue","steam_id":76561198140075795,"connected_time":224000000000,"state":"active","ping":50},{"user_id":250,"name":"pijuka #k2","steam_id":76561198083063005,"connected_time":97000000000,"state":"active","ping":48},{"user_id":240,"name":"Moze-o-matic","steam_id":76561199085849639,"connected_time":503000000000,"state":"active","ping":178},{"user_id":238,"name":"NALA","steam_id":76561198039806469,"connected_time":527000000000,"state":"active","ping":70},{"user_id":251,"name":"Fran","steam_id":76561199070516960,"connected_time":85000000000,"state":"active","ping":64},{"user_id":245,"name":"guarda-chuva","steam_id":76561198078694330,"connected_time":369000000000,"state":"active","ping":57},{"user_id":229,"name":":)","steam_id":76561198039964082,"connected_time":878000000000,"state":"active","ping":64},{"user_id":171,"name":"W+M1","steam_id":76561198418538887,"connected_time":4633000000000,"state":"active","ping":93},{"user_id":197,"name":"jaime8D","steam_id":76561197980590671,"connected_time":3070000000000,"state":"active","ping":90},{"user_id":183,"name":"ivanmixo","steam_id":76561198160213989,"connected_time":3849000000000,"state":"active","ping":71},{"user_id":224,"name":"!raven","steam_id":76561198320336543,"connected_time":1636000000000,"state":"active","ping":93},{"user_id":233,"name":"DarkSoulBG24","steam_id":76561198273701478,"connected_time":779000000000,"state":"active","ping":59},{"user_id":239,"name":"jogez","steam_id":76561198267612598,"connected_time":520000000000,"state":"active","ping":90}]},{"server_id":311,"name":"Uncletopia | Frankfurt | 6 | All Maps","name_short":"frk-6","host":"frk-1.de.uncletopia.com","port":27065,"enabled":true,"region":"eu","cc":"de","latitude":50.110924,"longitude":8.682127,"reserved":0,"last_update":"0001-01-01T00:00:00Z","name_a2s":"Uncletopia | Frankfurt | 6 | All Maps","protocol":17,"map":"pl_snowycoast","folder":"tf","game":"Team Fortress","app_id":440,"player_count":23,"max_players":24,"Bots":0,"server_type":"Dedicated","server_os":"Linux","password":true,"vac":true,"version":"7723704","steam_id":85568392924504278,"keywords":["nocrits","nodmgspread","payload","uncletopia"],"game_id":440,"stv_port":27066,"stv_name":"Uncletopia | Frankfurt | 6 | All Maps | STV","players":[{"user_id":135,"name":"a fruitful and unwind","steam_id":76561198978029443,"connected_time":324000000000,"state":"active","ping":96},{"user_id":112,"name":"Kolmannen","steam_id":76561198288826376,"connected_time":1988000000000,"state":"active","ping":81},{"user_id":126,"name":"benifis163","steam_id":76561198420973492,"connected_time":1102000000000,"state":"active","ping":108},{"user_id":133,"name":"I wuv you \u003c3","steam_id":76561199436238409,"connected_time":365000000000,"state":"active","ping":75},{"user_id":136,"name":"After8","steam_id":76561198090750865,"connected_time":320000000000,"state":"active","ping":74},{"user_id":71,"name":"Keelan","steam_id":76561198013665543,"connected_time":4568000000000,"state":"active","ping":79},{"user_id":138,"name":"Colonel Crazy","steam_id":76561198262296550,"connected_time":286000000000,"state":"active","ping":173},{"user_id":111,"name":"Leibeigener","steam_id":76561199275478305,"connected_time":2303000000000,"state":"active","ping":43},{"user_id":104,"name":"Shabab","steam_id":76561198095932210,"connected_time":3283000000000,"state":"active","ping":60},{"user_id":88,"name":"Spoody #JustPassing","steam_id":76561198031523769,"connected_time":3694000000000,"state":"active","ping":45},{"user_id":139,"name":"frying pan (real)","steam_id":76561198875409640,"connected_time":283000000000,"state":"active","ping":80},{"user_id":90,"name":"[Insert Oneshot refrence]","steam_id":76561198951206047,"connected_time":3679000000000,"state":"active","ping":72},{"user_id":116,"name":"Glonk","steam_id":76561198164854396,"connected_time":1945000000000,"state":"active","ping":59},{"user_id":103,"name":"guiseppe","steam_id":76561198046129681,"connected_time":3332000000000,"state":"active","ping":92},{"user_id":93,"name":"r06u3","steam_id":76561198254099253,"connected_time":3641000000000,"state":"active","ping":182},{"user_id":140,"name":"ulululu","steam_id":76561198134681775,"connected_time":255000000000,"state":"active","ping":70},{"user_id":132,"name":"[Sheep] Tomco","steam_id":76561198388549261,"connected_time":555000000000,"state":"active","ping":71},{"user_id":141,"name":"Нечуй-Левицький","steam_id":76561198870926865,"connected_time":239000000000,"state":"active","ping":51},{"user_id":110,"name":"Volterion #SaveTf2","steam_id":76561198293088484,"connected_time":2655000000000,"state":"active","ping":78},{"user_id":128,"name":"MagicTITIKAKA","steam_id":76561198129509548,"connected_time":933000000000,"state":"active","ping":111},{"user_id":131,"name":"DeleteTrickster","steam_id":76561198397120242,"connected_time":670000000000,"state":"active","ping":81},{"user_id":109,"name":"GodOfGobboz","steam_id":76561198154677956,"connected_time":3119000000000,"state":"active","ping":70},{"user_id":121,"name":"NaN","steam_id":76561198071098413,"connected_time":1781000000000,"state":"active","ping":55}]},{"server_id":23,"name":"Uncletopia | Frankfurt | 7 | Stopwatch Beta","name_short":"frk-7","host":"frk-1.de.uncletopia.com","port":27075,"enabled":true,"region":"eu","cc":"de","latitude":50.110924,"longitude":8.682127,"reserved":0,"last_update":"0001-01-01T00:00:00Z","name_a2s":"Uncletopia | Frankfurt | 7 | Stopwatch Beta","protocol":17,"map":"workshop/pl_barnblitz_pro7.ugc582280235","folder":"tf","game":"Team Fortress","app_id":440,"player_count":0,"max_players":24,"Bots":0,"server_type":"Dedicated","server_os":"Linux","password":true,"vac":true,"version":"7723704","steam_id":85568392924742827,"keywords":["nocrits","nodmgspread","payload","uncletopia"],"game_id":440,"stv_port":27076,"stv_name":"Uncletopia | Frankfurt | 7 | Stopwatch Beta | STV","players":null},{"server_id":24,"name":"Uncletopia | Frankfurt | 8 | Community","name_short":"frk-8","host":"frk-1.de.uncletopia.com","port":27085,"enabled":true,"region":"eu","cc":"de","latitude":50.110924,"longitude":8.682127,"reserved":0,"last_update":"0001-01-01T00:00:00Z","name_a2s":"Uncletopia | Frankfurt | 8 | Community","protocol":17,"map":"workshop/koth_bagel_rc5.ugc2514036946","folder":"tf","game":"Team Fortress","app_id":440,"player_count":6,"max_players":24,"Bots":0,"server_type":"Dedicated","server_os":"Linux","password":true,"vac":true,"version":"7723704","steam_id":85568392924742828,"keywords":["cp","nocrits","nodmgspread","uncletopia"],"game_id":440,"stv_port":27086,"stv_name":"Uncletopia | Frankfurt | 8 | Community | STV","players":[{"user_id":20,"name":"fabin","steam_id":76561199088915605,"connected_time":2186000000000,"state":"active","ping":64},{"user_id":21,"name":"ssolazar","steam_id":76561199206755119,"connected_time":2122000000000,"state":"active","ping":67},{"user_id":22,"name":"tap tap","steam_id":76561198168547493,"connected_time":1965000000000,"state":"active","ping":49},{"user_id":23,"name":"water bottle","steam_id":76561199141538535,"connected_time":1920000000000,"state":"active","ping":52},{"user_id":25,"name":"SharkLH","steam_id":76561199192138643,"connected_time":1378000000000,"state":"active","ping":74},{"user_id":28,"name":"SaSSolino","steam_id":76561198011308018,"connected_time":454000000000,"state":"active","ping":59}]},{"server_id":202,"name":"Uncletopia | Hong Kong | 1 | All Maps","name_short":"hgk-1","host":"hgk-1.hk.uncletopia.com","port":27015,"enabled":true,"region":"asia","cc":"hk","latitude":22.302711,"longitude":114.177216,"reserved":0,"last_update":"0001-01-01T00:00:00Z","name_a2s":"Uncletopia | Hong Kong | 1 | All Maps","protocol":17,"map":"koth_cascade","folder":"tf","game":"Team Fortress","app_id":440,"player_count":2,"max_players":24,"Bots":0,"server_type":"Dedicated","server_os":"Linux","password":true,"vac":true,"version":"7723704","steam_id":85568392924494504,"keywords":["cp","nocrits","nodmgspread","uncletopia"],"game_id":440,"stv_port":27016,"stv_name":"Uncletopia | Hong Kong | 1 | All Maps | STV","players":[{"user_id":643,"name":"koningkelkont","steam_id":76561198845810880,"connected_time":192000000000,"state":"active","ping":323},{"user_id":328,"name":"Bertengkar","steam_id":76561198213031155,"connected_time":25562000000000,"state":"active","ping":90}]},{"server_id":1,"name":"Uncletopia | Los Angeles | 1 | All Maps","name_short":"lax-1","host":"lax-1.us.uncletopia.com","port":27015,"enabled":true,"region":"us-west","cc":"us","latitude":33.94279,"longitude":-118.41004,"reserved":0,"last_update":"0001-01-01T00:00:00Z","name_a2s":"Uncletopia | Los Angeles | 1 | All Maps","protocol":17,"map":"pl_frontier_final","folder":"tf","game":"Team Fortress","app_id":440,"player_count":0,"max_players":24,"Bots":0,"server_type":"Dedicated","server_os":"Linux","password":true,"vac":true,"version":"7723704","steam_id":85568392924469991,"keywords":["nocrits","nodmgspread","payload","uncletopia"],"game_id":440,"stv_port":27016,"stv_name":"Uncletopia | Los Angeles | 1 | All Maps | STV","players":null},{"server_id":112,"name":"Uncletopia | Los Angeles | 2 | All Maps","name_short":"lax-2","host":"lax-1.us.uncletopia.com","port":27025,"enabled":true,"region":"us-west","cc":"us","latitude":33.94279,"longitude":-118.41004,"reserved":0,"last_update":"0001-01-01T00:00:00Z","name_a2s":"Uncletopia | Los Angeles | 2 | All Maps","protocol":17,"map":"koth_viaduct","folder":"tf","game":"Team Fortress","app_id":440,"player_count":0,"max_players":24,"Bots":0,"server_type":"Dedicated","server_os":"Linux","password":true,"vac":true,"version":"7723704","steam_id":85568392924469992,"keywords":["cp","nocrits","nodmgspread","uncletopia"],"game_id":440,"stv_port":27026,"stv_name":"Uncletopia | Los Angeles | 2 | All Maps | STV","players":null},{"server_id":324,"name":"Uncletopia | Los Angeles | 3 | All Maps","name_short":"lax-3","host":"lax-1.us.uncletopia.com","port":27035,"enabled":true,"region":"us-west","cc":"us","latitude":33.94279,"longitude":-118.41004,"reserved":0,"last_update":"0001-01-01T00:00:00Z","name_a2s":"Uncletopia | Los Angeles | 3 | All Maps","protocol":17,"map":"koth_viaduct","folder":"tf","game":"Team Fortress","app_id":440,"player_count":0,"max_players":24,"Bots":0,"server_type":"Dedicated","server_os":"Linux","password":true,"vac":true,"version":"7723704","steam_id":85568392924510198,"keywords":["cp","nocrits","nodmgspread","uncletopia"],"game_id":440,"stv_port":27036,"stv_name":"Uncletopia | Los Angeles | 3 | All Maps | STV","players":null},{"server_id":25,"name":"Uncletopia | Los Angeles | 4 | Stopwatch Beta","name_short":"lax-4","host":"lax-1.us.uncletopia.com","port":27045,"enabled":true,"region":"us-west","cc":"us","latitude":33.94279,"longitude":-118.41004,"reserved":0,"last_update":"0001-01-01T00:00:00Z","name_a2s":"Uncletopia | Los Angeles | 4 | Stopwatch Beta","protocol":17,"map":"cp_sunshine","folder":"tf","game":"Team Fortress","app_id":440,"player_count":0,"max_players":24,"Bots":0,"server_type":"Dedicated","server_os":"Linux","password":true,"vac":true,"version":"7723704","steam_id":85568392924510199,"keywords":["cp","nocrits","nodmgspread","uncletopia"],"game_id":440,"stv_port":27046,"stv_name":"Uncletopia | Los Angeles | 4 | Stopwatch Beta | STV","players":null},{"server_id":11,"name":"Uncletopia | London | 1 | All Maps","name_short":"lon-1","host":"lon-1.uk.uncletopia.com","port":27015,"enabled":true,"region":"eu","cc":"gb","latitude":51.509865,"longitude":-0.118092,"reserved":0,"last_update":"0001-01-01T00:00:00Z","name_a2s":"Uncletopia | London | 1 | All Maps","protocol":17,"map":"pl_hoodoo_final","folder":"tf","game":"Team Fortress","app_id":440,"player_count":24,"max_players":24,"Bots":0,"server_type":"Dedicated","server_os":"Linux","password":true,"vac":true,"version":"7723704","steam_id":85568392924367362,"keywords":["nocrits","nodmgspread","payload","uncletopia"],"game_id":440,"stv_port":27016,"stv_name":"Uncletopia | London | 1 | All Maps | STV","players":[{"user_id":567,"name":"Santa","steam_id":76561198411134621,"connected_time":733000000000,"state":"active","ping":59},{"user_id":569,"name":"✪ Spygno ♿","steam_id":76561198160052537,"connected_time":629000000000,"state":"active","ping":99},{"user_id":570,"name":"Eoset","steam_id":76561198032206976,"connected_time":621000000000,"state":"active","ping":75},{"user_id":528,"name":"TheUndeadMage","steam_id":76561198068074285,"connected_time":3710000000000,"state":"active","ping":112},{"user_id":526,"name":"Insain Bolt!","steam_id":76561198025687726,"connected_time":3842000000000,"state":"active","ping":67},{"user_id":561,"name":"Bones","steam_id":76561198065081225,"connected_time":1306000000000,"state":"active","ping":40},{"user_id":565,"name":"LarsInABox","steam_id":76561198028329262,"connected_time":929000000000,"state":"active","ping":72},{"user_id":572,"name":"Festive Yuletart","steam_id":76561198023918830,"connected_time":488000000000,"state":"active","ping":45},{"user_id":573,"name":"LittleGearHead","steam_id":76561198060945307,"connected_time":487000000000,"state":"active","ping":90},{"user_id":574,"name":"Amandus","steam_id":76561198036281079,"connected_time":466000000000,"state":"active","ping":71},{"user_id":409,"name":"Seru","steam_id":76561199219827214,"connected_time":11275000000000,"state":"active","ping":149},{"user_id":559,"name":"Posho","steam_id":76561198062396436,"connected_time":1326000000000,"state":"active","ping":41},{"user_id":575,"name":"soap lore","steam_id":76561198058879767,"connected_time":460000000000,"state":"active","ping":45},{"user_id":521,"name":"Gearslut","steam_id":76561198114601678,"connected_time":4323000000000,"state":"active","ping":56},{"user_id":551,"name":"ZarcoinTheDuck","steam_id":76561198068250065,"connected_time":2409000000000,"state":"active","ping":60},{"user_id":504,"name":"Nedge","steam_id":76561197963549701,"connected_time":5204000000000,"state":"active","ping":51},{"user_id":576,"name":"PrinceGrotle","steam_id":76561198206131603,"connected_time":396000000000,"state":"active","ping":124},{"user_id":401,"name":"gamerweed5","steam_id":76561198087651151,"connected_time":11662000000000,"state":"active","ping":40},{"user_id":583,"name":"JOHN GAMING (based)","steam_id":76561199085822219,"connected_time":87000000000,"state":"active","ping":89},{"user_id":582,"name":"Nextracer1","steam_id":76561198195061549,"connected_time":177000000000,"state":"active","ping":45},{"user_id":579,"name":"El Pito","steam_id":76561198299753334,"connected_time":345000000000,"state":"active","ping":74},{"user_id":566,"name":"Serton♝","steam_id":76561198011061126,"connected_time":783000000000,"state":"active","ping":78},{"user_id":564,"name":"adam","steam_id":76561198329591261,"connected_time":974000000000,"state":"active","ping":67},{"user_id":581,"name":"WiDam","steam_id":76561198005976631,"connected_time":312000000000,"state":"active","ping":119}]},{"server_id":114,"name":"Uncletopia | London | 2 | All Maps","name_short":"lon-2","host":"lon-1.uk.uncletopia.com","port":27025,"enabled":true,"region":"eu","cc":"gb","latitude":51.509865,"longitude":-0.118092,"reserved":0,"last_update":"0001-01-01T00:00:00Z","name_a2s":"Uncletopia | London | 2 | All Maps","protocol":17,"map":"cp_sunshine","folder":"tf","game":"Team Fortress","app_id":440,"player_count":24,"max_players":24,"Bots":0,"server_type":"Dedicated","server_os":"Linux","password":true,"vac":true,"version":"7723704","steam_id":85568392924470941,"keywords":["cp","nocrits","nodmgspread","uncletopia"],"game_id":440,"stv_port":27026,"stv_name":"Uncletopia | London | 2 | All Maps | STV","players":[{"user_id":220,"name":"Thesis","steam_id":76561199308784371,"connected_time":11508000000000,"state":"active","ping":52},{"user_id":363,"name":"Jayco","steam_id":76561198122497262,"connected_time":806000000000,"state":"active","ping":57},{"user_id":334,"name":"LasagnaLarry22","steam_id":76561198089478290,"connected_time":2862000000000,"state":"active","ping":37},{"user_id":332,"name":"Frazzles","steam_id":76561199228009586,"connected_time":3085000000000,"state":"active","ping":53},{"user_id":392,"name":"Multi","steam_id":76561197998338481,"connected_time":82000000000,"state":"active","ping":64},{"user_id":361,"name":"ducks","steam_id":76561198166148685,"connected_time":1079000000000,"state":"active","ping":31},{"user_id":303,"name":"ciliorkun18","steam_id":76561198228942500,"connected_time":4756000000000,"state":"active","ping":97},{"user_id":345,"name":"under stress gamer","steam_id":76561198922534490,"connected_time":2223000000000,"state":"active","ping":60},{"user_id":358,"name":"Fat Pigeon","steam_id":76561198817940142,"connected_time":1591000000000,"state":"active","ping":45},{"user_id":386,"name":"Mbappé mevepe","steam_id":76561198037938833,"connected_time":269000000000,"state":"active","ping":50},{"user_id":390,"name":"fmdi","steam_id":76561199433879329,"connected_time":205000000000,"state":"active","ping":75},{"user_id":383,"name":"Dr. Funkenstein","steam_id":76561197977816210,"connected_time":290000000000,"state":"active","ping":52},{"user_id":384,"name":"Rocopherus","steam_id":76561198045010551,"connected_time":288000000000,"state":"active","ping":45},{"user_id":356,"name":"Bug","steam_id":76561198168268048,"connected_time":1659000000000,"state":"active","ping":50},{"user_id":387,"name":"Rocadinis","steam_id":76561198095910616,"connected_time":238000000000,"state":"active","ping":96},{"user_id":388,"name":"Remyie","steam_id":76561198131031404,"connected_time":234000000000,"state":"active","ping":91},{"user_id":348,"name":"knees","steam_id":76561198413545609,"connected_time":2053000000000,"state":"active","ping":47},{"user_id":391,"name":"Lightbulb Monkey","steam_id":76561198045033173,"connected_time":174000000000,"state":"active","ping":105},{"user_id":393,"name":"fénix","steam_id":76561198083199151,"connected_time":16000000000,"state":"active","ping":64},{"user_id":323,"name":"beurgeur","steam_id":76561198872426314,"connected_time":3495000000000,"state":"active","ping":39},{"user_id":394,"name":"guy who snores hooonk mimimi","steam_id":76561198156394435,"connected_time":13000000000,"state":"spawning","ping":40},{"user_id":335,"name":"AFerociousTeddyBearSlayer","steam_id":76561198247447256,"connected_time":2702000000000,"state":"active","ping":58},{"user_id":331,"name":"Smuggs","steam_id":76561197999456003,"connected_time":3323000000000,"state":"active","ping":40},{"user_id":341,"name":"Kahvi","steam_id":76561198723244199,"connected_time":2543000000000,"state":"active","ping":76}]},{"server_id":320,"name":"Uncletopia | London | 3 | All Maps","name_short":"lon-3","host":"lon-1.uk.uncletopia.com","port":27035,"enabled":true,"region":"eu","cc":"gb","latitude":51.509865,"longitude":-0.118092,"reserved":0,"last_update":"0001-01-01T00:00:00Z","name_a2s":"Uncletopia | London | 3 | All Maps","protocol":17,"map":"cp_altitude","folder":"tf","game":"Team Fortress","app_id":440,"player_count":24,"max_players":24,"Bots":0,"server_type":"Dedicated","server_os":"Linux","password":true,"vac":true,"version":"7723704","steam_id":85568392924510192,"keywords":["cp","nocrits","nodmgspread","uncletopia"],"game_id":440,"stv_port":27036,"stv_name":"Uncletopia | London | 3 | All Maps | STV","players":[{"user_id":330,"name":"sareena","steam_id":76561198810194062,"connected_time":975000000000,"state":"active","ping":74},{"user_id":336,"name":"dochris.2","steam_id":76561198026478625,"connected_time":847000000000,"state":"active","ping":57},{"user_id":342,"name":"hedonic treadmill","steam_id":76561199114742711,"connected_time":616000000000,"state":"active","ping":89},{"user_id":299,"name":"ScreamCram","steam_id":76561199114068524,"connected_time":3540000000000,"state":"active","ping":148},{"user_id":309,"name":"Djarlem","steam_id":76561198080968386,"connected_time":3147000000000,"state":"active","ping":48},{"user_id":312,"name":"the baby maker","steam_id":76561198194327061,"connected_time":2912000000000,"state":"active","ping":52},{"user_id":326,"name":"Nexosert","steam_id":76561198941142018,"connected_time":1660000000000,"state":"active","ping":150},{"user_id":348,"name":"Teffg","steam_id":76561198274386094,"connected_time":239000000000,"state":"active","ping":94},{"user_id":337,"name":"The Real Lobster Socks","steam_id":76561198870015437,"connected_time":834000000000,"state":"active","ping":53},{"user_id":338,"name":"YILK","steam_id":76561198077913307,"connected_time":800000000000,"state":"active","ping":47},{"user_id":296,"name":"lark","steam_id":76561198091724522,"connected_time":3579000000000,"state":"active","ping":55},{"user_id":297,"name":"Saken","steam_id":76561198049075295,"connected_time":3577000000000,"state":"active","ping":59},{"user_id":349,"name":"Chocopenguin","steam_id":76561198247470284,"connected_time":208000000000,"state":"active","ping":53},{"user_id":350,"name":"SaltyCupcakes","steam_id":76561198256386417,"connected_time":191000000000,"state":"active","ping":44},{"user_id":334,"name":"Ciaguta_rolex","steam_id":76561198046709588,"connected_time":911000000000,"state":"active","ping":81},{"user_id":335,"name":"dominik7597","steam_id":76561198022710436,"connected_time":907000000000,"state":"active","ping":74},{"user_id":339,"name":"Baby flava","steam_id":76561198072481213,"connected_time":725000000000,"state":"active","ping":61},{"user_id":290,"name":"Smag","steam_id":76561198153675141,"connected_time":3742000000000,"state":"active","ping":42},{"user_id":329,"name":"Weather Report","steam_id":76561199109494283,"connected_time":1406000000000,"state":"active","ping":112},{"user_id":351,"name":"baro.ricky","steam_id":76561198172204039,"connected_time":155000000000,"state":"active","ping":74},{"user_id":344,"name":"Tom Foolery","steam_id":76561198358895809,"connected_time":477000000000,"state":"active","ping":51},{"user_id":347,"name":"Minecraftien_76","steam_id":76561198443111849,"connected_time":269000000000,"state":"active","ping":70},{"user_id":346,"name":"kotamine","steam_id":76561198068907991,"connected_time":330000000000,"state":"active","ping":77},{"user_id":341,"name":"Nassu","steam_id":76561198147367577,"connected_time":683000000000,"state":"active","ping":158}]},{"server_id":321,"name":"Uncletopia | London | 4 | All Maps","name_short":"lon-4","host":"lon-1.uk.uncletopia.com","port":27045,"enabled":true,"region":"eu","cc":"gb","latitude":51.509865,"longitude":-0.118092,"reserved":0,"last_update":"0001-01-01T00:00:00Z","name_a2s":"Uncletopia | London | 4 | All Maps","protocol":17,"map":"pl_badwater","folder":"tf","game":"Team Fortress","app_id":440,"player_count":23,"max_players":24,"Bots":0,"server_type":"Dedicated","server_os":"Linux","password":true,"vac":true,"version":"7723704","steam_id":85568392924510193,"keywords":["nocrits","nodmgspread","payload","uncletopia"],"game_id":440,"stv_port":27046,"stv_name":"Uncletopia | London | 4 | All Maps | STV","players":[{"user_id":9,"name":"peacekeeper","steam_id":76561199260462952,"connected_time":4837000000000,"state":"active","ping":101},{"user_id":53,"name":"john fluidmasterballwasher doe","steam_id":76561199006462039,"connected_time":43000000000,"state":"active","ping":62},{"user_id":25,"name":"-rikeOo-","steam_id":76561198303995379,"connected_time":1227000000000,"state":"active","ping":76},{"user_id":20,"name":"Zigguski","steam_id":76561198022990016,"connected_time":1735000000000,"state":"active","ping":45},{"user_id":17,"name":"daanvanliempt05","steam_id":76561198355398948,"connected_time":2064000000000,"state":"active","ping":55},{"user_id":22,"name":"romaingallo","steam_id":76561198268112907,"connected_time":1480000000000,"state":"active","ping":54},{"user_id":26,"name":"Sconedog04","steam_id":76561198410923783,"connected_time":1218000000000,"state":"active","ping":129},{"user_id":51,"name":"|SoW| IgI","steam_id":76561198001541383,"connected_time":388000000000,"state":"active","ping":80},{"user_id":52,"name":"Sparklysammon22","steam_id":76561198400790231,"connected_time":314000000000,"state":"active","ping":38},{"user_id":29,"name":"2B","steam_id":76561198920856145,"connected_time":1170000000000,"state":"active","ping":59},{"user_id":30,"name":"Carrot","steam_id":76561198119340863,"connected_time":1151000000000,"state":"active","ping":40},{"user_id":31,"name":"Elijah Wood","steam_id":76561198174318447,"connected_time":1134000000000,"state":"active","ping":59},{"user_id":32,"name":"DSL","steam_id":76561198186770547,"connected_time":1128000000000,"state":"active","ping":89},{"user_id":45,"name":"fallingpencil","steam_id":76561199230233148,"connected_time":884000000000,"state":"active","ping":57},{"user_id":34,"name":"DomiLovesBois","steam_id":76561199220982394,"connected_time":1037000000000,"state":"active","ping":75},{"user_id":46,"name":"gorg","steam_id":76561198160285627,"connected_time":752000000000,"state":"active","ping":43},{"user_id":50,"name":"Sputnik","steam_id":76561198138660241,"connected_time":482000000000,"state":"active","ping":53},{"user_id":49,"name":"Tenacity","steam_id":76561198214848887,"connected_time":538000000000,"state":"active","ping":65},{"user_id":39,"name":"Nambo Chimbanskey","steam_id":76561198134646593,"connected_time":988000000000,"state":"active","ping":45},{"user_id":40,"name":"Mulenmul","steam_id":76561199039796992,"connected_time":987000000000,"state":"active","ping":59},{"user_id":47,"name":"Инспектор Атас","steam_id":76561199175688390,"connected_time":730000000000,"state":"active","ping":86},{"user_id":42,"name":"Velosera","steam_id":76561199412527837,"connected_time":964000000000,"state":"active","ping":42},{"user_id":43,"name":"goose","steam_id":76561199119134960,"connected_time":939000000000,"state":"active","ping":45}]},{"server_id":21,"name":"Uncletopia | London | 5 | All Maps","name_short":"lon-5","host":"lon-1.uk.uncletopia.com","port":27055,"enabled":true,"region":"eu","cc":"gb","latitude":51.509865,"longitude":-0.118092,"reserved":0,"last_update":"0001-01-01T00:00:00Z","name_a2s":"Uncletopia | London | 5 | All Maps","protocol":17,"map":"pl_badwater","folder":"tf","game":"Team Fortress","app_id":440,"player_count":24,"max_players":24,"Bots":0,"server_type":"Dedicated","server_os":"Linux","password":true,"vac":true,"version":"7723704","steam_id":85568392924742829,"keywords":["nocrits","nodmgspread","payload","uncletopia"],"game_id":440,"stv_port":27056,"stv_name":"Uncletopia | London | 5 | All Maps | STV","players":[{"user_id":104,"name":"Glitch","steam_id":76561198081895538,"connected_time":668000000000,"state":"active","ping":43},{"user_id":105,"name":"Rad Brad","steam_id":76561198972060765,"connected_time":648000000000,"state":"active","ping":82},{"user_id":89,"name":"Laby","steam_id":76561198256169648,"connected_time":2981000000000,"state":"active","ping":80},{"user_id":106,"name":"When Life gives you Lemons","steam_id":76561198318290663,"connected_time":611000000000,"state":"active","ping":55},{"user_id":94,"name":"goofy goober","steam_id":76561198013237629,"connected_time":2802000000000,"state":"active","ping":85},{"user_id":75,"name":"Flabberson Gilbert Dooberqavier","steam_id":76561199244829558,"connected_time":4008000000000,"state":"active","ping":69},{"user_id":85,"name":"wombatty","steam_id":76561198046873337,"connected_time":3377000000000,"state":"active","ping":46},{"user_id":79,"name":"Skuth","steam_id":76561198041470939,"connected_time":3822000000000,"state":"active","ping":115},{"user_id":103,"name":"NatBait","steam_id":76561199245006721,"connected_time":920000000000,"state":"active","ping":46},{"user_id":66,"name":"Tmpod","steam_id":76561198069210431,"connected_time":4374000000000,"state":"active","ping":62},{"user_id":24,"name":"Linux","steam_id":76561199224409825,"connected_time":6073000000000,"state":"active","ping":41},{"user_id":90,"name":"GamingElek","steam_id":76561198253639367,"connected_time":2947000000000,"state":"active","ping":68},{"user_id":115,"name":"XPullaHiiri","steam_id":76561198031652375,"connected_time":20000000000,"state":"active","ping":89},{"user_id":35,"name":"wombly bombly :3","steam_id":76561198010662796,"connected_time":5586000000000,"state":"active","ping":42},{"user_id":112,"name":"cherry","steam_id":76561199006915718,"connected_time":414000000000,"state":"active","ping":64},{"user_id":38,"name":"walluu","steam_id":76561198121830870,"connected_time":5520000000000,"state":"active","ping":77},{"user_id":96,"name":"sysanin","steam_id":76561198056649495,"connected_time":2781000000000,"state":"active","ping":92},{"user_id":108,"name":"nori","steam_id":76561198099077097,"connected_time":501000000000,"state":"active","ping":89},{"user_id":72,"name":"bean","steam_id":76561198347365909,"connected_time":4233000000000,"state":"active","ping":69},{"user_id":74,"name":"wombat","steam_id":76561198076219289,"connected_time":4049000000000,"state":"active","ping":47},{"user_id":113,"name":"Jughead","steam_id":76561198000355410,"connected_time":324000000000,"state":"active","ping":30},{"user_id":114,"name":"Wombasticious","steam_id":76561198133901720,"connected_time":93000000000,"state":"active","ping":69},{"user_id":116,"name":"fishfin","steam_id":76561198255819115,"connected_time":14000000000,"state":"spawning","ping":149},{"user_id":111,"name":"Dolcelatte","steam_id":76561198038501770,"connected_time":452000000000,"state":"active","ping":62}]},{"server_id":22,"name":"Uncletopia | London | 6 | All Maps","name_short":"lon-6","host":"lon-1.uk.uncletopia.com","port":27065,"enabled":true,"region":"eu","cc":"gb","latitude":51.509865,"longitude":-0.118092,"reserved":0,"last_update":"0001-01-01T00:00:00Z","name_a2s":"Uncletopia | London | 6 | All Maps","protocol":17,"map":"pl_barnblitz","folder":"tf","game":"Team Fortress","app_id":440,"player_count":0,"max_players":24,"Bots":0,"server_type":"Dedicated","server_os":"Linux","password":true,"vac":true,"version":"7723704","steam_id":85568392924742830,"keywords":["nocrits","nodmgspread","payload","uncletopia"],"game_id":440,"stv_port":27066,"stv_name":"Uncletopia | London | 6 | All Maps | STV","players":null},{"server_id":40,"name":"Uncletopia | London | 7 | No Payload","name_short":"lon-7","host":"lon-1.uk.uncletopia.com","port":27075,"enabled":true,"region":"eu","cc":"gb","latitude":51.509865,"longitude":-0.118092,"reserved":0,"last_update":"0001-01-01T00:00:00Z","name_a2s":"Uncletopia | London | 7 | No Payload","protocol":17,"map":"plr_nightfall_final","folder":"tf","game":"Team Fortress","app_id":440,"player_count":0,"max_players":24,"Bots":0,"server_type":"Dedicated","server_os":"Linux","password":true,"vac":true,"version":"7723704","steam_id":85568392924964314,"keywords":["nocrits","nodmgspread","payload","uncletopia"],"game_id":440,"stv_port":27076,"stv_name":"Uncletopia | London | 7 | No Payload | STV","players":null},{"server_id":41,"name":"Uncletopia | London | 8 | Community","name_short":"lon-8","host":"lon-1.uk.uncletopia.com","port":27085,"enabled":true,"region":"eu","cc":"gb","latitude":51.509865,"longitude":-0.118092,"reserved":0,"last_update":"0001-01-01T00:00:00Z","name_a2s":"Uncletopia | London | 8 | Community","protocol":17,"map":"koth_highpass","folder":"tf","game":"Team Fortress","app_id":440,"player_count":0,"max_players":24,"Bots":0,"server_type":"Dedicated","server_os":"Linux","password":true,"vac":true,"version":"7723704","steam_id":85568392924964315,"keywords":["cp","nocrits","nodmgspread","uncletopia"],"game_id":440,"stv_port":27086,"stv_name":"Uncletopia | London | 8 | Community | STV","players":null},{"server_id":300,"name":"Uncletopia | Montréal | 1 | All Maps","name_short":"mtl-1","host":"mtl-1.ca.uncletopia.com","port":27015,"enabled":true,"region":"us-east","cc":"ca","latitude":45.50889,"longitude":-73.56167,"reserved":0,"last_update":"0001-01-01T00:00:00Z","name_a2s":"Uncletopia | Montréal | 1 | All Maps","protocol":17,"map":"cp_mountainlab","folder":"tf","game":"Team Fortress","app_id":440,"player_count":0,"max_players":24,"Bots":0,"server_type":"Dedicated","server_os":"Linux","password":true,"vac":true,"version":"7723704","steam_id":85568392924500087,"keywords":["cp","nocrits","nodmgspread","uncletopia"],"game_id":440,"stv_port":27016,"stv_name":"Uncletopia | Montréal | 1 | All Maps | STV","players":null},{"server_id":301,"name":"Uncletopia | Montréal | 2 | All Maps","name_short":"mtl-2","host":"mtl-1.ca.uncletopia.com","port":27025,"enabled":true,"region":"us-east","cc":"ca","latitude":45.50889,"longitude":-73.56167,"reserved":0,"last_update":"0001-01-01T00:00:00Z","name_a2s":"Uncletopia | Montréal | 2 | All Maps","protocol":17,"map":"cp_process_final","folder":"tf","game":"Team Fortress","app_id":440,"player_count":0,"max_players":24,"Bots":0,"server_type":"Dedicated","server_os":"Linux","password":true,"vac":true,"version":"7723704","steam_id":85568392924500088,"keywords":["cp","nocrits","nodmgspread","uncletopia"],"game_id":440,"stv_port":27026,"stv_name":"Uncletopia | Montréal | 2 | All Maps | STV","players":null},{"server_id":302,"name":"Uncletopia | Montréal | 3 | All Maps","name_short":"mtl-3","host":"mtl-1.ca.uncletopia.com","port":27035,"enabled":true,"region":"us-east","cc":"ca","latitude":45.50889,"longitude":-73.56167,"reserved":0,"last_update":"0001-01-01T00:00:00Z","name_a2s":"Uncletopia | Montréal | 3 | All Maps","protocol":17,"map":"pl_barnblitz","folder":"tf","game":"Team Fortress","app_id":440,"player_count":0,"max_players":24,"Bots":0,"server_type":"Dedicated","server_os":"Linux","password":true,"vac":true,"version":"7723704","steam_id":85568392924500089,"keywords":["nocrits","nodmgspread","payload","uncletopia"],"game_id":440,"stv_port":27036,"stv_name":"Uncletopia | Montréal | 3 | All Maps | STV","players":null},{"server_id":303,"name":"Uncletopia | Montréal | 4 | No Payload","name_short":"mtl-4","host":"mtl-1.ca.uncletopia.com","port":27045,"enabled":true,"region":"us-east","cc":"ca","latitude":45.50889,"longitude":-73.56167,"reserved":0,"last_update":"0001-01-01T00:00:00Z","name_a2s":"Uncletopia | Montréal | 4 | No Payload","protocol":17,"map":"koth_cascade","folder":"tf","game":"Team Fortress","app_id":440,"player_count":0,"max_players":24,"Bots":0,"server_type":"Dedicated","server_os":"Linux","password":true,"vac":true,"version":"7723704","steam_id":85568392924500090,"keywords":["cp","nocrits","nodmgspread","uncletopia"],"game_id":440,"stv_port":27046,"stv_name":"Uncletopia | Montréal | 4 | No Payload | STV","players":null},{"server_id":13,"name":"Uncletopia | New York City | 1 | All Maps","name_short":"nyc-1","host":"nyc-1.us.uncletopia.com","port":27015,"enabled":true,"region":"us-east","cc":"us","latitude":40.73061,"longitude":-73.93524,"reserved":0,"last_update":"0001-01-01T00:00:00Z","name_a2s":"Uncletopia | New York City | 1 | All Maps","protocol":17,"map":"pl_upward","folder":"tf","game":"Team Fortress","app_id":440,"player_count":0,"max_players":24,"Bots":0,"server_type":"Dedicated","server_os":"Linux","password":true,"vac":true,"version":"7723704","steam_id":85568392924469993,"keywords":["nocrits","nodmgspread","payload","uncletopia"],"game_id":440,"stv_port":27016,"stv_name":"Uncletopia | New York City | 1 | All Maps | STV","players":null},{"server_id":14,"name":"Uncletopia | New York City | 2 | All Maps","name_short":"nyc-2","host":"nyc-1.us.uncletopia.com","port":27025,"enabled":true,"region":"us-east","cc":"us","latitude":40.73061,"longitude":-73.93524,"reserved":0,"last_update":"0001-01-01T00:00:00Z","name_a2s":"Uncletopia | New York City | 2 | All Maps","protocol":17,"map":"pl_barnblitz","folder":"tf","game":"Team Fortress","app_id":440,"player_count":0,"max_players":24,"Bots":0,"server_type":"Dedicated","server_os":"Linux","password":true,"vac":true,"version":"7723704","steam_id":85568392924469994,"keywords":["nocrits","nodmgspread","payload","uncletopia"],"game_id":440,"stv_port":27026,"stv_name":"Uncletopia | New York City | 2 | All Maps | STV","players":null},{"server_id":15,"name":"Uncletopia | New York City | 3 | Stopwatch Beta","name_short":"nyc-3","host":"nyc-1.us.uncletopia.com","port":27035,"enabled":true,"region":"us-east","cc":"us","latitude":40.73061,"longitude":-73.93524,"reserved":0,"last_update":"0001-01-01T00:00:00Z","name_a2s":"Uncletopia | New York City | 3 | Stopwatch Beta","protocol":17,"map":"cp_process_final","folder":"tf","game":"Team Fortress","app_id":440,"player_count":0,"max_players":24,"Bots":0,"server_type":"Dedicated","server_os":"Linux","password":true,"vac":true,"version":"7723704","steam_id":85568392924742820,"keywords":["cp","nocrits","nodmgspread","uncletopia"],"game_id":440,"stv_port":27036,"stv_name":"Uncletopia | New York City | 3 | Stopwatch Beta | STV","players":null},{"server_id":16,"name":"Uncletopia | New York City | 4 | Community","name_short":"nyc-4","host":"nyc-1.us.uncletopia.com","port":27045,"enabled":true,"region":"us-east","cc":"us","latitude":40.73061,"longitude":-73.93524,"reserved":0,"last_update":"0001-01-01T00:00:00Z","name_a2s":"Uncletopia | New York City | 4 | Community","protocol":17,"map":"pl_frontier_final","folder":"tf","game":"Team Fortress","app_id":440,"player_count":0,"max_players":24,"Bots":0,"server_type":"Dedicated","server_os":"Linux","password":true,"vac":true,"version":"7723704","steam_id":85568392924742821,"keywords":["nocrits","nodmgspread","payload","uncletopia"],"game_id":440,"stv_port":27046,"stv_name":"Uncletopia | New York City | 4 | Community | STV","players":null},{"server_id":142,"name":"Uncletopia | São Paulo | 1 | All Maps","name_short":"sao-1","host":"sao-1.br.uncletopia.com","port":27015,"enabled":true,"region":"sa","cc":"br","latitude":-23.533773,"longitude":-46.62529,"reserved":0,"last_update":"0001-01-01T00:00:00Z","name_a2s":"Uncletopia | São Paulo | 1 | All Maps","protocol":17,"map":"pl_borneo","folder":"tf","game":"Team Fortress","app_id":440,"player_count":0,"max_players":24,"Bots":0,"server_type":"Dedicated","server_os":"Linux","password":true,"vac":true,"version":"7723704","steam_id":85568392924469996,"keywords":["nocrits","nodmgspread","payload","uncletopia"],"game_id":440,"stv_port":27016,"stv_name":"Uncletopia | São Paulo | 1 | All Maps | STV","players":null},{"server_id":143,"name":"Uncletopia | São Paulo | 2 | All Maps","name_short":"sao-2","host":"sao-2.br.uncletopia.com","port":27015,"enabled":true,"region":"sa","cc":"br","latitude":-23.533773,"longitude":-46.62529,"reserved":0,"last_update":"0001-01-01T00:00:00Z","name_a2s":"Uncletopia | São Paulo | 2 | All Maps","protocol":17,"map":"koth_lakeside_final","folder":"tf","game":"Team Fortress","app_id":440,"player_count":0,"max_players":24,"Bots":0,"server_type":"Dedicated","server_os":"Linux","password":true,"vac":true,"version":"7723704","steam_id":85568392924485349,"keywords":["cp","nocrits","nodmgspread","uncletopia"],"game_id":440,"stv_port":27016,"stv_name":"Uncletopia | São Paulo | 2 | All Maps | STV","players":null},{"server_id":7,"name":"Uncletopia | Seattle | 1 | All Maps","name_short":"sea-1","host":"sea-1.us.uncletopia.com","port":27015,"enabled":true,"region":"us-west","cc":"us","latitude":47.608013,"longitude":-122.33517,"reserved":0,"last_update":"0001-01-01T00:00:00Z","name_a2s":"Uncletopia | Seattle | 1 | All Maps","protocol":17,"map":"koth_cascade","folder":"tf","game":"Team Fortress","app_id":440,"player_count":0,"max_players":24,"Bots":0,"server_type":"Dedicated","server_os":"Linux","password":true,"vac":true,"version":"7723704","steam_id":85568392924469997,"keywords":["cp","nocrits","nodmgspread","uncletopia"],"game_id":440,"stv_port":27016,"stv_name":"Uncletopia | Seattle | 1 | All Maps | STV","players":null},{"server_id":119,"name":"Uncletopia | Seattle | 2 | All Maps","name_short":"sea-2","host":"sea-1.us.uncletopia.com","port":27025,"enabled":true,"region":"us-west","cc":"us","latitude":47.608013,"longitude":-122.33517,"reserved":0,"last_update":"0001-01-01T00:00:00Z","name_a2s":"Uncletopia | Seattle | 2 | All Maps","protocol":17,"map":"cp_altitude","folder":"tf","game":"Team Fortress","app_id":440,"player_count":0,"max_players":24,"Bots":0,"server_type":"Dedicated","server_os":"Linux","password":true,"vac":true,"version":"7723704","steam_id":85568392924469998,"keywords":["cp","nocrits","nodmgspread","uncletopia"],"game_id":440,"stv_port":27026,"stv_name":"Uncletopia | Seattle | 2 | All Maps | STV","players":null},{"server_id":406,"name":"Uncletopia | Seattle | 3 | Stopwatch Beta","name_short":"sea-3","host":"sea-1.us.uncletopia.com","port":27035,"enabled":true,"region":"us-west","cc":"us","latitude":47.608013,"longitude":-122.33517,"reserved":0,"last_update":"0001-01-01T00:00:00Z","name_a2s":"Uncletopia | Seattle | 3 | Stopwatch Beta","protocol":17,"map":"cp_altitude","folder":"tf","game":"Team Fortress","app_id":440,"player_count":0,"max_players":24,"Bots":0,"server_type":"Dedicated","server_os":"Linux","password":true,"vac":false,"version":"7723704","steam_id":0,"keywords":["cp","nocrits","nodmgspread","uncletopia"],"game_id":440,"stv_port":27036,"stv_name":"Uncletopia | Seattle | 3 | Stopwatch Beta | STV","players":null},{"server_id":17,"name":"Uncletopia | San Francisco | 1 | All Maps","name_short":"sfo-1","host":"sfo-1.us.uncletopia.com","port":27015,"enabled":true,"region":"us-west","cc":"us","latitude":37.77397,"longitude":-122.4313,"reserved":0,"last_update":"0001-01-01T00:00:00Z","name_a2s":"Uncletopia | San Francisco | 1 | All Maps","protocol":17,"map":"cp_process_final","folder":"tf","game":"Team Fortress","app_id":440,"player_count":0,"max_players":24,"Bots":0,"server_type":"Dedicated","server_os":"Linux","password":true,"vac":true,"version":"7723704","steam_id":85568392924469999,"keywords":["cp","nocrits","nodmgspread","uncletopia"],"game_id":440,"stv_port":27016,"stv_name":"Uncletopia | San Francisco | 1 | All Maps | STV","players":null},{"server_id":18,"name":"Uncletopia | San Francisco | 2 | All Maps","name_short":"sfo-2","host":"sfo-1.us.uncletopia.com","port":27025,"enabled":true,"region":"us-west","cc":"us","latitude":37.77397,"longitude":-122.4313,"reserved":0,"last_update":"0001-01-01T00:00:00Z","name_a2s":"Uncletopia | San Francisco | 2 | All Maps","protocol":17,"map":"pl_upward","folder":"tf","game":"Team Fortress","app_id":440,"player_count":0,"max_players":24,"Bots":0,"server_type":"Dedicated","server_os":"Linux","password":true,"vac":true,"version":"7723704","steam_id":85568392924470000,"keywords":["nocrits","nodmgspread","payload","uncletopia"],"game_id":440,"stv_port":27026,"stv_name":"Uncletopia | San Francisco | 2 | All Maps | STV","players":null},{"server_id":19,"name":"Uncletopia | San Francisco | 3 | Stopwatch Beta","name_short":"sfo-3","host":"sfo-1.us.uncletopia.com","port":27035,"enabled":true,"region":"us-west","cc":"us","latitude":37.77397,"longitude":-122.4313,"reserved":0,"last_update":"0001-01-01T00:00:00Z","name_a2s":"Uncletopia | San Francisco | 3 | Stopwatch Beta","protocol":17,"map":"pl_pier","folder":"tf","game":"Team Fortress","app_id":440,"player_count":0,"max_players":24,"Bots":0,"server_type":"Dedicated","server_os":"Linux","password":true,"vac":true,"version":"7723704","steam_id":85568392924742824,"keywords":["nocrits","nodmgspread","payload","uncletopia"],"game_id":440,"stv_port":27036,"stv_name":"Uncletopia | San Francisco | 3 | Stopwatch Beta | STV","players":null},{"server_id":20,"name":"Uncletopia | San Francisco | 4 | Community","name_short":"sfo-4","host":"sfo-1.us.uncletopia.com","port":27045,"enabled":true,"region":"us-west","cc":"us","latitude":37.77397,"longitude":-122.4313,"reserved":0,"last_update":"0001-01-01T00:00:00Z","name_a2s":"Uncletopia | San Francisco | 4 | Community","protocol":17,"map":"koth_cascade","folder":"tf","game":"Team Fortress","app_id":440,"player_count":0,"max_players":24,"Bots":0,"server_type":"Dedicated","server_os":"Linux","password":true,"vac":true,"version":"7723704","steam_id":85568392924742826,"keywords":["cp","nocrits","nodmgspread","uncletopia"],"game_id":440,"stv_port":27046,"stv_name":"Uncletopia | San Francisco | 4 | Community | STV","players":null},{"server_id":141,"name":"Uncletopia | Sydney | 1 | All Maps","name_short":"syd-1","host":"syd-1.au.uncletopia.com","port":27015,"enabled":true,"region":"au","cc":"au","latitude":-33.865143,"longitude":151.2099,"reserved":0,"last_update":"0001-01-01T00:00:00Z","name_a2s":"Uncletopia | Sydney | 1 | All Maps","protocol":17,"map":"koth_lakeside_final","folder":"tf","game":"Team Fortress","app_id":440,"player_count":0,"max_players":24,"Bots":0,"server_type":"Dedicated","server_os":"Linux","password":true,"vac":true,"version":"7723704","steam_id":85568392924470001,"keywords":["cp","nocrits","nodmgspread","uncletopia"],"game_id":440,"stv_port":27016,"stv_name":"Uncletopia | Sydney | 1 | All Maps | STV","players":null},{"server_id":123,"name":"Uncletopia | Sydney | 2 | All Maps","name_short":"syd-2","host":"syd-1.au.uncletopia.com","port":27025,"enabled":true,"region":"au","cc":"au","latitude":-33.865143,"longitude":151.2099,"reserved":0,"last_update":"0001-01-01T00:00:00Z","name_a2s":"Uncletopia | Sydney | 2 | All Maps","protocol":17,"map":"pl_upward","folder":"tf","game":"Team Fortress","app_id":440,"player_count":0,"max_players":24,"Bots":0,"server_type":"Dedicated","server_os":"Linux","password":true,"vac":true,"version":"7723704","steam_id":85568392924470002,"keywords":["nocrits","nodmgspread","payload","uncletopia"],"game_id":440,"stv_port":27026,"stv_name":"Uncletopia | Sydney | 2 | All Maps | STV","players":null},{"server_id":395,"name":"Uncletopia | Sydney | 3 | All Maps","name_short":"syd-3","host":"syd-1.au.uncletopia.com","port":27035,"enabled":true,"region":"au","cc":"au","latitude":-33.865143,"longitude":151.2099,"reserved":0,"last_update":"0001-01-01T00:00:00Z","name_a2s":"Uncletopia | Sydney | 3 | All Maps","protocol":17,"map":"cp_dustbowl","folder":"tf","game":"Team Fortress","app_id":440,"player_count":0,"max_players":24,"Bots":0,"server_type":"Dedicated","server_os":"Linux","password":true,"vac":true,"version":"7723704","steam_id":85568392925194467,"keywords":["cp","nocrits","nodmgspread","uncletopia"],"game_id":440,"stv_port":27036,"stv_name":"Uncletopia | Sydney | 3 | All Maps | STV","players":null},{"server_id":396,"name":"Uncletopia | Sydney | 4 | All Maps","name_short":"syd-4","host":"syd-1.au.uncletopia.com","port":27045,"enabled":true,"region":"au","cc":"au","latitude":-33.865143,"longitude":151.2099,"reserved":0,"last_update":"0001-01-01T00:00:00Z","name_a2s":"Uncletopia | Sydney | 4 | All Maps","protocol":17,"map":"koth_suijin","folder":"tf","game":"Team Fortress","app_id":440,"player_count":0,"max_players":24,"Bots":0,"server_type":"Dedicated","server_os":"Linux","password":true,"vac":true,"version":"7723704","steam_id":85568392925397958,"keywords":["cp","nocrits","nodmgspread","uncletopia"],"game_id":440,"stv_port":27046,"stv_name":"Uncletopia | Sydney | 4 | All Maps | STV","players":null},{"server_id":58,"name":"Uncletopia | Sydney | 5 | Stopwatch Beta","name_short":"syd-5","host":"syd-1.au.uncletopia.com","port":27055,"enabled":true,"region":"au","cc":"au","latitude":-33.865143,"longitude":151.2099,"reserved":0,"last_update":"0001-01-01T00:00:00Z","name_a2s":"Uncletopia | Sydney | 5 | Stopwatch Beta","protocol":17,"map":"cp_altitude","folder":"tf","game":"Team Fortress","app_id":440,"player_count":0,"max_players":24,"Bots":0,"server_type":"Dedicated","server_os":"Linux","password":true,"vac":true,"version":"7723704","steam_id":85568392925397959,"keywords":["cp","nocrits","nodmgspread","uncletopia"],"game_id":440,"stv_port":27056,"stv_name":"Uncletopia | Sydney | 5 | Stopwatch Beta | STV","players":null},{"server_id":59,"name":"Uncletopia | Sydney | 6 | Community","name_short":"syd-6","host":"syd-1.au.uncletopia.com","port":27065,"enabled":true,"region":"au","cc":"au","latitude":-33.865143,"longitude":151.2099,"reserved":0,"last_update":"0001-01-01T00:00:00Z","name_a2s":"Uncletopia | Sydney | 6 | Community","protocol":17,"map":"workshop/pl_fifthcurve_rc1.ugc648227046","folder":"tf","game":"Team Fortress","app_id":440,"player_count":0,"max_players":24,"Bots":0,"server_type":"Dedicated","server_os":"Linux","password":true,"vac":true,"version":"7723704","steam_id":85568392925397960,"keywords":["nocrits","nodmgspread","payload","uncletopia"],"game_id":440,"stv_port":27066,"stv_name":"Uncletopia | Sydney | 6 | Community | STV","players":null},{"server_id":49,"name":"Uncletopia | Warsaw | 1 | All Maps","name_short":"waw-1","host":"waw-1.pl.uncletopia.com","port":27015,"enabled":true,"region":"eu","cc":"pl","latitude":52.2297,"longitude":21.017532,"reserved":0,"last_update":"0001-01-01T00:00:00Z","name_a2s":"Uncletopia | Warsaw | 1 | All Maps","protocol":17,"map":"cp_coldfront","folder":"tf","game":"Team Fortress","app_id":440,"player_count":0,"max_players":24,"Bots":0,"server_type":"Dedicated","server_os":"Linux","password":true,"vac":true,"version":"7723704","steam_id":85568392925397850,"keywords":["cp","nocrits","nodmgspread","uncletopia"],"game_id":440,"stv_port":27016,"stv_name":"Uncletopia | Warsaw | 1 | All Maps | STV","players":null},{"server_id":50,"name":"Uncletopia | Warsaw | 2 | All Maps","name_short":"waw-2","host":"waw-1.pl.uncletopia.com","port":27025,"enabled":true,"region":"eu","cc":"pl","latitude":52.2297,"longitude":21.017532,"reserved":0,"last_update":"0001-01-01T00:00:00Z","name_a2s":"Uncletopia | Warsaw | 2 | All Maps","protocol":17,"map":"pl_barnblitz","folder":"tf","game":"Team Fortress","app_id":440,"player_count":0,"max_players":24,"Bots":0,"server_type":"Dedicated","server_os":"Linux","password":true,"vac":true,"version":"7723704","steam_id":85568392925397851,"keywords":["nocrits","nodmgspread","payload","uncletopia"],"game_id":440,"stv_port":27026,"stv_name":"Uncletopia | Warsaw | 2 | All Maps | STV","players":null},{"server_id":51,"name":"Uncletopia | Warsaw | 3 | All Maps","name_short":"waw-3","host":"waw-1.pl.uncletopia.com","port":27035,"enabled":true,"region":"eu","cc":"pl","latitude":52.2297,"longitude":21.017532,"reserved":0,"last_update":"0001-01-01T00:00:00Z","name_a2s":"Uncletopia | Warsaw | 3 | All Maps","protocol":17,"map":"pl_snowycoast","folder":"tf","game":"Team Fortress","app_id":440,"player_count":0,"max_players":24,"Bots":0,"server_type":"Dedicated","server_os":"Linux","password":true,"vac":true,"version":"7723704","steam_id":85568392925397852,"keywords":["nocrits","nodmgspread","payload","uncletopia"],"game_id":440,"stv_port":27036,"stv_name":"Uncletopia | Warsaw | 3 | All Maps | STV","players":null},{"server_id":52,"name":"Uncletopia | Warsaw | 4 | All Maps","name_short":"waw-4","host":"waw-1.pl.uncletopia.com","port":27045,"enabled":true,"region":"eu","cc":"pl","latitude":52.2297,"longitude":21.017532,"reserved":0,"last_update":"0001-01-01T00:00:00Z","name_a2s":"Uncletopia | Warsaw | 4 | All Maps","protocol":17,"map":"pl_snowycoast","folder":"tf","game":"Team Fortress","app_id":440,"player_count":0,"max_players":24,"Bots":0,"server_type":"Dedicated","server_os":"Linux","password":true,"vac":true,"version":"7723704","steam_id":85568392925397853,"keywords":["nocrits","nodmgspread","payload","uncletopia"],"game_id":440,"stv_port":27046,"stv_name":"Uncletopia | Warsaw | 4 | All Maps | STV","players":null},{"server_id":53,"name":"Uncletopia | Warsaw | 5 | Stopwatch Beta","name_short":"waw-5","host":"waw-1.pl.uncletopia.com","port":27055,"enabled":true,"region":"eu","cc":"pl","latitude":52.2297,"longitude":21.017532,"reserved":0,"last_update":"0001-01-01T00:00:00Z","name_a2s":"Uncletopia | Warsaw | 5 | Stopwatch Beta","protocol":17,"map":"cp_sunshine","folder":"tf","game":"Team Fortress","app_id":440,"player_count":0,"max_players":24,"Bots":0,"server_type":"Dedicated","server_os":"Linux","password":true,"vac":true,"version":"7723704","steam_id":85568392925397854,"keywords":["cp","nocrits","nodmgspread","uncletopia"],"game_id":440,"stv_port":27056,"stv_name":"Uncletopia | Warsaw | 5 | Stopwatch Beta | STV","players":null},{"server_id":54,"name":"Uncletopia | Warsaw | 6 | Community","name_short":"waw-6","host":"waw-1.pl.uncletopia.com","port":27065,"enabled":true,"region":"eu","cc":"pl","latitude":52.2297,"longitude":21.017532,"reserved":0,"last_update":"0001-01-01T00:00:00Z","name_a2s":"Uncletopia | Warsaw | 6 | Community","protocol":17,"map":"workshop/koth_synthetic_rc6a.ugc1549817316","folder":"tf","game":"Team Fortress","app_id":440,"player_count":0,"max_players":24,"Bots":0,"server_type":"Dedicated","server_os":"Linux","password":true,"vac":true,"version":"7723704","steam_id":85568392925397856,"keywords":["cp","nocrits","nodmgspread","uncletopia"],"game_id":440,"stv_port":27066,"stv_name":"Uncletopia | Warsaw | 6 | Community | STV","players":null}]}