{"status":true,"message":"","result":[{"server_id":9,"name":"Uncletopia | Atlanta | 1 | All Maps","name_short":"atl-1","host":"atl-1.us.uncletopia.com","port":27015,"enabled":true,"region":"us-east","cc":"us","latitude":33.753746,"longitude":-84.38633,"reserved":0,"last_update":"0001-01-01T00:00:00Z","name_a2s":"Uncletopia | Atlanta | 1 | All Maps","protocol":17,"map":"cp_sunshine","folder":"tf","game":"Team Fortress","app_id":440,"player_count":24,"max_players":24,"Bots":0,"server_type":"Dedicated","server_os":"Linux","password":true,"vac":true,"version":"7961495","steam_id":85568392924469982,"keywords":["cp","nocrits","nodmgspread","uncletopia"],"game_id":440,"stv_port":27016,"stv_name":"Uncletopia | Atlanta | 1 | All Maps | STV","players":[{"user_id":173,"name":"why","steam_id":76561199059732212,"connected_time":1833000000000,"state":"active","ping":54},{"user_id":6,"name":"Obelisk","steam_id":76561198049416866,"connected_time":15742000000000,"state":"active","ping":48},{"user_id":156,"name":"ATL1 | cola","steam_id":76561198374390458,"connected_time":3274000000000,"state":"active","ping":60},{"user_id":132,"name":"ma0re","steam_id":76561199231971506,"connected_time":4385000000000,"state":"active","ping":63},{"user_id":168,"name":"ATL 1 | Save your wifi","steam_id":76561198286147372,"connected_time":2769000000000,"state":"active","ping":60},{"user_id":172,"name":"marguerite","steam_id":76561198170873495,"connected_time":2144000000000,"state":"active","ping":59},{"user_id":178,"name":"Lily (she/her)","steam_id":76561198355495948,"connected_time":992000000000,"state":"active","ping":53},{"user_id":93,"name":"metalfan666","steam_id":76561198386344068,"connected_time":8780000000000,"state":"active","ping":75},{"user_id":182,"name":"Albino Jellyfish","steam_id":76561198208561097,"connected_time":279000000000,"state":"active","ping":56},{"user_id":78,"name":"Le4n!!!","steam_id":76561198045522596,"connected_time":10217000000000,"state":"active","ping":68},{"user_id":171,"name":"Erchius (she/her)","steam_id":76561198256892300,"connected_time":2589000000000,"state":"active","ping":45},{"user_id":175,"name":"lil hog","steam_id":76561199230929836,"connected_time":1367000000000,"state":"active","ping":85},{"user_id":179,"name":"twitch.tv/Yoshi21 | TF2Pugs.com","steam_id":76561198002516729,"connected_time":820000000000,"state":"active","ping":49},{"user_id":169,"name":"Dress up doll in disguise","steam_id":76561198085813708,"connected_time":2746000000000,"state":"active","ping":45},{"user_id":142,"name":"Steven","steam_id":76561198075526342,"connected_time":4158000000000,"state":"active","ping":72},{"user_id":183,"name":"Maestro","steam_id":76561198157325020,"connected_time":262000000000,"state":"active","ping":60},{"user_id":158,"name":"ATL1 | to4st","steam_id":76561198981009008,"connected_time":3022000000000,"state":"active","ping":68},{"user_id":123,"name":"Xruffel (meowshroom) B-DAY !!!","steam_id":76561198067697879,"connected_time":5286000000000,"state":"active","ping":60},{"user_id":177,"name":"m.a.d.","steam_id":76561198040553982,"connected_time":1241000000000,"state":"active","ping":77},{"user_id":143,"name":"ATL1 | LOFILE","steam_id":76561198083798918,"connected_time":4156000000000,"state":"active","ping":59},{"user_id":161,"name":"MinimanC","steam_id":76561198071475084,"connected_time":3001000000000,"state":"active","ping":62},{"user_id":170,"name":"SomeRandomCat","steam_id":76561199107044061,"connected_time":2711000000000,"state":"active","ping":65},{"user_id":152,"name":"Bad Memes","steam_id":76561198275265806,"connected_time":3698000000000,"state":"active","ping":60},{"user_id":76,"name":"LLLFarm2012","steam_id":76561199199786915,"connected_time":10970000000000,"state":"active","ping":97}]},{"server_id":104,"name":"Uncletopia | Atlanta | 2 | All Maps","name_short":"atl-2","host":"atl-1.us.uncletopia.com","port":27025,"enabled":true,"region":"us-east","cc":"us","latitude":33.753746,"longitude":-84.38633,"reserved":0,"last_update":"0001-01-01T00:00:00Z","name_a2s":"Uncletopia | Atlanta | 2 | All Maps","protocol":17,"map":"cp_gorge","folder":"tf","game":"Team Fortress","app_id":440,"player_count":24,"max_players":24,"Bots":0,"server_type":"Dedicated","server_os":"Linux","password":true,"vac":true,"version":"7961495","steam_id":85568392924469983,"keywords":["cp","nocrits","nodmgspread","uncletopia"],"game_id":440,"stv_port":27026,"stv_name":"Uncletopia | Atlanta | 2 | All Maps | STV","players":[{"user_id":16,"name":"Kitty","steam_id":76561198123758854,"connected_time":2773000000000,"state":"active","ping":60},{"user_id":17,"name":"Raizen","steam_id":76561199092445367,"connected_time":2415000000000,"state":"active","ping":66},{"user_id":18,"name":"Chill Billy. EXE ./404./ ERROR","steam_id":76561199102528696,"connected_time":2169000000000,"state":"active","ping":60},{"user_id":50,"name":"huntertabony","steam_id":76561198241622264,"connected_time":669000000000,"state":"active","ping":77},{"user_id":49,"name":"OG Claps Cheeks","steam_id":76561198027244359,"connected_time":686000000000,"state":"active","ping":45},{"user_id":24,"name":"Crusade","steam_id":76561199192979051,"connected_time":1807000000000,"state":"active","ping":76},{"user_id":56,"name":"Stale Molly Water","steam_id":76561198115305531,"connected_time":435000000000,"state":"active","ping":70},{"user_id":23,"name":"MrPeanutBetter","steam_id":76561199149697526,"connected_time":1950000000000,"state":"active","ping":111},{"user_id":51,"name":"portal2trollin","steam_id":76561198046869828,"connected_time":657000000000,"state":"active","ping":76},{"user_id":26,"name":"j_bradshaw8","steam_id":76561199144102361,"connected_time":1730000000000,"state":"active","ping":75},{"user_id":54,"name":"Rhutebeer","steam_id":76561198018302761,"connected_time":625000000000,"state":"active","ping":75},{"user_id":52,"name":"Momki","steam_id":76561198072944509,"connected_time":654000000000,"state":"active","ping":64},{"user_id":35,"name":"THGAwesome","steam_id":76561198162847218,"connected_time":1351000000000,"state":"active","ping":65},{"user_id":38,"name":"Shrebbie","steam_id":76561198875230824,"connected_time":1212000000000,"state":"active","ping":61},{"user_id":31,"name":"Mike1225","steam_id":76561198861615835,"connected_time":1608000000000,"state":"active","ping":71},{"user_id":42,"name":"TheSpy","steam_id":76561198997837361,"connected_time":894000000000,"state":"active","ping":71},{"user_id":34,"name":"Disco Fever","steam_id":76561198069532215,"connected_time":1456000000000,"state":"active","ping":61},{"user_id":40,"name":"Kidzbopsicle","steam_id":76561198047660691,"connected_time":1142000000000,"state":"active","ping":60},{"user_id":41,"name":"LoGrove","steam_id":76561197969305602,"connected_time":960000000000,"state":"active","ping":73},{"user_id":53,"name":"Juan Pablo Gonzalez 2023","steam_id":76561199197961413,"connected_time":635000000000,"state":"active","ping":63},{"user_id":44,"name":"Professional Procrastinator","steam_id":76561198004301945,"connected_time":865000000000,"state":"active","ping":80},{"user_id":45,"name":"Passionate Map Researcher","steam_id":76561199490508357,"connected_time":862000000000,"state":"active","ping":89},{"user_id":55,"name":"Momo","steam_id":76561198815067088,"connected_time":565000000000,"state":"active","ping":44},{"user_id":47,"name":"ash","steam_id":76561198127890645,"connected_time":785000000000,"state":"active","ping":70}]},{"server_id":400,"name":"Uncletopia | Atlanta | 3 | Stopwatch","name_short":"atl-3","host":"atl-1.us.uncletopia.com","port":27035,"enabled":true,"region":"us-east","cc":"us","latitude":33.753746,"longitude":-84.38633,"reserved":0,"last_update":"0001-01-01T00:00:00Z","name_a2s":"Uncletopia | Atlanta | 3 | Stopwatch","protocol":17,"map":"workshop/koth_ashville_final.ugc2130459942","folder":"tf","game":"Team Fortress","app_id":440,"player_count":0,"max_players":24,"Bots":0,"server_type":"Dedicated","server_os":"Linux","password":true,"vac":true,"version":"7961495","steam_id":85568392924515187,"keywords":["cp","nocrits","nodmgspread","uncletopia"],"game_id":440,"stv_port":27036,"stv_name":"Uncletopia | Atlanta | 3 | Stopwatch | STV","players":null},{"server_id":401,"name":"Uncletopia | Atlanta | 4 | Community","name_short":"atl-4","host":"atl-1.us.uncletopia.com","port":27045,"enabled":true,"region":"us-east","cc":"us","latitude":33.753746,"longitude":-84.38633,"reserved":0,"last_update":"0001-01-01T00:00:00Z","name_a2s":"Uncletopia | Atlanta | 4 | Community","protocol":17,"map":"workshop/cp_glassworks_rc7a.ugc454118349","folder":"tf","game":"Team Fortress","app_id":440,"player_count":0,"max_players":24,"Bots":0,"server_type":"Dedicated","server_os":"Linux","password":true,"vac":true,"version":"7961495","steam_id":85568392924515188,"keywords":["cp","nocrits","nodmgspread","uncletopia"],"game_id":440,"stv_port":27046,"stv_name":"Uncletopia | Atlanta | 4 | Community | STV","players":null},{"server_id":2,"name":"Uncletopia | Chicago | 1 | All Maps","name_short":"chi-1","host":"chi-1.us.uncletopia.com","port":27015,"enabled":true,"region":"us-central","cc":"us","latitude":41.881832,"longitude":-87.62318,"reserved":0,"last_update":"0001-01-01T00:00:00Z","name_a2s":"Uncletopia | Chicago | 1 | All Maps","protocol":17,"map":"pl_snowycoast","folder":"tf","game":"Team Fortress","app_id":440,"player_count":24,"max_players":24,"Bots":0,"server_type":"Dedicated","server_os":"Linux","password":true,"vac":true,"version":"7961495","steam_id":85568392924469984,"keywords":["nocrits","nodmgspread","payload","uncletopia"],"game_id":440,"stv_port":27016,"stv_name":"Uncletopia | Chicago | 1 | All Maps | STV","players":[{"user_id":460,"name":"MAJICBUCKET","steam_id":76561198825268471,"connected_time":1493000000000,"state":"active","ping":55},{"user_id":442,"name":"TheLonliestThelonius","steam_id":76561198097657243,"connected_time":2902000000000,"state":"active","ping":73},{"user_id":461,"name":"biden cart 15 dollars","steam_id":76561198253731826,"connected_time":1459000000000,"state":"active","ping":57},{"user_id":448,"name":"Fredrick","steam_id":76561197981419964,"connected_time":2630000000000,"state":"active","ping":59},{"user_id":482,"name":"LogicGate","steam_id":76561199189481990,"connected_time":7000000000,"state":"spawning","ping":73},{"user_id":426,"name":"Dr. Necrofeelya","steam_id":76561198396814056,"connected_time":3333000000000,"state":"active","ping":70},{"user_id":477,"name":"corned beef","steam_id":76561199366782761,"connected_time":158000000000,"state":"active","ping":138},{"user_id":479,"name":"short bus enthusiast","steam_id":76561198069380992,"connected_time":133000000000,"state":"active","ping":77},{"user_id":475,"name":"Breadn","steam_id":76561199478078821,"connected_time":210000000000,"state":"active","ping":46},{"user_id":450,"name":"Feather","steam_id":76561199182209891,"connected_time":2165000000000,"state":"active","ping":71},{"user_id":481,"name":"dc","steam_id":76561199478731858,"connected_time":87000000000,"state":"active","ping":68},{"user_id":459,"name":"Stacks63bs","steam_id":76561198067797130,"connected_time":1525000000000,"state":"active","ping":59},{"user_id":464,"name":"rat eater","steam_id":76561199216874750,"connected_time":699000000000,"state":"active","ping":45},{"user_id":470,"name":"Letters","steam_id":76561198035508148,"connected_time":566000000000,"state":"active","ping":60},{"user_id":463,"name":"Howster002","steam_id":76561198323965902,"connected_time":1054000000000,"state":"active","ping":86},{"user_id":471,"name":"Farmer2145","steam_id":76561198217084115,"connected_time":402000000000,"state":"active","ping":61},{"user_id":402,"name":"JohnFMX","steam_id":76561198175608097,"connected_time":5369000000000,"state":"active","ping":61},{"user_id":467,"name":"OMG IS THAT SPY FROM TF2?","steam_id":76561199291684647,"connected_time":629000000000,"state":"active","ping":164},{"user_id":472,"name":"Zodyxajon","steam_id":76561198165561581,"connected_time":270000000000,"state":"active","ping":75},{"user_id":438,"name":"Praise_to_the_Flashlight!","steam_id":76561199001728789,"connected_time":2999000000000,"state":"active","ping":60},{"user_id":458,"name":"marlow","steam_id":76561198094408360,"connected_time":1712000000000,"state":"active","ping":75},{"user_id":451,"name":"soup","steam_id":76561198880568662,"connected_time":2161000000000,"state":"active","ping":58},{"user_id":469,"name":"DsytopianDragon","steam_id":76561198357066420,"connected_time":618000000000,"state":"active","ping":58},{"user_id":423,"name":"Snom","steam_id":76561198333827920,"connected_time":3610000000000,"state":"active","ping":72}]},{"server_id":106,"name":"Uncletopia | Chicago | 2 | All Maps","name_short":"chi-2","host":"chi-1.us.uncletopia.com","port":27025,"enabled":true,"region":"us-central","cc":"us","latitude":41.881832,"longitude":-87.62318,"reserved":0,"last_update":"0001-01-01T00:00:00Z","name_a2s":"Uncletopia | Chicago | 2 | All Maps","protocol":17,"map":"cp_dustbowl","folder":"tf","game":"Team Fortress","app_id":440,"player_count":0,"max_players":24,"Bots":0,"server_type":"Dedicated","server_os":"Linux","password":true,"vac":true,"version":"7961495","steam_id":85568392924469985,"keywords":["cp","nocrits","nodmgspread","uncletopia"],"game_id":440,"stv_port":27026,"stv_name":"Uncletopia | Chicago | 2 | All Maps | STV","players":null},{"server_id":402,"name":"Uncletopia | Chicago | 3 | All Maps","name_short":"chi-3","host":"chi-1.us.uncletopia.com","port":27035,"enabled":true,"region":"us-central","cc":"us","latitude":41.881832,"longitude":-87.62318,"reserved":0,"last_update":"0001-01-01T00:00:00Z","name_a2s":"Uncletopia | Chicago | 3 | All Maps","protocol":17,"map":"koth_viaduct","folder":"tf","game":"Team Fortress","app_id":440,"player_count":0,"max_players":24,"Bots":0,"server_type":"Dedicated","server_os":"Linux","password":true,"vac":true,"version":"7961495","steam_id":85568392924515191,"keywords":["cp","nocrits","nodmgspread","uncletopia"],"game_id":440,"stv_port":27036,"stv_name":"Uncletopia | Chicago | 3 | All Maps | STV","players":null},{"server_id":403,"name":"Uncletopia | Chicago | 4 | All Maps","name_short":"chi-4","host":"chi-1.us.uncletopia.com","port":27045,"enabled":true,"region":"us-central","cc":"us","latitude":41.881832,"longitude":-87.62318,"reserved":0,"last_update":"0001-01-01T00:00:00Z","name_a2s":"Uncletopia | Chicago | 4 | All Maps","protocol":17,"map":"pl_barnblitz","folder":"tf","game":"Team Fortress","app_id":440,"player_count":24,"max_players":24,"Bots":0,"server_type":"Dedicated","server_os":"Linux","password":true,"vac":true,"version":"7961495","steam_id":85568392924515193,"keywords":["nocrits","nodmgspread","payload","uncletopia"],"game_id":440,"stv_port":27046,"stv_name":"Uncletopia | Chicago | 4 | All Maps | STV","players":[{"user_id":329,"name":"Gabeyboy321","steam_id":76561199379213615,"connected_time":3041000000000,"state":"active","ping":66},{"user_id":311,"name":"11","steam_id":76561198037518646,"connected_time":4087000000000,"state":"active","ping":61},{"user_id":354,"name":"D UCK","steam_id":76561198075844142,"connected_time":1017000000000,"state":"active","ping":42},{"user_id":325,"name":"mrpineapple070","steam_id":76561199088278757,"connected_time":3360000000000,"state":"active","ping":79},{"user_id":349,"name":"while(1)","steam_id":76561198000876529,"connected_time":1541000000000,"state":"active","ping":55},{"user_id":345,"name":"mousejumper","steam_id":76561198220181353,"connected_time":2096000000000,"state":"active","ping":78},{"user_id":323,"name":"Mirce","steam_id":76561198100889621,"connected_time":3448000000000,"state":"active","ping":65},{"user_id":270,"name":"izanami","steam_id":76561198219531223,"connected_time":6334000000000,"state":"active","ping":154},{"user_id":313,"name":"ugly.","steam_id":76561198016826181,"connected_time":4067000000000,"state":"active","ping":68},{"user_id":357,"name":"Do Online Now Guys","steam_id":76561198120551862,"connected_time":692000000000,"state":"active","ping":58},{"user_id":303,"name":"zonc","steam_id":76561198322104962,"connected_time":4309000000000,"state":"active","ping":108},{"user_id":328,"name":"Frank_Eash","steam_id":76561198135470871,"connected_time":3108000000000,"state":"active","ping":53},{"user_id":321,"name":"Gunkzilla","steam_id":76561198068228415,"connected_time":3475000000000,"state":"active","ping":61},{"user_id":347,"name":"mini boss","steam_id":76561198062763756,"connected_time":1602000000000,"state":"active","ping":53},{"user_id":259,"name":"Chadmander","steam_id":76561197974136337,"connected_time":7162000000000,"state":"active","ping":41},{"user_id":315,"name":"Viewie","steam_id":76561198280108853,"connected_time":3999000000000,"state":"active","ping":77},{"user_id":348,"name":"cardsfish","steam_id":76561199195316687,"connected_time":1574000000000,"state":"active","ping":45},{"user_id":355,"name":"Lord Cutler Beckett","steam_id":76561198091356047,"connected_time":989000000000,"state":"active","ping":47},{"user_id":361,"name":"rollup","steam_id":76561199150367705,"connected_time":356000000000,"state":"active","ping":64},{"user_id":358,"name":"SleepiestCrow","steam_id":76561198042018679,"connected_time":525000000000,"state":"active","ping":52},{"user_id":363,"name":"FrostStorm","steam_id":76561198142685151,"connected_time":69000000000,"state":"active","ping":56},{"user_id":360,"name":"MjrMovnTARGET","steam_id":76561199125908849,"connected_time":423000000000,"state":"active","ping":68},{"user_id":359,"name":"Tomm","steam_id":76561198798158647,"connected_time":487000000000,"state":"active","ping":58},{"user_id":362,"name":"Poopisviel Von Einzbern","steam_id":76561198259260433,"connected_time":289000000000,"state":"active","ping":76}]},{"server_id":36,"name":"Uncletopia | Chicago | 5 | All Maps","name_short":"chi-5","host":"chi-2.us.uncletopia.com","port":27015,"enabled":true,"region":"us-central","cc":"us","latitude":41.881832,"longitude":-87.62318,"reserved":0,"last_update":"0001-01-01T00:00:00Z","name_a2s":"Uncletopia | Chicago | 5 | All Maps","protocol":17,"map":"cp_mercenarypark","folder":"tf","game":"Team Fortress","app_id":440,"player_count":24,"max_players":24,"Bots":0,"server_type":"Dedicated","server_os":"Linux","password":true,"vac":true,"version":"7961495","steam_id":85568392924866362,"keywords":["cp","nocrits","nodmgspread","uncletopia"],"game_id":440,"stv_port":27016,"stv_name":"Uncletopia | Chicago | 5 | All Maps | STV","players":[{"user_id":142,"name":"Brastion","steam_id":76561198257707303,"connected_time":513000000000,"state":"active","ping":75},{"user_id":50,"name":"Scarecrow","steam_id":76561198045870511,"connected_time":7323000000000,"state":"active","ping":45},{"user_id":111,"name":"AkimboAoki","steam_id":76561198158323058,"connected_time":2587000000000,"state":"active","ping":90},{"user_id":113,"name":"Dr Oshawott","steam_id":76561198042021629,"connected_time":2377000000000,"state":"active","ping":50},{"user_id":137,"name":"MillerWhite","steam_id":76561198076060357,"connected_time":755000000000,"state":"active","ping":69},{"user_id":135,"name":"atlas","steam_id":76561198398383076,"connected_time":1039000000000,"state":"active","ping":98},{"user_id":131,"name":"Godmode","steam_id":76561198076240365,"connected_time":1405000000000,"state":"active","ping":61},{"user_id":132,"name":"XX - Judgement?","steam_id":76561198279609240,"connected_time":1209000000000,"state":"active","ping":59},{"user_id":150,"name":"YUNG NASTYMAN","steam_id":76561198039710677,"connected_time":119000000000,"state":"active","ping":80},{"user_id":14,"name":"beyonder","steam_id":76561198045844070,"connected_time":8366000000000,"state":"active","ping":85},{"user_id":129,"name":"shut the fuck up and listen","steam_id":76561198018093835,"connected_time":1715000000000,"state":"active","ping":60},{"user_id":144,"name":"TAXFARMER11","steam_id":76561198889579299,"connected_time":356000000000,"state":"active","ping":65},{"user_id":17,"name":"BreakfastTacos","steam_id":76561198847620442,"connected_time":8294000000000,"state":"active","ping":69},{"user_id":148,"name":"Renota","steam_id":76561198058224488,"connected_time":216000000000,"state":"active","ping":61},{"user_id":136,"name":"frank","steam_id":76561198137777483,"connected_time":1011000000000,"state":"active","ping":70},{"user_id":89,"name":"chen","steam_id":76561198064872330,"connected_time":4431000000000,"state":"active","ping":74},{"user_id":149,"name":"ᴯᴱ Jarl Heegard","steam_id":76561198216100259,"connected_time":210000000000,"state":"active","ping":64},{"user_id":140,"name":"Plimki","steam_id":76561199019877748,"connected_time":652000000000,"state":"active","ping":69},{"user_id":146,"name":"wrongthink","steam_id":76561198830293087,"connected_time":268000000000,"state":"active","ping":46},{"user_id":139,"name":"team fortress 2","steam_id":76561198093995793,"connected_time":711000000000,"state":"active","ping":75},{"user_id":125,"name":"AMistake","steam_id":76561199379196708,"connected_time":1997000000000,"state":"active","ping":54},{"user_id":138,"name":"Tokey","steam_id":76561198825943127,"connected_time":733000000000,"state":"active","ping":94},{"user_id":141,"name":"Banana Mario","steam_id":76561198871692156,"connected_time":559000000000,"state":"active","ping":109},{"user_id":151,"name":"A Moist Crevice","steam_id":76561199431363288,"connected_time":117000000000,"state":"active","ping":66}]},{"server_id":37,"name":"Uncletopia | Chicago | 6 | All Maps","name_short":"chi-6","host":"chi-2.us.uncletopia.com","port":27025,"enabled":true,"region":"us-central","cc":"us","latitude":41.881832,"longitude":-87.62318,"reserved":0,"last_update":"0001-01-01T00:00:00Z","name_a2s":"Uncletopia | Chicago | 6 | All Maps","protocol":17,"map":"cp_sunshine","folder":"tf","game":"Team Fortress","app_id":440,"player_count":6,"max_players":24,"Bots":0,"server_type":"Dedicated","server_os":"Linux","password":true,"vac":true,"version":"7961495","steam_id":85568392924866363,"keywords":["cp","nocrits","nodmgspread","uncletopia"],"game_id":440,"stv_port":27026,"stv_name":"Uncletopia | Chicago | 6 | All Maps | STV","players":[{"user_id":6,"name":"minecraft_2.0","steam_id":76561198391819120,"connected_time":2219000000000,"state":"spawning","ping":150},{"user_id":8,"name":"i eat glue","steam_id":76561198827026673,"connected_time":489000000000,"state":"spawning","ping":82},{"user_id":9,"name":"nakedpee","steam_id":76561198064345980,"connected_time":91000000000,"state":"spawning","ping":238},{"user_id":11,"name":"steelborg","steam_id":76561198427292802,"connected_time":30000000000,"state":"spawning","ping":65},{"user_id":12,"name":"tiny chimp","steam_id":76561199009589097,"connected_time":26000000000,"state":"spawning","ping":111},{"user_id":13,"name":"Uwu Micster","steam_id":76561198843890616,"connected_time":25000000000,"state":"spawning","ping":134}]},{"server_id":38,"name":"Uncletopia | Chicago | 7 | Stopwatch","name_short":"chi-7","host":"chi-2.us.uncletopia.com","port":27035,"enabled":true,"region":"us-central","cc":"us","latitude":41.881832,"longitude":-87.62318,"reserved":0,"last_update":"0001-01-01T00:00:00Z","name_a2s":"Uncletopia | Chicago | 7 | Stopwatch","protocol":17,"map":"workshop/koth_clearcut_b15.ugc2107050255","folder":"tf","game":"Team Fortress","app_id":440,"player_count":0,"max_players":24,"Bots":0,"server_type":"Dedicated","server_os":"Linux","password":true,"vac":true,"version":"7961495","steam_id":85568392924866364,"keywords":["cp","nocrits","nodmgspread","uncletopia"],"game_id":440,"stv_port":27036,"stv_name":"Uncletopia | Chicago | 7 | Stopwatch | STV","players":null},{"server_id":39,"name":"Uncletopia | Chicago | 8 | Community","name_short":"chi-8","host":"chi-2.us.uncletopia.com","port":27045,"enabled":true,"region":"us-central","cc":"us","latitude":41.881832,"longitude":-87.62318,"reserved":0,"last_update":"0001-01-01T00:00:00Z","name_a2s":"Uncletopia | Chicago | 8 | Community","protocol":17,"map":"workshop/koth_slaughter_rc1.ugc1712845210","folder":"tf","game":"Team Fortress","app_id":440,"player_count":0,"max_players":24,"Bots":0,"server_type":"Dedicated","server_os":"Linux","password":true,"vac":true,"version":"7961495","steam_id":85568392924866365,"keywords":["cp","nocrits","nodmgspread","uncletopia"],"game_id":440,"stv_port":27046,"stv_name":"Uncletopia | Chicago | 8 | Community | STV","players":null},{"server_id":8,"name":"Uncletopia | Dallas | 1 | All Maps","name_short":"dal-1","host":"dal-1.us.uncletopia.com","port":27015,"enabled":true,"region":"us-central","cc":"us","latitude":32.779167,"longitude":-96.80889,"reserved":0,"last_update":"0001-01-01T00:00:00Z","name_a2s":"Uncletopia | Dallas | 1 | All Maps","protocol":17,"map":"cp_gravelpit","folder":"tf","game":"Team Fortress","app_id":440,"player_count":24,"max_players":24,"Bots":0,"server_type":"Dedicated","server_os":"Linux","password":true,"vac":true,"version":"7961495","steam_id":85568392924469986,"keywords":["cp","nocrits","nodmgspread","uncletopia"],"game_id":440,"stv_port":27016,"stv_name":"Uncletopia | Dallas | 1 | All Maps | STV","players":[{"user_id":425,"name":"Universe Man","steam_id":76561197997710655,"connected_time":1649000000000,"state":"active","ping":76},{"user_id":415,"name":"confield","steam_id":76561198004322265,"connected_time":2435000000000,"state":"active","ping":70},{"user_id":427,"name":"Major Woody","steam_id":76561198835541533,"connected_time":1422000000000,"state":"active","ping":58},{"user_id":429,"name":"Tom Dude","steam_id":76561198093913484,"connected_time":888000000000,"state":"active","ping":86},{"user_id":432,"name":"meo ♥","steam_id":76561197992719272,"connected_time":597000000000,"state":"active","ping":73},{"user_id":433,"name":"Average Spy","steam_id":76561198981106464,"connected_time":459000000000,"state":"active","ping":77},{"user_id":434,"name":"Raspylightining","steam_id":76561198148343305,"connected_time":456000000000,"state":"active","ping":76},{"user_id":357,"name":"Juicy","steam_id":76561198049220780,"connected_time":3627000000000,"state":"active","ping":62},{"user_id":435,"name":"floofy","steam_id":76561198389769098,"connected_time":436000000000,"state":"active","ping":81},{"user_id":418,"name":"StretchySnail59","steam_id":76561198073535005,"connected_time":2385000000000,"state":"active","ping":76},{"user_id":430,"name":"Topaz Tom","steam_id":76561199214479904,"connected_time":649000000000,"state":"active","ping":68},{"user_id":424,"name":"Raz","steam_id":76561198002426150,"connected_time":1847000000000,"state":"active","ping":55},{"user_id":437,"name":"(TWoN Adric)","steam_id":76561197999304024,"connected_time":329000000000,"state":"active","ping":46},{"user_id":261,"name":"PowerGem3000","steam_id":76561198944644691,"connected_time":8151000000000,"state":"active","ping":69},{"user_id":265,"name":"mkl","steam_id":76561197986401685,"connected_time":8019000000000,"state":"active","ping":52},{"user_id":410,"name":"corviraptor (certified failgirl","steam_id":76561198058284392,"connected_time":2505000000000,"state":"active","ping":57},{"user_id":436,"name":"Mediocre Gaming","steam_id":76561199230467980,"connected_time":427000000000,"state":"active","ping":76},{"user_id":412,"name":"Cheetose Intolerant","steam_id":76561198013399809,"connected_time":2468000000000,"state":"active","ping":60},{"user_id":438,"name":"bigchungusgaming(real)","steam_id":76561198273392037,"connected_time":307000000000,"state":"active","ping":76},{"user_id":421,"name":"EightySix","steam_id":76561198186678831,"connected_time":2171000000000,"state":"active","ping":91},{"user_id":422,"name":"blonk-182","steam_id":76561198035304483,"connected_time":2093000000000,"state":"active","ping":77},{"user_id":439,"name":"joebot","steam_id":76561197975606100,"connected_time":305000000000,"state":"active","ping":91},{"user_id":428,"name":"jestor","steam_id":76561198248148760,"connected_time":1313000000000,"state":"active","ping":63},{"user_id":440,"name":"Brandino!","steam_id":76561198000446932,"connected_time":285000000000,"state":"active","ping":99}]},{"server_id":108,"name":"Uncletopia | Dallas | 2 | All Maps","name_short":"dal-2","host":"dal-1.us.uncletopia.com","port":27025,"enabled":true,"region":"us-central","cc":"us","latitude":32.779167,"longitude":-96.80889,"reserved":0,"last_update":"0001-01-01T00:00:00Z","name_a2s":"Uncletopia | Dallas | 2 | All Maps","protocol":17,"map":"koth_viaduct","folder":"tf","game":"Team Fortress","app_id":440,"player_count":24,"max_players":24,"Bots":0,"server_type":"Dedicated","server_os":"Linux","password":true,"vac":true,"version":"7961495","steam_id":85568392924469988,"keywords":["cp","nocrits","nodmgspread","uncletopia"],"game_id":440,"stv_port":27026,"stv_name":"Uncletopia | Dallas | 2 | All Maps | STV","players":[{"user_id":95,"name":"B.","steam_id":76561198040445907,"connected_time":1824000000000,"state":"active","ping":74},{"user_id":101,"name":"Sneed-poster","steam_id":76561198206198937,"connected_time":665000000000,"state":"active","ping":53},{"user_id":109,"name":"Dragus","steam_id":76561198032967285,"connected_time":103000000000,"state":"active","ping":65},{"user_id":111,"name":"Kastaling","steam_id":76561198067347356,"connected_time":40000000000,"state":"active","ping":80},{"user_id":50,"name":"eyes on the prize","steam_id":76561198184076165,"connected_time":3455000000000,"state":"active","ping":167},{"user_id":51,"name":"Crλf227","steam_id":76561198196211121,"connected_time":3372000000000,"state":"active","ping":63},{"user_id":105,"name":"Snitzman","steam_id":76561198068303272,"connected_time":572000000000,"state":"active","ping":67},{"user_id":107,"name":"Mdodo","steam_id":76561198366794691,"connected_time":159000000000,"state":"active","ping":64},{"user_id":106,"name":"Oniomot","steam_id":76561199142571659,"connected_time":464000000000,"state":"active","ping":153},{"user_id":60,"name":"Glitchy","steam_id":76561198101925500,"connected_time":3105000000000,"state":"active","ping":111},{"user_id":94,"name":"Lament","steam_id":76561198408747483,"connected_time":1833000000000,"state":"active","ping":51},{"user_id":103,"name":"sock","steam_id":76561199117597830,"connected_time":631000000000,"state":"active","ping":87},{"user_id":88,"name":"qwatta","steam_id":76561198064982327,"connected_time":2299000000000,"state":"active","ping":43},{"user_id":99,"name":"chiswola","steam_id":76561198046920142,"connected_time":765000000000,"state":"active","ping":90},{"user_id":66,"name":"stargaazer","steam_id":76561199010142579,"connected_time":2936000000000,"state":"active","ping":77},{"user_id":112,"name":"Stop voting for PL","steam_id":76561198138420251,"connected_time":26000000000,"state":"active","ping":88},{"user_id":97,"name":"THE gabagool","steam_id":76561198066449282,"connected_time":1128000000000,"state":"active","ping":67},{"user_id":104,"name":"TheColdChiliPepper","steam_id":76561199027155811,"connected_time":618000000000,"state":"active","ping":80},{"user_id":70,"name":"Fresh Lychee","steam_id":76561198045399559,"connected_time":2855000000000,"state":"active","ping":77},{"user_id":72,"name":"TF2C | fac","steam_id":76561198009818412,"connected_time":2822000000000,"state":"active","ping":59},{"user_id":73,"name":"ark","steam_id":76561198041066271,"connected_time":2816000000000,"state":"active","ping":73},{"user_id":98,"name":"Mr. Noodle","steam_id":76561198037803087,"connected_time":1077000000000,"state":"active","ping":94},{"user_id":90,"name":"The World's Softest Sandwich","steam_id":76561198015577707,"connected_time":2085000000000,"state":"active","ping":78},{"user_id":77,"name":"Primordial pouch","steam_id":76561198077993687,"connected_time":2699000000000,"state":"active","ping":97}]},{"server_id":404,"name":"Uncletopia | Dallas | 3 | All Maps","name_short":"dal-3","host":"dal-1.us.uncletopia.com","port":27035,"enabled":true,"region":"us-central","cc":"us","latitude":32.779167,"longitude":-96.80889,"reserved":0,"last_update":"0001-01-01T00:00:00Z","name_a2s":"Uncletopia | Dallas | 3 | All Maps","protocol":17,"map":"pl_borneo","folder":"tf","game":"Team Fortress","app_id":440,"player_count":0,"max_players":24,"Bots":0,"server_type":"Dedicated","server_os":"Linux","password":true,"vac":true,"version":"7961495","steam_id":85568392924515219,"keywords":["nocrits","nodmgspread","payload","uncletopia"],"game_id":440,"stv_port":27036,"stv_name":"Uncletopia | Dallas | 3 | All Maps | STV","players":null},{"server_id":405,"name":"Uncletopia | Dallas | 4 | Community","name_short":"dal-4","host":"dal-1.us.uncletopia.com","port":27045,"enabled":true,"region":"us-central","cc":"us","latitude":32.779167,"longitude":-96.80889,"reserved":0,"last_update":"0001-01-01T00:00:00Z","name_a2s":"Uncletopia | Dallas | 4 | Community","protocol":17,"map":"workshop/koth_trenchfoot_ab1.ugc731436616","folder":"tf","game":"Team Fortress","app_id":440,"player_count":0,"max_players":24,"Bots":0,"server_type":"Dedicated","server_os":"Linux","password":true,"vac":true,"version":"7961495","steam_id":85568392924515220,"keywords":["cp","nocrits","nodmgspread","uncletopia"],"game_id":440,"stv_port":27046,"stv_name":"Uncletopia | Dallas | 4 | Community | STV","players":null},{"server_id":5,"name":"Uncletopia | Frankfurt | 1 | All Maps","name_short":"frk-1","host":"frk-1.de.uncletopia.com","port":27015,"enabled":true,"region":"eu","cc":"de","latitude":50.110924,"longitude":8.682127,"reserved":0,"last_update":"0001-01-01T00:00:00Z","name_a2s":"Uncletopia | Frankfurt | 1 | All Maps","protocol":17,"map":"pl_upward","folder":"tf","game":"Team Fortress","app_id":440,"player_count":21,"max_players":24,"Bots":0,"server_type":"Dedicated","server_os":"Linux","password":true,"vac":true,"version":"7961495","steam_id":85568392924469989,"keywords":["nocrits","nodmgspread","payload","uncletopia"],"game_id":440,"stv_port":27016,"stv_name":"Uncletopia | Frankfurt | 1 | All Maps | STV","players":[{"user_id":433,"name":"öööö✪","steam_id":76561198181645822,"connected_time":7981000000000,"state":"active","ping":69},{"user_id":504,"name":"=OKB= P4NTH3R","steam_id":76561197999204603,"connected_time":1626000000000,"state":"active","ping":46},{"user_id":516,"name":"Nonok","steam_id":76561199480685498,"connected_time":86000000000,"state":"spawning","ping":68},{"user_id":506,"name":"bella","steam_id":76561198367634211,"connected_time":1470000000000,"state":"active","ping":64},{"user_id":494,"name":"FoOzTV","steam_id":76561197998636728,"connected_time":2684000000000,"state":"active","ping":49},{"user_id":475,"name":"Vershal Smershal","steam_id":76561198116223995,"connected_time":4078000000000,"state":"active","ping":86},{"user_id":416,"name":"Pilaarius","steam_id":76561198120273212,"connected_time":9231000000000,"state":"active","ping":105},{"user_id":512,"name":"lupus","steam_id":76561198019146522,"connected_time":700000000000,"state":"active","ping":54},{"user_id":510,"name":"grawioli","steam_id":76561198255779964,"connected_time":1427000000000,"state":"active","ping":146},{"user_id":505,"name":"Sch","steam_id":76561198071341689,"connected_time":1574000000000,"state":"active","ping":53},{"user_id":509,"name":"pizzaboob","steam_id":76561198097507847,"connected_time":1450000000000,"state":"active","ping":66},{"user_id":491,"name":"Lauchboiz | Bannic","steam_id":76561198060362129,"connected_time":2827000000000,"state":"active","ping":46},{"user_id":513,"name":"★poyo★","steam_id":76561198150078959,"connected_time":322000000000,"state":"spawning","ping":55},{"user_id":518,"name":"Artificial.Ignorance","steam_id":76561198453090180,"connected_time":24000000000,"state":"active","ping":135},{"user_id":514,"name":"gei nas x","steam_id":76561199204740482,"connected_time":277000000000,"state":"active","ping":74},{"user_id":508,"name":"Tungsten.","steam_id":76561198061298732,"connected_time":1461000000000,"state":"active","ping":79},{"user_id":467,"name":"Kvicha Kvaratskhelia","steam_id":76561198179339326,"connected_time":5144000000000,"state":"active","ping":103},{"user_id":517,"name":"oriolopper","steam_id":76561198847649842,"connected_time":36000000000,"state":"active","ping":206},{"user_id":437,"name":"acetamiprid","steam_id":76561198058012525,"connected_time":7901000000000,"state":"active","ping":55},{"user_id":488,"name":"Udinese Dion","steam_id":76561198067931573,"connected_time":3200000000000,"state":"active","ping":62},{"user_id":501,"name":"Arti_Chokes","steam_id":76561199213835861,"connected_time":2404000000000,"state":"spawning","ping":45}]},{"server_id":110,"name":"Uncletopia | Frankfurt | 2 | All Maps","name_short":"frk-2","host":"frk-1.de.uncletopia.com","port":27025,"enabled":true,"region":"eu","cc":"de","latitude":50.110924,"longitude":8.682127,"reserved":0,"last_update":"0001-01-01T00:00:00Z","name_a2s":"Uncletopia | Frankfurt | 2 | All Maps","protocol":17,"map":"cp_snakewater_final1","folder":"tf","game":"Team Fortress","app_id":440,"player_count":24,"max_players":24,"Bots":0,"server_type":"Dedicated","server_os":"Linux","password":true,"vac":true,"version":"7961495","steam_id":85568392924469990,"keywords":["cp","nocrits","nodmgspread","uncletopia"],"game_id":440,"stv_port":27026,"stv_name":"Uncletopia | Frankfurt | 2 | All Maps | STV","players":[{"user_id":739,"name":"PRICE hollowchef","steam_id":76561198800744108,"connected_time":1021000000000,"state":"active","ping":60},{"user_id":542,"name":"Jone","steam_id":76561198955248352,"connected_time":14308000000000,"state":"active","ping":67},{"user_id":698,"name":"ztrs6","steam_id":76561198314853803,"connected_time":3750000000000,"state":"active","ping":87},{"user_id":751,"name":"tallen","steam_id":76561198061708595,"connected_time":381000000000,"state":"active","ping":83},{"user_id":727,"name":"dex","steam_id":76561198095560087,"connected_time":1928000000000,"state":"active","ping":69},{"user_id":723,"name":"Your drunk pilot","steam_id":76561198452963141,"connected_time":2501000000000,"state":"active","ping":75},{"user_id":730,"name":"wiserclub6","steam_id":76561198312144351,"connected_time":1710000000000,"state":"active","ping":87},{"user_id":731,"name":"Billy Herrington","steam_id":76561198205193503,"connected_time":1608000000000,"state":"active","ping":77},{"user_id":743,"name":"bAdmon","steam_id":76561197961785793,"connected_time":951000000000,"state":"active","ping":56},{"user_id":745,"name":"tombouctou","steam_id":76561198065132197,"connected_time":818000000000,"state":"active","ping":115},{"user_id":750,"name":"M8","steam_id":76561198240925580,"connected_time":427000000000,"state":"active","ping":78},{"user_id":692,"name":"Snowmotion","steam_id":76561198075022454,"connected_time":4324000000000,"state":"active","ping":48},{"user_id":733,"name":"Shösh","steam_id":76561197999557567,"connected_time":1145000000000,"state":"active","ping":64},{"user_id":746,"name":"Spooky Pumpkin","steam_id":76561198044060723,"connected_time":803000000000,"state":"active","ping":165},{"user_id":736,"name":"zvekan","steam_id":76561198381101196,"connected_time":1098000000000,"state":"active","ping":59},{"user_id":747,"name":"Neco Arc","steam_id":76561198296729800,"connected_time":656000000000,"state":"active","ping":62},{"user_id":664,"name":"Miku.Hatsune.2007","steam_id":76561198199687607,"connected_time":5807000000000,"state":"active","ping":63},{"user_id":738,"name":"vurtun","steam_id":76561198857395274,"connected_time":1033000000000,"state":"active","ping":40},{"user_id":752,"name":"HellJumper","steam_id":76561198064758540,"connected_time":218000000000,"state":"active","ping":68},{"user_id":724,"name":"Nomakh","steam_id":76561198096414653,"connected_time":2490000000000,"state":"active","ping":79},{"user_id":748,"name":"Burton","steam_id":76561198018848163,"connected_time":579000000000,"state":"active","ping":51},{"user_id":749,"name":"Flyfilo2","steam_id":76561198987256095,"connected_time":443000000000,"state":"active","ping":65},{"user_id":693,"name":"koji","steam_id":76561198051636999,"connected_time":4311000000000,"state":"active","ping":54},{"user_id":633,"name":"Mischail","steam_id":76561198016127010,"connected_time":7773000000000,"state":"active","ping":75}]},{"server_id":308,"name":"Uncletopia | Frankfurt | 3 | All Maps","name_short":"frk-3","host":"frk-1.de.uncletopia.com","port":27035,"enabled":true,"region":"eu","cc":"de","latitude":50.110924,"longitude":8.682127,"reserved":0,"last_update":"0001-01-01T00:00:00Z","name_a2s":"Uncletopia | Frankfurt | 3 | All Maps","protocol":17,"map":"koth_viaduct","folder":"tf","game":"Team Fortress","app_id":440,"player_count":0,"max_players":24,"Bots":0,"server_type":"Dedicated","server_os":"Linux","password":true,"vac":true,"version":"7961495","steam_id":85568392924504274,"keywords":["cp","nocrits","nodmgspread","uncletopia"],"game_id":440,"stv_port":27036,"stv_name":"Uncletopia | Frankfurt | 3 | All Maps | STV","players":null},{"server_id":309,"name":"Uncletopia | Frankfurt | 4 | All Maps","name_short":"frk-4","host":"frk-1.de.uncletopia.com","port":27045,"enabled":true,"region":"eu","cc":"de","latitude":50.110924,"longitude":8.682127,"reserved":0,"last_update":"0001-01-01T00:00:00Z","name_a2s":"Uncletopia | Frankfurt | 4 | All Maps","protocol":17,"map":"pl_borneo","folder":"tf","game":"Team Fortress","app_id":440,"player_count":23,"max_players":24,"Bots":0,"server_type":"Dedicated","server_os":"Linux","password":true,"vac":true,"version":"7961495","steam_id":85568392924504275,"keywords":["nocrits","nodmgspread","payload","uncletopia"],"game_id":440,"stv_port":27046,"stv_name":"Uncletopia | Frankfurt | 4 | All Maps | STV","players":[{"user_id":559,"name":"BΣNZOIC","steam_id":76561198875665995,"connected_time":3275000000000,"state":"active","ping":81},{"user_id":589,"name":"Flavia ♥","steam_id":76561198108360671,"connected_time":1535000000000,"state":"active","ping":98},{"user_id":590,"name":"aSourLemonade","steam_id":76561198872382968,"connected_time":1516000000000,"state":"active","ping":60},{"user_id":603,"name":"PiN hEaD","steam_id":76561198834713682,"connected_time":641000000000,"state":"active","ping":73},{"user_id":393,"name":"cister0","steam_id":76561198130195469,"connected_time":12296000000000,"state":"active","ping":68},{"user_id":604,"name":"HayLeX","steam_id":76561198130997343,"connected_time":635000000000,"state":"active","ping":74},{"user_id":600,"name":"Donki Wonki","steam_id":76561198327761273,"connected_time":1247000000000,"state":"active","ping":73},{"user_id":602,"name":"Nymph","steam_id":76561198042801329,"connected_time":837000000000,"state":"active","ping":45},{"user_id":605,"name":"Agame23","steam_id":76561198181992838,"connected_time":514000000000,"state":"active","ping":64},{"user_id":606,"name":"C.I.","steam_id":76561197972438196,"connected_time":471000000000,"state":"active","ping":60},{"user_id":592,"name":"Da boss can socc me!!!","steam_id":76561198210509251,"connected_time":1502000000000,"state":"active","ping":106},{"user_id":456,"name":"StarDoc2222","steam_id":76561199389114520,"connected_time":6810000000000,"state":"active","ping":139},{"user_id":582,"name":"√(-Wolf)","steam_id":76561198024769704,"connected_time":2035000000000,"state":"active","ping":74},{"user_id":610,"name":"ScapeGoat","steam_id":76561198137868829,"connected_time":112000000000,"state":"active","ping":59},{"user_id":579,"name":"maker","steam_id":76561198324704191,"connected_time":2380000000000,"state":"active","ping":61},{"user_id":594,"name":"BottledSprite","steam_id":76561199131957081,"connected_time":1483000000000,"state":"active","ping":74},{"user_id":577,"name":"Water","steam_id":76561198154851729,"connected_time":2436000000000,"state":"active","ping":66},{"user_id":340,"name":"❤Speedbump❤","steam_id":76561198388690313,"connected_time":15634000000000,"state":"active","ping":56},{"user_id":587,"name":"Hellheim_Prime","steam_id":76561198379799377,"connected_time":1799000000000,"state":"active","ping":98},{"user_id":522,"name":"Xx_ElprojugadorM4ri0Fornite09_x","steam_id":76561198275946276,"connected_time":5072000000000,"state":"active","ping":74},{"user_id":595,"name":"jovi_","steam_id":76561198449280552,"connected_time":1478000000000,"state":"active","ping":60},{"user_id":598,"name":"Mailer","steam_id":76561198062690074,"connected_time":1267000000000,"state":"active","ping":66},{"user_id":599,"name":"mq","steam_id":76561198091888948,"connected_time":1258000000000,"state":"active","ping":51}]},{"server_id":310,"name":"Uncletopia | Frankfurt | 5 | All Maps","name_short":"frk-5","host":"frk-1.de.uncletopia.com","port":27055,"enabled":true,"region":"eu","cc":"de","latitude":50.110924,"longitude":8.682127,"reserved":0,"last_update":"0001-01-01T00:00:00Z","name_a2s":"Uncletopia | Frankfurt | 5 | All Maps","protocol":17,"map":"pl_badwater","folder":"tf","game":"Team Fortress","app_id":440,"player_count":24,"max_players":24,"Bots":0,"server_type":"Dedicated","server_os":"Linux","password":true,"vac":true,"version":"7961495","steam_id":85568392924504277,"keywords":["nocrits","nodmgspread","payload","uncletopia"],"game_id":440,"stv_port":27056,"stv_name":"Uncletopia | Frankfurt | 5 | All Maps | STV","players":[{"user_id":862,"name":"Cencut","steam_id":76561198989449047,"connected_time":710000000000,"state":"active","ping":110},{"user_id":873,"name":"Hey, I´m Andy!","steam_id":76561198060337777,"connected_time":557000000000,"state":"active","ping":60},{"user_id":804,"name":"Pjuske","steam_id":76561198013943953,"connected_time":3806000000000,"state":"active","ping":56},{"user_id":860,"name":"schmick h_stt 0","steam_id":76561198039537958,"connected_time":731000000000,"state":"active","ping":57},{"user_id":889,"name":"Economic crisis","steam_id":76561198063562843,"connected_time":67000000000,"state":"active","ping":53},{"user_id":758,"name":"The flying Drunksman","steam_id":76561198966358094,"connected_time":6772000000000,"state":"active","ping":45},{"user_id":855,"name":"skeleton_archer_1","steam_id":76561198407636430,"connected_time":1024000000000,"state":"active","ping":90},{"user_id":831,"name":"quesadilla","steam_id":76561198162873354,"connected_time":2308000000000,"state":"active","ping":115},{"user_id":837,"name":"Smart Rifle Crutch","steam_id":76561199030500510,"connected_time":2143000000000,"state":"active","ping":61},{"user_id":857,"name":"gaming (official)","steam_id":76561198106012909,"connected_time":870000000000,"state":"active","ping":60},{"user_id":828,"name":"fernandobmwm355555","steam_id":76561198086609447,"connected_time":2768000000000,"state":"active","ping":46},{"user_id":792,"name":"Penis Contortionist","steam_id":76561198073663784,"connected_time":5072000000000,"state":"active","ping":46},{"user_id":641,"name":"fish","steam_id":76561198092096689,"connected_time":14254000000000,"state":"active","ping":45},{"user_id":777,"name":"SuperBob103","steam_id":76561199175360012,"connected_time":5665000000000,"state":"active","ping":62},{"user_id":854,"name":"9c","steam_id":76561198315632083,"connected_time":1146000000000,"state":"active","ping":70},{"user_id":843,"name":"Pvt. Prinny","steam_id":76561198030278562,"connected_time":1855000000000,"state":"active","ping":58},{"user_id":888,"name":"www.ESYACARSISI.COM","steam_id":76561198378280844,"connected_time":77000000000,"state":"active","ping":77},{"user_id":890,"name":"Samaj","steam_id":76561198008442806,"connected_time":1000000000,"state":"spawning","ping":43},{"user_id":865,"name":"pablo","steam_id":76561198087800030,"connected_time":689000000000,"state":"active","ping":45},{"user_id":869,"name":"Tea","steam_id":76561198799243030,"connected_time":598000000000,"state":"active","ping":71},{"user_id":853,"name":"joelaulau","steam_id":76561198376642201,"connected_time":1201000000000,"state":"active","ping":57},{"user_id":842,"name":"ツFreddYツ","steam_id":76561198018780925,"connected_time":1999000000000,"state":"active","ping":54},{"user_id":866,"name":"Iris","steam_id":76561198430295815,"connected_time":672000000000,"state":"active","ping":60},{"user_id":846,"name":"LiterallyRyanGosling","steam_id":76561199017856691,"connected_time":1398000000000,"state":"active","ping":62}]},{"server_id":311,"name":"Uncletopia | Frankfurt | 6 | All Maps","name_short":"frk-6","host":"frk-1.de.uncletopia.com","port":27065,"enabled":true,"region":"eu","cc":"de","latitude":50.110924,"longitude":8.682127,"reserved":0,"last_update":"0001-01-01T00:00:00Z","name_a2s":"Uncletopia | Frankfurt | 6 | All Maps","protocol":17,"map":"pl_swiftwater_final1","folder":"tf","game":"Team Fortress","app_id":440,"player_count":23,"max_players":24,"Bots":0,"server_type":"Dedicated","server_os":"Linux","password":true,"vac":true,"version":"7961495","steam_id":85568392924504278,"keywords":["nocrits","nodmgspread","payload","uncletopia"],"game_id":440,"stv_port":27066,"stv_name":"Uncletopia | Frankfurt | 6 | All Maps | STV","players":[{"user_id":438,"name":"Mati [EST]","steam_id":76561197994743813,"connected_time":1822000000000,"state":"active","ping":90},{"user_id":446,"name":"Armored","steam_id":76561198267449130,"connected_time":713000000000,"state":"active","ping":59},{"user_id":454,"name":"evegioyidechadab","steam_id":76561198075991626,"connected_time":552000000000,"state":"active","ping":53},{"user_id":424,"name":"Grumtsior","steam_id":76561198043563111,"connected_time":3158000000000,"state":"active","ping":66},{"user_id":428,"name":"ItsGertje","steam_id":76561199063680083,"connected_time":2629000000000,"state":"active","ping":53},{"user_id":433,"name":"jerry (:","steam_id":76561198205668108,"connected_time":2380000000000,"state":"active","ping":48},{"user_id":459,"name":"paradise","steam_id":76561198966057450,"connected_time":150000000000,"state":"active","ping":62},{"user_id":439,"name":"I sell exotic parrots","steam_id":76561199192434258,"connected_time":1815000000000,"state":"active","ping":81},{"user_id":444,"name":"REN","steam_id":76561198000596385,"connected_time":724000000000,"state":"active","ping":53},{"user_id":451,"name":"mumbler","steam_id":76561197970641239,"connected_time":590000000000,"state":"active","ping":46},{"user_id":416,"name":"Electric Boogaloo","steam_id":76561198018081776,"connected_time":3937000000000,"state":"active","ping":72},{"user_id":452,"name":"Foolish","steam_id":76561198086947899,"connected_time":577000000000,"state":"active","ping":123},{"user_id":418,"name":"✪ m_br3","steam_id":76561198044981990,"connected_time":3751000000000,"state":"active","ping":60},{"user_id":453,"name":"Doctor Mobius","steam_id":76561197971281806,"connected_time":572000000000,"state":"active","ping":47},{"user_id":408,"name":"Pipper","steam_id":76561197970326616,"connected_time":4500000000000,"state":"active","ping":50},{"user_id":449,"name":"Cataleptic","steam_id":76561197997966949,"connected_time":666000000000,"state":"active","ping":75},{"user_id":380,"name":"Zerfesh","steam_id":76561198117534358,"connected_time":7195000000000,"state":"active","ping":82},{"user_id":445,"name":"NicatsCage","steam_id":76561198067271076,"connected_time":723000000000,"state":"active","ping":75},{"user_id":426,"name":"Ozzie","steam_id":76561197992915315,"connected_time":3050000000000,"state":"active","ping":60},{"user_id":456,"name":"Dangerousbros","steam_id":76561198088952519,"connected_time":461000000000,"state":"active","ping":46},{"user_id":431,"name":"1hour1life","steam_id":76561198949828663,"connected_time":2608000000000,"state":"active","ping":81},{"user_id":457,"name":"ghenios","steam_id":76561198030011207,"connected_time":206000000000,"state":"active","ping":78},{"user_id":442,"name":"Echo","steam_id":76561199165491231,"connected_time":1557000000000,"state":"active","ping":146}]},{"server_id":23,"name":"Uncletopia | Frankfurt | 7 | Stopwatch","name_short":"frk-7","host":"frk-1.de.uncletopia.com","port":27075,"enabled":true,"region":"eu","cc":"de","latitude":50.110924,"longitude":8.682127,"reserved":0,"last_update":"0001-01-01T00:00:00Z","name_a2s":"Uncletopia | Frankfurt | 7 | Stopwatch","protocol":17,"map":"koth_highpass","folder":"tf","game":"Team Fortress","app_id":440,"player_count":0,"max_players":24,"Bots":0,"server_type":"Dedicated","server_os":"Linux","password":true,"vac":true,"version":"7961495","steam_id":85568392924742827,"keywords":["cp","nocrits","nodmgspread","uncletopia"],"game_id":440,"stv_port":27076,"stv_name":"Uncletopia | Frankfurt | 7 | Stopwatch | STV","players":null},{"server_id":24,"name":"Uncletopia | Frankfurt | 8 | Community","name_short":"frk-8","host":"frk-1.de.uncletopia.com","port":27085,"enabled":true,"region":"eu","cc":"de","latitude":50.110924,"longitude":8.682127,"reserved":0,"last_update":"0001-01-01T00:00:00Z","name_a2s":"Uncletopia | Frankfurt | 8 | Community","protocol":17,"map":"workshop/pl_fifthcurve_rc1.ugc648227046","folder":"tf","game":"Team Fortress","app_id":440,"player_count":0,"max_players":24,"Bots":0,"server_type":"Dedicated","server_os":"Linux","password":true,"vac":true,"version":"7961495","steam_id":85568392924742828,"keywords":["nocrits","nodmgspread","payload","uncletopia"],"game_id":440,"stv_port":27086,"stv_name":"Uncletopia | Frankfurt | 8 | Community | STV","players":null},{"server_id":202,"name":"Uncletopia | Hong Kong | 1 | All Maps","name_short":"hgk-1","host":"hgk-1.hk.uncletopia.com","port":27015,"enabled":true,"region":"asia","cc":"hk","latitude":22.302711,"longitude":114.177216,"reserved":0,"last_update":"0001-01-01T00:00:00Z","name_a2s":"Uncletopia | Hong Kong | 1 | All Maps","protocol":17,"map":"pl_barnblitz","folder":"tf","game":"Team Fortress","app_id":440,"player_count":0,"max_players":24,"Bots":0,"server_type":"Dedicated","server_os":"Linux","password":true,"vac":true,"version":"7961495","steam_id":85568392924494504,"keywords":["nocrits","nodmgspread","payload","uncletopia"],"game_id":440,"stv_port":27016,"stv_name":"Uncletopia | Hong Kong | 1 | All Maps | STV","players":null},{"server_id":1,"name":"Uncletopia | Los Angeles | 1 | All Maps","name_short":"lax-1","host":"lax-1.us.uncletopia.com","port":27015,"enabled":true,"region":"us-west","cc":"us","latitude":33.94279,"longitude":-118.41004,"reserved":0,"last_update":"0001-01-01T00:00:00Z","name_a2s":"Uncletopia | Los Angeles | 1 | All Maps","protocol":17,"map":"pl_pier","folder":"tf","game":"Team Fortress","app_id":440,"player_count":0,"max_players":24,"Bots":0,"server_type":"Dedicated","server_os":"Linux","password":true,"vac":true,"version":"7961495","steam_id":85568392924469991,"keywords":["nocrits","nodmgspread","payload","uncletopia"],"game_id":440,"stv_port":27016,"stv_name":"Uncletopia | Los Angeles | 1 | All Maps | STV","players":null},{"server_id":112,"name":"Uncletopia | Los Angeles | 2 | All Maps","name_short":"lax-2","host":"lax-1.us.uncletopia.com","port":27025,"enabled":true,"region":"us-west","cc":"us","latitude":33.94279,"longitude":-118.41004,"reserved":0,"last_update":"0001-01-01T00:00:00Z","name_a2s":"Uncletopia | Los Angeles | 2 | All Maps","protocol":17,"map":"koth_cascade","folder":"tf","game":"Team Fortress","app_id":440,"player_count":0,"max_players":24,"Bots":0,"server_type":"Dedicated","server_os":"Linux","password":true,"vac":true,"version":"7961495","steam_id":85568392924469992,"keywords":["cp","nocrits","nodmgspread","uncletopia"],"game_id":440,"stv_port":27026,"stv_name":"Uncletopia | Los Angeles | 2 | All Maps | STV","players":null},{"server_id":324,"name":"Uncletopia | Los Angeles | 3 | All Maps","name_short":"lax-3","host":"lax-1.us.uncletopia.com","port":27035,"enabled":true,"region":"us-west","cc":"us","latitude":33.94279,"longitude":-118.41004,"reserved":0,"last_update":"0001-01-01T00:00:00Z","name_a2s":"Uncletopia | Los Angeles | 3 | All Maps","protocol":17,"map":"pl_barnblitz","folder":"tf","game":"Team Fortress","app_id":440,"player_count":0,"max_players":24,"Bots":0,"server_type":"Dedicated","server_os":"Linux","password":true,"vac":true,"version":"7961495","steam_id":85568392924510198,"keywords":["nocrits","nodmgspread","payload","uncletopia"],"game_id":440,"stv_port":27036,"stv_name":"Uncletopia | Los Angeles | 3 | All Maps | STV","players":null},{"server_id":25,"name":"Uncletopia | Los Angeles | 4 | Stopwatch","name_short":"lax-4","host":"lax-1.us.uncletopia.com","port":27045,"enabled":true,"region":"us-west","cc":"us","latitude":33.94279,"longitude":-118.41004,"reserved":0,"last_update":"0001-01-01T00:00:00Z","name_a2s":"Uncletopia | Los Angeles | 4 | Stopwatch","protocol":17,"map":"workshop/koth_product_final.ugc454272353","folder":"tf","game":"Team Fortress","app_id":440,"player_count":0,"max_players":24,"Bots":0,"server_type":"Dedicated","server_os":"Linux","password":true,"vac":true,"version":"7961495","steam_id":85568392924510199,"keywords":["cp","nocrits","nodmgspread","uncletopia"],"game_id":440,"stv_port":27046,"stv_name":"Uncletopia | Los Angeles | 4 | Stopwatch | STV","players":null},{"server_id":11,"name":"Uncletopia | London | 1 | All Maps","name_short":"lon-1","host":"lon-1.uk.uncletopia.com","port":27015,"enabled":true,"region":"eu","cc":"gb","latitude":51.509865,"longitude":-0.118092,"reserved":0,"last_update":"0001-01-01T00:00:00Z","name_a2s":"Uncletopia | London | 1 | All Maps","protocol":17,"map":"pl_barnblitz","folder":"tf","game":"Team Fortress","app_id":440,"player_count":24,"max_players":24,"Bots":0,"server_type":"Dedicated","server_os":"Linux","password":true,"vac":true,"version":"7961495","steam_id":85568392924367362,"keywords":["nocrits","nodmgspread","payload","uncletopia"],"game_id":440,"stv_port":27016,"stv_name":"Uncletopia | London | 1 | All Maps | STV","players":[{"user_id":568,"name":"Smurfette","steam_id":76561199242240108,"connected_time":638000000000,"state":"active","ping":78},{"user_id":517,"name":"whimsy.","steam_id":76561198878171763,"connected_time":6157000000000,"state":"active","ping":53},{"user_id":564,"name":"Grim the lemon","steam_id":76561199083433988,"connected_time":978000000000,"state":"active","ping":49},{"user_id":574,"name":"GoblinGaming","steam_id":76561198360395476,"connected_time":145000000000,"state":"active","ping":33},{"user_id":484,"name":"mertefe","steam_id":76561199237126613,"connected_time":8550000000000,"state":"active","ping":95},{"user_id":548,"name":"ashley","steam_id":76561198448551449,"connected_time":2457000000000,"state":"active","ping":30},{"user_id":551,"name":"Aku+","steam_id":76561198813782795,"connected_time":2409000000000,"state":"active","ping":63},{"user_id":555,"name":"eeeeee","steam_id":76561198017786875,"connected_time":2300000000000,"state":"active","ping":69},{"user_id":552,"name":"PASTAMANIA!","steam_id":76561197967858558,"connected_time":2381000000000,"state":"active","ping":35},{"user_id":558,"name":"Kahvi","steam_id":76561198723244199,"connected_time":1445000000000,"state":"active","ping":79},{"user_id":504,"name":"Jam","steam_id":76561198090409013,"connected_time":6679000000000,"state":"active","ping":86},{"user_id":507,"name":"ber.","steam_id":76561197993892057,"connected_time":6608000000000,"state":"active","ping":91},{"user_id":565,"name":"giclure :;","steam_id":76561197986362828,"connected_time":971000000000,"state":"active","ping":74},{"user_id":554,"name":"Aaron","steam_id":76561197990046953,"connected_time":2373000000000,"state":"active","ping":56},{"user_id":549,"name":"impossible whopper eater","steam_id":76561198058641805,"connected_time":2447000000000,"state":"active","ping":51},{"user_id":556,"name":"Carrotcracker","steam_id":76561198034862396,"connected_time":2251000000000,"state":"active","ping":63},{"user_id":575,"name":"Mea","steam_id":76561198353496134,"connected_time":52000000000,"state":"active","ping":55},{"user_id":570,"name":"ROX","steam_id":76561198272289320,"connected_time":579000000000,"state":"active","ping":58},{"user_id":530,"name":"the lorax","steam_id":76561199180176442,"connected_time":4838000000000,"state":"active","ping":72},{"user_id":560,"name":"ExotiiC ☯","steam_id":76561198046149866,"connected_time":1396000000000,"state":"active","ping":66},{"user_id":529,"name":"Setiago","steam_id":76561198060770498,"connected_time":4866000000000,"state":"active","ping":60},{"user_id":550,"name":"tapeworms!","steam_id":76561198069649097,"connected_time":2446000000000,"state":"active","ping":53},{"user_id":538,"name":"flappi","steam_id":76561198072892783,"connected_time":4645000000000,"state":"active","ping":71},{"user_id":543,"name":"viora","steam_id":76561198054979849,"connected_time":3586000000000,"state":"active","ping":48}]},{"server_id":114,"name":"Uncletopia | London | 2 | All Maps","name_short":"lon-2","host":"lon-1.uk.uncletopia.com","port":27025,"enabled":true,"region":"eu","cc":"gb","latitude":51.509865,"longitude":-0.118092,"reserved":0,"last_update":"0001-01-01T00:00:00Z","name_a2s":"Uncletopia | London | 2 | All Maps","protocol":17,"map":"pl_swiftwater_final1","folder":"tf","game":"Team Fortress","app_id":440,"player_count":24,"max_players":24,"Bots":0,"server_type":"Dedicated","server_os":"Linux","password":true,"vac":true,"version":"7961495","steam_id":85568392924470941,"keywords":["nocrits","nodmgspread","payload","uncletopia"],"game_id":440,"stv_port":27026,"stv_name":"Uncletopia | London | 2 | All Maps | STV","players":[{"user_id":280,"name":"Frazzle","steam_id":76561198262577951,"connected_time":2632000000000,"state":"active","ping":51},{"user_id":289,"name":"Spurt","steam_id":76561198078523852,"connected_time":1912000000000,"state":"active","ping":55},{"user_id":313,"name":"Jackanackaknory","steam_id":76561198028044547,"connected_time":749000000000,"state":"active","ping":51},{"user_id":316,"name":"cuddles","steam_id":76561198805181599,"connected_time":722000000000,"state":"active","ping":52},{"user_id":296,"name":"Sebab","steam_id":76561198122706821,"connected_time":1601000000000,"state":"active","ping":44},{"user_id":312,"name":"please do not the cat","steam_id":76561198089003514,"connected_time":751000000000,"state":"active","ping":53},{"user_id":323,"name":"Alcohol Hominid","steam_id":76561198320313950,"connected_time":2000000000,"state":"spawning","ping":139},{"user_id":314,"name":"Sirzen","steam_id":76561198170155434,"connected_time":746000000000,"state":"active","ping":47},{"user_id":308,"name":"Kekeke","steam_id":76561198063672270,"connected_time":979000000000,"state":"active","ping":94},{"user_id":303,"name":"General Petrov","steam_id":76561198027204104,"connected_time":1216000000000,"state":"active","ping":75},{"user_id":320,"name":"bongo","steam_id":76561198015489880,"connected_time":390000000000,"state":"active","ping":44},{"user_id":219,"name":"Gaxkang","steam_id":76561198125768571,"connected_time":6813000000000,"state":"active","ping":46},{"user_id":311,"name":"Leituga","steam_id":76561198051127598,"connected_time":803000000000,"state":"active","ping":74},{"user_id":319,"name":"Burchtopia","steam_id":76561198063874546,"connected_time":481000000000,"state":"active","ping":47},{"user_id":222,"name":"Assassin+","steam_id":76561197994310420,"connected_time":6347000000000,"state":"active","ping":75},{"user_id":317,"name":"joosssh","steam_id":76561198072130805,"connected_time":721000000000,"state":"active","ping":61},{"user_id":302,"name":"SimplyJarvis","steam_id":76561198000654287,"connected_time":1271000000000,"state":"active","ping":56},{"user_id":287,"name":"medick","steam_id":76561199380849468,"connected_time":1940000000000,"state":"active","ping":62},{"user_id":321,"name":"IS3BITEL","steam_id":76561199178060325,"connected_time":351000000000,"state":"active","ping":61},{"user_id":266,"name":"Gubbly Bubbins","steam_id":76561198101451654,"connected_time":3839000000000,"state":"active","ping":45},{"user_id":322,"name":"Bill Carr","steam_id":76561198110033943,"connected_time":98000000000,"state":"active","ping":40},{"user_id":273,"name":"Spajro","steam_id":76561198257383813,"connected_time":2851000000000,"state":"active","ping":46},{"user_id":284,"name":"Arsonist","steam_id":76561199087953833,"connected_time":2328000000000,"state":"active","ping":100},{"user_id":267,"name":"lulu","steam_id":76561199147764133,"connected_time":3532000000000,"state":"active","ping":73}]},{"server_id":320,"name":"Uncletopia | London | 3 | All Maps","name_short":"lon-3","host":"lon-1.uk.uncletopia.com","port":27035,"enabled":true,"region":"eu","cc":"gb","latitude":51.509865,"longitude":-0.118092,"reserved":0,"last_update":"0001-01-01T00:00:00Z","name_a2s":"Uncletopia | London | 3 | All Maps","protocol":17,"map":"koth_badlands","folder":"tf","game":"Team Fortress","app_id":440,"player_count":20,"max_players":24,"Bots":0,"server_type":"Dedicated","server_os":"Linux","password":true,"vac":true,"version":"7961495","steam_id":85568392924510192,"keywords":["cp","nocrits","nodmgspread","uncletopia"],"game_id":440,"stv_port":27036,"stv_name":"Uncletopia | London | 3 | All Maps | STV","players":[{"user_id":99,"name":"clcraven","steam_id":76561198004637699,"connected_time":90000000000,"state":"active","ping":51},{"user_id":100,"name":"Jeffrey Harpen","steam_id":76561199073314677,"connected_time":57000000000,"state":"active","ping":69},{"user_id":101,"name":"slug","steam_id":76561198065902089,"connected_time":7000000000,"state":"spawning","ping":68},{"user_id":98,"name":"XxBenShapiro420xX","steam_id":76561199229373972,"connected_time":354000000000,"state":"active","ping":62},{"user_id":37,"name":"Demicore","steam_id":76561197976922136,"connected_time":3447000000000,"state":"active","ping":51},{"user_id":38,"name":"(MAC) [BN] Crazyking","steam_id":76561198001668616,"connected_time":3446000000000,"state":"active","ping":48},{"user_id":86,"name":"Henry","steam_id":76561198108018305,"connected_time":2226000000000,"state":"active","ping":78},{"user_id":88,"name":"Th3Celestial","steam_id":76561198353312252,"connected_time":2018000000000,"state":"active","ping":42},{"user_id":58,"name":"jack'o classes","steam_id":76561199030218131,"connected_time":2991000000000,"state":"active","ping":40},{"user_id":43,"name":"Kaza","steam_id":76561198033509686,"connected_time":3244000000000,"state":"active","ping":46},{"user_id":91,"name":"Exe_Red","steam_id":76561198154952759,"connected_time":1963000000000,"state":"active","ping":90},{"user_id":80,"name":"Saken","steam_id":76561198049075295,"connected_time":2369000000000,"state":"active","ping":60},{"user_id":81,"name":"lark","steam_id":76561198091724522,"connected_time":2367000000000,"state":"active","ping":59},{"user_id":83,"name":"KillerQueen (he/they/she)","steam_id":76561199019399725,"connected_time":2343000000000,"state":"active","ping":49},{"user_id":51,"name":"Dr. Funkenstein","steam_id":76561197977816210,"connected_time":3102000000000,"state":"active","ping":48},{"user_id":71,"name":"igvanhoute","steam_id":76561199509386378,"connected_time":2628000000000,"state":"active","ping":55},{"user_id":85,"name":"cropping","steam_id":76561198026586456,"connected_time":2307000000000,"state":"active","ping":67},{"user_id":75,"name":"Egor Pomidor","steam_id":76561199175688390,"connected_time":2543000000000,"state":"active","ping":80},{"user_id":70,"name":"DidoSquarepants","steam_id":76561198813776572,"connected_time":2710000000000,"state":"active","ping":59},{"user_id":97,"name":"Sholunan","steam_id":76561198062435739,"connected_time":1615000000000,"state":"active","ping":58}]},{"server_id":321,"name":"Uncletopia | London | 4 | All Maps","name_short":"lon-4","host":"lon-1.uk.uncletopia.com","port":27045,"enabled":true,"region":"eu","cc":"gb","latitude":51.509865,"longitude":-0.118092,"reserved":0,"last_update":"0001-01-01T00:00:00Z","name_a2s":"Uncletopia | London | 4 | All Maps","protocol":17,"map":"pl_badwater","folder":"tf","game":"Team Fortress","app_id":440,"player_count":24,"max_players":24,"Bots":0,"server_type":"Dedicated","server_os":"Linux","password":true,"vac":true,"version":"7961495","steam_id":85568392924510193,"keywords":["nocrits","nodmgspread","payload","uncletopia"],"game_id":440,"stv_port":27046,"stv_name":"Uncletopia | London | 4 | All Maps | STV","players":[{"user_id":379,"name":"tralalaOuiOui","steam_id":76561197963471507,"connected_time":1342000000000,"state":"active","ping":45},{"user_id":383,"name":"ғÉire","steam_id":76561199174322517,"connected_time":662000000000,"state":"active","ping":49},{"user_id":371,"name":"em ❤","steam_id":76561198156678840,"connected_time":1736000000000,"state":"active","ping":41},{"user_id":358,"name":"finbar","steam_id":76561198056812396,"connected_time":4433000000000,"state":"active","ping":76},{"user_id":359,"name":"Tyren","steam_id":76561198993747516,"connected_time":4426000000000,"state":"active","ping":51},{"user_id":308,"name":"gagalak","steam_id":76561198089979108,"connected_time":7922000000000,"state":"active","ping":99},{"user_id":385,"name":"Danny Mullen Freed The Slaves","steam_id":76561198198803773,"connected_time":469000000000,"state":"active","ping":62},{"user_id":372,"name":"Stranger","steam_id":76561198099440793,"connected_time":1706000000000,"state":"active","ping":75},{"user_id":360,"name":"Froenzi","steam_id":76561198168841723,"connected_time":4418000000000,"state":"active","ping":59},{"user_id":368,"name":"Ninjeg","steam_id":76561197995307947,"connected_time":2818000000000,"state":"active","ping":52},{"user_id":344,"name":"Darkraven","steam_id":76561198024651491,"connected_time":5888000000000,"state":"active","ping":61},{"user_id":340,"name":"real greepy","steam_id":76561198412357143,"connected_time":5970000000000,"state":"active","ping":108},{"user_id":384,"name":"Mega Man Legends 3","steam_id":76561198014110199,"connected_time":507000000000,"state":"active","ping":39},{"user_id":387,"name":"mümq","steam_id":76561198085153806,"connected_time":120000000000,"state":"active","ping":49},{"user_id":378,"name":"Gay Potato","steam_id":76561198018859519,"connected_time":1419000000000,"state":"active","ping":55},{"user_id":367,"name":"Sperbal","steam_id":76561198091590433,"connected_time":3210000000000,"state":"active","ping":47},{"user_id":386,"name":"N00BCSF","steam_id":76561198035530934,"connected_time":454000000000,"state":"active","ping":64},{"user_id":380,"name":"LEGEND FUMO.","steam_id":76561198061033903,"connected_time":1172000000000,"state":"active","ping":59},{"user_id":377,"name":"Mr. Hunts","steam_id":76561197981910397,"connected_time":1465000000000,"state":"active","ping":61},{"user_id":369,"name":"MustangCricket","steam_id":76561197963408317,"connected_time":1957000000000,"state":"active","ping":59},{"user_id":351,"name":"gamerweed5","steam_id":76561198087651151,"connected_time":5333000000000,"state":"active","ping":47},{"user_id":381,"name":"Pimpin' \u0026 Blimpin'","steam_id":76561198326776107,"connected_time":1002000000000,"state":"active","ping":85},{"user_id":376,"name":"5tv^","steam_id":76561198063129586,"connected_time":1619000000000,"state":"active","ping":47},{"user_id":347,"name":"jewish mafia","steam_id":76561198088512662,"connected_time":5829000000000,"state":"active","ping":57}]},{"server_id":21,"name":"Uncletopia | London | 5 | All Maps","name_short":"lon-5","host":"lon-1.uk.uncletopia.com","port":27055,"enabled":true,"region":"eu","cc":"gb","latitude":51.509865,"longitude":-0.118092,"reserved":0,"last_update":"0001-01-01T00:00:00Z","name_a2s":"Uncletopia | London | 5 | All Maps","protocol":17,"map":"pl_borneo","folder":"tf","game":"Team Fortress","app_id":440,"player_count":24,"max_players":24,"Bots":0,"server_type":"Dedicated","server_os":"Linux","password":true,"vac":true,"version":"7961495","steam_id":85568392924742829,"keywords":["nocrits","nodmgspread","payload","uncletopia"],"game_id":440,"stv_port":27056,"stv_name":"Uncletopia | London | 5 | All Maps | STV","players":[{"user_id":277,"name":"Saucisse","steam_id":76561198119955969,"connected_time":965000000000,"state":"active","ping":46},{"user_id":262,"name":"fector","steam_id":76561199204249586,"connected_time":1654000000000,"state":"active","ping":105},{"user_id":269,"name":"NitPig","steam_id":76561198212991935,"connected_time":1405000000000,"state":"active","ping":84},{"user_id":233,"name":"Para Bellum","steam_id":76561198375413446,"connected_time":2891000000000,"state":"active","ping":48},{"user_id":296,"name":"flamingosaurus","steam_id":76561198051455397,"connected_time":407000000000,"state":"active","ping":45},{"user_id":283,"name":"Aftiks","steam_id":76561198875182686,"connected_time":706000000000,"state":"active","ping":90},{"user_id":267,"name":"Krieger","steam_id":76561197982693641,"connected_time":1463000000000,"state":"active","ping":54},{"user_id":285,"name":"BD[PL]","steam_id":76561198115995871,"connected_time":655000000000,"state":"active","ping":92},{"user_id":239,"name":"Forsén","steam_id":76561199131971501,"connected_time":2313000000000,"state":"active","ping":73},{"user_id":290,"name":"☠The Boio☠","steam_id":76561198114166378,"connected_time":557000000000,"state":"active","ping":74},{"user_id":298,"name":"wavelength","steam_id":76561198154677956,"connected_time":356000000000,"state":"active","ping":68},{"user_id":287,"name":"Avangarde","steam_id":76561198046286755,"connected_time":617000000000,"state":"active","ping":76},{"user_id":263,"name":"vk rat makes me erect","steam_id":76561198355965587,"connected_time":1640000000000,"state":"active","ping":73},{"user_id":288,"name":"Melody/FuFu","steam_id":76561198172046702,"connected_time":616000000000,"state":"active","ping":61},{"user_id":249,"name":"Freaking_EmailsTTV","steam_id":76561198836919458,"connected_time":2038000000000,"state":"active","ping":135},{"user_id":281,"name":"Lite-E","steam_id":76561198331132141,"connected_time":752000000000,"state":"active","ping":68},{"user_id":256,"name":"Finem Belli","steam_id":76561198227177976,"connected_time":1951000000000,"state":"active","ping":46},{"user_id":279,"name":"Motherboard","steam_id":76561198130191090,"connected_time":784000000000,"state":"active","ping":57},{"user_id":291,"name":"Sun Cooch","steam_id":76561198404802096,"connected_time":519000000000,"state":"active","ping":75},{"user_id":299,"name":"R8N - Obismal","steam_id":76561198007482714,"connected_time":175000000000,"state":"active","ping":81},{"user_id":280,"name":"3L","steam_id":76561198007208996,"connected_time":769000000000,"state":"active","ping":58},{"user_id":293,"name":"tsoun","steam_id":76561198065317682,"connected_time":507000000000,"state":"active","ping":90},{"user_id":294,"name":"Мистер пенис","steam_id":76561198208035376,"connected_time":484000000000,"state":"active","ping":80},{"user_id":297,"name":"pyrofightermag","steam_id":76561198089228732,"connected_time":366000000000,"state":"active","ping":70}]},{"server_id":22,"name":"Uncletopia | London | 6 | All Maps","name_short":"lon-6","host":"lon-1.uk.uncletopia.com","port":27065,"enabled":true,"region":"eu","cc":"gb","latitude":51.509865,"longitude":-0.118092,"reserved":0,"last_update":"0001-01-01T00:00:00Z","name_a2s":"Uncletopia | London | 6 | All Maps","protocol":17,"map":"pl_frontier_final","folder":"tf","game":"Team Fortress","app_id":440,"player_count":23,"max_players":24,"Bots":0,"server_type":"Dedicated","server_os":"Linux","password":true,"vac":true,"version":"7961495","steam_id":85568392924742830,"keywords":["nocrits","nodmgspread","payload","uncletopia"],"game_id":440,"stv_port":27066,"stv_name":"Uncletopia | London | 6 | All Maps | STV","players":[{"user_id":69,"name":"H-say","steam_id":76561198177400362,"connected_time":4635000000000,"state":"active","ping":79},{"user_id":85,"name":"Guuse","steam_id":76561198030956814,"connected_time":2354000000000,"state":"active","ping":68},{"user_id":112,"name":"hasky","steam_id":76561197986052798,"connected_time":1508000000000,"state":"active","ping":61},{"user_id":64,"name":"ArmedWithWings","steam_id":76561198154615474,"connected_time":4862000000000,"state":"active","ping":77},{"user_id":82,"name":"syms","steam_id":76561198066679812,"connected_time":3351000000000,"state":"active","ping":79},{"user_id":119,"name":"comic_sans","steam_id":76561198845309519,"connected_time":453000000000,"state":"active","ping":84},{"user_id":103,"name":"Lemon","steam_id":76561198188535947,"connected_time":1822000000000,"state":"active","ping":69},{"user_id":91,"name":"6'3 horny aroused male","steam_id":76561199042470246,"connected_time":2207000000000,"state":"active","ping":66},{"user_id":72,"name":"Egg Council creep","steam_id":76561198007653168,"connected_time":4243000000000,"state":"active","ping":59},{"user_id":121,"name":"Martin","steam_id":76561197963416927,"connected_time":165000000000,"state":"active","ping":52},{"user_id":104,"name":"sword machine","steam_id":76561198895235231,"connected_time":1820000000000,"state":"active","ping":61},{"user_id":99,"name":"Flank","steam_id":76561198098731156,"connected_time":1976000000000,"state":"active","ping":72},{"user_id":120,"name":"goku ピップ・ペタル","steam_id":76561198147668373,"connected_time":376000000000,"state":"active","ping":69},{"user_id":56,"name":"scramble, scramble","steam_id":76561199103959197,"connected_time":5095000000000,"state":"active","ping":90},{"user_id":78,"name":"Germanium_Ge","steam_id":76561198130561775,"connected_time":3700000000000,"state":"active","ping":45},{"user_id":95,"name":"soupalognionycrouton","steam_id":76561199021878433,"connected_time":2163000000000,"state":"active","ping":69},{"user_id":105,"name":"Milk","steam_id":76561198125876588,"connected_time":1796000000000,"state":"active","ping":39},{"user_id":122,"name":"heddwch","steam_id":76561198076097983,"connected_time":163000000000,"state":"active","ping":88},{"user_id":111,"name":"I harass for feet pics","steam_id":76561198173218318,"connected_time":1578000000000,"state":"active","ping":46},{"user_id":66,"name":"kurd","steam_id":76561198116530769,"connected_time":4847000000000,"state":"active","ping":96},{"user_id":106,"name":"Petight","steam_id":76561197999438798,"connected_time":1760000000000,"state":"active","ping":31},{"user_id":114,"name":"Haha?","steam_id":76561198056882245,"connected_time":1031000000000,"state":"active","ping":35},{"user_id":109,"name":"Coincé entre deux nichons","steam_id":76561198000866783,"connected_time":1680000000000,"state":"active","ping":46}]},{"server_id":40,"name":"Uncletopia | London | 7 | Stopwatch","name_short":"lon-7","host":"lon-1.uk.uncletopia.com","port":27075,"enabled":true,"region":"eu","cc":"gb","latitude":51.509865,"longitude":-0.118092,"reserved":0,"last_update":"0001-01-01T00:00:00Z","name_a2s":"Uncletopia | London | 7 | Stopwatch","protocol":17,"map":"workshop/koth_ashville_final.ugc2130459942","folder":"tf","game":"Team Fortress","app_id":440,"player_count":0,"max_players":24,"Bots":0,"server_type":"Dedicated","server_os":"Linux","password":true,"vac":true,"version":"7961495","steam_id":85568392924964314,"keywords":["cp","nocrits","nodmgspread","uncletopia"],"game_id":440,"stv_port":27076,"stv_name":"Uncletopia | London | 7 | Stopwatch | STV","players":null},{"server_id":41,"name":"Uncletopia | London | 8 | Community","name_short":"lon-8","host":"lon-1.uk.uncletopia.com","port":27085,"enabled":true,"region":"eu","cc":"gb","latitude":51.509865,"longitude":-0.118092,"reserved":0,"last_update":"0001-01-01T00:00:00Z","name_a2s":"Uncletopia | London | 8 | Community","protocol":17,"map":"workshop/pl_boundary_final1.ugc456799153","folder":"tf","game":"Team Fortress","app_id":440,"player_count":0,"max_players":24,"Bots":0,"server_type":"Dedicated","server_os":"Linux","password":true,"vac":true,"version":"7961495","steam_id":85568392924964315,"keywords":["nocrits","nodmgspread","payload","uncletopia"],"game_id":440,"stv_port":27086,"stv_name":"Uncletopia | London | 8 | Community | STV","players":null},{"server_id":300,"name":"Uncletopia | Montréal | 1 | One Thousand Uncles","name_short":"mtl-1","host":"mtl-1.ca.uncletopia.com","port":27015,"enabled":true,"region":"us-east","cc":"ca","latitude":45.50889,"longitude":-73.56167,"reserved":0,"last_update":"0001-01-01T00:00:00Z","name_a2s":"Uncletopia | Montréal | 1 | One Thousand Uncles","protocol":17,"map":"pl_chilly","folder":"tf","game":"Team Fortress","app_id":440,"player_count":0,"max_players":32,"Bots":0,"server_type":"Dedicated","server_os":"Linux","password":true,"vac":true,"version":"7961495","steam_id":85568392924500087,"keywords":["alltalk","danepve","increased_maxplayers","norespawntime","payload","uncletopia"],"game_id":440,"stv_port":0,"stv_name":"","players":null},{"server_id":301,"name":"Uncletopia | Montréal | 2 | One Thousand Uncles","name_short":"mtl-2","host":"mtl-1.ca.uncletopia.com","port":27025,"enabled":true,"region":"us-east","cc":"ca","latitude":45.50889,"longitude":-73.56167,"reserved":0,"last_update":"0001-01-01T00:00:00Z","name_a2s":"Uncletopia | Montréal | 2 | One Thousand Uncles","protocol":17,"map":"pl_snowycoast","folder":"tf","game":"Team Fortress","app_id":440,"player_count":0,"max_players":32,"Bots":0,"server_type":"Dedicated","server_os":"Linux","password":true,"vac":true,"version":"7961495","steam_id":85568392924500088,"keywords":["alltalk","danepve","increased_maxplayers","norespawntime","payload","uncletopia"],"game_id":440,"stv_port":0,"stv_name":"","players":null},{"server_id":302,"name":"Uncletopia | Montréal | 3 | One Thousand Uncles","name_short":"mtl-3","host":"mtl-1.ca.uncletopia.com","port":27035,"enabled":true,"region":"us-east","cc":"ca","latitude":45.50889,"longitude":-73.56167,"reserved":0,"last_update":"0001-01-01T00:00:00Z","name_a2s":"Uncletopia | Montréal | 3 | One Thousand Uncles","protocol":17,"map":"pl_upward","folder":"tf","game":"Team Fortress","app_id":440,"player_count":17,"max_players":32,"Bots":16,"server_type":"Dedicated","server_os":"Linux","password":true,"vac":true,"version":"7961495","steam_id":85568392924500089,"keywords":["alltalk","bots","danepve","increased_maxplayers","norespawntime","payload","uncletopia"],"game_id":440,"stv_port":0,"stv_name":"","players":[{"user_id":60,"name":"donaldronningii","steam_id":76561198324570722,"connected_time":633000000000,"state":"active","ping":73}]},{"server_id":13,"name":"Uncletopia | New York City | 1 | All Maps","name_short":"nyc-1","host":"nyc-1.us.uncletopia.com","port":27015,"enabled":true,"region":"us-east","cc":"us","latitude":40.73061,"longitude":-73.93524,"reserved":0,"last_update":"0001-01-01T00:00:00Z","name_a2s":"Uncletopia | New York City | 1 | All Maps","protocol":17,"map":"koth_highpass","folder":"tf","game":"Team Fortress","app_id":440,"player_count":24,"max_players":24,"Bots":0,"server_type":"Dedicated","server_os":"Linux","password":true,"vac":true,"version":"7961495","steam_id":85568392924469993,"keywords":["cp","nocrits","nodmgspread","uncletopia"],"game_id":440,"stv_port":27016,"stv_name":"Uncletopia | New York City | 1 | All Maps | STV","players":[{"user_id":220,"name":"Kinda_Clownish","steam_id":76561198309111836,"connected_time":877000000000,"state":"active","ping":86},{"user_id":204,"name":"Headshots Se7en","steam_id":76561198020464802,"connected_time":2339000000000,"state":"active","ping":59},{"user_id":211,"name":"Jason","steam_id":76561198107058140,"connected_time":1628000000000,"state":"active","ping":46},{"user_id":229,"name":"LPenne","steam_id":76561198072972471,"connected_time":565000000000,"state":"active","ping":61},{"user_id":228,"name":"Smartchicken","steam_id":76561198037744517,"connected_time":597000000000,"state":"active","ping":46},{"user_id":230,"name":"CRAZY engineer","steam_id":76561198887937902,"connected_time":555000000000,"state":"active","ping":54},{"user_id":164,"name":"Skippa","steam_id":76561198181928613,"connected_time":3908000000000,"state":"active","ping":58},{"user_id":191,"name":"Stonks","steam_id":76561199490085068,"connected_time":2688000000000,"state":"active","ping":55},{"user_id":217,"name":"snake eyes","steam_id":76561198099285010,"connected_time":1397000000000,"state":"active","ping":76},{"user_id":216,"name":"GnarlySheep","steam_id":76561198067288233,"connected_time":1432000000000,"state":"active","ping":38},{"user_id":223,"name":"Gibs Degrossi","steam_id":76561198066152609,"connected_time":842000000000,"state":"active","ping":71},{"user_id":186,"name":"Aokuma","steam_id":76561198808387179,"connected_time":2991000000000,"state":"active","ping":47},{"user_id":233,"name":"Family Man","steam_id":76561198024973008,"connected_time":135000000000,"state":"active","ping":59},{"user_id":133,"name":"The Undead Knight","steam_id":76561198010654500,"connected_time":5824000000000,"state":"active","ping":81},{"user_id":224,"name":"fred","steam_id":76561199065834574,"connected_time":827000000000,"state":"active","ping":72},{"user_id":232,"name":"Lemurian","steam_id":76561198324118507,"connected_time":404000000000,"state":"active","ping":71},{"user_id":195,"name":"Pickle Chips","steam_id":76561198271951504,"connected_time":2666000000000,"state":"active","ping":47},{"user_id":225,"name":"Ligmus Sigmus","steam_id":76561198168946002,"connected_time":826000000000,"state":"active","ping":47},{"user_id":226,"name":"MMAD","steam_id":76561198026446420,"connected_time":781000000000,"state":"active","ping":97},{"user_id":215,"name":"ADRIEN BRODY","steam_id":76561198009299473,"connected_time":1446000000000,"state":"active","ping":50},{"user_id":210,"name":"Skizzlebits","steam_id":76561198313607439,"connected_time":1782000000000,"state":"active","ping":55},{"user_id":203,"name":"Grazzunk","steam_id":76561198290227691,"connected_time":2441000000000,"state":"active","ping":59},{"user_id":227,"name":"Teamfortressfunnymomments#5","steam_id":76561198971629959,"connected_time":758000000000,"state":"active","ping":149},{"user_id":176,"name":"Ethan","steam_id":76561198129056840,"connected_time":3648000000000,"state":"active","ping":65}]},{"server_id":14,"name":"Uncletopia | New York City | 2 | All Maps","name_short":"nyc-2","host":"nyc-1.us.uncletopia.com","port":27025,"enabled":true,"region":"us-east","cc":"us","latitude":40.73061,"longitude":-73.93524,"reserved":0,"last_update":"0001-01-01T00:00:00Z","name_a2s":"Uncletopia | New York City | 2 | All Maps","protocol":17,"map":"pl_pier","folder":"tf","game":"Team Fortress","app_id":440,"player_count":24,"max_players":24,"Bots":0,"server_type":"Dedicated","server_os":"Linux","password":true,"vac":true,"version":"7961495","steam_id":85568392924469994,"keywords":["nocrits","nodmgspread","payload","uncletopia"],"game_id":440,"stv_port":27026,"stv_name":"Uncletopia | New York City | 2 | All Maps | STV","players":[{"user_id":365,"name":"Fart Smella","steam_id":76561198377835843,"connected_time":288000000000,"state":"active","ping":58},{"user_id":336,"name":"Mr. Squirt","steam_id":76561198174755679,"connected_time":1435000000000,"state":"active","ping":45},{"user_id":295,"name":"Jango","steam_id":76561198084589742,"connected_time":3341000000000,"state":"active","ping":75},{"user_id":349,"name":"Orionslight04","steam_id":76561198023871544,"connected_time":1027000000000,"state":"active","ping":52},{"user_id":275,"name":"bob","steam_id":76561198274522348,"connected_time":4523000000000,"state":"active","ping":36},{"user_id":337,"name":"The Great Bearer of Wealth","steam_id":76561198352687317,"connected_time":1418000000000,"state":"active","ping":66},{"user_id":356,"name":"Crystall","steam_id":76561198346607700,"connected_time":531000000000,"state":"active","ping":46},{"user_id":357,"name":"Chicken Nugget","steam_id":76561198082601232,"connected_time":522000000000,"state":"active","ping":59},{"user_id":351,"name":"Superfun2154","steam_id":76561198957339086,"connected_time":1013000000000,"state":"active","ping":59},{"user_id":358,"name":"caberknight tf2  (f2p-ish)","steam_id":76561199273882768,"connected_time":517000000000,"state":"active","ping":45},{"user_id":353,"name":"Mackola","steam_id":76561198125958792,"connected_time":689000000000,"state":"active","ping":61},{"user_id":303,"name":"Menace to Sobriety","steam_id":76561198245103000,"connected_time":2775000000000,"state":"active","ping":44},{"user_id":359,"name":"Matthew 10:39","steam_id":76561198121933439,"connected_time":497000000000,"state":"active","ping":66},{"user_id":348,"name":"The Hose on Upward","steam_id":76561197965092192,"connected_time":1112000000000,"state":"active","ping":58},{"user_id":360,"name":"xva","steam_id":76561198969286813,"connected_time":486000000000,"state":"active","ping":134},{"user_id":287,"name":"Nerrrd_","steam_id":76561198870129960,"connected_time":3847000000000,"state":"active","ping":45},{"user_id":364,"name":"monowavy","steam_id":76561199286639256,"connected_time":328000000000,"state":"active","ping":164},{"user_id":355,"name":"YOU WHAT?!","steam_id":76561198418679471,"connected_time":555000000000,"state":"active","ping":59},{"user_id":366,"name":"Hiro","steam_id":76561198103601761,"connected_time":271000000000,"state":"active","ping":46},{"user_id":301,"name":"John Fortnite","steam_id":76561198076608253,"connected_time":3215000000000,"state":"active","ping":47},{"user_id":362,"name":"Fantastibad","steam_id":76561199087329262,"connected_time":464000000000,"state":"active","ping":74},{"user_id":306,"name":"Grimprr","steam_id":76561198275816797,"connected_time":2594000000000,"state":"active","ping":66},{"user_id":363,"name":"Deltaco","steam_id":76561198094572694,"connected_time":441000000000,"state":"active","ping":122},{"user_id":345,"name":"the keebler","steam_id":76561199486326945,"connected_time":1245000000000,"state":"active","ping":74}]},{"server_id":15,"name":"Uncletopia | New York City | 3 | Stopwatch","name_short":"nyc-3","host":"nyc-1.us.uncletopia.com","port":27035,"enabled":true,"region":"us-east","cc":"us","latitude":40.73061,"longitude":-73.93524,"reserved":0,"last_update":"0001-01-01T00:00:00Z","name_a2s":"Uncletopia | New York City | 3 | Stopwatch","protocol":17,"map":"koth_lakeside_final","folder":"tf","game":"Team Fortress","app_id":440,"player_count":0,"max_players":24,"Bots":0,"server_type":"Dedicated","server_os":"Linux","password":true,"vac":true,"version":"7961495","steam_id":85568392924742820,"keywords":["cp","nocrits","nodmgspread","uncletopia"],"game_id":440,"stv_port":27036,"stv_name":"Uncletopia | New York City | 3 | Stopwatch | STV","players":null},{"server_id":16,"name":"Uncletopia | New York City | 4 | Community","name_short":"nyc-4","host":"nyc-1.us.uncletopia.com","port":27045,"enabled":true,"region":"us-east","cc":"us","latitude":40.73061,"longitude":-73.93524,"reserved":0,"last_update":"0001-01-01T00:00:00Z","name_a2s":"Uncletopia | New York City | 4 | Community","protocol":17,"map":"workshop/cp_sulfur_rc2.ugc619869471","folder":"tf","game":"Team Fortress","app_id":440,"player_count":0,"max_players":24,"Bots":0,"server_type":"Dedicated","server_os":"Linux","password":true,"vac":true,"version":"7961495","steam_id":85568392924742821,"keywords":["cp","nocrits","nodmgspread","uncletopia"],"game_id":440,"stv_port":27046,"stv_name":"Uncletopia | New York City | 4 | Community | STV","players":null},{"server_id":142,"name":"Uncletopia | São Paulo | 1 | All Maps","name_short":"sao-1","host":"sao-1.br.uncletopia.com","port":27015,"enabled":true,"region":"sa","cc":"br","latitude":-23.533773,"longitude":-46.62529,"reserved":0,"last_update":"0001-01-01T00:00:00Z","name_a2s":"Uncletopia | São Paulo | 1 | All Maps","protocol":17,"map":"koth_highpass","folder":"tf","game":"Team Fortress","app_id":440,"player_count":0,"max_players":24,"Bots":0,"server_type":"Dedicated","server_os":"Linux","password":true,"vac":true,"version":"7961495","steam_id":85568392924469996,"keywords":["cp","nocrits","nodmgspread","uncletopia"],"game_id":440,"stv_port":27016,"stv_name":"Uncletopia | São Paulo | 1 | All Maps | STV","players":null},{"server_id":143,"name":"Uncletopia | São Paulo | 2 | Community","name_short":"sao-2","host":"sao-2.br.uncletopia.com","port":27015,"enabled":true,"region":"sa","cc":"br","latitude":-23.533773,"longitude":-46.62529,"reserved":0,"last_update":"0001-01-01T00:00:00Z","name_a2s":"Uncletopia | São Paulo | 2 | Community","protocol":17,"map":"workshop/koth_jamram_rc1a.ugc2964065613","folder":"tf","game":"Team Fortress","app_id":440,"player_count":0,"max_players":24,"Bots":0,"server_type":"Dedicated","server_os":"Linux","password":true,"vac":true,"version":"7961495","steam_id":85568392924485349,"keywords":["cp","nocrits","nodmgspread","uncletopia"],"game_id":440,"stv_port":27016,"stv_name":"Uncletopia | São Paulo | 2 | Community | STV","players":null},{"server_id":7,"name":"Uncletopia | Seattle | 1 | All Maps","name_short":"sea-1","host":"sea-1.us.uncletopia.com","port":27015,"enabled":true,"region":"us-west","cc":"us","latitude":47.608013,"longitude":-122.33517,"reserved":0,"last_update":"0001-01-01T00:00:00Z","name_a2s":"Uncletopia | Seattle | 1 | All Maps","protocol":17,"map":"cp_gorge","folder":"tf","game":"Team Fortress","app_id":440,"player_count":19,"max_players":24,"Bots":0,"server_type":"Dedicated","server_os":"Linux","password":true,"vac":true,"version":"7961495","steam_id":85568392924469997,"keywords":["cp","nocrits","nodmgspread","uncletopia"],"game_id":440,"stv_port":27016,"stv_name":"Uncletopia | Seattle | 1 | All Maps | STV","players":[{"user_id":43,"name":"็","steam_id":76561198067666595,"connected_time":2215000000000,"state":"active","ping":37},{"user_id":44,"name":"0","steam_id":76561199027981643,"connected_time":1963000000000,"state":"active","ping":97},{"user_id":45,"name":"Sasha The Foxgirl","steam_id":76561198018403555,"connected_time":1829000000000,"state":"active","ping":42},{"user_id":46,"name":"ilyKittyXOXO","steam_id":76561198179569849,"connected_time":1799000000000,"state":"active","ping":81},{"user_id":47,"name":"[SUKIII]","steam_id":76561198797583670,"connected_time":1785000000000,"state":"active","ping":107},{"user_id":50,"name":"\\(^o^)/","steam_id":76561199169859135,"connected_time":1215000000000,"state":"active","ping":58},{"user_id":49,"name":"Shit (REAL)","steam_id":76561198206490352,"connected_time":1395000000000,"state":"active","ping":72},{"user_id":71,"name":"crox","steam_id":76561199024792831,"connected_time":102000000000,"state":"active","ping":108},{"user_id":72,"name":"QueenCake575","steam_id":76561198996882407,"connected_time":100000000000,"state":"active","ping":56},{"user_id":54,"name":"Tavarish","steam_id":76561199440563080,"connected_time":795000000000,"state":"active","ping":46},{"user_id":63,"name":"Luna","steam_id":76561198082944789,"connected_time":489000000000,"state":"active","ping":65},{"user_id":57,"name":"here2he1p","steam_id":76561199216977630,"connected_time":670000000000,"state":"active","ping":46},{"user_id":70,"name":"Irritated Duck","steam_id":76561198247792076,"connected_time":270000000000,"state":"active","ping":56},{"user_id":65,"name":"Yamn Zaddy","steam_id":76561198074678001,"connected_time":381000000000,"state":"active","ping":120},{"user_id":66,"name":"Jeramosa","steam_id":76561198811000094,"connected_time":366000000000,"state":"active","ping":79},{"user_id":67,"name":"trackpad gaming | f2p","steam_id":76561198840414371,"connected_time":366000000000,"state":"active","ping":50},{"user_id":73,"name":"Chillin Turt","steam_id":76561198025796849,"connected_time":93000000000,"state":"active","ping":119},{"user_id":69,"name":"nerv","steam_id":76561198012678811,"connected_time":325000000000,"state":"active","ping":137},{"user_id":74,"name":"QweX_","steam_id":76561198051250642,"connected_time":64000000000,"state":"active","ping":135}]},{"server_id":119,"name":"Uncletopia | Seattle | 2 | All Maps","name_short":"sea-2","host":"sea-1.us.uncletopia.com","port":27025,"enabled":true,"region":"us-west","cc":"us","latitude":47.608013,"longitude":-122.33517,"reserved":0,"last_update":"0001-01-01T00:00:00Z","name_a2s":"Uncletopia | Seattle | 2 | All Maps","protocol":17,"map":"cp_steel","folder":"tf","game":"Team Fortress","app_id":440,"player_count":24,"max_players":24,"Bots":0,"server_type":"Dedicated","server_os":"Linux","password":true,"vac":true,"version":"7961495","steam_id":85568392924469998,"keywords":["cp","nocrits","nodmgspread","uncletopia"],"game_id":440,"stv_port":27026,"stv_name":"Uncletopia | Seattle | 2 | All Maps | STV","players":[{"user_id":143,"name":"Lé Mon","steam_id":76561198078626283,"connected_time":313000000000,"state":"active","ping":30},{"user_id":105,"name":"goofy goober","steam_id":76561199024079388,"connected_time":3801000000000,"state":"active","ping":45},{"user_id":120,"name":"Dimple","steam_id":76561198980324190,"connected_time":3025000000000,"state":"active","ping":58},{"user_id":129,"name":"SD","steam_id":76561198217410988,"connected_time":1906000000000,"state":"active","ping":76},{"user_id":125,"name":"folly","steam_id":76561198133933158,"connected_time":2818000000000,"state":"active","ping":68},{"user_id":132,"name":"2 Point Tom","steam_id":76561198087617008,"connected_time":1766000000000,"state":"active","ping":46},{"user_id":142,"name":"Tethered","steam_id":76561199237582239,"connected_time":401000000000,"state":"active","ping":139},{"user_id":144,"name":"Banana Man","steam_id":76561199012105803,"connected_time":290000000000,"state":"active","ping":47},{"user_id":91,"name":"Keamy","steam_id":76561199471434875,"connected_time":6307000000000,"state":"active","ping":38},{"user_id":96,"name":"mega","steam_id":76561198089520959,"connected_time":5880000000000,"state":"active","ping":74},{"user_id":114,"name":"gasoline covered fawn","steam_id":76561198043684960,"connected_time":3501000000000,"state":"active","ping":124},{"user_id":145,"name":"\u003c=Itachi uchiha=\u003e","steam_id":76561199162355715,"connected_time":283000000000,"state":"active","ping":120},{"user_id":139,"name":"Skabbety","steam_id":76561198168044257,"connected_time":695000000000,"state":"active","ping":36},{"user_id":102,"name":"dantheman","steam_id":76561199486390813,"connected_time":5015000000000,"state":"active","ping":135},{"user_id":100,"name":"TheGrayMann","steam_id":76561198084203796,"connected_time":5251000000000,"state":"active","ping":112},{"user_id":127,"name":"Fami","steam_id":76561198193580105,"connected_time":2030000000000,"state":"active","ping":76},{"user_id":135,"name":"Mr8bittripper","steam_id":76561198133894229,"connected_time":1417000000000,"state":"active","ping":41},{"user_id":146,"name":"-_-","steam_id":76561199190800520,"connected_time":269000000000,"state":"active","ping":42},{"user_id":150,"name":"Sudsen","steam_id":76561198370603787,"connected_time":39000000000,"state":"active","ping":72},{"user_id":116,"name":"tmm (theManMan)","steam_id":76561199488457138,"connected_time":3243000000000,"state":"active","ping":59},{"user_id":137,"name":"The Grungler","steam_id":76561198126561438,"connected_time":1091000000000,"state":"active","ping":82},{"user_id":138,"name":"Cereal Killer","steam_id":76561198052368295,"connected_time":823000000000,"state":"active","ping":46},{"user_id":140,"name":"jethro","steam_id":76561198003018165,"connected_time":554000000000,"state":"active","ping":59},{"user_id":148,"name":"terry","steam_id":76561198084130751,"connected_time":224000000000,"state":"active","ping":54}]},{"server_id":406,"name":"Uncletopia | Seattle | 3 | Stopwatch","name_short":"sea-3","host":"sea-1.us.uncletopia.com","port":27035,"enabled":true,"region":"us-west","cc":"us","latitude":47.608013,"longitude":-122.33517,"reserved":0,"last_update":"0001-01-01T00:00:00Z","name_a2s":"Uncletopia | Seattle | 3 | Stopwatch","protocol":17,"map":"pl_upward","folder":"tf","game":"Team Fortress","app_id":440,"player_count":0,"max_players":24,"Bots":0,"server_type":"Dedicated","server_os":"Linux","password":true,"vac":true,"version":"7961495","steam_id":85568392924515217,"keywords":["nocrits","nodmgspread","payload","uncletopia"],"game_id":440,"stv_port":27036,"stv_name":"Uncletopia | Seattle | 3 | Stopwatch | STV","players":null},{"server_id":17,"name":"Uncletopia | San Francisco | 1 | All Maps","name_short":"sfo-1","host":"sfo-1.us.uncletopia.com","port":27015,"enabled":true,"region":"us-west","cc":"us","latitude":37.77397,"longitude":-122.4313,"reserved":0,"last_update":"0001-01-01T00:00:00Z","name_a2s":"Uncletopia | San Francisco | 1 | All Maps","protocol":17,"map":"pl_snowycoast","folder":"tf","game":"Team Fortress","app_id":440,"player_count":24,"max_players":24,"Bots":0,"server_type":"Dedicated","server_os":"Linux","password":true,"vac":true,"version":"7961495","steam_id":85568392924469999,"keywords":["nocrits","nodmgspread","payload","uncletopia"],"game_id":440,"stv_port":27016,"stv_name":"Uncletopia | San Francisco | 1 | All Maps | STV","players":[{"user_id":285,"name":"||Shroom||","steam_id":76561198279865229,"connected_time":2118000000000,"state":"active","ping":58},{"user_id":290,"name":"CombustibleToast","steam_id":76561198051358882,"connected_time":1812000000000,"state":"active","ping":104},{"user_id":291,"name":"Laxoloni","steam_id":76561199197045700,"connected_time":1804000000000,"state":"active","ping":60},{"user_id":287,"name":"Marzbee115","steam_id":76561198095821025,"connected_time":2070000000000,"state":"active","ping":59},{"user_id":307,"name":"FlexTape","steam_id":76561198871834867,"connected_time":1185000000000,"state":"active","ping":69},{"user_id":268,"name":"Satori Komeiji","steam_id":76561198158211423,"connected_time":3559000000000,"state":"active","ping":47},{"user_id":302,"name":"SQbuilder","steam_id":76561198076473375,"connected_time":1347000000000,"state":"active","ping":46},{"user_id":313,"name":"Jimmy Fallon","steam_id":76561198069131730,"connected_time":884000000000,"state":"active","ping":88},{"user_id":318,"name":"CHIEF_JUSTICE_FUCKASS","steam_id":76561199261675844,"connected_time":692000000000,"state":"active","ping":64},{"user_id":289,"name":"Honasou","steam_id":76561198009778926,"connected_time":1899000000000,"state":"active","ping":73},{"user_id":314,"name":"=Silver=","steam_id":76561198292307127,"connected_time":835000000000,"state":"active","ping":86},{"user_id":320,"name":"Trips","steam_id":76561198054581597,"connected_time":600000000000,"state":"active","ping":47},{"user_id":298,"name":"newnuma.com | arkei","steam_id":76561198013113138,"connected_time":1616000000000,"state":"active","ping":73},{"user_id":326,"name":"Cacophony","steam_id":76561198047474050,"connected_time":113000000000,"state":"active","ping":53},{"user_id":280,"name":"Toaster with a Shotgun","steam_id":76561198212489267,"connected_time":2925000000000,"state":"active","ping":93},{"user_id":321,"name":"selvhat","steam_id":76561198114225509,"connected_time":552000000000,"state":"active","ping":58},{"user_id":276,"name":"Imitation Caucasian","steam_id":76561198320536166,"connected_time":3395000000000,"state":"active","ping":61},{"user_id":311,"name":"harambe 101","steam_id":76561198366850003,"connected_time":1137000000000,"state":"active","ping":69},{"user_id":281,"name":"Type Three Dabeetus","steam_id":76561198062710038,"connected_time":2853000000000,"state":"active","ping":48},{"user_id":308,"name":"Gary Budussy","steam_id":76561197969793969,"connected_time":1170000000000,"state":"active","ping":87},{"user_id":324,"name":"CaptainPikachu","steam_id":76561198075667401,"connected_time":381000000000,"state":"active","ping":69},{"user_id":309,"name":"Lily","steam_id":76561198110050476,"connected_time":1155000000000,"state":"active","ping":75},{"user_id":325,"name":"November","steam_id":76561198131631865,"connected_time":323000000000,"state":"active","ping":73},{"user_id":322,"name":"Anthid","steam_id":76561198074493797,"connected_time":513000000000,"state":"active","ping":74}]},{"server_id":18,"name":"Uncletopia | San Francisco | 2 | All Maps","name_short":"sfo-2","host":"sfo-1.us.uncletopia.com","port":27025,"enabled":true,"region":"us-west","cc":"us","latitude":37.77397,"longitude":-122.4313,"reserved":0,"last_update":"0001-01-01T00:00:00Z","name_a2s":"Uncletopia | San Francisco | 2 | All Maps","protocol":17,"map":"cp_freight_final1","folder":"tf","game":"Team Fortress","app_id":440,"player_count":0,"max_players":24,"Bots":0,"server_type":"Dedicated","server_os":"Linux","password":true,"vac":true,"version":"7961495","steam_id":85568392924470000,"keywords":["cp","nocrits","nodmgspread","uncletopia"],"game_id":440,"stv_port":27026,"stv_name":"Uncletopia | San Francisco | 2 | All Maps | STV","players":null},{"server_id":19,"name":"Uncletopia | San Francisco | 3 | Stopwatch","name_short":"sfo-3","host":"sfo-1.us.uncletopia.com","port":27035,"enabled":true,"region":"us-west","cc":"us","latitude":37.77397,"longitude":-122.4313,"reserved":0,"last_update":"0001-01-01T00:00:00Z","name_a2s":"Uncletopia | San Francisco | 3 | Stopwatch","protocol":17,"map":"workshop/koth_product_final.ugc454272353","folder":"tf","game":"Team Fortress","app_id":440,"player_count":0,"max_players":24,"Bots":0,"server_type":"Dedicated","server_os":"Linux","password":true,"vac":true,"version":"7961495","steam_id":85568392924742824,"keywords":["cp","nocrits","nodmgspread","uncletopia"],"game_id":440,"stv_port":27036,"stv_name":"Uncletopia | San Francisco | 3 | Stopwatch | STV","players":null},{"server_id":20,"name":"Uncletopia | San Francisco | 4 | Community","name_short":"sfo-4","host":"sfo-1.us.uncletopia.com","port":27045,"enabled":true,"region":"us-west","cc":"us","latitude":37.77397,"longitude":-122.4313,"reserved":0,"last_update":"0001-01-01T00:00:00Z","name_a2s":"Uncletopia | San Francisco | 4 | Community","protocol":17,"map":"workshop/cp_propaganda_b18.ugc1603743849","folder":"tf","game":"Team Fortress","app_id":440,"player_count":0,"max_players":24,"Bots":0,"server_type":"Dedicated","server_os":"Linux","password":true,"vac":true,"version":"7961495","steam_id":85568392924742826,"keywords":["cp","nocrits","nodmgspread","uncletopia"],"game_id":440,"stv_port":27046,"stv_name":"Uncletopia | San Francisco | 4 | Community | STV","players":null},{"server_id":141,"name":"Uncletopia | Sydney | 1 | All Maps","name_short":"syd-1","host":"syd-1.au.uncletopia.com","port":27015,"enabled":true,"region":"au","cc":"au","latitude":-33.865143,"longitude":151.2099,"reserved":0,"last_update":"0001-01-01T00:00:00Z","name_a2s":"Uncletopia | Sydney | 1 | All Maps","protocol":17,"map":"koth_nucleus","folder":"tf","game":"Team Fortress","app_id":440,"player_count":0,"max_players":24,"Bots":0,"server_type":"Dedicated","server_os":"Linux","password":true,"vac":true,"version":"7961495","steam_id":85568392924470001,"keywords":["cp","nocrits","nodmgspread","uncletopia"],"game_id":440,"stv_port":27016,"stv_name":"Uncletopia | Sydney | 1 | All Maps | STV","players":null},{"server_id":123,"name":"Uncletopia | Sydney | 2 | All Maps","name_short":"syd-2","host":"syd-1.au.uncletopia.com","port":27025,"enabled":true,"region":"au","cc":"au","latitude":-33.865143,"longitude":151.2099,"reserved":0,"last_update":"0001-01-01T00:00:00Z","name_a2s":"Uncletopia | Sydney | 2 | All Maps","protocol":17,"map":"cp_fastlane","folder":"tf","game":"Team Fortress","app_id":440,"player_count":0,"max_players":24,"Bots":0,"server_type":"Dedicated","server_os":"Linux","password":true,"vac":true,"version":"7961495","steam_id":85568392924470002,"keywords":["cp","nocrits","nodmgspread","uncletopia"],"game_id":440,"stv_port":27026,"stv_name":"Uncletopia | Sydney | 2 | All Maps | STV","players":null},{"server_id":395,"name":"Uncletopia | Sydney | 3 | All Maps","name_short":"syd-3","host":"syd-1.au.uncletopia.com","port":27035,"enabled":true,"region":"au","cc":"au","latitude":-33.865143,"longitude":151.2099,"reserved":0,"last_update":"0001-01-01T00:00:00Z","name_a2s":"Uncletopia | Sydney | 3 | All Maps","protocol":17,"map":"cp_metalworks","folder":"tf","game":"Team Fortress","app_id":440,"player_count":0,"max_players":24,"Bots":0,"server_type":"Dedicated","server_os":"Linux","password":true,"vac":true,"version":"7961495","steam_id":85568392925194467,"keywords":["cp","nocrits","nodmgspread","uncletopia"],"game_id":440,"stv_port":27036,"stv_name":"Uncletopia | Sydney | 3 | All Maps | STV","players":null},{"server_id":396,"name":"Uncletopia | Sydney | 4 | All Maps","name_short":"syd-4","host":"syd-1.au.uncletopia.com","port":27045,"enabled":true,"region":"au","cc":"au","latitude":-33.865143,"longitude":151.2099,"reserved":0,"last_update":"0001-01-01T00:00:00Z","name_a2s":"Uncletopia | Sydney | 4 | All Maps","protocol":17,"map":"koth_cascade","folder":"tf","game":"Team Fortress","app_id":440,"player_count":0,"max_players":24,"Bots":0,"server_type":"Dedicated","server_os":"Linux","password":true,"vac":true,"version":"7961495","steam_id":85568392925397958,"keywords":["cp","nocrits","nodmgspread","uncletopia"],"game_id":440,"stv_port":27046,"stv_name":"Uncletopia | Sydney | 4 | All Maps | STV","players":null},{"server_id":58,"name":"Uncletopia | Sydney | 5 | Stopwatch","name_short":"syd-5","host":"syd-1.au.uncletopia.com","port":27055,"enabled":true,"region":"au","cc":"au","latitude":-33.865143,"longitude":151.2099,"reserved":0,"last_update":"0001-01-01T00:00:00Z","name_a2s":"Uncletopia | Sydney | 5 | Stopwatch","protocol":17,"map":"workshop/koth_product_final.ugc454272353","folder":"tf","game":"Team Fortress","app_id":440,"player_count":0,"max_players":24,"Bots":0,"server_type":"Dedicated","server_os":"Linux","password":true,"vac":true,"version":"7961495","steam_id":85568392925397959,"keywords":["cp","nocrits","nodmgspread","uncletopia"],"game_id":440,"stv_port":27056,"stv_name":"Uncletopia | Sydney | 5 | Stopwatch | STV","players":null},{"server_id":59,"name":"Uncletopia | Sydney | 6 | Community","name_short":"syd-6","host":"syd-1.au.uncletopia.com","port":27065,"enabled":true,"region":"au","cc":"au","latitude":-33.865143,"longitude":151.2099,"reserved":0,"last_update":"0001-01-01T00:00:00Z","name_a2s":"Uncletopia | Sydney | 6 | Community","protocol":17,"map":"workshop/koth_trenchfoot_ab1.ugc731436616","folder":"tf","game":"Team Fortress","app_id":440,"player_count":0,"max_players":24,"Bots":0,"server_type":"Dedicated","server_os":"Linux","password":true,"vac":true,"version":"7961495","steam_id":85568392925397960,"keywords":["cp","nocrits","nodmgspread","uncletopia"],"game_id":440,"stv_port":27066,"stv_name":"Uncletopia | Sydney | 6 | Community | STV","players":null},{"server_id":49,"name":"Uncletopia | Warsaw | 1 | One Thousand Uncles","name_short":"waw-1","host":"waw-1.pl.uncletopia.com","port":27015,"enabled":true,"region":"eu","cc":"pl","latitude":52.2297,"longitude":21.017532,"reserved":0,"last_update":"0001-01-01T00:00:00Z","name_a2s":"Uncletopia | Warsaw | 1 | One Thousand Uncles","protocol":17,"map":"pl_hoodoo_final","folder":"tf","game":"Team Fortress","app_id":440,"player_count":30,"max_players":32,"Bots":16,"server_type":"Dedicated","server_os":"Linux","password":true,"vac":true,"version":"7961495","steam_id":85568392925397850,"keywords":["alltalk","bots","danepve","increased_maxplayers","norespawntime","payload","uncletopia"],"game_id":440,"stv_port":0,"stv_name":"","players":[{"user_id":741,"name":"7","steam_id":76561198086304421,"connected_time":2667000000000,"state":"active","ping":88},{"user_id":711,"name":"tyroksi :D","steam_id":76561198103875245,"connected_time":4367000000000,"state":"active","ping":108},{"user_id":781,"name":"Garth Marenghi","steam_id":76561198009830164,"connected_time":157000000000,"state":"active","ping":71},{"user_id":716,"name":"BaleBlast","steam_id":76561198116569443,"connected_time":3768000000000,"state":"active","ping":75},{"user_id":717,"name":"Jeremy Pinkman","steam_id":76561198345967214,"connected_time":3666000000000,"state":"active","ping":95},{"user_id":779,"name":"durzymurzyn","steam_id":76561199084680369,"connected_time":384000000000,"state":"active","ping":41},{"user_id":719,"name":"Frying Pan gaming","steam_id":76561199230315253,"connected_time":3373000000000,"state":"active","ping":39},{"user_id":782,"name":"Cynthia","steam_id":76561198874418999,"connected_time":106000000000,"state":"active","ping":60},{"user_id":783,"name":"Tengger Cavalry","steam_id":76561198002539859,"connected_time":63000000000,"state":"active","ping":70},{"user_id":780,"name":"Cookie7493","steam_id":76561199215731985,"connected_time":325000000000,"state":"active","ping":373},{"user_id":724,"name":"[HK]我係香港人","steam_id":76561198165376815,"connected_time":2723000000000,"state":"active","ping":79},{"user_id":676,"name":"0scr_","steam_id":76561198042631352,"connected_time":5963000000000,"state":"active","ping":83},{"user_id":777,"name":"Rayco","steam_id":76561198048013129,"connected_time":646000000000,"state":"active","ping":65},{"user_id":774,"name":"digilith","steam_id":76561199106966802,"connected_time":1135000000000,"state":"active","ping":49}]},{"server_id":50,"name":"Uncletopia | Warsaw | 2 | One Thousand Uncles","name_short":"waw-2","host":"waw-1.pl.uncletopia.com","port":27025,"enabled":true,"region":"eu","cc":"pl","latitude":52.2297,"longitude":21.017532,"reserved":0,"last_update":"0001-01-01T00:00:00Z","name_a2s":"Uncletopia | Warsaw | 2 | One Thousand Uncles","protocol":17,"map":"pl_goldrush","folder":"tf","game":"Team Fortress","app_id":440,"player_count":20,"max_players":32,"Bots":16,"server_type":"Dedicated","server_os":"Linux","password":true,"vac":true,"version":"7961495","steam_id":85568392925397851,"keywords":["alltalk","bots","danepve","increased_maxplayers","norespawntime","payload","uncletopia"],"game_id":440,"stv_port":0,"stv_name":"","players":[{"user_id":284,"name":"padillacampos","steam_id":76561198161923970,"connected_time":129000000000,"state":"active","ping":90},{"user_id":281,"name":"COOH","steam_id":76561198338702897,"connected_time":964000000000,"state":"active","ping":176},{"user_id":280,"name":"Valoxi","steam_id":76561197995042938,"connected_time":1249000000000,"state":"active","ping":75},{"user_id":282,"name":"Jansku","steam_id":76561198321340149,"connected_time":921000000000,"state":"active","ping":110}]},{"server_id":51,"name":"Uncletopia | Warsaw | 3 | All Maps","name_short":"waw-3","host":"waw-1.pl.uncletopia.com","port":27035,"enabled":true,"region":"eu","cc":"pl","latitude":52.2297,"longitude":21.017532,"reserved":0,"last_update":"0001-01-01T00:00:00Z","name_a2s":"Uncletopia | Warsaw | 3 | All Maps","protocol":17,"map":"koth_viaduct","folder":"tf","game":"Team Fortress","app_id":440,"player_count":0,"max_players":24,"Bots":0,"server_type":"Dedicated","server_os":"Linux","password":true,"vac":true,"version":"7961495","steam_id":85568392925397852,"keywords":["cp","nocrits","nodmgspread","uncletopia"],"game_id":440,"stv_port":27036,"stv_name":"Uncletopia | Warsaw | 3 | All Maps | STV","players":null},{"server_id":52,"name":"Uncletopia | Warsaw | 4 | All Maps","name_short":"waw-4","host":"waw-1.pl.uncletopia.com","port":27045,"enabled":true,"region":"eu","cc":"pl","latitude":52.2297,"longitude":21.017532,"reserved":0,"last_update":"0001-01-01T00:00:00Z","name_a2s":"Uncletopia | Warsaw | 4 | All Maps","protocol":17,"map":"cp_gorge","folder":"tf","game":"Team Fortress","app_id":440,"player_count":4,"max_players":24,"Bots":0,"server_type":"Dedicated","server_os":"Linux","password":true,"vac":true,"version":"7961495","steam_id":85568392925397853,"keywords":["cp","nocrits","nodmgspread","uncletopia"],"game_id":440,"stv_port":27046,"stv_name":"Uncletopia | Warsaw | 4 | All Maps | STV","players":[{"user_id":7,"name":"Whelchur","steam_id":76561199442895952,"connected_time":3770000000000,"state":"active","ping":89},{"user_id":8,"name":"Yuxues","steam_id":76561199218188958,"connected_time":3751000000000,"state":"active","ping":93},{"user_id":9,"name":"ninesizler edku","steam_id":76561199055051162,"connected_time":3745000000000,"state":"active","ping":86},{"user_id":10,"name":"AlİtO","steam_id":76561199337852231,"connected_time":3670000000000,"state":"active","ping":105}]},{"server_id":53,"name":"Uncletopia | Warsaw | 5 | Stopwatch","name_short":"waw-5","host":"waw-1.pl.uncletopia.com","port":27055,"enabled":true,"region":"eu","cc":"pl","latitude":52.2297,"longitude":21.017532,"reserved":0,"last_update":"0001-01-01T00:00:00Z","name_a2s":"Uncletopia | Warsaw | 5 | Stopwatch","protocol":17,"map":"workshop/koth_bagel_rc6.ugc2514036946","folder":"tf","game":"Team Fortress","app_id":440,"player_count":0,"max_players":24,"Bots":0,"server_type":"Dedicated","server_os":"Linux","password":true,"vac":true,"version":"7961495","steam_id":85568392925397854,"keywords":["cp","nocrits","nodmgspread","uncletopia"],"game_id":440,"stv_port":27056,"stv_name":"Uncletopia | Warsaw | 5 | Stopwatch | STV","players":null},{"server_id":54,"name":"Uncletopia | Warsaw | 6 | Community","name_short":"waw-6","host":"waw-1.pl.uncletopia.com","port":27065,"enabled":true,"region":"eu","cc":"pl","latitude":52.2297,"longitude":21.017532,"reserved":0,"last_update":"0001-01-01T00:00:00Z","name_a2s":"Uncletopia | Warsaw | 6 | Community","protocol":17,"map":"workshop/rd_asteroid_redux_b1.ugc2154902912","folder":"tf","game":"Team Fortress","app_id":440,"player_count":0,"max_players":24,"Bots":0,"server_type":"Dedicated","server_os":"Linux","password":true,"vac":true,"version":"7961495","steam_id":85568392925397856,"keywords":["beta","nocrits","nodmgspread","rd","uncletopia"],"game_id":440,"stv_port":27066,"stv_name":"Uncletopia | Warsaw | 6 | Community | STV","players":null}]}