{"status":true,"message":"","result":[{"server_id":9,"name":"Uncletopia | Atlanta | 1 | All Maps","name_short":"atl-1","host":"atl-1.us.uncletopia.com","port":27015,"enabled":true,"region":"us-east","cc":"us","latitude":33.753746,"longitude":-84.38633,"reserved":0,"last_update":"0001-01-01T00:00:00Z","name_a2s":"Uncletopia | Atlanta | 1 | All Maps","protocol":17,"map":"ctf_2fort","folder":"tf","game":"Team Fortress","app_id":440,"player_count":23,"max_players":24,"Bots":0,"server_type":"Dedicated","server_os":"Linux","password":true,"vac":true,"version":"7757534","steam_id":85568392924469982,"keywords":["ctf","nocrits","nodmgspread","uncletopia"],"game_id":440,"stv_port":27016,"stv_name":"Uncletopia | Atlanta | 1 | All Maps | STV","players":[{"user_id":437,"name":"IZISOO","steam_id":76561198970380577,"connected_time":4723000000000,"state":"active","ping":69},{"user_id":455,"name":"Frajer","steam_id":76561198059129680,"connected_time":3027000000000,"state":"active","ping":71},{"user_id":477,"name":"RICE A RONI JABRONI","steam_id":76561198251653444,"connected_time":1664000000000,"state":"active","ping":88},{"user_id":456,"name":"G_Bob","steam_id":76561198098133233,"connected_time":2954000000000,"state":"active","ping":47},{"user_id":428,"name":"CabbageSoup","steam_id":76561198353509149,"connected_time":5991000000000,"state":"active","ping":89},{"user_id":492,"name":"Nickson1","steam_id":76561198175839309,"connected_time":299000000000,"state":"active","ping":75},{"user_id":478,"name":"Godfinger","steam_id":76561198426346549,"connected_time":1481000000000,"state":"active","ping":46},{"user_id":426,"name":"AAAAAAAAAAAAAAAAAAAAAAAAAAAAAAA","steam_id":76561198817866879,"connected_time":6597000000000,"state":"active","ping":61},{"user_id":482,"name":"gretchling","steam_id":76561198046111695,"connected_time":1326000000000,"state":"active","ping":60},{"user_id":491,"name":"can my wife use your toilet","steam_id":76561198120973162,"connected_time":317000000000,"state":"active","ping":79},{"user_id":468,"name":"Richard Kickem","steam_id":76561199249733628,"connected_time":2534000000000,"state":"active","ping":68},{"user_id":483,"name":"Lilac Lulamoon","steam_id":76561198111402757,"connected_time":1319000000000,"state":"active","ping":70},{"user_id":469,"name":"mothrising","steam_id":76561199239168878,"connected_time":2508000000000,"state":"active","ping":110},{"user_id":435,"name":"sold tf2 inventory for gas","steam_id":76561198405168492,"connected_time":5373000000000,"state":"active","ping":90},{"user_id":470,"name":"Huge","steam_id":76561199030987614,"connected_time":2454000000000,"state":"active","ping":113},{"user_id":484,"name":"gus fring","steam_id":76561198079485096,"connected_time":1312000000000,"state":"active","ping":72},{"user_id":471,"name":"Sniper Jumpscare","steam_id":76561199205226507,"connected_time":2441000000000,"state":"active","ping":101},{"user_id":489,"name":"flippy","steam_id":76561198964957349,"connected_time":1038000000000,"state":"active","ping":85},{"user_id":467,"name":"basil","steam_id":76561198075758026,"connected_time":2672000000000,"state":"active","ping":69},{"user_id":487,"name":"Intro Bonito","steam_id":76561198119478838,"connected_time":1179000000000,"state":"active","ping":50},{"user_id":430,"name":"Shmoopy","steam_id":76561198030459152,"connected_time":5888000000000,"state":"active","ping":60},{"user_id":473,"name":"Evil little man","steam_id":76561198311053471,"connected_time":2169000000000,"state":"active","ping":72},{"user_id":408,"name":"Mage","steam_id":76561198285026879,"connected_time":8534000000000,"state":"active","ping":77}]},{"server_id":400,"name":"Uncletopia | Atlanta | 3 | Stopwatch Beta","name_short":"atl-3","host":"atl-1.us.uncletopia.com","port":27035,"enabled":true,"region":"us-east","cc":"us","latitude":33.753746,"longitude":-84.38633,"reserved":0,"last_update":"0001-01-01T00:00:00Z","name_a2s":"Uncletopia | Atlanta | 3 | Stopwatch Beta","protocol":17,"map":"workshop/koth_ramjam_rc1.ugc459778887","folder":"tf","game":"Team Fortress","app_id":440,"player_count":0,"max_players":24,"Bots":0,"server_type":"Dedicated","server_os":"Linux","password":true,"vac":true,"version":"7757534","steam_id":85568392924515187,"keywords":["cp","nocrits","nodmgspread","uncletopia"],"game_id":440,"stv_port":27036,"stv_name":"Uncletopia | Atlanta | 3 | Stopwatch Beta | STV","players":null},{"server_id":401,"name":"Uncletopia | Atlanta | 4 | No Payload","name_short":"atl-4","host":"atl-1.us.uncletopia.com","port":27045,"enabled":true,"region":"us-east","cc":"us","latitude":33.753746,"longitude":-84.38633,"reserved":0,"last_update":"0001-01-01T00:00:00Z","name_a2s":"Uncletopia | Atlanta | 4 | No Payload","protocol":17,"map":"pl_pier","folder":"tf","game":"Team Fortress","app_id":440,"player_count":0,"max_players":24,"Bots":0,"server_type":"Dedicated","server_os":"Linux","password":true,"vac":true,"version":"7723704","steam_id":85568392924515188,"keywords":["nocrits","nodmgspread","payload","uncletopia"],"game_id":440,"stv_port":27046,"stv_name":"Uncletopia | Atlanta | 4 | No Payload | STV","players":null},{"server_id":2,"name":"Uncletopia | Chicago | 1 | All Maps","name_short":"chi-1","host":"chi-1.us.uncletopia.com","port":27015,"enabled":true,"region":"us-central","cc":"us","latitude":41.881832,"longitude":-87.62318,"reserved":0,"last_update":"0001-01-01T00:00:00Z","name_a2s":"Uncletopia | Chicago | 1 | All Maps","protocol":17,"map":"pl_pier","folder":"tf","game":"Team Fortress","app_id":440,"player_count":15,"max_players":24,"Bots":0,"server_type":"Dedicated","server_os":"Linux","password":true,"vac":true,"version":"7757534","steam_id":85568392924469984,"keywords":["nocrits","nodmgspread","payload","uncletopia"],"game_id":440,"stv_port":27016,"stv_name":"Uncletopia | Chicago | 1 | All Maps | STV","players":[{"user_id":707,"name":"Eat Grass","steam_id":76561198096884999,"connected_time":933000000000,"state":"active","ping":118},{"user_id":449,"name":"Horrizan","steam_id":76561197965028480,"connected_time":18525000000000,"state":"active","ping":99},{"user_id":692,"name":"Chin","steam_id":76561198953123833,"connected_time":2475000000000,"state":"active","ping":119},{"user_id":709,"name":"ElixirMan","steam_id":76561199102118368,"connected_time":884000000000,"state":"active","ping":117},{"user_id":713,"name":"Death Bird","steam_id":76561198041329791,"connected_time":725000000000,"state":"active","ping":94},{"user_id":702,"name":"High Cotton","steam_id":76561197998894854,"connected_time":1392000000000,"state":"active","ping":161},{"user_id":703,"name":"‚ô• Femboy‚ô•Ventily ‚ô•","steam_id":76561198157260335,"connected_time":1314000000000,"state":"active","ping":51},{"user_id":711,"name":"Zuffin","steam_id":76561198072968677,"connected_time":745000000000,"state":"active","ping":71},{"user_id":704,"name":"Kero","steam_id":76561198343231436,"connected_time":1298000000000,"state":"active","ping":48},{"user_id":716,"name":"Turtle","steam_id":76561198262110064,"connected_time":607000000000,"state":"active","ping":79},{"user_id":717,"name":"Amogous Supreme","steam_id":76561198025476774,"connected_time":311000000000,"state":"active","ping":102},{"user_id":718,"name":"scientist","steam_id":76561198215559840,"connected_time":270000000000,"state":"active","ping":62},{"user_id":720,"name":"golden","steam_id":76561198089038933,"connected_time":236000000000,"state":"active","ping":106},{"user_id":682,"name":"Fuegan Ra","steam_id":76561198287923849,"connected_time":2744000000000,"state":"active","ping":45}]},{"server_id":106,"name":"Uncletopia | Chicago | 2 | All Maps","name_short":"chi-2","host":"chi-1.us.uncletopia.com","port":27025,"enabled":true,"region":"us-central","cc":"us","latitude":41.881832,"longitude":-87.62318,"reserved":0,"last_update":"0001-01-01T00:00:00Z","name_a2s":"Uncletopia | Chicago | 2 | All Maps","protocol":17,"map":"pl_badwater","folder":"tf","game":"Team Fortress","app_id":440,"player_count":20,"max_players":24,"Bots":0,"server_type":"Dedicated","server_os":"Linux","password":true,"vac":true,"version":"7757534","steam_id":85568392924469985,"keywords":["nocrits","nodmgspread","payload","uncletopia"],"game_id":440,"stv_port":27026,"stv_name":"Uncletopia | Chicago | 2 | All Maps | STV","players":[{"user_id":771,"name":"‡∂ûsus","steam_id":76561198027779564,"connected_time":2260000000000,"state":"active","ping":58},{"user_id":758,"name":"Dumpy","steam_id":76561198067167895,"connected_time":2926000000000,"state":"active","ping":69},{"user_id":787,"name":"lukamine","steam_id":76561198166827208,"connected_time":52000000000,"state":"active","ping":90},{"user_id":644,"name":"Bearegard","steam_id":76561198061926542,"connected_time":11446000000000,"state":"active","ping":59},{"user_id":761,"name":"Oh No! It's Twister!","steam_id":76561198016791916,"connected_time":2877000000000,"state":"active","ping":85},{"user_id":770,"name":"Gibus Man","steam_id":76561198257241062,"connected_time":2369000000000,"state":"active","ping":107},{"user_id":788,"name":"Klitz Penischmidt","steam_id":76561198050582941,"connected_time":43000000000,"state":"active","ping":57},{"user_id":581,"name":"daemon","steam_id":76561198001541433,"connected_time":17086000000000,"state":"active","ping":45},{"user_id":786,"name":"s.Twig‚Ñ¢ [WTB Lvl. 42 Items]","steam_id":76561198070138375,"connected_time":254000000000,"state":"active","ping":54},{"user_id":731,"name":"Jekroy","steam_id":76561198090943916,"connected_time":5680000000000,"state":"active","ping":45},{"user_id":732,"name":"Gamer Obama","steam_id":76561198229189936,"connected_time":5673000000000,"state":"active","ping":49},{"user_id":775,"name":"Gunkpump","steam_id":76561197975794806,"connected_time":2069000000000,"state":"active","ping":84},{"user_id":784,"name":"Scorpie Doodle","steam_id":76561198021845763,"connected_time":926000000000,"state":"active","ping":52},{"user_id":754,"name":"Dunkle","steam_id":76561198041903573,"connected_time":3039000000000,"state":"active","ping":89},{"user_id":762,"name":"BruteForceLK","steam_id":76561198043922524,"connected_time":2717000000000,"state":"active","ping":70},{"user_id":782,"name":"Insert_Name_Here","steam_id":76561198089428414,"connected_time":1417000000000,"state":"active","ping":91},{"user_id":785,"name":"nothing to say","steam_id":76561198067497459,"connected_time":648000000000,"state":"active","ping":70},{"user_id":629,"name":"Vladikr1","steam_id":76561198401495362,"connected_time":13524000000000,"state":"active","ping":64},{"user_id":753,"name":"--_Cook_--","steam_id":76561198080855748,"connected_time":3049000000000,"state":"active","ping":45},{"user_id":747,"name":"lost in the sauce","steam_id":76561199043827112,"connected_time":3578000000000,"state":"active","ping":60}]},{"server_id":402,"name":"Uncletopia | Chicago | 3 | All Maps","name_short":"chi-3","host":"chi-1.us.uncletopia.com","port":27035,"enabled":true,"region":"us-central","cc":"us","latitude":41.881832,"longitude":-87.62318,"reserved":0,"last_update":"0001-01-01T00:00:00Z","name_a2s":"Uncletopia | Chicago | 3 | All Maps","protocol":17,"map":"pl_pier","folder":"tf","game":"Team Fortress","app_id":440,"player_count":20,"max_players":24,"Bots":0,"server_type":"Dedicated","server_os":"Linux","password":true,"vac":true,"version":"7757534","steam_id":85568392924515191,"keywords":["nocrits","nodmgspread","payload","uncletopia"],"game_id":440,"stv_port":27036,"stv_name":"Uncletopia | Chicago | 3 | All Maps | STV","players":[{"user_id":489,"name":"Truffles","steam_id":76561198095868800,"connected_time":9436000000000,"state":"active","ping":79},{"user_id":556,"name":"Carbon8ed","steam_id":76561198188488341,"connected_time":695000000000,"state":"active","ping":59},{"user_id":513,"name":"Kelpy G","steam_id":76561198105330587,"connected_time":6899000000000,"state":"active","ping":75},{"user_id":567,"name":"„ÄåSpud Wrench„Äç","steam_id":76561198089615706,"connected_time":126000000000,"state":"active","ping":69},{"user_id":552,"name":"Wug","steam_id":76561198084112264,"connected_time":1417000000000,"state":"active","ping":74},{"user_id":563,"name":"senorpapel","steam_id":76561198040507073,"connected_time":537000000000,"state":"active","ping":62},{"user_id":487,"name":"Grand","steam_id":76561198290143399,"connected_time":9465000000000,"state":"active","ping":61},{"user_id":520,"name":"Vevo","steam_id":76561198316753540,"connected_time":5197000000000,"state":"active","ping":59},{"user_id":521,"name":"itsgearfear","steam_id":76561198801849281,"connected_time":5143000000000,"state":"active","ping":72},{"user_id":540,"name":"yourfbiagnent","steam_id":76561199171973045,"connected_time":2135000000000,"state":"active","ping":162},{"user_id":550,"name":"jbggs","steam_id":76561198011204750,"connected_time":1459000000000,"state":"active","ping":81},{"user_id":568,"name":"The Axeman","steam_id":76561199061316781,"connected_time":84000000000,"state":"active","ping":84},{"user_id":535,"name":"Batman Grant Williams","steam_id":76561198115458307,"connected_time":3029000000000,"state":"active","ping":102},{"user_id":524,"name":"kezia","steam_id":76561198059815894,"connected_time":4186000000000,"state":"active","ping":45},{"user_id":559,"name":"SomeScuffedKid","steam_id":76561198086113234,"connected_time":644000000000,"state":"active","ping":64},{"user_id":494,"name":"flora","steam_id":76561197994492154,"connected_time":9360000000000,"state":"active","ping":178},{"user_id":564,"name":"Artic_Ryuu","steam_id":76561198182194918,"connected_time":514000000000,"state":"active","ping":89},{"user_id":565,"name":"DeckofDragons","steam_id":76561198057398213,"connected_time":442000000000,"state":"active","ping":77},{"user_id":561,"name":"Knightshade","steam_id":76561198047225393,"connected_time":588000000000,"state":"active","ping":84},{"user_id":547,"name":"Cleric","steam_id":76561198045887994,"connected_time":1998000000000,"state":"active","ping":46}]},{"server_id":403,"name":"Uncletopia | Chicago | 4 | All Maps","name_short":"chi-4","host":"chi-1.us.uncletopia.com","port":27045,"enabled":true,"region":"us-central","cc":"us","latitude":41.881832,"longitude":-87.62318,"reserved":0,"last_update":"0001-01-01T00:00:00Z","name_a2s":"Uncletopia | Chicago | 4 | All Maps","protocol":17,"map":"pl_snowycoast","folder":"tf","game":"Team Fortress","app_id":440,"player_count":0,"max_players":24,"Bots":0,"server_type":"Dedicated","server_os":"Linux","password":true,"vac":true,"version":"7757534","steam_id":85568392924515193,"keywords":["nocrits","nodmgspread","payload","uncletopia"],"game_id":440,"stv_port":27046,"stv_name":"Uncletopia | Chicago | 4 | All Maps | STV","players":null},{"server_id":36,"name":"Uncletopia | Chicago | 5 | All Maps","name_short":"chi-5","host":"chi-2.us.uncletopia.com","port":27015,"enabled":true,"region":"us-central","cc":"us","latitude":41.881832,"longitude":-87.62318,"reserved":0,"last_update":"0001-01-01T00:00:00Z","name_a2s":"Uncletopia | Chicago | 5 | All Maps","protocol":17,"map":"pl_pier","folder":"tf","game":"Team Fortress","app_id":440,"player_count":0,"max_players":24,"Bots":0,"server_type":"Dedicated","server_os":"Linux","password":true,"vac":true,"version":"7757534","steam_id":85568392924866362,"keywords":["nocrits","nodmgspread","payload","uncletopia"],"game_id":440,"stv_port":27016,"stv_name":"Uncletopia | Chicago | 5 | All Maps | STV","players":null},{"server_id":37,"name":"Uncletopia | Chicago | 6 | All Maps","name_short":"chi-6","host":"chi-2.us.uncletopia.com","port":27025,"enabled":true,"region":"us-central","cc":"us","latitude":41.881832,"longitude":-87.62318,"reserved":0,"last_update":"0001-01-01T00:00:00Z","name_a2s":"Uncletopia | Chicago | 6 | All Maps","protocol":17,"map":"cp_dustbowl","folder":"tf","game":"Team Fortress","app_id":440,"player_count":0,"max_players":24,"Bots":0,"server_type":"Dedicated","server_os":"Linux","password":true,"vac":true,"version":"7757534","steam_id":85568392924866363,"keywords":["cp","nocrits","nodmgspread","uncletopia"],"game_id":440,"stv_port":27026,"stv_name":"Uncletopia | Chicago | 6 | All Maps | STV","players":null},{"server_id":38,"name":"Uncletopia | Chicago | 7 | Stopwatch Beta","name_short":"chi-7","host":"chi-2.us.uncletopia.com","port":27035,"enabled":true,"region":"us-central","cc":"us","latitude":41.881832,"longitude":-87.62318,"reserved":0,"last_update":"0001-01-01T00:00:00Z","name_a2s":"Uncletopia | Chicago | 7 | Stopwatch Beta","protocol":17,"map":"workshop/pl_summercoast_rc8e.ugc1761528829","folder":"tf","game":"Team Fortress","app_id":440,"player_count":0,"max_players":24,"Bots":0,"server_type":"Dedicated","server_os":"Linux","password":true,"vac":true,"version":"7757534","steam_id":85568392924866364,"keywords":["nocrits","nodmgspread","payload","uncletopia"],"game_id":440,"stv_port":27036,"stv_name":"Uncletopia | Chicago | 7 | Stopwatch Beta | STV","players":null},{"server_id":39,"name":"Uncletopia | Chicago | 8 | Community","name_short":"chi-8","host":"chi-2.us.uncletopia.com","port":27045,"enabled":true,"region":"us-central","cc":"us","latitude":41.881832,"longitude":-87.62318,"reserved":0,"last_update":"0001-01-01T00:00:00Z","name_a2s":"Uncletopia | Chicago | 8 | Community","protocol":17,"map":"workshop/koth_slaughter_rc1.ugc1712845210","folder":"tf","game":"Team Fortress","app_id":440,"player_count":0,"max_players":24,"Bots":0,"server_type":"Dedicated","server_os":"Linux","password":true,"vac":true,"version":"7757534","steam_id":85568392924866365,"keywords":["cp","nocrits","nodmgspread","uncletopia"],"game_id":440,"stv_port":27046,"stv_name":"Uncletopia | Chicago | 8 | Community | STV","players":null},{"server_id":8,"name":"Uncletopia | Dallas | 1 | All Maps","name_short":"dal-1","host":"dal-1.us.uncletopia.com","port":27015,"enabled":true,"region":"us-central","cc":"us","latitude":32.779167,"longitude":-96.80889,"reserved":0,"last_update":"0001-01-01T00:00:00Z","name_a2s":"Uncletopia | Dallas | 1 | All Maps","protocol":17,"map":"pl_borneo","folder":"tf","game":"Team Fortress","app_id":440,"player_count":11,"max_players":24,"Bots":0,"server_type":"Dedicated","server_os":"Linux","password":true,"vac":true,"version":"7757534","steam_id":85568392924469986,"keywords":["nocrits","nodmgspread","payload","uncletopia"],"game_id":440,"stv_port":27016,"stv_name":"Uncletopia | Dallas | 1 | All Maps | STV","players":[{"user_id":838,"name":"JakeCarlson2001","steam_id":76561199060224916,"connected_time":924000000000,"state":"active","ping":84},{"user_id":843,"name":"StarManMatt","steam_id":76561198125513574,"connected_time":165000000000,"state":"active","ping":91},{"user_id":844,"name":"BananaFana","steam_id":76561198008891875,"connected_time":148000000000,"state":"active","ping":72},{"user_id":829,"name":"Fk it we Ball","steam_id":76561198078421075,"connected_time":1065000000000,"state":"active","ping":64},{"user_id":832,"name":"JesusLovesYouYAY","steam_id":76561199146362676,"connected_time":1011000000000,"state":"active","ping":96},{"user_id":833,"name":"Jesus Loves You57","steam_id":76561199058833769,"connected_time":1009000000000,"state":"active","ping":83},{"user_id":842,"name":"the rizzard of oz","steam_id":76561198108196753,"connected_time":491000000000,"state":"active","ping":64},{"user_id":836,"name":"pandora da king","steam_id":76561198075490385,"connected_time":978000000000,"state":"active","ping":71},{"user_id":840,"name":"Ducky[WADZ]üê§","steam_id":76561198060341245,"connected_time":820000000000,"state":"active","ping":164}]},{"server_id":108,"name":"Uncletopia | Dallas | 2 | All Maps","name_short":"dal-2","host":"dal-1.us.uncletopia.com","port":27025,"enabled":true,"region":"us-central","cc":"us","latitude":32.779167,"longitude":-96.80889,"reserved":0,"last_update":"0001-01-01T00:00:00Z","name_a2s":"Uncletopia | Dallas | 2 | All Maps","protocol":17,"map":"cp_process_final","folder":"tf","game":"Team Fortress","app_id":440,"player_count":0,"max_players":24,"Bots":0,"server_type":"Dedicated","server_os":"Linux","password":true,"vac":true,"version":"7757534","steam_id":85568392924469988,"keywords":["cp","nocrits","nodmgspread","uncletopia"],"game_id":440,"stv_port":27026,"stv_name":"Uncletopia | Dallas | 2 | All Maps | STV","players":null},{"server_id":5,"name":"Uncletopia | Frankfurt | 1 | All Maps","name_short":"frk-1","host":"frk-1.de.uncletopia.com","port":27015,"enabled":true,"region":"eu","cc":"de","latitude":50.110924,"longitude":8.682127,"reserved":0,"last_update":"0001-01-01T00:00:00Z","name_a2s":"Uncletopia | Frankfurt | 1 | All Maps","protocol":17,"map":"pl_pier","folder":"tf","game":"Team Fortress","app_id":440,"player_count":0,"max_players":24,"Bots":0,"server_type":"Dedicated","server_os":"Linux","password":true,"vac":true,"version":"7757534","steam_id":85568392924469989,"keywords":["nocrits","nodmgspread","payload","uncletopia"],"game_id":440,"stv_port":27016,"stv_name":"Uncletopia | Frankfurt | 1 | All Maps | STV","players":null},{"server_id":110,"name":"Uncletopia | Frankfurt | 2 | All Maps","name_short":"frk-2","host":"frk-1.de.uncletopia.com","port":27025,"enabled":true,"region":"eu","cc":"de","latitude":50.110924,"longitude":8.682127,"reserved":0,"last_update":"0001-01-01T00:00:00Z","name_a2s":"Uncletopia | Frankfurt | 2 | All Maps","protocol":17,"map":"cp_altitude","folder":"tf","game":"Team Fortress","app_id":440,"player_count":0,"max_players":24,"Bots":0,"server_type":"Dedicated","server_os":"Linux","password":true,"vac":true,"version":"7757534","steam_id":85568392924469990,"keywords":["cp","nocrits","nodmgspread","uncletopia"],"game_id":440,"stv_port":27026,"stv_name":"Uncletopia | Frankfurt | 2 | All Maps | STV","players":null},{"server_id":308,"name":"Uncletopia | Frankfurt | 3 | All Maps","name_short":"frk-3","host":"frk-1.de.uncletopia.com","port":27035,"enabled":true,"region":"eu","cc":"de","latitude":50.110924,"longitude":8.682127,"reserved":0,"last_update":"0001-01-01T00:00:00Z","name_a2s":"Uncletopia | Frankfurt | 3 | All Maps","protocol":17,"map":"pl_barnblitz","folder":"tf","game":"Team Fortress","app_id":440,"player_count":0,"max_players":24,"Bots":0,"server_type":"Dedicated","server_os":"Linux","password":true,"vac":true,"version":"7757534","steam_id":85568392924504274,"keywords":["nocrits","nodmgspread","payload","uncletopia"],"game_id":440,"stv_port":27036,"stv_name":"Uncletopia | Frankfurt | 3 | All Maps | STV","players":null},{"server_id":309,"name":"Uncletopia | Frankfurt | 4 | All Maps","name_short":"frk-4","host":"frk-1.de.uncletopia.com","port":27045,"enabled":true,"region":"eu","cc":"de","latitude":50.110924,"longitude":8.682127,"reserved":0,"last_update":"0001-01-01T00:00:00Z","name_a2s":"Uncletopia | Frankfurt | 4 | All Maps","protocol":17,"map":"pl_snowycoast","folder":"tf","game":"Team Fortress","app_id":440,"player_count":0,"max_players":24,"Bots":0,"server_type":"Dedicated","server_os":"Linux","password":true,"vac":true,"version":"7757534","steam_id":85568392924504275,"keywords":["nocrits","nodmgspread","payload","uncletopia"],"game_id":440,"stv_port":27046,"stv_name":"Uncletopia | Frankfurt | 4 | All Maps | STV","players":null},{"server_id":310,"name":"Uncletopia | Frankfurt | 5 | All Maps","name_short":"frk-5","host":"frk-1.de.uncletopia.com","port":27055,"enabled":true,"region":"eu","cc":"de","latitude":50.110924,"longitude":8.682127,"reserved":0,"last_update":"0001-01-01T00:00:00Z","name_a2s":"Uncletopia | Frankfurt | 5 | All Maps","protocol":17,"map":"cp_process_final","folder":"tf","game":"Team Fortress","app_id":440,"player_count":0,"max_players":24,"Bots":0,"server_type":"Dedicated","server_os":"Linux","password":true,"vac":true,"version":"7757534","steam_id":85568392924504277,"keywords":["cp","nocrits","nodmgspread","uncletopia"],"game_id":440,"stv_port":27056,"stv_name":"Uncletopia | Frankfurt | 5 | All Maps | STV","players":null},{"server_id":311,"name":"Uncletopia | Frankfurt | 6 | All Maps","name_short":"frk-6","host":"frk-1.de.uncletopia.com","port":27065,"enabled":true,"region":"eu","cc":"de","latitude":50.110924,"longitude":8.682127,"reserved":0,"last_update":"0001-01-01T00:00:00Z","name_a2s":"Uncletopia | Frankfurt | 6 | All Maps","protocol":17,"map":"koth_highpass","folder":"tf","game":"Team Fortress","app_id":440,"player_count":0,"max_players":24,"Bots":0,"server_type":"Dedicated","server_os":"Linux","password":true,"vac":true,"version":"7757534","steam_id":85568392924504278,"keywords":["cp","nocrits","nodmgspread","uncletopia"],"game_id":440,"stv_port":27066,"stv_name":"Uncletopia | Frankfurt | 6 | All Maps | STV","players":null},{"server_id":23,"name":"Uncletopia | Frankfurt | 7 | Stopwatch Beta","name_short":"frk-7","host":"frk-1.de.uncletopia.com","port":27075,"enabled":true,"region":"eu","cc":"de","latitude":50.110924,"longitude":8.682127,"reserved":0,"last_update":"0001-01-01T00:00:00Z","name_a2s":"Uncletopia | Frankfurt | 7 | Stopwatch Beta","protocol":17,"map":"pl_borneo","folder":"tf","game":"Team Fortress","app_id":440,"player_count":0,"max_players":24,"Bots":0,"server_type":"Dedicated","server_os":"Linux","password":true,"vac":true,"version":"7757534","steam_id":85568392924742827,"keywords":["nocrits","nodmgspread","payload","uncletopia"],"game_id":440,"stv_port":27076,"stv_name":"Uncletopia | Frankfurt | 7 | Stopwatch Beta | STV","players":null},{"server_id":24,"name":"Uncletopia | Frankfurt | 8 | Community","name_short":"frk-8","host":"frk-1.de.uncletopia.com","port":27085,"enabled":true,"region":"eu","cc":"de","latitude":50.110924,"longitude":8.682127,"reserved":0,"last_update":"0001-01-01T00:00:00Z","name_a2s":"Uncletopia | Frankfurt | 8 | Community","protocol":17,"map":"koth_cascade","folder":"tf","game":"Team Fortress","app_id":440,"player_count":0,"max_players":24,"Bots":0,"server_type":"Dedicated","server_os":"Linux","password":true,"vac":true,"version":"7757534","steam_id":85568392924742828,"keywords":["cp","nocrits","nodmgspread","uncletopia"],"game_id":440,"stv_port":27086,"stv_name":"Uncletopia | Frankfurt | 8 | Community | STV","players":null},{"server_id":202,"name":"Uncletopia | Hong Kong | 1 | All Maps","name_short":"hgk-1","host":"hgk-1.hk.uncletopia.com","port":27015,"enabled":true,"region":"asia","cc":"hk","latitude":22.302711,"longitude":114.177216,"reserved":0,"last_update":"0001-01-01T00:00:00Z","name_a2s":"Uncletopia | Hong Kong | 1 | All Maps","protocol":17,"map":"pl_swiftwater_final1","folder":"tf","game":"Team Fortress","app_id":440,"player_count":0,"max_players":24,"Bots":0,"server_type":"Dedicated","server_os":"Linux","password":true,"vac":true,"version":"7757534","steam_id":85568392924494504,"keywords":["nocrits","nodmgspread","payload","uncletopia"],"game_id":440,"stv_port":27016,"stv_name":"Uncletopia | Hong Kong | 1 | All Maps | STV","players":null},{"server_id":1,"name":"Uncletopia | Los Angeles | 1 | All Maps","name_short":"lax-1","host":"lax-1.us.uncletopia.com","port":27015,"enabled":true,"region":"us-west","cc":"us","latitude":33.94279,"longitude":-118.41004,"reserved":0,"last_update":"0001-01-01T00:00:00Z","name_a2s":"Uncletopia | Los Angeles | 1 | All Maps","protocol":17,"map":"koth_highpass","folder":"tf","game":"Team Fortress","app_id":440,"player_count":23,"max_players":24,"Bots":0,"server_type":"Dedicated","server_os":"Linux","password":true,"vac":true,"version":"7757534","steam_id":85568392924469991,"keywords":["cp","nocrits","nodmgspread","uncletopia"],"game_id":440,"stv_port":27016,"stv_name":"Uncletopia | Los Angeles | 1 | All Maps | STV","players":[{"user_id":624,"name":"bo scrungulus","steam_id":76561198038036122,"connected_time":557000000000,"state":"active","ping":75},{"user_id":636,"name":"Killer Fish from San Diego","steam_id":76561199037594575,"connected_time":178000000000,"state":"active","ping":84},{"user_id":625,"name":"‚ùÑ Alice ‚ô•","steam_id":76561198869945051,"connected_time":556000000000,"state":"active","ping":96},{"user_id":616,"name":"hell","steam_id":76561198303927143,"connected_time":1598000000000,"state":"active","ping":50},{"user_id":579,"name":"Hobbes","steam_id":76561198087956236,"connected_time":4278000000000,"state":"active","ping":46},{"user_id":609,"name":"lker","steam_id":76561197976975075,"connected_time":1808000000000,"state":"active","ping":92},{"user_id":627,"name":"AlohaGnome","steam_id":76561198082595306,"connected_time":551000000000,"state":"active","ping":62},{"user_id":628,"name":"vector from despicable me (hot)","steam_id":76561198083271257,"connected_time":535000000000,"state":"active","ping":106},{"user_id":605,"name":"One Bar","steam_id":76561198100517050,"connected_time":2023000000000,"state":"active","ping":86},{"user_id":637,"name":"ChEeSeYtAcO24","steam_id":76561198125479386,"connected_time":122000000000,"state":"active","ping":86},{"user_id":603,"name":"borzier","steam_id":76561198069190432,"connected_time":2075000000000,"state":"active","ping":115},{"user_id":629,"name":"herbletea","steam_id":76561199079523149,"connected_time":502000000000,"state":"active","ping":56},{"user_id":630,"name":"ketsu","steam_id":76561197966171554,"connected_time":473000000000,"state":"active","ping":164},{"user_id":631,"name":"Infentdegree211","steam_id":76561198385234127,"connected_time":464000000000,"state":"active","ping":65},{"user_id":632,"name":"Young Thug","steam_id":76561198060389529,"connected_time":345000000000,"state":"active","ping":80},{"user_id":638,"name":"Flembrane","steam_id":76561197995328898,"connected_time":65000000000,"state":"active","ping":40},{"user_id":620,"name":"Drewski","steam_id":76561198334969647,"connected_time":770000000000,"state":"active","ping":57},{"user_id":606,"name":"en.wikipedia.org/wiki/Nae_Nae","steam_id":76561198418288939,"connected_time":2010000000000,"state":"active","ping":69},{"user_id":633,"name":"Zoot Suit Tom","steam_id":76561198170834958,"connected_time":339000000000,"state":"active","ping":98},{"user_id":623,"name":"me","steam_id":76561199468285784,"connected_time":635000000000,"state":"active","ping":47},{"user_id":597,"name":"taylor swift","steam_id":76561198151135298,"connected_time":2725000000000,"state":"active","ping":34},{"user_id":581,"name":"MediScout","steam_id":76561198353371841,"connected_time":4158000000000,"state":"active","ping":105},{"user_id":634,"name":"HELP ME!!!!!!!!!!!!!!!!!!!!","steam_id":76561198069229523,"connected_time":313000000000,"state":"active","ping":60}]},{"server_id":112,"name":"Uncletopia | Los Angeles | 2 | All Maps","name_short":"lax-2","host":"lax-1.us.uncletopia.com","port":27025,"enabled":true,"region":"us-west","cc":"us","latitude":33.94279,"longitude":-118.41004,"reserved":0,"last_update":"0001-01-01T00:00:00Z","name_a2s":"Uncletopia | Los Angeles | 2 | All Maps","protocol":17,"map":"koth_cascade","folder":"tf","game":"Team Fortress","app_id":440,"player_count":0,"max_players":24,"Bots":0,"server_type":"Dedicated","server_os":"Linux","password":true,"vac":true,"version":"7757534","steam_id":85568392924469992,"keywords":["cp","nocrits","nodmgspread","uncletopia"],"game_id":440,"stv_port":27026,"stv_name":"Uncletopia | Los Angeles | 2 | All Maps | STV","players":null},{"server_id":324,"name":"Uncletopia | Los Angeles | 3 | All Maps","name_short":"lax-3","host":"lax-1.us.uncletopia.com","port":27035,"enabled":true,"region":"us-west","cc":"us","latitude":33.94279,"longitude":-118.41004,"reserved":0,"last_update":"0001-01-01T00:00:00Z","name_a2s":"Uncletopia | Los Angeles | 3 | All Maps","protocol":17,"map":"koth_highpass","folder":"tf","game":"Team Fortress","app_id":440,"player_count":0,"max_players":24,"Bots":0,"server_type":"Dedicated","server_os":"Linux","password":true,"vac":true,"version":"7757534","steam_id":85568392924510198,"keywords":["cp","nocrits","nodmgspread","uncletopia"],"game_id":440,"stv_port":27036,"stv_name":"Uncletopia | Los Angeles | 3 | All Maps | STV","players":null},{"server_id":25,"name":"Uncletopia | Los Angeles | 4 | Stopwatch Beta","name_short":"lax-4","host":"lax-1.us.uncletopia.com","port":27045,"enabled":true,"region":"us-west","cc":"us","latitude":33.94279,"longitude":-118.41004,"reserved":0,"last_update":"0001-01-01T00:00:00Z","name_a2s":"Uncletopia | Los Angeles | 4 | Stopwatch Beta","protocol":17,"map":"koth_viaduct","folder":"tf","game":"Team Fortress","app_id":440,"player_count":0,"max_players":24,"Bots":0,"server_type":"Dedicated","server_os":"Linux","password":true,"vac":true,"version":"7757534","steam_id":85568392924510199,"keywords":["cp","nocrits","nodmgspread","uncletopia"],"game_id":440,"stv_port":27046,"stv_name":"Uncletopia | Los Angeles | 4 | Stopwatch Beta | STV","players":null},{"server_id":11,"name":"Uncletopia | London | 1 | All Maps","name_short":"lon-1","host":"lon-1.uk.uncletopia.com","port":27015,"enabled":true,"region":"eu","cc":"gb","latitude":51.509865,"longitude":-0.118092,"reserved":0,"last_update":"0001-01-01T00:00:00Z","name_a2s":"Uncletopia | London | 1 | All Maps","protocol":17,"map":"pl_pier","folder":"tf","game":"Team Fortress","app_id":440,"player_count":0,"max_players":24,"Bots":0,"server_type":"Dedicated","server_os":"Linux","password":true,"vac":true,"version":"7757534","steam_id":85568392924367362,"keywords":["nocrits","nodmgspread","payload","uncletopia"],"game_id":440,"stv_port":27016,"stv_name":"Uncletopia | London | 1 | All Maps | STV","players":null},{"server_id":114,"name":"Uncletopia | London | 2 | All Maps","name_short":"lon-2","host":"lon-1.uk.uncletopia.com","port":27025,"enabled":true,"region":"eu","cc":"gb","latitude":51.509865,"longitude":-0.118092,"reserved":0,"last_update":"0001-01-01T00:00:00Z","name_a2s":"Uncletopia | London | 2 | All Maps","protocol":17,"map":"pl_badwater","folder":"tf","game":"Team Fortress","app_id":440,"player_count":24,"max_players":24,"Bots":0,"server_type":"Dedicated","server_os":"Linux","password":true,"vac":true,"version":"7757534","steam_id":85568392924470941,"keywords":["nocrits","nodmgspread","payload","uncletopia"],"game_id":440,"stv_port":27026,"stv_name":"Uncletopia | London | 2 | All Maps | STV","players":[{"user_id":59,"name":"Dragon","steam_id":76561198163255365,"connected_time":3629000000000,"state":"active","ping":105},{"user_id":116,"name":"Buenos D√≠as!","steam_id":76561198417999443,"connected_time":324000000000,"state":"active","ping":104},{"user_id":121,"name":"Ian","steam_id":76561198159334435,"connected_time":84000000000,"state":"active","ping":185},{"user_id":107,"name":"Harold Chaplin","steam_id":76561198036730227,"connected_time":797000000000,"state":"active","ping":163},{"user_id":94,"name":"FNF","steam_id":76561199151422826,"connected_time":1407000000000,"state":"active","ping":106},{"user_id":114,"name":"mr panda","steam_id":76561198320070061,"connected_time":571000000000,"state":"active","ping":86},{"user_id":91,"name":"Atlantic Atlantis","steam_id":76561198292094828,"connected_time":1563000000000,"state":"active","ping":104},{"user_id":115,"name":"Comilot","steam_id":76561198040234609,"connected_time":430000000000,"state":"active","ping":92},{"user_id":108,"name":"CHUCKCHA_CHA","steam_id":76561199125436857,"connected_time":770000000000,"state":"active","ping":116},{"user_id":119,"name":"wicc","steam_id":76561198893915644,"connected_time":101000000000,"state":"active","ping":75},{"user_id":117,"name":"Phyxkes","steam_id":76561197982474972,"connected_time":171000000000,"state":"active","ping":55},{"user_id":120,"name":"DAHuK3000","steam_id":76561198196399182,"connected_time":98000000000,"state":"active","ping":102},{"user_id":109,"name":"RegularRogue663","steam_id":76561198263233108,"connected_time":720000000000,"state":"active","ping":88},{"user_id":102,"name":"_XsoM_","steam_id":76561199089719555,"connected_time":1004000000000,"state":"active","ping":124},{"user_id":113,"name":"FLAMINGO QUEEN","steam_id":76561199037894293,"connected_time":633000000000,"state":"active","ping":92},{"user_id":65,"name":"Perpetual Pub Push","steam_id":76561198256714846,"connected_time":3499000000000,"state":"active","ping":36},{"user_id":86,"name":"fitotutus","steam_id":76561197974993253,"connected_time":1891000000000,"state":"active","ping":163},{"user_id":89,"name":"Ginko","steam_id":76561199467385560,"connected_time":1778000000000,"state":"active","ping":65},{"user_id":122,"name":"Demo-Ktosiu","steam_id":76561198890628396,"connected_time":22000000000,"state":"active","ping":97},{"user_id":41,"name":"Alin","steam_id":76561198059679991,"connected_time":4169000000000,"state":"active","ping":97},{"user_id":99,"name":"depressed cows","steam_id":76561198358722215,"connected_time":1170000000000,"state":"active","ping":46},{"user_id":111,"name":"Alfred","steam_id":76561198097740064,"connected_time":690000000000,"state":"active","ping":74},{"user_id":112,"name":"( Õ°w Õú+ Õ°m1)","steam_id":76561198031899043,"connected_time":684000000000,"state":"active","ping":101},{"user_id":72,"name":"autistic luigi","steam_id":76561199218285040,"connected_time":2415000000000,"state":"active","ping":87}]},{"server_id":320,"name":"Uncletopia | London | 3 | All Maps","name_short":"lon-3","host":"lon-1.uk.uncletopia.com","port":27035,"enabled":true,"region":"eu","cc":"gb","latitude":51.509865,"longitude":-0.118092,"reserved":0,"last_update":"0001-01-01T00:00:00Z","name_a2s":"Uncletopia | London | 3 | All Maps","protocol":17,"map":"pl_badwater","folder":"tf","game":"Team Fortress","app_id":440,"player_count":0,"max_players":24,"Bots":0,"server_type":"Dedicated","server_os":"Linux","password":true,"vac":true,"version":"7757534","steam_id":85568392924510192,"keywords":["nocrits","nodmgspread","payload","uncletopia"],"game_id":440,"stv_port":27036,"stv_name":"Uncletopia | London | 3 | All Maps | STV","players":null},{"server_id":321,"name":"Uncletopia | London | 4 | All Maps","name_short":"lon-4","host":"lon-1.uk.uncletopia.com","port":27045,"enabled":true,"region":"eu","cc":"gb","latitude":51.509865,"longitude":-0.118092,"reserved":0,"last_update":"0001-01-01T00:00:00Z","name_a2s":"Uncletopia | London | 4 | All Maps","protocol":17,"map":"cp_snakewater_final1","folder":"tf","game":"Team Fortress","app_id":440,"player_count":0,"max_players":24,"Bots":0,"server_type":"Dedicated","server_os":"Linux","password":true,"vac":true,"version":"7757534","steam_id":85568392924510193,"keywords":["cp","nocrits","nodmgspread","uncletopia"],"game_id":440,"stv_port":27046,"stv_name":"Uncletopia | London | 4 | All Maps | STV","players":null},{"server_id":21,"name":"Uncletopia | London | 5 | All Maps","name_short":"lon-5","host":"lon-1.uk.uncletopia.com","port":27055,"enabled":true,"region":"eu","cc":"gb","latitude":51.509865,"longitude":-0.118092,"reserved":0,"last_update":"0001-01-01T00:00:00Z","name_a2s":"Uncletopia | London | 5 | All Maps","protocol":17,"map":"pl_snowycoast","folder":"tf","game":"Team Fortress","app_id":440,"player_count":0,"max_players":24,"Bots":0,"server_type":"Dedicated","server_os":"Linux","password":true,"vac":true,"version":"7757534","steam_id":85568392924742829,"keywords":["nocrits","nodmgspread","payload","uncletopia"],"game_id":440,"stv_port":27056,"stv_name":"Uncletopia | London | 5 | All Maps | STV","players":null},{"server_id":22,"name":"Uncletopia | London | 6 | All Maps","name_short":"lon-6","host":"lon-1.uk.uncletopia.com","port":27065,"enabled":true,"region":"eu","cc":"gb","latitude":51.509865,"longitude":-0.118092,"reserved":0,"last_update":"0001-01-01T00:00:00Z","name_a2s":"Uncletopia | London | 6 | All Maps","protocol":17,"map":"pl_snowycoast","folder":"tf","game":"Team Fortress","app_id":440,"player_count":0,"max_players":24,"Bots":0,"server_type":"Dedicated","server_os":"Linux","password":true,"vac":true,"version":"7757534","steam_id":85568392924742830,"keywords":["nocrits","nodmgspread","payload","uncletopia"],"game_id":440,"stv_port":27066,"stv_name":"Uncletopia | London | 6 | All Maps | STV","players":null},{"server_id":40,"name":"Uncletopia | London | 7 | No Payload","name_short":"lon-7","host":"lon-1.uk.uncletopia.com","port":27075,"enabled":true,"region":"eu","cc":"gb","latitude":51.509865,"longitude":-0.118092,"reserved":0,"last_update":"0001-01-01T00:00:00Z","name_a2s":"Uncletopia | London | 7 | No Payload","protocol":17,"map":"pl_upward","folder":"tf","game":"Team Fortress","app_id":440,"player_count":0,"max_players":24,"Bots":0,"server_type":"Dedicated","server_os":"Linux","password":true,"vac":true,"version":"7757534","steam_id":85568392924964314,"keywords":["nocrits","nodmgspread","payload","uncletopia"],"game_id":440,"stv_port":27076,"stv_name":"Uncletopia | London | 7 | No Payload | STV","players":null},{"server_id":41,"name":"Uncletopia | London | 8 | Community","name_short":"lon-8","host":"lon-1.uk.uncletopia.com","port":27085,"enabled":true,"region":"eu","cc":"gb","latitude":51.509865,"longitude":-0.118092,"reserved":0,"last_update":"0001-01-01T00:00:00Z","name_a2s":"Uncletopia | London | 8 | Community","protocol":17,"map":"cp_snakewater_final1","folder":"tf","game":"Team Fortress","app_id":440,"player_count":0,"max_players":24,"Bots":0,"server_type":"Dedicated","server_os":"Linux","password":true,"vac":true,"version":"7757534","steam_id":85568392924964315,"keywords":["cp","nocrits","nodmgspread","uncletopia"],"game_id":440,"stv_port":27086,"stv_name":"Uncletopia | London | 8 | Community | STV","players":null},{"server_id":300,"name":"Uncletopia | Montr√©al | 1 | All Maps","name_short":"mtl-1","host":"mtl-1.ca.uncletopia.com","port":27015,"enabled":true,"region":"us-east","cc":"ca","latitude":45.50889,"longitude":-73.56167,"reserved":0,"last_update":"0001-01-01T00:00:00Z","name_a2s":"Uncletopia | Montr√©al | 1 | All Maps","protocol":17,"map":"koth_viaduct","folder":"tf","game":"Team Fortress","app_id":440,"player_count":0,"max_players":24,"Bots":0,"server_type":"Dedicated","server_os":"Linux","password":true,"vac":true,"version":"7757534","steam_id":85568392924500087,"keywords":["cp","nocrits","nodmgspread","uncletopia"],"game_id":440,"stv_port":27016,"stv_name":"Uncletopia | Montr√©al | 1 | All Maps | STV","players":null},{"server_id":301,"name":"Uncletopia | Montr√©al | 2 | All Maps","name_short":"mtl-2","host":"mtl-1.ca.uncletopia.com","port":27025,"enabled":true,"region":"us-east","cc":"ca","latitude":45.50889,"longitude":-73.56167,"reserved":0,"last_update":"0001-01-01T00:00:00Z","name_a2s":"Uncletopia | Montr√©al | 2 | All Maps","protocol":17,"map":"koth_highpass","folder":"tf","game":"Team Fortress","app_id":440,"player_count":0,"max_players":24,"Bots":0,"server_type":"Dedicated","server_os":"Linux","password":true,"vac":true,"version":"7757534","steam_id":85568392924500088,"keywords":["cp","nocrits","nodmgspread","uncletopia"],"game_id":440,"stv_port":27026,"stv_name":"Uncletopia | Montr√©al | 2 | All Maps | STV","players":null},{"server_id":302,"name":"Uncletopia | Montr√©al | 3 | All Maps","name_short":"mtl-3","host":"mtl-1.ca.uncletopia.com","port":27035,"enabled":true,"region":"us-east","cc":"ca","latitude":45.50889,"longitude":-73.56167,"reserved":0,"last_update":"0001-01-01T00:00:00Z","name_a2s":"Uncletopia | Montr√©al | 3 | All Maps","protocol":17,"map":"cp_dustbowl","folder":"tf","game":"Team Fortress","app_id":440,"player_count":0,"max_players":24,"Bots":0,"server_type":"Dedicated","server_os":"Linux","password":true,"vac":true,"version":"7757534","steam_id":85568392924500089,"keywords":["cp","nocrits","nodmgspread","uncletopia"],"game_id":440,"stv_port":27036,"stv_name":"Uncletopia | Montr√©al | 3 | All Maps | STV","players":null},{"server_id":303,"name":"Uncletopia | Montr√©al | 4 | No Payload","name_short":"mtl-4","host":"mtl-1.ca.uncletopia.com","port":27045,"enabled":true,"region":"us-east","cc":"ca","latitude":45.50889,"longitude":-73.56167,"reserved":0,"last_update":"0001-01-01T00:00:00Z","name_a2s":"Uncletopia | Montr√©al | 4 | No Payload","protocol":17,"map":"koth_lakeside_final","folder":"tf","game":"Team Fortress","app_id":440,"player_count":0,"max_players":24,"Bots":0,"server_type":"Dedicated","server_os":"Linux","password":true,"vac":true,"version":"7757534","steam_id":85568392924500090,"keywords":["cp","nocrits","nodmgspread","uncletopia"],"game_id":440,"stv_port":27046,"stv_name":"Uncletopia | Montr√©al | 4 | No Payload | STV","players":null},{"server_id":13,"name":"Uncletopia | New York City | 1 | All Maps","name_short":"nyc-1","host":"nyc-1.us.uncletopia.com","port":27015,"enabled":true,"region":"us-east","cc":"us","latitude":40.73061,"longitude":-73.93524,"reserved":0,"last_update":"0001-01-01T00:00:00Z","name_a2s":"Uncletopia | New York City | 1 | All Maps","protocol":17,"map":"cp_sunshine","folder":"tf","game":"Team Fortress","app_id":440,"player_count":0,"max_players":24,"Bots":0,"server_type":"Dedicated","server_os":"Linux","password":true,"vac":true,"version":"7757534","steam_id":85568392924469993,"keywords":["cp","nocrits","nodmgspread","uncletopia"],"game_id":440,"stv_port":27016,"stv_name":"Uncletopia | New York City | 1 | All Maps | STV","players":null},{"server_id":14,"name":"Uncletopia | New York City | 2 | All Maps","name_short":"nyc-2","host":"nyc-1.us.uncletopia.com","port":27025,"enabled":true,"region":"us-east","cc":"us","latitude":40.73061,"longitude":-73.93524,"reserved":0,"last_update":"0001-01-01T00:00:00Z","name_a2s":"Uncletopia | New York City | 2 | All Maps","protocol":17,"map":"pl_thundermountain","folder":"tf","game":"Team Fortress","app_id":440,"player_count":20,"max_players":24,"Bots":0,"server_type":"Dedicated","server_os":"Linux","password":true,"vac":true,"version":"7757534","steam_id":85568392924469994,"keywords":["nocrits","nodmgspread","payload","uncletopia"],"game_id":440,"stv_port":27026,"stv_name":"Uncletopia | New York City | 2 | All Maps | STV","players":[{"user_id":1010,"name":"pugs","steam_id":76561198037040421,"connected_time":619000000000,"state":"active","ping":97},{"user_id":1007,"name":"Goku","steam_id":76561198064143198,"connected_time":701000000000,"state":"active","ping":74},{"user_id":1001,"name":"gromit","steam_id":76561198037746805,"connected_time":1356000000000,"state":"active","ping":61},{"user_id":988,"name":"teh mummy","steam_id":76561198044123636,"connected_time":2185000000000,"state":"active","ping":105},{"user_id":942,"name":"Scout","steam_id":76561198149172070,"connected_time":4606000000000,"state":"active","ping":77},{"user_id":1011,"name":"Hart","steam_id":76561198049512554,"connected_time":595000000000,"state":"active","ping":117},{"user_id":1008,"name":"Tarofel","steam_id":76561198051888035,"connected_time":683000000000,"state":"active","ping":45},{"user_id":1009,"name":"shokie","steam_id":76561197997961542,"connected_time":661000000000,"state":"active","ping":63},{"user_id":991,"name":"DarthRevan","steam_id":76561198164492361,"connected_time":2135000000000,"state":"active","ping":75},{"user_id":958,"name":"kametro4","steam_id":76561198835430429,"connected_time":3590000000000,"state":"active","ping":76},{"user_id":1015,"name":"blu","steam_id":76561198159375087,"connected_time":17000000000,"state":"active","ping":64},{"user_id":992,"name":"Bee","steam_id":76561198074681324,"connected_time":2052000000000,"state":"active","ping":49},{"user_id":1012,"name":"Czechoslovakia!","steam_id":76561198214713811,"connected_time":563000000000,"state":"active","ping":117},{"user_id":1013,"name":"femboy chicken","steam_id":76561199055185732,"connected_time":460000000000,"state":"active","ping":153},{"user_id":910,"name":"gerg","steam_id":76561197997127387,"connected_time":7118000000000,"state":"active","ping":117},{"user_id":930,"name":"timestew","steam_id":76561198367583372,"connected_time":5162000000000,"state":"active","ping":78},{"user_id":999,"name":"Shortbane","steam_id":76561198247166584,"connected_time":1423000000000,"state":"active","ping":98},{"user_id":982,"name":"[Deep]GooeyGapedGrannys","steam_id":76561198089731303,"connected_time":2574000000000,"state":"active","ping":48},{"user_id":1006,"name":"pigswill","steam_id":76561197999081865,"connected_time":764000000000,"state":"active","ping":75},{"user_id":1005,"name":"Female Gamer","steam_id":76561199366482682,"connected_time":925000000000,"state":"active","ping":123}]},{"server_id":15,"name":"Uncletopia | New York City | 3 | Stopwatch Beta","name_short":"nyc-3","host":"nyc-1.us.uncletopia.com","port":27035,"enabled":true,"region":"us-east","cc":"us","latitude":40.73061,"longitude":-73.93524,"reserved":0,"last_update":"0001-01-01T00:00:00Z","name_a2s":"Uncletopia | New York City | 3 | Stopwatch Beta","protocol":17,"map":"workshop/pl_barnblitz_pro7.ugc582280235","folder":"tf","game":"Team Fortress","app_id":440,"player_count":0,"max_players":24,"Bots":0,"server_type":"Dedicated","server_os":"Linux","password":true,"vac":true,"version":"7757534","steam_id":85568392924742820,"keywords":["nocrits","nodmgspread","payload","uncletopia"],"game_id":440,"stv_port":27036,"stv_name":"Uncletopia | New York City | 3 | Stopwatch Beta | STV","players":null},{"server_id":16,"name":"Uncletopia | New York City | 4 | Community","name_short":"nyc-4","host":"nyc-1.us.uncletopia.com","port":27045,"enabled":true,"region":"us-east","cc":"us","latitude":40.73061,"longitude":-73.93524,"reserved":0,"last_update":"0001-01-01T00:00:00Z","name_a2s":"Uncletopia | New York City | 4 | Community","protocol":17,"map":"workshop/koth_slaughter_rc1.ugc1712845210","folder":"tf","game":"Team Fortress","app_id":440,"player_count":0,"max_players":24,"Bots":0,"server_type":"Dedicated","server_os":"Linux","password":true,"vac":true,"version":"7757534","steam_id":85568392924742821,"keywords":["cp","nocrits","nodmgspread","uncletopia"],"game_id":440,"stv_port":27046,"stv_name":"Uncletopia | New York City | 4 | Community | STV","players":null},{"server_id":142,"name":"Uncletopia | S√£o Paulo | 1 | All Maps","name_short":"sao-1","host":"sao-1.br.uncletopia.com","port":27015,"enabled":true,"region":"sa","cc":"br","latitude":-23.533773,"longitude":-46.62529,"reserved":0,"last_update":"0001-01-01T00:00:00Z","name_a2s":"Uncletopia | S√£o Paulo | 1 | All Maps","protocol":17,"map":"koth_lakeside_final","folder":"tf","game":"Team Fortress","app_id":440,"player_count":0,"max_players":24,"Bots":0,"server_type":"Dedicated","server_os":"Linux","password":true,"vac":true,"version":"7757534","steam_id":85568392924469996,"keywords":["cp","nocrits","nodmgspread","uncletopia"],"game_id":440,"stv_port":27016,"stv_name":"Uncletopia | S√£o Paulo | 1 | All Maps | STV","players":null},{"server_id":143,"name":"Uncletopia | S√£o Paulo | 2 | All Maps","name_short":"sao-2","host":"sao-2.br.uncletopia.com","port":27015,"enabled":true,"region":"sa","cc":"br","latitude":-23.533773,"longitude":-46.62529,"reserved":0,"last_update":"0001-01-01T00:00:00Z","name_a2s":"Uncletopia | S√£o Paulo | 2 | All Maps","protocol":17,"map":"cp_dustbowl","folder":"tf","game":"Team Fortress","app_id":440,"player_count":0,"max_players":24,"Bots":0,"server_type":"Dedicated","server_os":"Linux","password":true,"vac":true,"version":"7757534","steam_id":85568392924485349,"keywords":["cp","nocrits","nodmgspread","uncletopia"],"game_id":440,"stv_port":27016,"stv_name":"Uncletopia | S√£o Paulo | 2 | All Maps | STV","players":null},{"server_id":7,"name":"Uncletopia | Seattle | 1 | All Maps","name_short":"sea-1","host":"sea-1.us.uncletopia.com","port":27015,"enabled":true,"region":"us-west","cc":"us","latitude":47.608013,"longitude":-122.33517,"reserved":0,"last_update":"0001-01-01T00:00:00Z","name_a2s":"Uncletopia | Seattle | 1 | All Maps","protocol":17,"map":"pl_upward","folder":"tf","game":"Team Fortress","app_id":440,"player_count":24,"max_players":24,"Bots":0,"server_type":"Dedicated","server_os":"Linux","password":true,"vac":true,"version":"7757534","steam_id":85568392924469997,"keywords":["nocrits","nodmgspread","payload","uncletopia"],"game_id":440,"stv_port":27016,"stv_name":"Uncletopia | Seattle | 1 | All Maps | STV","players":[{"user_id":721,"name":"Ediot","steam_id":76561199349494096,"connected_time":903000000000,"state":"active","ping":135},{"user_id":732,"name":"honeybun","steam_id":76561197993931722,"connected_time":491000000000,"state":"active","ping":115},{"user_id":711,"name":"HASH Yellow Mellow","steam_id":76561198089697360,"connected_time":1657000000000,"state":"active","ping":75},{"user_id":678,"name":"Cheezbeargur","steam_id":76561198164702899,"connected_time":4715000000000,"state":"active","ping":61},{"user_id":734,"name":"Vagrant","steam_id":76561198242536886,"connected_time":384000000000,"state":"active","ping":61},{"user_id":736,"name":"Sniff","steam_id":76561198010270922,"connected_time":221000000000,"state":"active","ping":42},{"user_id":727,"name":"Your very own loving mother","steam_id":76561199160073173,"connected_time":738000000000,"state":"active","ping":42},{"user_id":735,"name":"SuaveFrenchman","steam_id":76561198043762683,"connected_time":272000000000,"state":"active","ping":67},{"user_id":695,"name":"Tom Skirrett","steam_id":76561198014600788,"connected_time":3727000000000,"state":"active","ping":73},{"user_id":722,"name":"MyMonkeyBaby","steam_id":76561198046896670,"connected_time":888000000000,"state":"active","ping":58},{"user_id":692,"name":"An Old Lady","steam_id":76561198047480318,"connected_time":3910000000000,"state":"active","ping":65},{"user_id":726,"name":"ChuChu","steam_id":76561199443647976,"connected_time":783000000000,"state":"active","ping":98},{"user_id":738,"name":"Google","steam_id":76561198857237473,"connected_time":183000000000,"state":"active","ping":52},{"user_id":716,"name":"makcmik2","steam_id":76561198242544518,"connected_time":1328000000000,"state":"active","ping":57},{"user_id":706,"name":"hotdog every meal","steam_id":76561198392514273,"connected_time":2587000000000,"state":"active","ping":54},{"user_id":728,"name":"BEASTxGODx420","steam_id":76561198184814466,"connected_time":737000000000,"state":"active","ping":39},{"user_id":731,"name":"FancyPants","steam_id":76561198027412089,"connected_time":581000000000,"state":"active","ping":83},{"user_id":729,"name":"Glanderson booper","steam_id":76561198021223747,"connected_time":734000000000,"state":"active","ping":69},{"user_id":705,"name":"Clemont007","steam_id":76561198030935625,"connected_time":2647000000000,"state":"active","ping":79},{"user_id":660,"name":"terri joe","steam_id":76561198017030029,"connected_time":7227000000000,"state":"active","ping":69},{"user_id":553,"name":"JERMA BUT CRYING AND TRANS","steam_id":76561198210734407,"connected_time":18873000000000,"state":"active","ping":120},{"user_id":718,"name":"blue splatoon girl","steam_id":76561198035698704,"connected_time":1302000000000,"state":"active","ping":69},{"user_id":701,"name":"soup","steam_id":76561198043209046,"connected_time":2718000000000,"state":"active","ping":75},{"user_id":733,"name":"bullet man","steam_id":76561198080058079,"connected_time":490000000000,"state":"active","ping":56}]},{"server_id":119,"name":"Uncletopia | Seattle | 2 | All Maps","name_short":"sea-2","host":"sea-1.us.uncletopia.com","port":27025,"enabled":true,"region":"us-west","cc":"us","latitude":47.608013,"longitude":-122.33517,"reserved":0,"last_update":"0001-01-01T00:00:00Z","name_a2s":"Uncletopia | Seattle | 2 | All Maps","protocol":17,"map":"cp_process_final","folder":"tf","game":"Team Fortress","app_id":440,"player_count":2,"max_players":24,"Bots":0,"server_type":"Dedicated","server_os":"Linux","password":true,"vac":true,"version":"7757534","steam_id":85568392924469998,"keywords":["cp","nocrits","nodmgspread","uncletopia"],"game_id":440,"stv_port":27026,"stv_name":"Uncletopia | Seattle | 2 | All Maps | STV","players":[{"user_id":609,"name":"DiamondRhino64","steam_id":76561198213005961,"connected_time":703000000000,"state":"active","ping":75},{"user_id":608,"name":"plastiquemonk","steam_id":76561198126035719,"connected_time":814000000000,"state":"active","ping":76}]},{"server_id":406,"name":"Uncletopia | Seattle | 3 | Stopwatch Beta","name_short":"sea-3","host":"sea-1.us.uncletopia.com","port":27035,"enabled":true,"region":"us-west","cc":"us","latitude":47.608013,"longitude":-122.33517,"reserved":0,"last_update":"0001-01-01T00:00:00Z","name_a2s":"Uncletopia | Seattle | 3 | Stopwatch Beta","protocol":17,"map":"pl_swiftwater_final1","folder":"tf","game":"Team Fortress","app_id":440,"player_count":0,"max_players":24,"Bots":0,"server_type":"Dedicated","server_os":"Linux","password":true,"vac":true,"version":"7757534","steam_id":85568392924515217,"keywords":["nocrits","nodmgspread","payload","uncletopia"],"game_id":440,"stv_port":27036,"stv_name":"Uncletopia | Seattle | 3 | Stopwatch Beta | STV","players":null},{"server_id":17,"name":"Uncletopia | San Francisco | 1 | All Maps","name_short":"sfo-1","host":"sfo-1.us.uncletopia.com","port":27015,"enabled":true,"region":"us-west","cc":"us","latitude":37.77397,"longitude":-122.4313,"reserved":0,"last_update":"0001-01-01T00:00:00Z","name_a2s":"Uncletopia | San Francisco | 1 | All Maps","protocol":17,"map":"pl_thundermountain","folder":"tf","game":"Team Fortress","app_id":440,"player_count":3,"max_players":24,"Bots":0,"server_type":"Dedicated","server_os":"Linux","password":true,"vac":true,"version":"7757534","steam_id":85568392924469999,"keywords":["nocrits","nodmgspread","payload","uncletopia"],"game_id":440,"stv_port":27016,"stv_name":"Uncletopia | San Francisco | 1 | All Maps | STV","players":[{"user_id":387,"name":"Aunty Frazzle","steam_id":76561198145596626,"connected_time":734000000000,"state":"active","ping":55},{"user_id":365,"name":"Orson Welles Gaming","steam_id":76561198115821923,"connected_time":1895000000000,"state":"active","ping":65},{"user_id":378,"name":"MrBob292","steam_id":76561199347166553,"connected_time":1401000000000,"state":"active","ping":86}]},{"server_id":18,"name":"Uncletopia | San Francisco | 2 | All Maps","name_short":"sfo-2","host":"sfo-1.us.uncletopia.com","port":27025,"enabled":true,"region":"us-west","cc":"us","latitude":37.77397,"longitude":-122.4313,"reserved":0,"last_update":"0001-01-01T00:00:00Z","name_a2s":"Uncletopia | San Francisco | 2 | All Maps","protocol":17,"map":"pl_swiftwater_final1","folder":"tf","game":"Team Fortress","app_id":440,"player_count":0,"max_players":24,"Bots":0,"server_type":"Dedicated","server_os":"Linux","password":true,"vac":true,"version":"7757534","steam_id":85568392924470000,"keywords":["nocrits","nodmgspread","payload","uncletopia"],"game_id":440,"stv_port":27026,"stv_name":"Uncletopia | San Francisco | 2 | All Maps | STV","players":null},{"server_id":19,"name":"Uncletopia | San Francisco | 3 | Stopwatch Beta","name_short":"sfo-3","host":"sfo-1.us.uncletopia.com","port":27035,"enabled":true,"region":"us-west","cc":"us","latitude":37.77397,"longitude":-122.4313,"reserved":0,"last_update":"0001-01-01T00:00:00Z","name_a2s":"Uncletopia | San Francisco | 3 | Stopwatch Beta","protocol":17,"map":"workshop/koth_clearcut_b15.ugc2107050255","folder":"tf","game":"Team Fortress","app_id":440,"player_count":0,"max_players":24,"Bots":0,"server_type":"Dedicated","server_os":"Linux","password":true,"vac":true,"version":"7757534","steam_id":85568392924742824,"keywords":["cp","nocrits","nodmgspread","uncletopia"],"game_id":440,"stv_port":27036,"stv_name":"Uncletopia | San Francisco | 3 | Stopwatch Beta | STV","players":null},{"server_id":20,"name":"Uncletopia | San Francisco | 4 | Community","name_short":"sfo-4","host":"sfo-1.us.uncletopia.com","port":27045,"enabled":true,"region":"us-west","cc":"us","latitude":37.77397,"longitude":-122.4313,"reserved":0,"last_update":"0001-01-01T00:00:00Z","name_a2s":"Uncletopia | San Francisco | 4 | Community","protocol":17,"map":"workshop/cp_villa_b19.ugc2113052569","folder":"tf","game":"Team Fortress","app_id":440,"player_count":1,"max_players":24,"Bots":0,"server_type":"Dedicated","server_os":"Linux","password":true,"vac":true,"version":"7757534","steam_id":85568392924742826,"keywords":["cp","nocrits","nodmgspread","uncletopia"],"game_id":440,"stv_port":27046,"stv_name":"Uncletopia | San Francisco | 4 | Community | STV","players":[{"user_id":139,"name":"Nnyllazxz","steam_id":76561198247797436,"connected_time":18000000000,"state":"active","ping":121}]},{"server_id":141,"name":"Uncletopia | Sydney | 1 | All Maps","name_short":"syd-1","host":"syd-1.au.uncletopia.com","port":27015,"enabled":true,"region":"au","cc":"au","latitude":-33.865143,"longitude":151.2099,"reserved":0,"last_update":"0001-01-01T00:00:00Z","name_a2s":"Uncletopia | Sydney | 1 | All Maps","protocol":17,"map":"pl_barnblitz","folder":"tf","game":"Team Fortress","app_id":440,"player_count":23,"max_players":24,"Bots":0,"server_type":"Dedicated","server_os":"Linux","password":true,"vac":true,"version":"7757534","steam_id":85568392924470001,"keywords":["nocrits","nodmgspread","payload","uncletopia"],"game_id":440,"stv_port":27016,"stv_name":"Uncletopia | Sydney | 1 | All Maps | STV","players":[{"user_id":401,"name":"armCHAMP Billie Eilish feet mmm","steam_id":76561198044752424,"connected_time":554000000000,"state":"active","ping":54},{"user_id":375,"name":"lem","steam_id":76561199119233603,"connected_time":2617000000000,"state":"active","ping":50},{"user_id":352,"name":"clout","steam_id":76561198073310502,"connected_time":4526000000000,"state":"active","ping":75},{"user_id":358,"name":"Vortex Morez","steam_id":76561198833527091,"connected_time":3973000000000,"state":"active","ping":153},{"user_id":341,"name":"las","steam_id":76561198039162155,"connected_time":5262000000000,"state":"active","ping":53},{"user_id":391,"name":"Ok Mate","steam_id":76561198254922035,"connected_time":1767000000000,"state":"active","ping":51},{"user_id":380,"name":"Batering","steam_id":76561198039849442,"connected_time":2329000000000,"state":"active","ping":51},{"user_id":400,"name":"qwop champion","steam_id":76561198143395126,"connected_time":575000000000,"state":"active","ping":59},{"user_id":256,"name":"KnowZero","steam_id":76561198095752015,"connected_time":11818000000000,"state":"active","ping":69},{"user_id":403,"name":"frogmouth07","steam_id":76561199038681860,"connected_time":112000000000,"state":"active","ping":62},{"user_id":354,"name":"Worst Sniper","steam_id":76561198025733081,"connected_time":4477000000000,"state":"active","ping":82},{"user_id":370,"name":"blicky","steam_id":76561198029829077,"connected_time":2875000000000,"state":"active","ping":90},{"user_id":404,"name":"andthatsFALSE","steam_id":76561197996932788,"connected_time":67000000000,"state":"active","ping":81},{"user_id":385,"name":"Korvid66","steam_id":76561198321471147,"connected_time":2132000000000,"state":"active","ping":98},{"user_id":384,"name":"moflow081703","steam_id":76561198357274326,"connected_time":2242000000000,"state":"active","ping":59},{"user_id":405,"name":"Stubborn Sheepcow","steam_id":76561198065334258,"connected_time":61000000000,"state":"active","ping":84},{"user_id":402,"name":"gaming time","steam_id":76561198127848228,"connected_time":165000000000,"state":"active","ping":66},{"user_id":303,"name":"DKC","steam_id":76561198313578155,"connected_time":8159000000000,"state":"active","ping":44},{"user_id":365,"name":"MrGamerPerson","steam_id":76561198805972890,"connected_time":3645000000000,"state":"active","ping":59},{"user_id":395,"name":"wackel","steam_id":76561198091003826,"connected_time":1362000000000,"state":"active","ping":53},{"user_id":396,"name":"Kumquat King","steam_id":76561199018139964,"connected_time":1194000000000,"state":"active","ping":84},{"user_id":397,"name":"Illiterate","steam_id":76561198277513976,"connected_time":1174000000000,"state":"active","ping":60},{"user_id":388,"name":"Vaconcovat","steam_id":76561198024284041,"connected_time":1902000000000,"state":"active","ping":67}]},{"server_id":123,"name":"Uncletopia | Sydney | 2 | All Maps","name_short":"syd-2","host":"syd-1.au.uncletopia.com","port":27025,"enabled":true,"region":"au","cc":"au","latitude":-33.865143,"longitude":151.2099,"reserved":0,"last_update":"0001-01-01T00:00:00Z","name_a2s":"Uncletopia | Sydney | 2 | All Maps","protocol":17,"map":"pl_borneo","folder":"tf","game":"Team Fortress","app_id":440,"player_count":14,"max_players":24,"Bots":0,"server_type":"Dedicated","server_os":"Linux","password":true,"vac":true,"version":"7757534","steam_id":85568392924470002,"keywords":["nocrits","nodmgspread","payload","uncletopia"],"game_id":440,"stv_port":27026,"stv_name":"Uncletopia | Sydney | 2 | All Maps | STV","players":[{"user_id":103,"name":"Jacob","steam_id":76561198059341907,"connected_time":810000000000,"state":"active","ping":34},{"user_id":115,"name":"blaze","steam_id":76561198241303512,"connected_time":67000000000,"state":"active","ping":60},{"user_id":102,"name":"gun spy TF2","steam_id":76561199446773766,"connected_time":919000000000,"state":"active","ping":125},{"user_id":104,"name":"lemur","steam_id":76561198278239170,"connected_time":706000000000,"state":"active","ping":84},{"user_id":101,"name":"Absol","steam_id":76561199045059964,"connected_time":1088000000000,"state":"active","ping":104},{"user_id":90,"name":"amanthatplaysgames","steam_id":76561199396905804,"connected_time":2555000000000,"state":"active","ping":185},{"user_id":89,"name":"Branko","steam_id":76561199262196710,"connected_time":2659000000000,"state":"spawning","ping":33},{"user_id":99,"name":"Mr Doctor","steam_id":76561198081415999,"connected_time":1307000000000,"state":"active","ping":61},{"user_id":105,"name":"(SYDNEY MOMENT)","steam_id":76561199057568663,"connected_time":686000000000,"state":"active","ping":52},{"user_id":106,"name":"ToadFungus","steam_id":76561199219667039,"connected_time":658000000000,"state":"active","ping":103},{"user_id":112,"name":"igor","steam_id":76561198977520992,"connected_time":148000000000,"state":"active","ping":67},{"user_id":109,"name":"Joode","steam_id":76561198258671002,"connected_time":303000000000,"state":"active","ping":64},{"user_id":110,"name":"Mr boom stick","steam_id":76561199305879202,"connected_time":301000000000,"state":"active","ping":106},{"user_id":111,"name":"zise lft pyro","steam_id":76561198079210881,"connected_time":276000000000,"state":"active","ping":54}]},{"server_id":395,"name":"Uncletopia | Sydney | 3 | All Maps","name_short":"syd-3","host":"syd-1.au.uncletopia.com","port":27035,"enabled":true,"region":"au","cc":"au","latitude":-33.865143,"longitude":151.2099,"reserved":0,"last_update":"0001-01-01T00:00:00Z","name_a2s":"Uncletopia | Sydney | 3 | All Maps","protocol":17,"map":"pl_pier","folder":"tf","game":"Team Fortress","app_id":440,"player_count":0,"max_players":24,"Bots":0,"server_type":"Dedicated","server_os":"Linux","password":true,"vac":true,"version":"7757534","steam_id":85568392925194467,"keywords":["nocrits","nodmgspread","payload","uncletopia"],"game_id":440,"stv_port":27036,"stv_name":"Uncletopia | Sydney | 3 | All Maps | STV","players":null},{"server_id":396,"name":"Uncletopia | Sydney | 4 | All Maps","name_short":"syd-4","host":"syd-1.au.uncletopia.com","port":27045,"enabled":true,"region":"au","cc":"au","latitude":-33.865143,"longitude":151.2099,"reserved":0,"last_update":"0001-01-01T00:00:00Z","name_a2s":"Uncletopia | Sydney | 4 | All Maps","protocol":17,"map":"cp_snakewater_final1","folder":"tf","game":"Team Fortress","app_id":440,"player_count":0,"max_players":24,"Bots":0,"server_type":"Dedicated","server_os":"Linux","password":true,"vac":true,"version":"7757534","steam_id":85568392925397958,"keywords":["cp","nocrits","nodmgspread","uncletopia"],"game_id":440,"stv_port":27046,"stv_name":"Uncletopia | Sydney | 4 | All Maps | STV","players":null},{"server_id":58,"name":"Uncletopia | Sydney | 5 | Stopwatch Beta","name_short":"syd-5","host":"syd-1.au.uncletopia.com","port":27055,"enabled":true,"region":"au","cc":"au","latitude":-33.865143,"longitude":151.2099,"reserved":0,"last_update":"0001-01-01T00:00:00Z","name_a2s":"Uncletopia | Sydney | 5 | Stopwatch Beta","protocol":17,"map":"pl_barnblitz","folder":"tf","game":"Team Fortress","app_id":440,"player_count":0,"max_players":24,"Bots":0,"server_type":"Dedicated","server_os":"Linux","password":true,"vac":true,"version":"7757534","steam_id":85568392925397959,"keywords":["nocrits","nodmgspread","payload","uncletopia"],"game_id":440,"stv_port":27056,"stv_name":"Uncletopia | Sydney | 5 | Stopwatch Beta | STV","players":null},{"server_id":59,"name":"Uncletopia | Sydney | 6 | Community","name_short":"syd-6","host":"syd-1.au.uncletopia.com","port":27065,"enabled":true,"region":"au","cc":"au","latitude":-33.865143,"longitude":151.2099,"reserved":0,"last_update":"0001-01-01T00:00:00Z","name_a2s":"Uncletopia | Sydney | 6 | Community","protocol":17,"map":"workshop/koth_synthetic_rc6a.ugc1549817316","folder":"tf","game":"Team Fortress","app_id":440,"player_count":0,"max_players":24,"Bots":0,"server_type":"Dedicated","server_os":"Linux","password":true,"vac":true,"version":"7757534","steam_id":85568392925397960,"keywords":["cp","nocrits","nodmgspread","uncletopia"],"game_id":440,"stv_port":27066,"stv_name":"Uncletopia | Sydney | 6 | Community | STV","players":null},{"server_id":49,"name":"Uncletopia | Warsaw | 1 | All Maps","name_short":"waw-1","host":"waw-1.pl.uncletopia.com","port":27015,"enabled":true,"region":"eu","cc":"pl","latitude":52.2297,"longitude":21.017532,"reserved":0,"last_update":"0001-01-01T00:00:00Z","name_a2s":"","protocol":0,"map":"","folder":"","game":"","app_id":0,"player_count":0,"max_players":0,"Bots":0,"server_type":"","server_os":"","password":false,"vac":false,"version":"","steam_id":0,"keywords":null,"game_id":0,"stv_port":0,"stv_name":"","players":null},{"server_id":50,"name":"Uncletopia | Warsaw | 2 | All Maps","name_short":"waw-2","host":"waw-1.pl.uncletopia.com","port":27025,"enabled":true,"region":"eu","cc":"pl","latitude":52.2297,"longitude":21.017532,"reserved":0,"last_update":"0001-01-01T00:00:00Z","name_a2s":"Uncletopia | Warsaw | 2 | All Maps","protocol":17,"map":"cp_snakewater_final1","folder":"tf","game":"Team Fortress","app_id":440,"player_count":0,"max_players":24,"Bots":0,"server_type":"Dedicated","server_os":"Linux","password":true,"vac":true,"version":"7757534","steam_id":85568392925397851,"keywords":["cp","nocrits","nodmgspread","uncletopia"],"game_id":440,"stv_port":27026,"stv_name":"Uncletopia | Warsaw | 2 | All Maps | STV","players":null},{"server_id":51,"name":"Uncletopia | Warsaw | 3 | All Maps","name_short":"waw-3","host":"waw-1.pl.uncletopia.com","port":27035,"enabled":true,"region":"eu","cc":"pl","latitude":52.2297,"longitude":21.017532,"reserved":0,"last_update":"0001-01-01T00:00:00Z","name_a2s":"Uncletopia | Warsaw | 3 | All Maps","protocol":17,"map":"cp_sunshine","folder":"tf","game":"Team Fortress","app_id":440,"player_count":0,"max_players":24,"Bots":0,"server_type":"Dedicated","server_os":"Linux","password":true,"vac":true,"version":"7757534","steam_id":85568392925397852,"keywords":["cp","nocrits","nodmgspread","uncletopia"],"game_id":440,"stv_port":27036,"stv_name":"Uncletopia | Warsaw | 3 | All Maps | STV","players":null},{"server_id":52,"name":"Uncletopia | Warsaw | 4 | All Maps","name_short":"waw-4","host":"waw-1.pl.uncletopia.com","port":27045,"enabled":true,"region":"eu","cc":"pl","latitude":52.2297,"longitude":21.017532,"reserved":0,"last_update":"0001-01-01T00:00:00Z","name_a2s":"Uncletopia | Warsaw | 4 | All Maps","protocol":17,"map":"pl_borneo","folder":"tf","game":"Team Fortress","app_id":440,"player_count":0,"max_players":24,"Bots":0,"server_type":"Dedicated","server_os":"Linux","password":true,"vac":true,"version":"7757534","steam_id":85568392925397853,"keywords":["nocrits","nodmgspread","payload","uncletopia"],"game_id":440,"stv_port":27046,"stv_name":"Uncletopia | Warsaw | 4 | All Maps | STV","players":null},{"server_id":53,"name":"Uncletopia | Warsaw | 5 | Stopwatch Beta","name_short":"waw-5","host":"waw-1.pl.uncletopia.com","port":27055,"enabled":true,"region":"eu","cc":"pl","latitude":52.2297,"longitude":21.017532,"reserved":0,"last_update":"0001-01-01T00:00:00Z","name_a2s":"Uncletopia | Warsaw | 5 | Stopwatch Beta","protocol":17,"map":"pl_upward","folder":"tf","game":"Team Fortress","app_id":440,"player_count":0,"max_players":24,"Bots":0,"server_type":"Dedicated","server_os":"Linux","password":true,"vac":true,"version":"7757534","steam_id":85568392925397854,"keywords":["nocrits","nodmgspread","payload","uncletopia"],"game_id":440,"stv_port":27056,"stv_name":"Uncletopia | Warsaw | 5 | Stopwatch Beta | STV","players":null},{"server_id":54,"name":"Uncletopia | Warsaw | 6 | Community","name_short":"waw-6","host":"waw-1.pl.uncletopia.com","port":27065,"enabled":true,"region":"eu","cc":"pl","latitude":52.2297,"longitude":21.017532,"reserved":0,"last_update":"0001-01-01T00:00:00Z","name_a2s":"Uncletopia | Warsaw | 6 | Community","protocol":17,"map":"pl_barnblitz","folder":"tf","game":"Team Fortress","app_id":440,"player_count":0,"max_players":24,"Bots":0,"server_type":"Dedicated","server_os":"Linux","password":true,"vac":true,"version":"7757534","steam_id":85568392925397856,"keywords":["nocrits","nodmgspread","payload","uncletopia"],"game_id":440,"stv_port":27066,"stv_name":"Uncletopia | Warsaw | 6 | Community | STV","players":null}]}