{"status":true,"message":"","result":[{"server_id":9,"name":"Uncletopia | Atlanta | 1 | All Maps","name_short":"atl-1","host":"atl-1.us.uncletopia.com","port":27015,"enabled":true,"region":"us-east","cc":"us","latitude":33.753746,"longitude":-84.38633,"reserved":0,"last_update":"0001-01-01T00:00:00Z","name_a2s":"Uncletopia | Atlanta | 1 | All Maps","protocol":17,"map":"pl_swiftwater_final1","folder":"tf","game":"Team Fortress","app_id":440,"player_count":21,"max_players":24,"Bots":0,"server_type":"Dedicated","server_os":"Linux","password":true,"vac":true,"version":"7961495","steam_id":85568392924469982,"keywords":["nocrits","nodmgspread","payload","uncletopia"],"game_id":440,"stv_port":27016,"stv_name":"Uncletopia | Atlanta | 1 | All Maps | STV","players":null},{"server_id":104,"name":"Uncletopia | Atlanta | 2 | All Maps","name_short":"atl-2","host":"atl-1.us.uncletopia.com","port":27025,"enabled":true,"region":"us-east","cc":"us","latitude":33.753746,"longitude":-84.38633,"reserved":0,"last_update":"0001-01-01T00:00:00Z","name_a2s":"Uncletopia | Atlanta | 2 | All Maps","protocol":17,"map":"koth_sawmill","folder":"tf","game":"Team Fortress","app_id":440,"player_count":23,"max_players":24,"Bots":0,"server_type":"Dedicated","server_os":"Linux","password":true,"vac":true,"version":"7961495","steam_id":85568392924469983,"keywords":["cp","nocrits","nodmgspread","uncletopia"],"game_id":440,"stv_port":27026,"stv_name":"Uncletopia | Atlanta | 2 | All Maps | STV","players":null},{"server_id":400,"name":"Uncletopia | Atlanta | 3 | Stopwatch","name_short":"atl-3","host":"atl-1.us.uncletopia.com","port":27035,"enabled":true,"region":"us-east","cc":"us","latitude":33.753746,"longitude":-84.38633,"reserved":0,"last_update":"0001-01-01T00:00:00Z","name_a2s":"Uncletopia | Atlanta | 3 | Stopwatch","protocol":17,"map":"koth_ramjam_rc1","folder":"tf","game":"Team Fortress","app_id":440,"player_count":0,"max_players":24,"Bots":0,"server_type":"Dedicated","server_os":"Linux","password":true,"vac":true,"version":"7961495","steam_id":85568392924515187,"keywords":["cp","nocrits","nodmgspread","uncletopia"],"game_id":440,"stv_port":27036,"stv_name":"Uncletopia | Atlanta | 3 | Stopwatch | STV","players":null},{"server_id":401,"name":"Uncletopia | Atlanta | 4 | Community","name_short":"atl-4","host":"atl-1.us.uncletopia.com","port":27045,"enabled":true,"region":"us-east","cc":"us","latitude":33.753746,"longitude":-84.38633,"reserved":0,"last_update":"0001-01-01T00:00:00Z","name_a2s":"Uncletopia | Atlanta | 4 | Community","protocol":17,"map":"cp_reckoner_rc6","folder":"tf","game":"Team Fortress","app_id":440,"player_count":0,"max_players":24,"Bots":0,"server_type":"Dedicated","server_os":"Linux","password":true,"vac":true,"version":"7961495","steam_id":85568392924515188,"keywords":["cp","nocrits","nodmgspread","uncletopia"],"game_id":440,"stv_port":27046,"stv_name":"Uncletopia | Atlanta | 4 | Community | STV","players":null},{"server_id":2,"name":"Uncletopia | Chicago | 1 | All Maps","name_short":"chi-1","host":"chi-1.us.uncletopia.com","port":27015,"enabled":true,"region":"us-central","cc":"us","latitude":41.881832,"longitude":-87.62318,"reserved":0,"last_update":"0001-01-01T00:00:00Z","name_a2s":"Uncletopia | Chicago | 1 | All Maps","protocol":17,"map":"pl_swiftwater_final1","folder":"tf","game":"Team Fortress","app_id":440,"player_count":24,"max_players":24,"Bots":0,"server_type":"Dedicated","server_os":"Linux","password":true,"vac":true,"version":"7961495","steam_id":85568392924469984,"keywords":["nocrits","nodmgspread","payload","uncletopia"],"game_id":440,"stv_port":27016,"stv_name":"Uncletopia | Chicago | 1 | All Maps | STV","players":[{"user_id":438,"name":"ADRIEN BRODY","steam_id":76561198009299473,"connected_time":513000000000,"state":"active","ping":70},{"user_id":437,"name":"lord of cinder","steam_id":76561198421249296,"connected_time":584000000000,"state":"active","ping":82},{"user_id":439,"name":"Slav main","steam_id":76561198160796479,"connected_time":512000000000,"state":"active","ping":48},{"user_id":440,"name":"‚òÇ","steam_id":76561198001263590,"connected_time":483000000000,"state":"active","ping":85},{"user_id":432,"name":"Mug Moment Gaming","steam_id":76561198233098136,"connected_time":1067000000000,"state":"active","ping":55},{"user_id":418,"name":"The Gentrified Urge","steam_id":76561198073314154,"connected_time":2089000000000,"state":"active","ping":56},{"user_id":441,"name":"wepry","steam_id":76561198114091417,"connected_time":478000000000,"state":"active","ping":56},{"user_id":401,"name":"Sunflower","steam_id":76561198081223793,"connected_time":3500000000000,"state":"active","ping":49},{"user_id":391,"name":"Ringo x Seiran","steam_id":76561198357437908,"connected_time":4018000000000,"state":"active","ping":72},{"user_id":435,"name":"NukaTheRabbit {Fur}","steam_id":76561198058692928,"connected_time":686000000000,"state":"active","ping":47},{"user_id":379,"name":"Bobby Fischer was right","steam_id":76561198286792807,"connected_time":5237000000000,"state":"active","ping":68},{"user_id":442,"name":"harry","steam_id":76561198365118514,"connected_time":463000000000,"state":"active","ping":75},{"user_id":430,"name":"Artemis1545","steam_id":76561198865786390,"connected_time":1393000000000,"state":"active","ping":120},{"user_id":443,"name":"TheNoFaceGuy","steam_id":76561198086398392,"connected_time":458000000000,"state":"active","ping":100},{"user_id":444,"name":"toastman","steam_id":76561198207073088,"connected_time":454000000000,"state":"active","ping":86},{"user_id":450,"name":"Loogey03","steam_id":76561198155483586,"connected_time":363000000000,"state":"active","ping":58},{"user_id":446,"name":"Milkmur","steam_id":76561198210043821,"connected_time":446000000000,"state":"active","ping":71},{"user_id":407,"name":"Melody","steam_id":76561198407789232,"connected_time":3028000000000,"state":"active","ping":127},{"user_id":431,"name":"Boo_898","steam_id":76561199089258632,"connected_time":1345000000000,"state":"active","ping":81},{"user_id":428,"name":"STOP YELLING IN THE MUSEUM","steam_id":76561198111259720,"connected_time":1617000000000,"state":"active","ping":68},{"user_id":343,"name":"LULW WHAT IS HE DOING?","steam_id":76561198031675881,"connected_time":7610000000000,"state":"active","ping":45},{"user_id":447,"name":"Ksu","steam_id":76561198217495147,"connected_time":431000000000,"state":"active","ping":67},{"user_id":448,"name":"CopperBox","steam_id":76561198068217248,"connected_time":427000000000,"state":"active","ping":98},{"user_id":449,"name":"mistral","steam_id":76561198883415090,"connected_time":424000000000,"state":"active","ping":89}]},{"server_id":106,"name":"Uncletopia | Chicago | 2 | All Maps","name_short":"chi-2","host":"chi-1.us.uncletopia.com","port":27025,"enabled":true,"region":"us-central","cc":"us","latitude":41.881832,"longitude":-87.62318,"reserved":0,"last_update":"0001-01-01T00:00:00Z","name_a2s":"Uncletopia | Chicago | 2 | All Maps","protocol":17,"map":"ctf_2fort","folder":"tf","game":"Team Fortress","app_id":440,"player_count":23,"max_players":24,"Bots":0,"server_type":"Dedicated","server_os":"Linux","password":true,"vac":true,"version":"7961495","steam_id":85568392924469985,"keywords":["ctf","nocrits","nodmgspread","uncletopia"],"game_id":440,"stv_port":27026,"stv_name":"Uncletopia | Chicago | 2 | All Maps | STV","players":[{"user_id":229,"name":"captainskullet","steam_id":76561198314597170,"connected_time":98000000000,"state":"active","ping":60},{"user_id":192,"name":"YoMomsSpaghetti","steam_id":76561198278451717,"connected_time":2449000000000,"state":"active","ping":55},{"user_id":236,"name":"Connick The Hedgehog","steam_id":76561198388471011,"connected_time":0,"state":"spawning","ping":32},{"user_id":227,"name":"bunsy","steam_id":76561198097292857,"connected_time":208000000000,"state":"active","ping":62},{"user_id":232,"name":"FortressGamer","steam_id":76561198144049265,"connected_time":62000000000,"state":"active","ping":94},{"user_id":204,"name":"Dr. No Name","steam_id":76561198058656869,"connected_time":1820000000000,"state":"active","ping":87},{"user_id":222,"name":"Duncan Idaho","steam_id":76561197988963861,"connected_time":768000000000,"state":"active","ping":68},{"user_id":231,"name":"King Crust of Crustmus","steam_id":76561198160930421,"connected_time":84000000000,"state":"active","ping":76},{"user_id":214,"name":"Skiddy","steam_id":76561198125942665,"connected_time":1079000000000,"state":"active","ping":65},{"user_id":221,"name":"Le","steam_id":76561198817754233,"connected_time":787000000000,"state":"active","ping":59},{"user_id":200,"name":"Carson","steam_id":76561198076771071,"connected_time":1959000000000,"state":"active","ping":45},{"user_id":121,"name":"NUt","steam_id":76561198031007966,"connected_time":7415000000000,"state":"active","ping":70},{"user_id":233,"name":"Healing Weapons Guy","steam_id":76561198005608047,"connected_time":54000000000,"state":"active","ping":79},{"user_id":218,"name":"randomperson88","steam_id":76561199228822173,"connected_time":952000000000,"state":"active","ping":59},{"user_id":205,"name":"orbisg","steam_id":76561198004133638,"connected_time":1635000000000,"state":"active","ping":152},{"user_id":224,"name":"BigNugs","steam_id":76561198056402610,"connected_time":669000000000,"state":"active","ping":67},{"user_id":234,"name":"stivanaker","steam_id":76561198346276579,"connected_time":24000000000,"state":"spawning","ping":76},{"user_id":235,"name":"bradenpawlisz","steam_id":76561199186096108,"connected_time":18000000000,"state":"active","ping":87},{"user_id":219,"name":"RyInc","steam_id":76561198874261643,"connected_time":906000000000,"state":"active","ping":45},{"user_id":226,"name":"Shitsack the Indomitable","steam_id":76561198408159536,"connected_time":494000000000,"state":"active","ping":55},{"user_id":223,"name":"ThePatheticMedic","steam_id":76561198873083105,"connected_time":762000000000,"state":"active","ping":55},{"user_id":158,"name":"cart","steam_id":76561198253731826,"connected_time":4756000000000,"state":"active","ping":58},{"user_id":206,"name":"Wishing you godspeed, glory","steam_id":76561198449527009,"connected_time":1608000000000,"state":"active","ping":89}]},{"server_id":402,"name":"Uncletopia | Chicago | 3 | All Maps","name_short":"chi-3","host":"chi-1.us.uncletopia.com","port":27035,"enabled":true,"region":"us-central","cc":"us","latitude":41.881832,"longitude":-87.62318,"reserved":0,"last_update":"0001-01-01T00:00:00Z","name_a2s":"Uncletopia | Chicago | 3 | All Maps","protocol":17,"map":"koth_cascade","folder":"tf","game":"Team Fortress","app_id":440,"player_count":0,"max_players":24,"Bots":0,"server_type":"Dedicated","server_os":"Linux","password":true,"vac":true,"version":"7961495","steam_id":85568392924515191,"keywords":["cp","nocrits","nodmgspread","uncletopia"],"game_id":440,"stv_port":27036,"stv_name":"Uncletopia | Chicago | 3 | All Maps | STV","players":null},{"server_id":403,"name":"Uncletopia | Chicago | 4 | All Maps","name_short":"chi-4","host":"chi-1.us.uncletopia.com","port":27045,"enabled":true,"region":"us-central","cc":"us","latitude":41.881832,"longitude":-87.62318,"reserved":0,"last_update":"0001-01-01T00:00:00Z","name_a2s":"Uncletopia | Chicago | 4 | All Maps","protocol":17,"map":"koth_cascade","folder":"tf","game":"Team Fortress","app_id":440,"player_count":0,"max_players":24,"Bots":0,"server_type":"Dedicated","server_os":"Linux","password":true,"vac":true,"version":"7961495","steam_id":85568392924515193,"keywords":["cp","nocrits","nodmgspread","uncletopia"],"game_id":440,"stv_port":27046,"stv_name":"Uncletopia | Chicago | 4 | All Maps | STV","players":null},{"server_id":36,"name":"Uncletopia | Chicago | 5 | All Maps","name_short":"chi-5","host":"chi-2.us.uncletopia.com","port":27015,"enabled":true,"region":"us-central","cc":"us","latitude":41.881832,"longitude":-87.62318,"reserved":0,"last_update":"0001-01-01T00:00:00Z","name_a2s":"Uncletopia | Chicago | 5 | All Maps","protocol":17,"map":"pl_borneo","folder":"tf","game":"Team Fortress","app_id":440,"player_count":25,"max_players":24,"Bots":0,"server_type":"Dedicated","server_os":"Linux","password":true,"vac":true,"version":"7961495","steam_id":85568392924866362,"keywords":["nocrits","nodmgspread","payload","uncletopia"],"game_id":440,"stv_port":27016,"stv_name":"Uncletopia | Chicago | 5 | All Maps | STV","players":[{"user_id":46,"name":"Kinnikuman","steam_id":76561199140925234,"connected_time":2926000000000,"state":"active","ping":103},{"user_id":44,"name":"The Grim Heaper","steam_id":76561197987759101,"connected_time":3607000000000,"state":"active","ping":110},{"user_id":15,"name":"The Derpy Mackerel","steam_id":76561198105463008,"connected_time":4707000000000,"state":"active","ping":41},{"user_id":82,"name":"pl_chicago","steam_id":76561198055626638,"connected_time":411000000000,"state":"active","ping":90},{"user_id":84,"name":"Engitears","steam_id":76561199309436964,"connected_time":401000000000,"state":"active","ping":96},{"user_id":85,"name":"Ridley","steam_id":76561198248615662,"connected_time":395000000000,"state":"active","ping":99},{"user_id":93,"name":"Foxtrod","steam_id":76561198127520295,"connected_time":253000000000,"state":"active","ping":86},{"user_id":61,"name":"Weary","steam_id":76561198145767546,"connected_time":1791000000000,"state":"active","ping":65},{"user_id":92,"name":"Time Traveler","steam_id":76561199068174237,"connected_time":303000000000,"state":"active","ping":79},{"user_id":81,"name":"Glue Gulper","steam_id":76561198158014525,"connected_time":424000000000,"state":"active","ping":58},{"user_id":67,"name":"poverty gaming","steam_id":76561199177831971,"connected_time":1743000000000,"state":"active","ping":80},{"user_id":65,"name":"Ember Tsuji","steam_id":76561198307761034,"connected_time":1762000000000,"state":"active","ping":146},{"user_id":86,"name":"Mr. Fluffy Penguins","steam_id":76561198172538149,"connected_time":380000000000,"state":"active","ping":105},{"user_id":63,"name":"NGsterson","steam_id":76561198162108154,"connected_time":1774000000000,"state":"active","ping":100},{"user_id":27,"name":"Genius Meme","steam_id":76561198162911254,"connected_time":4406000000000,"state":"active","ping":109},{"user_id":95,"name":"tydogzilla","steam_id":76561198054254518,"connected_time":183000000000,"state":"active","ping":74},{"user_id":87,"name":"Don't Fuckle with Shuckle","steam_id":76561199020102367,"connected_time":360000000000,"state":"active","ping":77},{"user_id":49,"name":"Dr.McMoon","steam_id":76561198357908422,"connected_time":2858000000000,"state":"active","ping":69},{"user_id":75,"name":"GooniOoni","steam_id":76561198102154561,"connected_time":1061000000000,"state":"active","ping":53},{"user_id":88,"name":"caption cool","steam_id":76561197990612056,"connected_time":347000000000,"state":"active","ping":52},{"user_id":94,"name":"Mongoose88","steam_id":76561197961442445,"connected_time":240000000000,"state":"active","ping":72},{"user_id":76,"name":"RoFrogle","steam_id":76561199078941377,"connected_time":911000000000,"state":"active","ping":59},{"user_id":51,"name":"zoomer on phone","steam_id":76561199041402389,"connected_time":2843000000000,"state":"active","ping":75},{"user_id":90,"name":"Nemiel Zaharion","steam_id":76561197999234678,"connected_time":329000000000,"state":"active","ping":77},{"user_id":96,"name":"Lia_Rein","steam_id":76561198151569597,"connected_time":40000000000,"state":"active","ping":151}]},{"server_id":37,"name":"Uncletopia | Chicago | 6 | All Maps","name_short":"chi-6","host":"chi-2.us.uncletopia.com","port":27025,"enabled":true,"region":"us-central","cc":"us","latitude":41.881832,"longitude":-87.62318,"reserved":0,"last_update":"0001-01-01T00:00:00Z","name_a2s":"Uncletopia | Chicago | 6 | All Maps","protocol":17,"map":"koth_cascade","folder":"tf","game":"Team Fortress","app_id":440,"player_count":0,"max_players":24,"Bots":0,"server_type":"Dedicated","server_os":"Linux","password":true,"vac":true,"version":"7961495","steam_id":85568392924866363,"keywords":["cp","nocrits","nodmgspread","uncletopia"],"game_id":440,"stv_port":27026,"stv_name":"Uncletopia | Chicago | 6 | All Maps | STV","players":null},{"server_id":38,"name":"Uncletopia | Chicago | 7 | Stopwatch","name_short":"chi-7","host":"chi-2.us.uncletopia.com","port":27035,"enabled":true,"region":"us-central","cc":"us","latitude":41.881832,"longitude":-87.62318,"reserved":0,"last_update":"0001-01-01T00:00:00Z","name_a2s":"Uncletopia | Chicago | 7 | Stopwatch","protocol":17,"map":"pl_badwater","folder":"tf","game":"Team Fortress","app_id":440,"player_count":0,"max_players":24,"Bots":0,"server_type":"Dedicated","server_os":"Linux","password":true,"vac":true,"version":"7961495","steam_id":85568392924866364,"keywords":["nocrits","nodmgspread","payload","uncletopia"],"game_id":440,"stv_port":27036,"stv_name":"Uncletopia | Chicago | 7 | Stopwatch | STV","players":null},{"server_id":39,"name":"Uncletopia | Chicago | 8 | Community","name_short":"chi-8","host":"chi-2.us.uncletopia.com","port":27045,"enabled":true,"region":"us-central","cc":"us","latitude":41.881832,"longitude":-87.62318,"reserved":0,"last_update":"0001-01-01T00:00:00Z","name_a2s":"Uncletopia | Chicago | 8 | Community","protocol":17,"map":"workshop/cp_bruhstbowl_b6.ugc2878604990","folder":"tf","game":"Team Fortress","app_id":440,"player_count":0,"max_players":24,"Bots":0,"server_type":"Dedicated","server_os":"Linux","password":true,"vac":true,"version":"7961495","steam_id":85568392924866365,"keywords":["cp","nocrits","nodmgspread","uncletopia"],"game_id":440,"stv_port":27046,"stv_name":"Uncletopia | Chicago | 8 | Community | STV","players":null},{"server_id":8,"name":"Uncletopia | Dallas | 1 | All Maps","name_short":"dal-1","host":"dal-1.us.uncletopia.com","port":27015,"enabled":true,"region":"us-central","cc":"us","latitude":32.779167,"longitude":-96.80889,"reserved":0,"last_update":"0001-01-01T00:00:00Z","name_a2s":"Uncletopia | Dallas | 1 | All Maps","protocol":17,"map":"cp_steel","folder":"tf","game":"Team Fortress","app_id":440,"player_count":24,"max_players":24,"Bots":0,"server_type":"Dedicated","server_os":"Linux","password":true,"vac":true,"version":"7961495","steam_id":85568392924469986,"keywords":["cp","nocrits","nodmgspread","uncletopia"],"game_id":440,"stv_port":27016,"stv_name":"Uncletopia | Dallas | 1 | All Maps | STV","players":[{"user_id":300,"name":"The Roto Grip Exotic Gem","steam_id":76561197961141994,"connected_time":383000000000,"state":"active","ping":136},{"user_id":277,"name":"remanedur","steam_id":76561198059459507,"connected_time":2702000000000,"state":"active","ping":108},{"user_id":301,"name":"HorizonPear","steam_id":76561198179808389,"connected_time":375000000000,"state":"active","ping":103},{"user_id":281,"name":"Crabohydrate","steam_id":76561198157019155,"connected_time":1981000000000,"state":"active","ping":123},{"user_id":285,"name":"–û–±–∞–º–∞","steam_id":76561198134415874,"connected_time":1688000000000,"state":"active","ping":65},{"user_id":303,"name":"¬£1.50 Terry's Chocolate Orange","steam_id":76561198000369215,"connected_time":70000000000,"state":"active","ping":168},{"user_id":302,"name":"Willy","steam_id":76561198046508940,"connected_time":317000000000,"state":"active","ping":90},{"user_id":297,"name":"deb","steam_id":76561198414336279,"connected_time":714000000000,"state":"active","ping":48},{"user_id":287,"name":"sc67","steam_id":76561199302471485,"connected_time":1606000000000,"state":"active","ping":69},{"user_id":266,"name":"moe","steam_id":76561198929586245,"connected_time":3164000000000,"state":"active","ping":88},{"user_id":243,"name":"Scrux","steam_id":76561198129763115,"connected_time":4518000000000,"state":"active","ping":90},{"user_id":260,"name":"small meth pouch","steam_id":76561198130412963,"connected_time":3341000000000,"state":"active","ping":70},{"user_id":270,"name":"I am the pinnacle of funny","steam_id":76561198306393090,"connected_time":3147000000000,"state":"active","ping":58},{"user_id":304,"name":"JayRawgTV","steam_id":76561198044402840,"connected_time":3000000000,"state":"spawning","ping":50},{"user_id":253,"name":"Borgir","steam_id":76561198325390265,"connected_time":4000000000000,"state":"active","ping":64},{"user_id":239,"name":"DMM","steam_id":76561198065426171,"connected_time":4720000000000,"state":"active","ping":61},{"user_id":292,"name":"Dogbone","steam_id":76561198145805801,"connected_time":1380000000000,"state":"active","ping":98},{"user_id":289,"name":"Genne","steam_id":76561198153434791,"connected_time":1497000000000,"state":"active","ping":82},{"user_id":294,"name":"Red","steam_id":76561198001939529,"connected_time":829000000000,"state":"active","ping":85},{"user_id":279,"name":"Alkimia","steam_id":76561198385763137,"connected_time":2564000000000,"state":"active","ping":130},{"user_id":280,"name":"Cyberpunk McDonald's Play Place","steam_id":76561198063512035,"connected_time":2447000000000,"state":"active","ping":106},{"user_id":290,"name":"Grify","steam_id":76561198012292317,"connected_time":1496000000000,"state":"active","ping":91},{"user_id":205,"name":"TheGFG","steam_id":76561198166150556,"connected_time":6989000000000,"state":"active","ping":76},{"user_id":299,"name":"The Foolish Samurai","steam_id":76561198094494945,"connected_time":631000000000,"state":"active","ping":89}]},{"server_id":108,"name":"Uncletopia | Dallas | 2 | All Maps","name_short":"dal-2","host":"dal-1.us.uncletopia.com","port":27025,"enabled":true,"region":"us-central","cc":"us","latitude":32.779167,"longitude":-96.80889,"reserved":0,"last_update":"0001-01-01T00:00:00Z","name_a2s":"Uncletopia | Dallas | 2 | All Maps","protocol":17,"map":"pl_snowycoast","folder":"tf","game":"Team Fortress","app_id":440,"player_count":24,"max_players":24,"Bots":0,"server_type":"Dedicated","server_os":"Linux","password":true,"vac":true,"version":"7961495","steam_id":85568392924469988,"keywords":["nocrits","nodmgspread","payload","uncletopia"],"game_id":440,"stv_port":27026,"stv_name":"Uncletopia | Dallas | 2 | All Maps | STV","players":[{"user_id":129,"name":"Danoman47","steam_id":76561199377565865,"connected_time":274000000000,"state":"active","ping":79},{"user_id":121,"name":"1000 Gigglebytes of clown girls","steam_id":76561198290719848,"connected_time":1102000000000,"state":"active","ping":99},{"user_id":127,"name":"Beantama","steam_id":76561198986811476,"connected_time":376000000000,"state":"active","ping":63},{"user_id":122,"name":"Gigacheat","steam_id":76561198862843572,"connected_time":1060000000000,"state":"active","ping":95},{"user_id":123,"name":"Freyja","steam_id":76561198207412177,"connected_time":997000000000,"state":"active","ping":72},{"user_id":100,"name":"Bisque","steam_id":76561198327661850,"connected_time":1615000000000,"state":"active","ping":70},{"user_id":125,"name":"IAmAProfesonal","steam_id":76561199171858953,"connected_time":438000000000,"state":"active","ping":75},{"user_id":106,"name":"Story","steam_id":76561199088496817,"connected_time":1345000000000,"state":"active","ping":60},{"user_id":126,"name":"my name jeff","steam_id":76561198179816898,"connected_time":400000000000,"state":"active","ping":112},{"user_id":111,"name":"Dreszerg","steam_id":76561198838757422,"connected_time":1252000000000,"state":"active","ping":86},{"user_id":96,"name":"bottom pride burger","steam_id":76561198322247602,"connected_time":2445000000000,"state":"active","ping":90},{"user_id":115,"name":"wmarriner66","steam_id":76561198045357592,"connected_time":1212000000000,"state":"active","ping":96},{"user_id":66,"name":"the munch","steam_id":76561199164347838,"connected_time":5116000000000,"state":"active","ping":70},{"user_id":97,"name":"Easey","steam_id":76561198230316868,"connected_time":2304000000000,"state":"active","ping":62},{"user_id":130,"name":"ƒê√Ø…ê»ê…π…¶…Üa","steam_id":76561198981411945,"connected_time":217000000000,"state":"active","ping":94},{"user_id":131,"name":"MrMiller","steam_id":76561199497141706,"connected_time":105000000000,"state":"active","ping":126},{"user_id":118,"name":"fork","steam_id":76561198038003527,"connected_time":1173000000000,"state":"active","ping":83},{"user_id":99,"name":"lynks disease no sound","steam_id":76561198043465434,"connected_time":2281000000000,"state":"active","ping":94},{"user_id":132,"name":"Dr. Miami","steam_id":76561198083851689,"connected_time":30000000000,"state":"spawning","ping":45},{"user_id":128,"name":"Anti-Clown","steam_id":76561199041966659,"connected_time":353000000000,"state":"active","ping":79},{"user_id":95,"name":"MadAlexei_","steam_id":76561199074005075,"connected_time":2521000000000,"state":"active","ping":102},{"user_id":120,"name":"Seanathon Hooper","steam_id":76561198250923612,"connected_time":1144000000000,"state":"active","ping":73},{"user_id":101,"name":"LivingRaccoon","steam_id":76561198035425632,"connected_time":1591000000000,"state":"active","ping":88},{"user_id":63,"name":"Kira","steam_id":76561198021582061,"connected_time":5695000000000,"state":"active","ping":80}]},{"server_id":404,"name":"Uncletopia | Dallas | 3 | All Maps","name_short":"dal-3","host":"dal-1.us.uncletopia.com","port":27035,"enabled":true,"region":"us-central","cc":"us","latitude":32.779167,"longitude":-96.80889,"reserved":0,"last_update":"0001-01-01T00:00:00Z","name_a2s":"Uncletopia | Dallas | 3 | All Maps","protocol":17,"map":"pl_upward","folder":"tf","game":"Team Fortress","app_id":440,"player_count":23,"max_players":24,"Bots":0,"server_type":"Dedicated","server_os":"Linux","password":true,"vac":true,"version":"7961495","steam_id":85568392924515219,"keywords":["nocrits","nodmgspread","payload","uncletopia"],"game_id":440,"stv_port":27036,"stv_name":"Uncletopia | Dallas | 3 | All Maps | STV","players":[{"user_id":14,"name":"Ockulus","steam_id":76561199069638460,"connected_time":2946000000000,"state":"active","ping":97},{"user_id":5,"name":"andyiscolorless","steam_id":76561199239870921,"connected_time":3806000000000,"state":"active","ping":145},{"user_id":72,"name":"Indian Elephant From Pokemon","steam_id":76561198064249841,"connected_time":289000000000,"state":"active","ping":87},{"user_id":53,"name":"Minlit","steam_id":76561198205832799,"connected_time":952000000000,"state":"active","ping":58},{"user_id":73,"name":"(1)wahooka","steam_id":76561197981211922,"connected_time":281000000000,"state":"active","ping":98},{"user_id":54,"name":"Carbonado","steam_id":76561198406495503,"connected_time":789000000000,"state":"active","ping":55},{"user_id":56,"name":"Mat-Shades","steam_id":76561198013998031,"connected_time":760000000000,"state":"active","ping":87},{"user_id":75,"name":"Talented","steam_id":76561198800259660,"connected_time":56000000000,"state":"active","ping":76},{"user_id":71,"name":"ball","steam_id":76561198441077398,"connected_time":347000000000,"state":"active","ping":44},{"user_id":32,"name":"Female Gamer","steam_id":76561199366482682,"connected_time":2366000000000,"state":"active","ping":117},{"user_id":21,"name":"this Earl guy","steam_id":76561198135625604,"connected_time":2544000000000,"state":"active","ping":162},{"user_id":42,"name":"vanta","steam_id":76561198084317504,"connected_time":1813000000000,"state":"active","ping":75},{"user_id":46,"name":"corviraptor (\u003c--- awesome)","steam_id":76561198058284392,"connected_time":1420000000000,"state":"active","ping":58},{"user_id":59,"name":"MeatwadMeatwad","steam_id":76561198202194160,"connected_time":718000000000,"state":"active","ping":69},{"user_id":60,"name":"Zhong Xina","steam_id":76561198048157121,"connected_time":710000000000,"state":"active","ping":107},{"user_id":67,"name":"tbrry","steam_id":76561198151465655,"connected_time":607000000000,"state":"active","ping":88},{"user_id":65,"name":"StudioMania (#SAVETF2)","steam_id":76561198211315795,"connected_time":634000000000,"state":"active","ping":80},{"user_id":28,"name":"Groth","steam_id":76561198061888926,"connected_time":2407000000000,"state":"active","ping":67},{"user_id":52,"name":"she's 12","steam_id":76561198295034584,"connected_time":1152000000000,"state":"active","ping":87},{"user_id":66,"name":"Wahooka","steam_id":76561197962240925,"connected_time":622000000000,"state":"active","ping":88},{"user_id":68,"name":"SC|Formuoli","steam_id":76561198254354595,"connected_time":590000000000,"state":"active","ping":60},{"user_id":43,"name":"aight, who shit myself","steam_id":76561198062763756,"connected_time":1807000000000,"state":"active","ping":76},{"user_id":45,"name":"Mr.Bones","steam_id":76561198205170595,"connected_time":1515000000000,"state":"active","ping":107}]},{"server_id":405,"name":"Uncletopia | Dallas | 4 | Community","name_short":"dal-4","host":"dal-1.us.uncletopia.com","port":27045,"enabled":true,"region":"us-central","cc":"us","latitude":32.779167,"longitude":-96.80889,"reserved":0,"last_update":"0001-01-01T00:00:00Z","name_a2s":"Uncletopia | Dallas | 4 | Community","protocol":17,"map":"workshop/pl_divulgence_b4b.ugc2884808746","folder":"tf","game":"Team Fortress","app_id":440,"player_count":0,"max_players":24,"Bots":0,"server_type":"Dedicated","server_os":"Linux","password":true,"vac":true,"version":"7961495","steam_id":85568392924515220,"keywords":["nocrits","nodmgspread","payload","uncletopia"],"game_id":440,"stv_port":27046,"stv_name":"Uncletopia | Dallas | 4 | Community | STV","players":null},{"server_id":5,"name":"Uncletopia | Frankfurt | 1 | All Maps","name_short":"frk-1","host":"frk-1.de.uncletopia.com","port":27015,"enabled":true,"region":"eu","cc":"de","latitude":50.110924,"longitude":8.682127,"reserved":0,"last_update":"0001-01-01T00:00:00Z","name_a2s":"Uncletopia | Frankfurt | 1 | All Maps","protocol":17,"map":"cp_badlands","folder":"tf","game":"Team Fortress","app_id":440,"player_count":24,"max_players":24,"Bots":0,"server_type":"Dedicated","server_os":"Linux","password":true,"vac":true,"version":"7961495","steam_id":85568392924469989,"keywords":["cp","nocrits","nodmgspread","uncletopia"],"game_id":440,"stv_port":27016,"stv_name":"Uncletopia | Frankfurt | 1 | All Maps | STV","players":[{"user_id":625,"name":"Killbasa","steam_id":76561198064868400,"connected_time":697000000000,"state":"active","ping":131},{"user_id":590,"name":"mary","steam_id":76561198014828037,"connected_time":3152000000000,"state":"active","ping":67},{"user_id":593,"name":"_Starlight_","steam_id":76561197993885738,"connected_time":3083000000000,"state":"active","ping":86},{"user_id":594,"name":"finnish sniper","steam_id":76561199226847880,"connected_time":3013000000000,"state":"active","ping":109},{"user_id":572,"name":"tuna","steam_id":76561198086630630,"connected_time":4488000000000,"state":"active","ping":52},{"user_id":604,"name":"Der Herr Doktor","steam_id":76561198119476089,"connected_time":2634000000000,"state":"active","ping":50},{"user_id":545,"name":"Bruhn","steam_id":76561198106133548,"connected_time":6214000000000,"state":"active","ping":71},{"user_id":629,"name":"humble genius","steam_id":76561198243808680,"connected_time":296000000000,"state":"active","ping":57},{"user_id":618,"name":"Ergosum","steam_id":76561199094592508,"connected_time":1305000000000,"state":"active","ping":64},{"user_id":627,"name":"pezza","steam_id":76561197995173247,"connected_time":453000000000,"state":"active","ping":70},{"user_id":608,"name":"AdeAAa","steam_id":76561198974207724,"connected_time":1715000000000,"state":"active","ping":99},{"user_id":619,"name":"HetNet","steam_id":76561198207584963,"connected_time":1055000000000,"state":"active","ping":84},{"user_id":620,"name":"Tyber","steam_id":76561198125886061,"connected_time":1043000000000,"state":"active","ping":69},{"user_id":614,"name":"GregTheMadMonk","steam_id":76561198134043537,"connected_time":1546000000000,"state":"active","ping":62},{"user_id":577,"name":"D1n0Master","steam_id":76561198242499784,"connected_time":4340000000000,"state":"active","ping":69},{"user_id":628,"name":"{[Jax]}","steam_id":76561199468162789,"connected_time":452000000000,"state":"active","ping":164},{"user_id":607,"name":"Nobody","steam_id":76561198151116796,"connected_time":1757000000000,"state":"active","ping":83},{"user_id":631,"name":"Urfangonultasadana","steam_id":76561199389286151,"connected_time":200000000000,"state":"active","ping":93},{"user_id":556,"name":"Jucatron","steam_id":76561198044259577,"connected_time":5859000000000,"state":"active","ping":77},{"user_id":600,"name":"Pitipit","steam_id":76561198343333412,"connected_time":2794000000000,"state":"active","ping":93},{"user_id":621,"name":"Pvt. Prinny","steam_id":76561198030278562,"connected_time":1009000000000,"state":"active","ping":58},{"user_id":606,"name":"Dokuro","steam_id":76561198005413903,"connected_time":1934000000000,"state":"active","ping":70},{"user_id":605,"name":"Dude‚Ñ¢","steam_id":76561198082099161,"connected_time":2464000000000,"state":"active","ping":81},{"user_id":623,"name":"Aku+","steam_id":76561198813782795,"connected_time":942000000000,"state":"active","ping":73}]},{"server_id":110,"name":"Uncletopia | Frankfurt | 2 | All Maps","name_short":"frk-2","host":"frk-1.de.uncletopia.com","port":27025,"enabled":true,"region":"eu","cc":"de","latitude":50.110924,"longitude":8.682127,"reserved":0,"last_update":"0001-01-01T00:00:00Z","name_a2s":"Uncletopia | Frankfurt | 2 | All Maps","protocol":17,"map":"pl_swiftwater_final1","folder":"tf","game":"Team Fortress","app_id":440,"player_count":24,"max_players":24,"Bots":0,"server_type":"Dedicated","server_os":"Linux","password":true,"vac":true,"version":"7961495","steam_id":85568392924469990,"keywords":["nocrits","nodmgspread","payload","uncletopia"],"game_id":440,"stv_port":27026,"stv_name":"Uncletopia | Frankfurt | 2 | All Maps | STV","players":[{"user_id":510,"name":"MUWEQ","steam_id":76561198107615727,"connected_time":791000000000,"state":"active","ping":73},{"user_id":517,"name":"BELADIT","steam_id":76561198011911501,"connected_time":374000000000,"state":"active","ping":73},{"user_id":491,"name":"Ricey","steam_id":76561198832961307,"connected_time":2365000000000,"state":"active","ping":57},{"user_id":525,"name":"thekoolest88","steam_id":76561199022415672,"connected_time":132000000000,"state":"active","ping":156},{"user_id":524,"name":"Vitamin Weee","steam_id":76561199183937747,"connected_time":165000000000,"state":"active","ping":83},{"user_id":515,"name":"Egtu","steam_id":76561198013757235,"connected_time":519000000000,"state":"active","ping":61},{"user_id":516,"name":"Active Green","steam_id":76561199245281800,"connected_time":479000000000,"state":"active","ping":92},{"user_id":486,"name":"BoBa_fett","steam_id":76561198185214165,"connected_time":2426000000000,"state":"active","ping":59},{"user_id":518,"name":"Ash","steam_id":76561198148738525,"connected_time":303000000000,"state":"active","ping":111},{"user_id":520,"name":"he made graduation","steam_id":76561198017114970,"connected_time":247000000000,"state":"active","ping":60},{"user_id":513,"name":"Der_Milchmann","steam_id":76561198001417748,"connected_time":539000000000,"state":"active","ping":54},{"user_id":484,"name":"I_Forgot_My_Name","steam_id":76561198173424578,"connected_time":2653000000000,"state":"active","ping":70},{"user_id":506,"name":"traudinix","steam_id":76561198061363420,"connected_time":952000000000,"state":"active","ping":51},{"user_id":495,"name":"Suetolog","steam_id":76561199053090212,"connected_time":1786000000000,"state":"active","ping":49},{"user_id":490,"name":"Zu","steam_id":76561198054192354,"connected_time":2380000000000,"state":"active","ping":52},{"user_id":508,"name":"ego944","steam_id":76561197999290923,"connected_time":916000000000,"state":"active","ping":52},{"user_id":469,"name":"Arcan'O'Boulus","steam_id":76561198041985578,"connected_time":3628000000000,"state":"active","ping":55},{"user_id":521,"name":"orphan smeller","steam_id":76561198107876224,"connected_time":245000000000,"state":"active","ping":46},{"user_id":526,"name":"primordial soup enjoyer","steam_id":76561199163260578,"connected_time":127000000000,"state":"active","ping":58},{"user_id":497,"name":"[AXG] PK Blizzard","steam_id":76561198039836567,"connected_time":1746000000000,"state":"active","ping":54},{"user_id":450,"name":"Revers","steam_id":76561198026409987,"connected_time":4502000000000,"state":"active","ping":69},{"user_id":523,"name":"Vince","steam_id":76561199103000131,"connected_time":183000000000,"state":"active","ping":60},{"user_id":527,"name":"lilyskittle","steam_id":76561198303232638,"connected_time":126000000000,"state":"active","ping":70},{"user_id":485,"name":"Marabosha","steam_id":76561198137599173,"connected_time":2504000000000,"state":"active","ping":106}]},{"server_id":308,"name":"Uncletopia | Frankfurt | 3 | All Maps","name_short":"frk-3","host":"frk-1.de.uncletopia.com","port":27035,"enabled":true,"region":"eu","cc":"de","latitude":50.110924,"longitude":8.682127,"reserved":0,"last_update":"0001-01-01T00:00:00Z","name_a2s":"Uncletopia | Frankfurt | 3 | All Maps","protocol":17,"map":"cp_sunshine","folder":"tf","game":"Team Fortress","app_id":440,"player_count":18,"max_players":24,"Bots":0,"server_type":"Dedicated","server_os":"Linux","password":true,"vac":true,"version":"7961495","steam_id":85568392924504274,"keywords":["cp","nocrits","nodmgspread","uncletopia"],"game_id":440,"stv_port":27036,"stv_name":"Uncletopia | Frankfurt | 3 | All Maps | STV","players":[{"user_id":776,"name":"mohemmedmokhter2005","steam_id":76561199197650506,"connected_time":228000000000,"state":"active","ping":108},{"user_id":752,"name":"Stalin","steam_id":76561199221478774,"connected_time":1752000000000,"state":"active","ping":112},{"user_id":706,"name":"Vershal Smershal","steam_id":76561198116223995,"connected_time":2976000000000,"state":"active","ping":56},{"user_id":777,"name":"Lag","steam_id":76561198159360376,"connected_time":178000000000,"state":"active","ping":59},{"user_id":757,"name":"The Manager of Sex Inc.","steam_id":76561198385989487,"connected_time":1378000000000,"state":"active","ping":100},{"user_id":749,"name":"Kahvi","steam_id":76561198723244199,"connected_time":1915000000000,"state":"active","ping":81},{"user_id":745,"name":"Cosmetic brain","steam_id":76561198055936410,"connected_time":1971000000000,"state":"active","ping":90},{"user_id":754,"name":"edmund","steam_id":76561198378470149,"connected_time":1699000000000,"state":"active","ping":68},{"user_id":772,"name":"PROFILE NAME","steam_id":76561198180056982,"connected_time":334000000000,"state":"active","ping":54},{"user_id":775,"name":"Ryan Gosling (Literally me)","steam_id":76561198438150893,"connected_time":249000000000,"state":"active","ping":103},{"user_id":779,"name":"FilipeLuk","steam_id":76561198150675438,"connected_time":88000000000,"state":"active","ping":60},{"user_id":781,"name":"simon","steam_id":76561198160514633,"connected_time":8000000000,"state":"spawning","ping":134},{"user_id":760,"name":"Ross [AT]","steam_id":76561198322955357,"connected_time":1326000000000,"state":"active","ping":75},{"user_id":683,"name":"I AM SUMMER SLAYCATION","steam_id":76561198179339326,"connected_time":3250000000000,"state":"active","ping":89},{"user_id":763,"name":"Ceiling fan enthusiast","steam_id":76561197989214268,"connected_time":1303000000000,"state":"active","ping":64},{"user_id":704,"name":"xavier","steam_id":76561198076494034,"connected_time":3014000000000,"state":"active","ping":59},{"user_id":766,"name":"Jonak","steam_id":76561198080832458,"connected_time":1245000000000,"state":"active","ping":62},{"user_id":774,"name":"monsieur sex","steam_id":76561198057215355,"connected_time":321000000000,"state":"active","ping":70}]},{"server_id":309,"name":"Uncletopia | Frankfurt | 4 | All Maps","name_short":"frk-4","host":"frk-1.de.uncletopia.com","port":27045,"enabled":true,"region":"eu","cc":"de","latitude":50.110924,"longitude":8.682127,"reserved":0,"last_update":"0001-01-01T00:00:00Z","name_a2s":"Uncletopia | Frankfurt | 4 | All Maps","protocol":17,"map":"cp_sunshine","folder":"tf","game":"Team Fortress","app_id":440,"player_count":23,"max_players":24,"Bots":0,"server_type":"Dedicated","server_os":"Linux","password":true,"vac":true,"version":"7961495","steam_id":85568392924504275,"keywords":["cp","nocrits","nodmgspread","uncletopia"],"game_id":440,"stv_port":27046,"stv_name":"Uncletopia | Frankfurt | 4 | All Maps | STV","players":[{"user_id":248,"name":"Hellheim_Prime","steam_id":76561198379799377,"connected_time":3876000000000,"state":"active","ping":94},{"user_id":238,"name":"üòà COCKDESTROYER üòà","steam_id":76561198042846999,"connected_time":4170000000000,"state":"active","ping":61},{"user_id":315,"name":"Arcware","steam_id":76561199111430920,"connected_time":1514000000000,"state":"active","ping":72},{"user_id":299,"name":"chillrend_morphs_high_lod6","steam_id":76561198452963141,"connected_time":2240000000000,"state":"active","ping":73},{"user_id":308,"name":"Octomal800","steam_id":76561199453595616,"connected_time":1588000000000,"state":"active","ping":142},{"user_id":326,"name":"Wiverny","steam_id":76561198061954999,"connected_time":610000000000,"state":"active","ping":36},{"user_id":298,"name":"corralled","steam_id":76561198028648627,"connected_time":2268000000000,"state":"active","ping":66},{"user_id":319,"name":"\u003e\u003c\u003e","steam_id":76561198152392309,"connected_time":1341000000000,"state":"active","ping":46},{"user_id":327,"name":"humble cat","steam_id":76561198299040854,"connected_time":585000000000,"state":"active","ping":59},{"user_id":316,"name":"Nittugai","steam_id":76561198067366462,"connected_time":1513000000000,"state":"active","ping":60},{"user_id":249,"name":"Fat Pigeon","steam_id":76561198817940142,"connected_time":3873000000000,"state":"active","ping":46},{"user_id":325,"name":"AproX","steam_id":76561198880652045,"connected_time":731000000000,"state":"active","ping":73},{"user_id":311,"name":"quack","steam_id":76561198121003465,"connected_time":1550000000000,"state":"active","ping":60},{"user_id":328,"name":"cupcakedealer69402","steam_id":76561199122061900,"connected_time":426000000000,"state":"active","ping":148},{"user_id":321,"name":"JohnarasGamer1","steam_id":76561198365929872,"connected_time":1241000000000,"state":"active","ping":62},{"user_id":331,"name":"ouchie wouchies","steam_id":76561198105443986,"connected_time":159000000000,"state":"active","ping":79},{"user_id":263,"name":"StaigerDuck","steam_id":76561199190706582,"connected_time":3722000000000,"state":"active","ping":149},{"user_id":306,"name":"pretty dick peso","steam_id":76561198798177799,"connected_time":1745000000000,"state":"active","ping":72},{"user_id":323,"name":"Gooner","steam_id":76561198087035309,"connected_time":1191000000000,"state":"active","ping":60},{"user_id":330,"name":"silly penguin guy","steam_id":76561198123592400,"connected_time":301000000000,"state":"active","ping":85},{"user_id":317,"name":"MISTER SUIIII","steam_id":76561198018330092,"connected_time":1512000000000,"state":"active","ping":68},{"user_id":303,"name":"o_o","steam_id":76561198113045011,"connected_time":2172000000000,"state":"active","ping":90},{"user_id":324,"name":"Xiqui","steam_id":76561198818386611,"connected_time":1080000000000,"state":"active","ping":90}]},{"server_id":310,"name":"Uncletopia | Frankfurt | 5 | All Maps","name_short":"frk-5","host":"frk-1.de.uncletopia.com","port":27055,"enabled":true,"region":"eu","cc":"de","latitude":50.110924,"longitude":8.682127,"reserved":0,"last_update":"0001-01-01T00:00:00Z","name_a2s":"Uncletopia | Frankfurt | 5 | All Maps","protocol":17,"map":"cp_sunshine","folder":"tf","game":"Team Fortress","app_id":440,"player_count":0,"max_players":24,"Bots":0,"server_type":"Dedicated","server_os":"Linux","password":true,"vac":true,"version":"7961495","steam_id":85568392924504277,"keywords":["cp","nocrits","nodmgspread","uncletopia"],"game_id":440,"stv_port":27056,"stv_name":"Uncletopia | Frankfurt | 5 | All Maps | STV","players":null},{"server_id":311,"name":"Uncletopia | Frankfurt | 6 | All Maps","name_short":"frk-6","host":"frk-1.de.uncletopia.com","port":27065,"enabled":true,"region":"eu","cc":"de","latitude":50.110924,"longitude":8.682127,"reserved":0,"last_update":"0001-01-01T00:00:00Z","name_a2s":"Uncletopia | Frankfurt | 6 | All Maps","protocol":17,"map":"pl_barnblitz","folder":"tf","game":"Team Fortress","app_id":440,"player_count":0,"max_players":24,"Bots":0,"server_type":"Dedicated","server_os":"Linux","password":true,"vac":true,"version":"7961495","steam_id":85568392924504278,"keywords":["nocrits","nodmgspread","payload","uncletopia"],"game_id":440,"stv_port":27066,"stv_name":"Uncletopia | Frankfurt | 6 | All Maps | STV","players":null},{"server_id":23,"name":"Uncletopia | Frankfurt | 7 | Stopwatch","name_short":"frk-7","host":"frk-1.de.uncletopia.com","port":27075,"enabled":true,"region":"eu","cc":"de","latitude":50.110924,"longitude":8.682127,"reserved":0,"last_update":"0001-01-01T00:00:00Z","name_a2s":"Uncletopia | Frankfurt | 7 | Stopwatch","protocol":17,"map":"pl_frontier_final","folder":"tf","game":"Team Fortress","app_id":440,"player_count":0,"max_players":24,"Bots":0,"server_type":"Dedicated","server_os":"Linux","password":true,"vac":true,"version":"7961495","steam_id":85568392924742827,"keywords":["nocrits","nodmgspread","payload","uncletopia"],"game_id":440,"stv_port":27076,"stv_name":"Uncletopia | Frankfurt | 7 | Stopwatch | STV","players":null},{"server_id":24,"name":"Uncletopia | Frankfurt | 8 | Community","name_short":"frk-8","host":"frk-1.de.uncletopia.com","port":27085,"enabled":true,"region":"eu","cc":"de","latitude":50.110924,"longitude":8.682127,"reserved":0,"last_update":"0001-01-01T00:00:00Z","name_a2s":"Uncletopia | Frankfurt | 8 | Community","protocol":17,"map":"cp_mountainlab","folder":"tf","game":"Team Fortress","app_id":440,"player_count":0,"max_players":24,"Bots":0,"server_type":"Dedicated","server_os":"Linux","password":true,"vac":true,"version":"7961495","steam_id":85568392924742828,"keywords":["cp","nocrits","nodmgspread","uncletopia"],"game_id":440,"stv_port":27086,"stv_name":"Uncletopia | Frankfurt | 8 | Community | STV","players":null},{"server_id":202,"name":"Uncletopia | Hong Kong | 1 | All Maps","name_short":"hgk-1","host":"hgk-1.hk.uncletopia.com","port":27015,"enabled":true,"region":"asia","cc":"hk","latitude":22.302711,"longitude":114.177216,"reserved":0,"last_update":"0001-01-01T00:00:00Z","name_a2s":"Uncletopia | Hong Kong | 1 | All Maps","protocol":17,"map":"koth_viaduct","folder":"tf","game":"Team Fortress","app_id":440,"player_count":0,"max_players":24,"Bots":0,"server_type":"Dedicated","server_os":"Linux","password":true,"vac":true,"version":"7961495","steam_id":85568392924494504,"keywords":["cp","nocrits","nodmgspread","uncletopia"],"game_id":440,"stv_port":27016,"stv_name":"Uncletopia | Hong Kong | 1 | All Maps | STV","players":null},{"server_id":1,"name":"Uncletopia | Los Angeles | 1 | All Maps","name_short":"lax-1","host":"lax-1.us.uncletopia.com","port":27015,"enabled":true,"region":"us-west","cc":"us","latitude":33.94279,"longitude":-118.41004,"reserved":0,"last_update":"0001-01-01T00:00:00Z","name_a2s":"Uncletopia | Los Angeles | 1 | All Maps","protocol":17,"map":"koth_lakeside_final","folder":"tf","game":"Team Fortress","app_id":440,"player_count":0,"max_players":24,"Bots":0,"server_type":"Dedicated","server_os":"Linux","password":true,"vac":true,"version":"7961495","steam_id":85568392924469991,"keywords":["cp","nocrits","nodmgspread","uncletopia"],"game_id":440,"stv_port":27016,"stv_name":"Uncletopia | Los Angeles | 1 | All Maps | STV","players":null},{"server_id":112,"name":"Uncletopia | Los Angeles | 2 | All Maps","name_short":"lax-2","host":"lax-1.us.uncletopia.com","port":27025,"enabled":true,"region":"us-west","cc":"us","latitude":33.94279,"longitude":-118.41004,"reserved":0,"last_update":"0001-01-01T00:00:00Z","name_a2s":"Uncletopia | Los Angeles | 2 | All Maps","protocol":17,"map":"koth_lakeside_final","folder":"tf","game":"Team Fortress","app_id":440,"player_count":0,"max_players":24,"Bots":0,"server_type":"Dedicated","server_os":"Linux","password":true,"vac":true,"version":"7961495","steam_id":85568392924469992,"keywords":["cp","nocrits","nodmgspread","uncletopia"],"game_id":440,"stv_port":27026,"stv_name":"Uncletopia | Los Angeles | 2 | All Maps | STV","players":null},{"server_id":324,"name":"Uncletopia | Los Angeles | 3 | All Maps","name_short":"lax-3","host":"lax-1.us.uncletopia.com","port":27035,"enabled":true,"region":"us-west","cc":"us","latitude":33.94279,"longitude":-118.41004,"reserved":0,"last_update":"0001-01-01T00:00:00Z","name_a2s":"Uncletopia | Los Angeles | 3 | All Maps","protocol":17,"map":"pl_frontier_final","folder":"tf","game":"Team Fortress","app_id":440,"player_count":0,"max_players":24,"Bots":0,"server_type":"Dedicated","server_os":"Linux","password":true,"vac":true,"version":"7961495","steam_id":85568392924510198,"keywords":["nocrits","nodmgspread","payload","uncletopia"],"game_id":440,"stv_port":27036,"stv_name":"Uncletopia | Los Angeles | 3 | All Maps | STV","players":null},{"server_id":25,"name":"Uncletopia | Los Angeles | 4 | Stopwatch","name_short":"lax-4","host":"lax-1.us.uncletopia.com","port":27045,"enabled":true,"region":"us-west","cc":"us","latitude":33.94279,"longitude":-118.41004,"reserved":0,"last_update":"0001-01-01T00:00:00Z","name_a2s":"Uncletopia | Los Angeles | 4 | Stopwatch","protocol":17,"map":"pl_barnblitz","folder":"tf","game":"Team Fortress","app_id":440,"player_count":0,"max_players":24,"Bots":0,"server_type":"Dedicated","server_os":"Linux","password":true,"vac":true,"version":"7961495","steam_id":85568392924510199,"keywords":["nocrits","nodmgspread","payload","uncletopia"],"game_id":440,"stv_port":27046,"stv_name":"Uncletopia | Los Angeles | 4 | Stopwatch | STV","players":null},{"server_id":11,"name":"Uncletopia | London | 1 | All Maps","name_short":"lon-1","host":"lon-1.uk.uncletopia.com","port":27015,"enabled":true,"region":"eu","cc":"gb","latitude":51.509865,"longitude":-0.118092,"reserved":0,"last_update":"0001-01-01T00:00:00Z","name_a2s":"Uncletopia | London | 1 | All Maps","protocol":17,"map":"pl_badwater","folder":"tf","game":"Team Fortress","app_id":440,"player_count":24,"max_players":24,"Bots":0,"server_type":"Dedicated","server_os":"Linux","password":true,"vac":true,"version":"7961495","steam_id":85568392924367362,"keywords":["nocrits","nodmgspread","payload","uncletopia"],"game_id":440,"stv_port":27016,"stv_name":"Uncletopia | London | 1 | All Maps | STV","players":[{"user_id":466,"name":"lyra78711","steam_id":76561198043601838,"connected_time":6527000000000,"state":"active","ping":60},{"user_id":529,"name":"jimmy bob","steam_id":76561198319583692,"connected_time":881000000000,"state":"active","ping":61},{"user_id":508,"name":"Larry Penus","steam_id":76561198207546233,"connected_time":3339000000000,"state":"active","ping":45},{"user_id":521,"name":"sora","steam_id":76561198096547662,"connected_time":1972000000000,"state":"active","ping":51},{"user_id":471,"name":"gibb (official)","steam_id":76561198074097655,"connected_time":5517000000000,"state":"active","ping":45},{"user_id":528,"name":"owo","steam_id":76561198158209651,"connected_time":1053000000000,"state":"active","ping":59},{"user_id":530,"name":"Dimonki","steam_id":76561198821015001,"connected_time":864000000000,"state":"active","ping":78},{"user_id":532,"name":"Para Bellum","steam_id":76561198375413446,"connected_time":271000000000,"state":"active","ping":59},{"user_id":516,"name":"Vytuzas","steam_id":76561198012868436,"connected_time":2832000000000,"state":"active","ping":75},{"user_id":452,"name":"Twiggu","steam_id":76561198070853128,"connected_time":8407000000000,"state":"active","ping":81},{"user_id":477,"name":"Ullr","steam_id":76561198140547483,"connected_time":4902000000000,"state":"active","ping":44},{"user_id":482,"name":"mr.resetti","steam_id":76561198974520642,"connected_time":4490000000000,"state":"active","ping":70},{"user_id":520,"name":"Aaron","steam_id":76561197990046953,"connected_time":2279000000000,"state":"active","ping":52},{"user_id":527,"name":"mumbler","steam_id":76561197970641239,"connected_time":1088000000000,"state":"active","ping":61},{"user_id":512,"name":"Finem Belli","steam_id":76561198227177976,"connected_time":2974000000000,"state":"active","ping":46},{"user_id":473,"name":"yup that extream78711","steam_id":76561198106049954,"connected_time":5321000000000,"state":"active","ping":78},{"user_id":518,"name":"alien vs –ø–µ–¥–æ—Ñ–∏–ª","steam_id":76561199057953617,"connected_time":2707000000000,"state":"active","ping":75},{"user_id":526,"name":"CubityFirst","steam_id":76561198107654171,"connected_time":1099000000000,"state":"active","ping":47},{"user_id":531,"name":"stroyo","steam_id":76561198409592046,"connected_time":698000000000,"state":"active","ping":44},{"user_id":506,"name":"impossible whopper eater","steam_id":76561198058641805,"connected_time":3361000000000,"state":"active","ping":56},{"user_id":515,"name":"Slimy","steam_id":76561199486144618,"connected_time":2900000000000,"state":"active","ping":97},{"user_id":446,"name":"rigel_","steam_id":76561198148640847,"connected_time":8817000000000,"state":"active","ping":89},{"user_id":517,"name":"sesgo","steam_id":76561198074917015,"connected_time":2812000000000,"state":"active","ping":89},{"user_id":524,"name":"exRage","steam_id":76561198449953655,"connected_time":1433000000000,"state":"active","ping":69}]},{"server_id":114,"name":"Uncletopia | London | 2 | All Maps","name_short":"lon-2","host":"lon-1.uk.uncletopia.com","port":27025,"enabled":true,"region":"eu","cc":"gb","latitude":51.509865,"longitude":-0.118092,"reserved":0,"last_update":"0001-01-01T00:00:00Z","name_a2s":"Uncletopia | London | 2 | All Maps","protocol":17,"map":"pl_upward","folder":"tf","game":"Team Fortress","app_id":440,"player_count":24,"max_players":24,"Bots":0,"server_type":"Dedicated","server_os":"Linux","password":true,"vac":true,"version":"7961495","steam_id":85568392924470941,"keywords":["nocrits","nodmgspread","payload","uncletopia"],"game_id":440,"stv_port":27026,"stv_name":"Uncletopia | London | 2 | All Maps | STV","players":[{"user_id":255,"name":"LOKKI","steam_id":76561198259022887,"connected_time":3726000000000,"state":"active","ping":75},{"user_id":195,"name":"Hogs Sidekick","steam_id":76561198136433205,"connected_time":7428000000000,"state":"active","ping":43},{"user_id":276,"name":"MayhemPie","steam_id":76561198018976366,"connected_time":1770000000000,"state":"active","ping":66},{"user_id":259,"name":"Lavir","steam_id":76561198008619442,"connected_time":3132000000000,"state":"active","ping":102},{"user_id":227,"name":"[ Louinskii ]","steam_id":76561198060509154,"connected_time":5717000000000,"state":"active","ping":60},{"user_id":298,"name":"pellio","steam_id":76561199094535057,"connected_time":475000000000,"state":"active","ping":53},{"user_id":279,"name":"shh.. tiny carrots r sleeping","steam_id":76561198069649097,"connected_time":1214000000000,"state":"active","ping":62},{"user_id":301,"name":"InsaneCakes","steam_id":76561198092066286,"connected_time":428000000000,"state":"active","ping":54},{"user_id":247,"name":"Arty","steam_id":76561198160100181,"connected_time":4060000000000,"state":"active","ping":63},{"user_id":173,"name":"zazuza","steam_id":76561198049820905,"connected_time":8721000000000,"state":"active","ping":70},{"user_id":174,"name":"Vonacht","steam_id":76561198016033944,"connected_time":8720000000000,"state":"active","ping":61},{"user_id":293,"name":"Tempest FIN","steam_id":76561198311021830,"connected_time":917000000000,"state":"active","ping":101},{"user_id":277,"name":"TunaaFsh","steam_id":76561198127194010,"connected_time":1599000000000,"state":"active","ping":60},{"user_id":229,"name":"Toast","steam_id":76561198123766602,"connected_time":5712000000000,"state":"active","ping":32},{"user_id":232,"name":"waffle","steam_id":76561198067706953,"connected_time":5582000000000,"state":"active","ping":53},{"user_id":233,"name":"Sgreff","steam_id":76561198036304365,"connected_time":5546000000000,"state":"active","ping":45},{"user_id":291,"name":"rez777ka","steam_id":76561198107605938,"connected_time":992000000000,"state":"active","ping":100},{"user_id":294,"name":"idenburg","steam_id":76561198063574956,"connected_time":825000000000,"state":"active","ping":58},{"user_id":302,"name":"Albon","steam_id":76561198060378881,"connected_time":248000000000,"state":"active","ping":63},{"user_id":299,"name":"Angelo254","steam_id":76561198327226011,"connected_time":475000000000,"state":"active","ping":82},{"user_id":275,"name":"jones","steam_id":76561198044434971,"connected_time":2085000000000,"state":"active","ping":68},{"user_id":286,"name":"randompixel","steam_id":76561198003941207,"connected_time":1115000000000,"state":"active","ping":58},{"user_id":297,"name":"Blake","steam_id":76561198034050682,"connected_time":552000000000,"state":"active","ping":59},{"user_id":300,"name":"Slipperdship","steam_id":76561198055161935,"connected_time":442000000000,"state":"active","ping":42}]},{"server_id":320,"name":"Uncletopia | London | 3 | All Maps","name_short":"lon-3","host":"lon-1.uk.uncletopia.com","port":27035,"enabled":true,"region":"eu","cc":"gb","latitude":51.509865,"longitude":-0.118092,"reserved":0,"last_update":"0001-01-01T00:00:00Z","name_a2s":"Uncletopia | London | 3 | All Maps","protocol":17,"map":"pl_borneo","folder":"tf","game":"Team Fortress","app_id":440,"player_count":22,"max_players":24,"Bots":0,"server_type":"Dedicated","server_os":"Linux","password":true,"vac":true,"version":"7961495","steam_id":85568392924510192,"keywords":["nocrits","nodmgspread","payload","uncletopia"],"game_id":440,"stv_port":27036,"stv_name":"Uncletopia | London | 3 | All Maps | STV","players":[{"user_id":368,"name":"Carlton Banks","steam_id":76561198300996149,"connected_time":685000000000,"state":"active","ping":43},{"user_id":377,"name":"sex that pussy","steam_id":76561198066282859,"connected_time":238000000000,"state":"active","ping":44},{"user_id":373,"name":"60hz laptop","steam_id":76561198111229919,"connected_time":542000000000,"state":"active","ping":79},{"user_id":335,"name":"meriones","steam_id":76561198034234373,"connected_time":2608000000000,"state":"active","ping":44},{"user_id":289,"name":"1518","steam_id":76561198422206206,"connected_time":5972000000000,"state":"active","ping":103},{"user_id":379,"name":"IndigoJones","steam_id":76561198050284262,"connected_time":209000000000,"state":"active","ping":45},{"user_id":361,"name":"Champi","steam_id":76561198830002766,"connected_time":896000000000,"state":"active","ping":59},{"user_id":372,"name":"Ah shit, here we go again","steam_id":76561198382080975,"connected_time":592000000000,"state":"active","ping":56},{"user_id":260,"name":"soap lore 3","steam_id":76561198058879767,"connected_time":8605000000000,"state":"active","ping":46},{"user_id":376,"name":"Bombilla","steam_id":76561198084281798,"connected_time":250000000000,"state":"active","ping":76},{"user_id":378,"name":"cuddle","steam_id":76561198805181599,"connected_time":217000000000,"state":"active","ping":46},{"user_id":137,"name":"marvi444","steam_id":76561198431534139,"connected_time":14065000000000,"state":"active","ping":52},{"user_id":381,"name":"Mike","steam_id":76561198228455736,"connected_time":96000000000,"state":"active","ping":50},{"user_id":356,"name":"Cataleptic","steam_id":76561197997966949,"connected_time":1145000000000,"state":"active","ping":60},{"user_id":380,"name":"Ôº¨ÔΩïÔΩéÔΩÑÔΩÖÔΩíÔΩìÂÑö","steam_id":76561198001599722,"connected_time":168000000000,"state":"active","ping":90},{"user_id":359,"name":"FartKillerX","steam_id":76561198045642325,"connected_time":961000000000,"state":"active","ping":56},{"user_id":382,"name":"Mr mac with the cheese","steam_id":76561199223281730,"connected_time":59000000000,"state":"active","ping":131},{"user_id":384,"name":"Logic Not Found","steam_id":76561198273025576,"connected_time":40000000000,"state":"active","ping":69},{"user_id":371,"name":"Stefman","steam_id":76561199025104038,"connected_time":595000000000,"state":"active","ping":39},{"user_id":311,"name":"ran is running","steam_id":76561199443185667,"connected_time":4508000000000,"state":"active","ping":164},{"user_id":351,"name":"LiterallyRyanGosling","steam_id":76561199017856691,"connected_time":1299000000000,"state":"active","ping":58},{"user_id":367,"name":"sasha","steam_id":76561198404802175,"connected_time":778000000000,"state":"active","ping":145}]},{"server_id":321,"name":"Uncletopia | London | 4 | All Maps","name_short":"lon-4","host":"lon-1.uk.uncletopia.com","port":27045,"enabled":true,"region":"eu","cc":"gb","latitude":51.509865,"longitude":-0.118092,"reserved":0,"last_update":"0001-01-01T00:00:00Z","name_a2s":"Uncletopia | London | 4 | All Maps","protocol":17,"map":"pl_borneo","folder":"tf","game":"Team Fortress","app_id":440,"player_count":21,"max_players":24,"Bots":0,"server_type":"Dedicated","server_os":"Linux","password":true,"vac":true,"version":"7961495","steam_id":85568392924510193,"keywords":["nocrits","nodmgspread","payload","uncletopia"],"game_id":440,"stv_port":27046,"stv_name":"Uncletopia | London | 4 | All Maps | STV","players":[{"user_id":165,"name":"NeiroüëΩ·ó©YY ·í™·ó∞·ó©O","steam_id":76561198046743985,"connected_time":511000000000,"state":"active","ping":72},{"user_id":158,"name":"Tri-","steam_id":76561198133524794,"connected_time":973000000000,"state":"active","ping":40},{"user_id":173,"name":"kbourbery","steam_id":76561198109943492,"connected_time":49000000000,"state":"active","ping":43},{"user_id":129,"name":"s a i","steam_id":76561197970379754,"connected_time":3632000000000,"state":"active","ping":63},{"user_id":170,"name":"Tombobx","steam_id":76561198862443949,"connected_time":199000000000,"state":"active","ping":60},{"user_id":171,"name":"ChPerette üéÆ","steam_id":76561198060004887,"connected_time":180000000000,"state":"active","ping":44},{"user_id":152,"name":"zoinks!","steam_id":76561198068645362,"connected_time":1288000000000,"state":"active","ping":42},{"user_id":163,"name":"caramelldancin'","steam_id":76561198193357946,"connected_time":671000000000,"state":"active","ping":98},{"user_id":141,"name":"Starach","steam_id":76561198084530972,"connected_time":2004000000000,"state":"active","ping":57},{"user_id":169,"name":"Jonno","steam_id":76561198023443744,"connected_time":204000000000,"state":"active","ping":48},{"user_id":78,"name":"sarii ‚òÜ","steam_id":76561199155102111,"connected_time":8494000000000,"state":"active","ping":84},{"user_id":148,"name":"Ezekyhl","steam_id":76561198355964282,"connected_time":1673000000000,"state":"active","ping":55},{"user_id":153,"name":"Robyn","steam_id":76561198140713805,"connected_time":1280000000000,"state":"active","ping":71},{"user_id":74,"name":"Finn","steam_id":76561198179960193,"connected_time":8529000000000,"state":"active","ping":38},{"user_id":154,"name":"Skippy","steam_id":76561199245844181,"connected_time":1277000000000,"state":"active","ping":62},{"user_id":156,"name":"Jaydyn","steam_id":76561198140326797,"connected_time":1229000000000,"state":"active","ping":135},{"user_id":98,"name":"The Lady","steam_id":76561198029895809,"connected_time":6097000000000,"state":"active","ping":87},{"user_id":159,"name":"ThornDrayton","steam_id":76561198141985675,"connected_time":953000000000,"state":"active","ping":71},{"user_id":167,"name":"frosty","steam_id":76561198094560834,"connected_time":215000000000,"state":"active","ping":53},{"user_id":166,"name":"Eltonius","steam_id":76561198157560715,"connected_time":411000000000,"state":"active","ping":86},{"user_id":157,"name":"Klaus","steam_id":76561198150394201,"connected_time":1172000000000,"state":"active","ping":99}]},{"server_id":21,"name":"Uncletopia | London | 5 | All Maps","name_short":"lon-5","host":"lon-1.uk.uncletopia.com","port":27055,"enabled":true,"region":"eu","cc":"gb","latitude":51.509865,"longitude":-0.118092,"reserved":0,"last_update":"0001-01-01T00:00:00Z","name_a2s":"Uncletopia | London | 5 | All Maps","protocol":17,"map":"cp_altitude","folder":"tf","game":"Team Fortress","app_id":440,"player_count":0,"max_players":24,"Bots":0,"server_type":"Dedicated","server_os":"Linux","password":true,"vac":true,"version":"7961495","steam_id":85568392924742829,"keywords":["cp","nocrits","nodmgspread","uncletopia"],"game_id":440,"stv_port":27056,"stv_name":"Uncletopia | London | 5 | All Maps | STV","players":null},{"server_id":22,"name":"Uncletopia | London | 6 | All Maps","name_short":"lon-6","host":"lon-1.uk.uncletopia.com","port":27065,"enabled":true,"region":"eu","cc":"gb","latitude":51.509865,"longitude":-0.118092,"reserved":0,"last_update":"0001-01-01T00:00:00Z","name_a2s":"Uncletopia | London | 6 | All Maps","protocol":17,"map":"pl_pier","folder":"tf","game":"Team Fortress","app_id":440,"player_count":0,"max_players":24,"Bots":0,"server_type":"Dedicated","server_os":"Linux","password":true,"vac":true,"version":"7961495","steam_id":85568392924742830,"keywords":["nocrits","nodmgspread","payload","uncletopia"],"game_id":440,"stv_port":27066,"stv_name":"Uncletopia | London | 6 | All Maps | STV","players":null},{"server_id":40,"name":"Uncletopia | London | 7 | Stopwatch","name_short":"lon-7","host":"lon-1.uk.uncletopia.com","port":27075,"enabled":true,"region":"eu","cc":"gb","latitude":51.509865,"longitude":-0.118092,"reserved":0,"last_update":"0001-01-01T00:00:00Z","name_a2s":"Uncletopia | London | 7 | Stopwatch","protocol":17,"map":"workshop/koth_ashville_final.ugc2130459942","folder":"tf","game":"Team Fortress","app_id":440,"player_count":0,"max_players":24,"Bots":0,"server_type":"Dedicated","server_os":"Linux","password":true,"vac":true,"version":"7961495","steam_id":85568392924964314,"keywords":["cp","nocrits","nodmgspread","uncletopia"],"game_id":440,"stv_port":27076,"stv_name":"Uncletopia | London | 7 | Stopwatch | STV","players":null},{"server_id":41,"name":"Uncletopia | London | 8 | Community","name_short":"lon-8","host":"lon-1.uk.uncletopia.com","port":27085,"enabled":true,"region":"eu","cc":"gb","latitude":51.509865,"longitude":-0.118092,"reserved":0,"last_update":"0001-01-01T00:00:00Z","name_a2s":"Uncletopia | London | 8 | Community","protocol":17,"map":"workshop/koth_product_final.ugc454272353","folder":"tf","game":"Team Fortress","app_id":440,"player_count":2,"max_players":24,"Bots":0,"server_type":"Dedicated","server_os":"Linux","password":true,"vac":true,"version":"7961495","steam_id":85568392924964315,"keywords":["cp","nocrits","nodmgspread","uncletopia"],"game_id":440,"stv_port":27086,"stv_name":"Uncletopia | London | 8 | Community | STV","players":[{"user_id":17,"name":"Sammy","steam_id":76561198850425883,"connected_time":912000000000,"state":"active","ping":161},{"user_id":18,"name":"Gob07","steam_id":76561199182212668,"connected_time":900000000000,"state":"active","ping":133}]},{"server_id":300,"name":"Uncletopia | Montr√©al | 1 | One Thousand Uncles","name_short":"mtl-1","host":"mtl-1.ca.uncletopia.com","port":27015,"enabled":true,"region":"us-east","cc":"ca","latitude":45.50889,"longitude":-73.56167,"reserved":0,"last_update":"0001-01-01T00:00:00Z","name_a2s":"","protocol":0,"map":"","folder":"","game":"","app_id":0,"player_count":7,"max_players":0,"Bots":0,"server_type":"","server_os":"","password":false,"vac":false,"version":"","steam_id":0,"keywords":null,"game_id":0,"stv_port":0,"stv_name":"","players":[{"user_id":2,"name":"Princess?","steam_id":76561198080963759,"connected_time":725000000000,"state":"active","ping":124},{"user_id":24,"name":"Moonly Days","steam_id":76561198188657895,"connected_time":365000000000,"state":"active","ping":161},{"user_id":4,"name":"Colin102004","steam_id":76561198202384334,"connected_time":711000000000,"state":"active","ping":45},{"user_id":21,"name":"toastloard","steam_id":76561198368386853,"connected_time":704000000000,"state":"active","ping":61},{"user_id":22,"name":"I just joined","steam_id":76561198057999536,"connected_time":700000000000,"state":"active","ping":111},{"user_id":23,"name":"‡∏∏","steam_id":76561198084134025,"connected_time":685000000000,"state":"active","ping":87},{"user_id":25,"name":"Uncle Majic the Hip Hop Magicia","steam_id":76561198107924303,"connected_time":132000000000,"state":"active","ping":44}]},{"server_id":301,"name":"Uncletopia | Montr√©al | 2 | One Thousand Uncles","name_short":"mtl-2","host":"mtl-1.ca.uncletopia.com","port":27025,"enabled":true,"region":"us-east","cc":"ca","latitude":45.50889,"longitude":-73.56167,"reserved":0,"last_update":"0001-01-01T00:00:00Z","name_a2s":"","protocol":0,"map":"","folder":"","game":"","app_id":0,"player_count":1,"max_players":0,"Bots":0,"server_type":"","server_os":"","password":false,"vac":false,"version":"","steam_id":0,"keywords":null,"game_id":0,"stv_port":0,"stv_name":"","players":[{"user_id":2,"name":"MaulAndSavage","steam_id":76561199455686192,"connected_time":25000000000,"state":"active","ping":101}]},{"server_id":302,"name":"Uncletopia | Montr√©al | 3 | One Thousand Uncles","name_short":"mtl-3","host":"mtl-1.ca.uncletopia.com","port":27035,"enabled":true,"region":"us-east","cc":"ca","latitude":45.50889,"longitude":-73.56167,"reserved":0,"last_update":"0001-01-01T00:00:00Z","name_a2s":"","protocol":0,"map":"","folder":"","game":"","app_id":0,"player_count":0,"max_players":0,"Bots":0,"server_type":"","server_os":"","password":false,"vac":false,"version":"","steam_id":0,"keywords":null,"game_id":0,"stv_port":0,"stv_name":"","players":null},{"server_id":13,"name":"Uncletopia | New York City | 1 | All Maps","name_short":"nyc-1","host":"nyc-1.us.uncletopia.com","port":27015,"enabled":true,"region":"us-east","cc":"us","latitude":40.73061,"longitude":-73.93524,"reserved":0,"last_update":"0001-01-01T00:00:00Z","name_a2s":"Uncletopia | New York City | 1 | All Maps","protocol":17,"map":"cp_dustbowl","folder":"tf","game":"Team Fortress","app_id":440,"player_count":24,"max_players":24,"Bots":0,"server_type":"Dedicated","server_os":"Linux","password":true,"vac":true,"version":"7961495","steam_id":85568392924469993,"keywords":["cp","nocrits","nodmgspread","uncletopia"],"game_id":440,"stv_port":27016,"stv_name":"Uncletopia | New York City | 1 | All Maps | STV","players":[{"user_id":256,"name":"Feared Gamer","steam_id":76561198350127514,"connected_time":3705000000000,"state":"active","ping":44},{"user_id":251,"name":"The_Pacific_gamer","steam_id":76561198089491446,"connected_time":4152000000000,"state":"active","ping":105},{"user_id":269,"name":"M4N","steam_id":76561199021460632,"connected_time":2380000000000,"state":"active","ping":87},{"user_id":293,"name":"Waffle Wannabe","steam_id":76561198064510650,"connected_time":950000000000,"state":"active","ping":45},{"user_id":294,"name":"A Future US Army Soldier","steam_id":76561198008263869,"connected_time":889000000000,"state":"active","ping":46},{"user_id":272,"name":"BallBreaker","steam_id":76561198237263498,"connected_time":2162000000000,"state":"active","ping":117},{"user_id":253,"name":"spherewithahat","steam_id":76561199122192660,"connected_time":4042000000000,"state":"active","ping":56},{"user_id":267,"name":"peace dog","steam_id":76561198267988522,"connected_time":2581000000000,"state":"active","ping":66},{"user_id":270,"name":"Primal","steam_id":76561197983118203,"connected_time":2294000000000,"state":"active","ping":81},{"user_id":288,"name":"pyro commit suicide","steam_id":76561198099451291,"connected_time":1404000000000,"state":"active","ping":86},{"user_id":197,"name":"Broadway Rose","steam_id":76561198046083342,"connected_time":8115000000000,"state":"active","ping":43},{"user_id":280,"name":"PlagueBird","steam_id":76561198000337435,"connected_time":1883000000000,"state":"active","ping":55},{"user_id":284,"name":"Jim stalking","steam_id":76561198856016840,"connected_time":1743000000000,"state":"active","ping":50},{"user_id":295,"name":"xClovisx","steam_id":76561198202246904,"connected_time":850000000000,"state":"active","ping":61},{"user_id":276,"name":"THE MEWTWO","steam_id":76561199092618496,"connected_time":2122000000000,"state":"active","ping":87},{"user_id":277,"name":"Dishwasher Detergent Evangelism","steam_id":76561198069735882,"connected_time":2116000000000,"state":"active","ping":76},{"user_id":289,"name":"Tatsumaki","steam_id":76561198135137213,"connected_time":1328000000000,"state":"active","ping":80},{"user_id":287,"name":"Orange Triangle","steam_id":76561198320498182,"connected_time":1552000000000,"state":"active","ping":82},{"user_id":278,"name":"yes daddy","steam_id":76561198166100997,"connected_time":2103000000000,"state":"active","ping":65},{"user_id":279,"name":"Techdub","steam_id":76561198265392756,"connected_time":2091000000000,"state":"active","ping":71},{"user_id":222,"name":"patdine","steam_id":76561198060865671,"connected_time":6583000000000,"state":"active","ping":62},{"user_id":260,"name":"Hope","steam_id":76561199201900779,"connected_time":3608000000000,"state":"active","ping":70},{"user_id":290,"name":"Zinc","steam_id":76561198025303928,"connected_time":1297000000000,"state":"active","ping":62},{"user_id":283,"name":"john trevolta","steam_id":76561197998867160,"connected_time":1803000000000,"state":"active","ping":56}]},{"server_id":14,"name":"Uncletopia | New York City | 2 | All Maps","name_short":"nyc-2","host":"nyc-1.us.uncletopia.com","port":27025,"enabled":true,"region":"us-east","cc":"us","latitude":40.73061,"longitude":-73.93524,"reserved":0,"last_update":"0001-01-01T00:00:00Z","name_a2s":"Uncletopia | New York City | 2 | All Maps","protocol":17,"map":"pl_frontier_final","folder":"tf","game":"Team Fortress","app_id":440,"player_count":24,"max_players":24,"Bots":0,"server_type":"Dedicated","server_os":"Linux","password":true,"vac":true,"version":"7961495","steam_id":85568392924469994,"keywords":["nocrits","nodmgspread","payload","uncletopia"],"game_id":440,"stv_port":27026,"stv_name":"Uncletopia | New York City | 2 | All Maps | STV","players":[{"user_id":232,"name":"Firefly","steam_id":76561198144469522,"connected_time":212000000000,"state":"active","ping":59},{"user_id":222,"name":"Bedroom Heavy","steam_id":76561198114098718,"connected_time":880000000000,"state":"active","ping":86},{"user_id":217,"name":"Overture","steam_id":76561198364564873,"connected_time":1057000000000,"state":"active","ping":99},{"user_id":206,"name":"La Bomba","steam_id":76561198069948353,"connected_time":2236000000000,"state":"active","ping":138},{"user_id":218,"name":"artemisjackson2","steam_id":76561199094686268,"connected_time":993000000000,"state":"active","ping":94},{"user_id":215,"name":"Nespreco","steam_id":76561198252035336,"connected_time":1466000000000,"state":"active","ping":40},{"user_id":219,"name":"Wan Shi Tong","steam_id":76561198076441225,"connected_time":985000000000,"state":"active","ping":45},{"user_id":220,"name":"Khorne Looney","steam_id":76561197988500167,"connected_time":968000000000,"state":"active","ping":74},{"user_id":141,"name":"Obelix","steam_id":76561198274715109,"connected_time":6541000000000,"state":"active","ping":44},{"user_id":115,"name":"FrosbeeChill","steam_id":76561198182510862,"connected_time":9384000000000,"state":"active","ping":61},{"user_id":231,"name":"AbbyRoads","steam_id":76561198868564212,"connected_time":266000000000,"state":"active","ping":70},{"user_id":233,"name":"13 INCHES OF HIGH TGIRL SCHLONG","steam_id":76561198122059018,"connected_time":205000000000,"state":"active","ping":61},{"user_id":223,"name":"ÔºîÔºê Ôº¶Ôº∞Ôº≥","steam_id":76561198272394965,"connected_time":875000000000,"state":"active","ping":113},{"user_id":196,"name":"Brown_Dream","steam_id":76561198975766145,"connected_time":3137000000000,"state":"active","ping":73},{"user_id":208,"name":"Storm Pat","steam_id":76561198068994930,"connected_time":2194000000000,"state":"active","ping":83},{"user_id":156,"name":"High School Nudical","steam_id":76561198172120615,"connected_time":5991000000000,"state":"active","ping":34},{"user_id":205,"name":"walrus","steam_id":76561198057853319,"connected_time":2571000000000,"state":"active","ping":49},{"user_id":204,"name":"PoopieStank","steam_id":76561197977099076,"connected_time":2695000000000,"state":"active","ping":68},{"user_id":224,"name":"joachym","steam_id":76561198428579761,"connected_time":821000000000,"state":"active","ping":164},{"user_id":225,"name":"Invisible Teammate","steam_id":76561197986477544,"connected_time":812000000000,"state":"active","ping":66},{"user_id":229,"name":"Sirebellum","steam_id":76561199012778952,"connected_time":558000000000,"state":"active","ping":72},{"user_id":181,"name":"Noahthecrazy1","steam_id":76561199152995909,"connected_time":3992000000000,"state":"active","ping":68},{"user_id":213,"name":"erf","steam_id":76561198078203677,"connected_time":1507000000000,"state":"active","ping":53},{"user_id":227,"name":"¬øskitt1eS?","steam_id":76561198330093211,"connected_time":802000000000,"state":"active","ping":62}]},{"server_id":15,"name":"Uncletopia | New York City | 3 | Stopwatch","name_short":"nyc-3","host":"nyc-1.us.uncletopia.com","port":27035,"enabled":true,"region":"us-east","cc":"us","latitude":40.73061,"longitude":-73.93524,"reserved":0,"last_update":"0001-01-01T00:00:00Z","name_a2s":"Uncletopia | New York City | 3 | Stopwatch","protocol":17,"map":"koth_lakeside_final","folder":"tf","game":"Team Fortress","app_id":440,"player_count":2,"max_players":24,"Bots":0,"server_type":"Dedicated","server_os":"Linux","password":true,"vac":true,"version":"7961495","steam_id":85568392924742820,"keywords":["cp","nocrits","nodmgspread","uncletopia"],"game_id":440,"stv_port":27036,"stv_name":"Uncletopia | New York City | 3 | Stopwatch | STV","players":[{"user_id":15,"name":"AprilB0rnSt0rm","steam_id":76561199135214335,"connected_time":459000000000,"state":"active","ping":69},{"user_id":11,"name":"Gosey098","steam_id":76561199121965465,"connected_time":1681000000000,"state":"active","ping":65}]},{"server_id":16,"name":"Uncletopia | New York City | 4 | Community","name_short":"nyc-4","host":"nyc-1.us.uncletopia.com","port":27045,"enabled":true,"region":"us-east","cc":"us","latitude":40.73061,"longitude":-73.93524,"reserved":0,"last_update":"0001-01-01T00:00:00Z","name_a2s":"Uncletopia | New York City | 4 | Community","protocol":17,"map":"workshop/cp_fulgur_rc2a.ugc2068252300","folder":"tf","game":"Team Fortress","app_id":440,"player_count":0,"max_players":24,"Bots":0,"server_type":"Dedicated","server_os":"Linux","password":true,"vac":true,"version":"7961495","steam_id":85568392924742821,"keywords":["cp","nocrits","nodmgspread","uncletopia"],"game_id":440,"stv_port":27046,"stv_name":"Uncletopia | New York City | 4 | Community | STV","players":null},{"server_id":142,"name":"Uncletopia | S√£o Paulo | 1 | All Maps","name_short":"sao-1","host":"sao-1.br.uncletopia.com","port":27015,"enabled":true,"region":"sa","cc":"br","latitude":-23.533773,"longitude":-46.62529,"reserved":0,"last_update":"0001-01-01T00:00:00Z","name_a2s":"Uncletopia | S√£o Paulo | 1 | All Maps","protocol":17,"map":"koth_highpass","folder":"tf","game":"Team Fortress","app_id":440,"player_count":0,"max_players":24,"Bots":0,"server_type":"Dedicated","server_os":"Linux","password":true,"vac":true,"version":"7961495","steam_id":85568392924469996,"keywords":["cp","nocrits","nodmgspread","uncletopia"],"game_id":440,"stv_port":27016,"stv_name":"Uncletopia | S√£o Paulo | 1 | All Maps | STV","players":null},{"server_id":143,"name":"Uncletopia | S√£o Paulo | 2 | Community","name_short":"sao-2","host":"sao-2.br.uncletopia.com","port":27015,"enabled":true,"region":"sa","cc":"br","latitude":-23.533773,"longitude":-46.62529,"reserved":0,"last_update":"0001-01-01T00:00:00Z","name_a2s":"Uncletopia | S√£o Paulo | 2 | Community","protocol":17,"map":"workshop/koth_bagel_rc6.ugc2514036946","folder":"tf","game":"Team Fortress","app_id":440,"player_count":0,"max_players":24,"Bots":0,"server_type":"Dedicated","server_os":"Linux","password":true,"vac":true,"version":"7961495","steam_id":85568392924485349,"keywords":["cp","nocrits","nodmgspread","uncletopia"],"game_id":440,"stv_port":27016,"stv_name":"Uncletopia | S√£o Paulo | 2 | Community | STV","players":null},{"server_id":7,"name":"Uncletopia | Seattle | 1 | All Maps","name_short":"sea-1","host":"sea-1.us.uncletopia.com","port":27015,"enabled":true,"region":"us-west","cc":"us","latitude":47.608013,"longitude":-122.33517,"reserved":0,"last_update":"0001-01-01T00:00:00Z","name_a2s":"Uncletopia | Seattle | 1 | All Maps","protocol":17,"map":"cp_steel","folder":"tf","game":"Team Fortress","app_id":440,"player_count":24,"max_players":24,"Bots":0,"server_type":"Dedicated","server_os":"Linux","password":true,"vac":true,"version":"7961495","steam_id":85568392924469997,"keywords":["cp","nocrits","nodmgspread","uncletopia"],"game_id":440,"stv_port":27016,"stv_name":"Uncletopia | Seattle | 1 | All Maps | STV","players":[{"user_id":442,"name":"amagicowl","steam_id":76561199060487814,"connected_time":1281000000000,"state":"active","ping":58},{"user_id":446,"name":"zinnk","steam_id":76561198092081825,"connected_time":1090000000000,"state":"active","ping":56},{"user_id":455,"name":"bear1boss fan","steam_id":76561198047850813,"connected_time":418000000000,"state":"active","ping":45},{"user_id":449,"name":"Firedust19","steam_id":76561198153238631,"connected_time":838000000000,"state":"active","ping":91},{"user_id":445,"name":"mega","steam_id":76561198089520959,"connected_time":1236000000000,"state":"active","ping":95},{"user_id":427,"name":"tr","steam_id":76561198046944222,"connected_time":2769000000000,"state":"active","ping":43},{"user_id":394,"name":"vvitch","steam_id":76561198279661941,"connected_time":5360000000000,"state":"active","ping":73},{"user_id":350,"name":"scallop pigeon","steam_id":76561199488457138,"connected_time":8702000000000,"state":"active","ping":54},{"user_id":447,"name":"Level 3 hotdog enjoyer","steam_id":76561198870649125,"connected_time":1076000000000,"state":"active","ping":82},{"user_id":456,"name":"Dooper","steam_id":76561198154514320,"connected_time":312000000000,"state":"active","ping":51},{"user_id":422,"name":"Jshoe","steam_id":76561198128252048,"connected_time":3633000000000,"state":"active","ping":67},{"user_id":434,"name":"Shark Sandwich","steam_id":76561198025007938,"connected_time":2286000000000,"state":"active","ping":45},{"user_id":436,"name":"yolginmo","steam_id":76561198157985901,"connected_time":1998000000000,"state":"active","ping":51},{"user_id":431,"name":"greens beans","steam_id":76561198153611491,"connected_time":2498000000000,"state":"active","ping":45},{"user_id":450,"name":"Socialist Warrior","steam_id":76561198085664421,"connected_time":788000000000,"state":"active","ping":117},{"user_id":458,"name":"Mr. Pirate (sad)","steam_id":76561199247095754,"connected_time":132000000000,"state":"active","ping":80},{"user_id":439,"name":"Bocchi the Rock Johnson","steam_id":76561198216017952,"connected_time":1522000000000,"state":"active","ping":121},{"user_id":460,"name":"êÇÉêÇÉêÇÉ","steam_id":76561198026563351,"connected_time":37000000000,"state":"spawning","ping":74},{"user_id":452,"name":"ms. anthrope","steam_id":76561198063533082,"connected_time":763000000000,"state":"active","ping":41},{"user_id":438,"name":"KlassicLoL","steam_id":76561198081815303,"connected_time":1795000000000,"state":"active","ping":76},{"user_id":356,"name":"Hero Smasher","steam_id":76561198150681669,"connected_time":8302000000000,"state":"active","ping":65},{"user_id":441,"name":"mine diam","steam_id":76561198119123981,"connected_time":1321000000000,"state":"active","ping":53},{"user_id":384,"name":"BlazedBunny","steam_id":76561198243610560,"connected_time":6210000000000,"state":"active","ping":66},{"user_id":459,"name":"SynSten","steam_id":76561199122281764,"connected_time":131000000000,"state":"active","ping":74}]},{"server_id":119,"name":"Uncletopia | Seattle | 2 | All Maps","name_short":"sea-2","host":"sea-1.us.uncletopia.com","port":27025,"enabled":true,"region":"us-west","cc":"us","latitude":47.608013,"longitude":-122.33517,"reserved":0,"last_update":"0001-01-01T00:00:00Z","name_a2s":"Uncletopia | Seattle | 2 | All Maps","protocol":17,"map":"pl_snowycoast","folder":"tf","game":"Team Fortress","app_id":440,"player_count":24,"max_players":24,"Bots":0,"server_type":"Dedicated","server_os":"Linux","password":true,"vac":true,"version":"7961495","steam_id":85568392924469998,"keywords":["nocrits","nodmgspread","payload","uncletopia"],"game_id":440,"stv_port":27026,"stv_name":"Uncletopia | Seattle | 2 | All Maps | STV","players":[{"user_id":18,"name":"Spread Joy, Not Hate","steam_id":76561198053117503,"connected_time":2133000000000,"state":"active","ping":60},{"user_id":54,"name":"Beefboss_plays","steam_id":76561199454237265,"connected_time":622000000000,"state":"active","ping":129},{"user_id":58,"name":"Cursed Frog","steam_id":76561198090419068,"connected_time":425000000000,"state":"active","ping":68},{"user_id":60,"name":"Pilot Boy","steam_id":76561198090857288,"connected_time":313000000000,"state":"active","ping":91},{"user_id":29,"name":"My Prostate Itches","steam_id":76561199094319510,"connected_time":1264000000000,"state":"active","ping":106},{"user_id":27,"name":"Grunt","steam_id":76561198200758903,"connected_time":1419000000000,"state":"active","ping":74},{"user_id":49,"name":"NanootFES","steam_id":76561198067773031,"connected_time":775000000000,"state":"active","ping":77},{"user_id":25,"name":"Yuko Yurei fan","steam_id":76561199051913233,"connected_time":1568000000000,"state":"active","ping":102},{"user_id":30,"name":"DonoC","steam_id":76561198274473338,"connected_time":1262000000000,"state":"active","ping":90},{"user_id":31,"name":"Sudsen","steam_id":76561198370603787,"connected_time":1256000000000,"state":"active","ping":61},{"user_id":35,"name":"Lawyer","steam_id":76561197974126447,"connected_time":1221000000000,"state":"active","ping":97},{"user_id":34,"name":"dillpickle","steam_id":76561198156957191,"connected_time":1240000000000,"state":"active","ping":149},{"user_id":44,"name":"[NAMELESS]SUSSYSURFER56","steam_id":76561198361547224,"connected_time":958000000000,"state":"active","ping":35},{"user_id":37,"name":"Moonshined","steam_id":76561199065699667,"connected_time":1149000000000,"state":"active","ping":105},{"user_id":40,"name":"üÖúüÖîüÖîüÖöüÖ¢üÖ£üÖî\ufffd\ufffd\ufffd","steam_id":76561197999748343,"connected_time":1125000000000,"state":"active","ping":90},{"user_id":41,"name":"ankle biters","steam_id":76561198119103778,"connected_time":1102000000000,"state":"active","ping":136},{"user_id":52,"name":"Hatty","steam_id":76561198076880281,"connected_time":681000000000,"state":"active","ping":57},{"user_id":46,"name":"RockMuncher","steam_id":76561198269218386,"connected_time":917000000000,"state":"active","ping":58},{"user_id":47,"name":"ShackerJack","steam_id":76561198118017448,"connected_time":876000000000,"state":"active","ping":55},{"user_id":48,"name":"Haloman","steam_id":76561198119610371,"connected_time":855000000000,"state":"active","ping":85},{"user_id":51,"name":"Burnsasaurous","steam_id":76561198003315964,"connected_time":700000000000,"state":"active","ping":76},{"user_id":59,"name":"Greskrendtregk","steam_id":76561197969553142,"connected_time":423000000000,"state":"active","ping":57},{"user_id":56,"name":"Squids023","steam_id":76561199013031576,"connected_time":602000000000,"state":"active","ping":75},{"user_id":57,"name":"‚ô°a femboy‚ô°","steam_id":76561199212971864,"connected_time":585000000000,"state":"active","ping":148}]},{"server_id":406,"name":"Uncletopia | Seattle | 3 | Stopwatch","name_short":"sea-3","host":"sea-1.us.uncletopia.com","port":27035,"enabled":true,"region":"us-west","cc":"us","latitude":47.608013,"longitude":-122.33517,"reserved":0,"last_update":"0001-01-01T00:00:00Z","name_a2s":"Uncletopia | Seattle | 3 | Stopwatch","protocol":17,"map":"koth_highpass","folder":"tf","game":"Team Fortress","app_id":440,"player_count":0,"max_players":24,"Bots":0,"server_type":"Dedicated","server_os":"Linux","password":true,"vac":true,"version":"7961495","steam_id":85568392924515217,"keywords":["cp","nocrits","nodmgspread","uncletopia"],"game_id":440,"stv_port":27036,"stv_name":"Uncletopia | Seattle | 3 | Stopwatch | STV","players":null},{"server_id":17,"name":"Uncletopia | San Francisco | 1 | All Maps","name_short":"sfo-1","host":"sfo-1.us.uncletopia.com","port":27015,"enabled":true,"region":"us-west","cc":"us","latitude":37.77397,"longitude":-122.4313,"reserved":0,"last_update":"0001-01-01T00:00:00Z","name_a2s":"Uncletopia | San Francisco | 1 | All Maps","protocol":17,"map":"koth_cascade","folder":"tf","game":"Team Fortress","app_id":440,"player_count":0,"max_players":24,"Bots":0,"server_type":"Dedicated","server_os":"Linux","password":true,"vac":true,"version":"7961495","steam_id":85568392924469999,"keywords":["cp","nocrits","nodmgspread","uncletopia"],"game_id":440,"stv_port":27016,"stv_name":"Uncletopia | San Francisco | 1 | All Maps | STV","players":null},{"server_id":18,"name":"Uncletopia | San Francisco | 2 | All Maps","name_short":"sfo-2","host":"sfo-1.us.uncletopia.com","port":27025,"enabled":true,"region":"us-west","cc":"us","latitude":37.77397,"longitude":-122.4313,"reserved":0,"last_update":"0001-01-01T00:00:00Z","name_a2s":"Uncletopia | San Francisco | 2 | All Maps","protocol":17,"map":"cp_process_final","folder":"tf","game":"Team Fortress","app_id":440,"player_count":0,"max_players":24,"Bots":0,"server_type":"Dedicated","server_os":"Linux","password":true,"vac":true,"version":"7961495","steam_id":85568392924470000,"keywords":["cp","nocrits","nodmgspread","uncletopia"],"game_id":440,"stv_port":27026,"stv_name":"Uncletopia | San Francisco | 2 | All Maps | STV","players":null},{"server_id":19,"name":"Uncletopia | San Francisco | 3 | Stopwatch","name_short":"sfo-3","host":"sfo-1.us.uncletopia.com","port":27035,"enabled":true,"region":"us-west","cc":"us","latitude":37.77397,"longitude":-122.4313,"reserved":0,"last_update":"0001-01-01T00:00:00Z","name_a2s":"Uncletopia | San Francisco | 3 | Stopwatch","protocol":17,"map":"workshop/cp_process_f12.ugc2302948105","folder":"tf","game":"Team Fortress","app_id":440,"player_count":0,"max_players":24,"Bots":0,"server_type":"Dedicated","server_os":"Linux","password":true,"vac":true,"version":"7961495","steam_id":85568392924742824,"keywords":["cp","nocrits","nodmgspread","uncletopia"],"game_id":440,"stv_port":27036,"stv_name":"Uncletopia | San Francisco | 3 | Stopwatch | STV","players":null},{"server_id":20,"name":"Uncletopia | San Francisco | 4 | Community","name_short":"sfo-4","host":"sfo-1.us.uncletopia.com","port":27045,"enabled":true,"region":"us-west","cc":"us","latitude":37.77397,"longitude":-122.4313,"reserved":0,"last_update":"0001-01-01T00:00:00Z","name_a2s":"Uncletopia | San Francisco | 4 | Community","protocol":17,"map":"pl_pier","folder":"tf","game":"Team Fortress","app_id":440,"player_count":0,"max_players":24,"Bots":0,"server_type":"Dedicated","server_os":"Linux","password":true,"vac":true,"version":"7961495","steam_id":85568392924742826,"keywords":["nocrits","nodmgspread","payload","uncletopia"],"game_id":440,"stv_port":27046,"stv_name":"Uncletopia | San Francisco | 4 | Community | STV","players":null},{"server_id":141,"name":"Uncletopia | Sydney | 1 | All Maps","name_short":"syd-1","host":"syd-1.au.uncletopia.com","port":27015,"enabled":true,"region":"au","cc":"au","latitude":-33.865143,"longitude":151.2099,"reserved":0,"last_update":"0001-01-01T00:00:00Z","name_a2s":"Uncletopia | Sydney | 1 | All Maps","protocol":17,"map":"koth_viaduct","folder":"tf","game":"Team Fortress","app_id":440,"player_count":0,"max_players":24,"Bots":0,"server_type":"Dedicated","server_os":"Linux","password":true,"vac":true,"version":"7961495","steam_id":85568392924470001,"keywords":["cp","nocrits","nodmgspread","uncletopia"],"game_id":440,"stv_port":27016,"stv_name":"Uncletopia | Sydney | 1 | All Maps | STV","players":null},{"server_id":123,"name":"Uncletopia | Sydney | 2 | All Maps","name_short":"syd-2","host":"syd-1.au.uncletopia.com","port":27025,"enabled":true,"region":"au","cc":"au","latitude":-33.865143,"longitude":151.2099,"reserved":0,"last_update":"0001-01-01T00:00:00Z","name_a2s":"Uncletopia | Sydney | 2 | All Maps","protocol":17,"map":"koth_lakeside_final","folder":"tf","game":"Team Fortress","app_id":440,"player_count":0,"max_players":24,"Bots":0,"server_type":"Dedicated","server_os":"Linux","password":true,"vac":true,"version":"7961495","steam_id":85568392924470002,"keywords":["cp","nocrits","nodmgspread","uncletopia"],"game_id":440,"stv_port":27026,"stv_name":"Uncletopia | Sydney | 2 | All Maps | STV","players":null},{"server_id":395,"name":"Uncletopia | Sydney | 3 | All Maps","name_short":"syd-3","host":"syd-1.au.uncletopia.com","port":27035,"enabled":true,"region":"au","cc":"au","latitude":-33.865143,"longitude":151.2099,"reserved":0,"last_update":"0001-01-01T00:00:00Z","name_a2s":"Uncletopia | Sydney | 3 | All Maps","protocol":17,"map":"pl_frontier_final","folder":"tf","game":"Team Fortress","app_id":440,"player_count":0,"max_players":24,"Bots":0,"server_type":"Dedicated","server_os":"Linux","password":true,"vac":true,"version":"7961495","steam_id":85568392925194467,"keywords":["nocrits","nodmgspread","payload","uncletopia"],"game_id":440,"stv_port":27036,"stv_name":"Uncletopia | Sydney | 3 | All Maps | STV","players":null},{"server_id":396,"name":"Uncletopia | Sydney | 4 | All Maps","name_short":"syd-4","host":"syd-1.au.uncletopia.com","port":27045,"enabled":true,"region":"au","cc":"au","latitude":-33.865143,"longitude":151.2099,"reserved":0,"last_update":"0001-01-01T00:00:00Z","name_a2s":"Uncletopia | Sydney | 4 | All Maps","protocol":17,"map":"cp_process_final","folder":"tf","game":"Team Fortress","app_id":440,"player_count":0,"max_players":24,"Bots":0,"server_type":"Dedicated","server_os":"Linux","password":true,"vac":true,"version":"7961495","steam_id":85568392925397958,"keywords":["cp","nocrits","nodmgspread","uncletopia"],"game_id":440,"stv_port":27046,"stv_name":"Uncletopia | Sydney | 4 | All Maps | STV","players":null},{"server_id":58,"name":"Uncletopia | Sydney | 5 | Stopwatch","name_short":"syd-5","host":"syd-1.au.uncletopia.com","port":27055,"enabled":true,"region":"au","cc":"au","latitude":-33.865143,"longitude":151.2099,"reserved":0,"last_update":"0001-01-01T00:00:00Z","name_a2s":"Uncletopia | Sydney | 5 | Stopwatch","protocol":17,"map":"pl_frontier_final","folder":"tf","game":"Team Fortress","app_id":440,"player_count":0,"max_players":24,"Bots":0,"server_type":"Dedicated","server_os":"Linux","password":true,"vac":true,"version":"7961495","steam_id":85568392925397959,"keywords":["nocrits","nodmgspread","payload","uncletopia"],"game_id":440,"stv_port":27056,"stv_name":"Uncletopia | Sydney | 5 | Stopwatch | STV","players":null},{"server_id":59,"name":"Uncletopia | Sydney | 6 | Community","name_short":"syd-6","host":"syd-1.au.uncletopia.com","port":27065,"enabled":true,"region":"au","cc":"au","latitude":-33.865143,"longitude":151.2099,"reserved":0,"last_update":"0001-01-01T00:00:00Z","name_a2s":"Uncletopia | Sydney | 6 | Community","protocol":17,"map":"cp_sunshine","folder":"tf","game":"Team Fortress","app_id":440,"player_count":0,"max_players":24,"Bots":0,"server_type":"Dedicated","server_os":"Linux","password":true,"vac":true,"version":"7961495","steam_id":85568392925397960,"keywords":["cp","nocrits","nodmgspread","uncletopia"],"game_id":440,"stv_port":27066,"stv_name":"Uncletopia | Sydney | 6 | Community | STV","players":null},{"server_id":49,"name":"Uncletopia | Warsaw | 1 | One Thousand Uncles","name_short":"waw-1","host":"waw-1.pl.uncletopia.com","port":27015,"enabled":true,"region":"eu","cc":"pl","latitude":52.2297,"longitude":21.017532,"reserved":0,"last_update":"0001-01-01T00:00:00Z","name_a2s":"Uncletopia | Warsaw | 1 | One Thousand Uncles","protocol":17,"map":"cp_egypt_final","folder":"tf","game":"Team Fortress","app_id":440,"player_count":22,"max_players":32,"Bots":16,"server_type":"Dedicated","server_os":"Linux","password":true,"vac":true,"version":"7961495","steam_id":85568392925397850,"keywords":["alltalk","bots","cp","danepve","increased_maxplayers","nocrits","norespawntime","uncletopia"],"game_id":440,"stv_port":0,"stv_name":"","players":[{"user_id":364,"name":"Voks_","steam_id":76561198159687785,"connected_time":1782000000000,"state":"active","ping":65},{"user_id":359,"name":"AftiksPL","steam_id":76561198875182686,"connected_time":2341000000000,"state":"active","ping":60},{"user_id":339,"name":"simplistic","steam_id":76561198231690748,"connected_time":2862000000000,"state":"active","ping":85},{"user_id":382,"name":"TylowStar","steam_id":76561198357107806,"connected_time":49000000000,"state":"active","ping":90},{"user_id":336,"name":"Mr.Cupcake","steam_id":76561198152711174,"connected_time":3379000000000,"state":"active","ping":37},{"user_id":362,"name":"Comorito","steam_id":76561198183143669,"connected_time":2187000000000,"state":"active","ping":47}]},{"server_id":50,"name":"Uncletopia | Warsaw | 2 | One Thousand Uncles","name_short":"waw-2","host":"waw-1.pl.uncletopia.com","port":27025,"enabled":true,"region":"eu","cc":"pl","latitude":52.2297,"longitude":21.017532,"reserved":0,"last_update":"0001-01-01T00:00:00Z","name_a2s":"Uncletopia | Warsaw | 2 | One Thousand Uncles","protocol":17,"map":"pl_pier","folder":"tf","game":"Team Fortress","app_id":440,"player_count":29,"max_players":32,"Bots":16,"server_type":"Dedicated","server_os":"Linux","password":true,"vac":true,"version":"7961495","steam_id":85568392925397851,"keywords":["alltalk","bots","danepve","increased_maxplayers","nocrits","norespawntime","payload","uncletopia"],"game_id":440,"stv_port":0,"stv_name":"","players":[{"user_id":640,"name":"conykevin","steam_id":76561198111864971,"connected_time":14714000000000,"state":"active","ping":76},{"user_id":800,"name":"Small NULL-terminated humifier","steam_id":76561199441603388,"connected_time":2382000000000,"state":"active","ping":52},{"user_id":739,"name":"orneps489","steam_id":76561199124755916,"connected_time":5754000000000,"state":"active","ping":143},{"user_id":808,"name":"bryophyta","steam_id":76561197968945306,"connected_time":1033000000000,"state":"active","ping":90},{"user_id":803,"name":"Amandus","steam_id":76561198036281079,"connected_time":1805000000000,"state":"active","ping":72},{"user_id":731,"name":"arix123","steam_id":76561198933988144,"connected_time":7558000000000,"state":"active","ping":45},{"user_id":804,"name":"Crimson","steam_id":76561197987552332,"connected_time":1787000000000,"state":"active","ping":63},{"user_id":798,"name":"Samuel L. Jackson","steam_id":76561198130427881,"connected_time":2567000000000,"state":"active","ping":170},{"user_id":736,"name":"Monke Hartmann","steam_id":76561198281389701,"connected_time":6412000000000,"state":"active","ping":106},{"user_id":810,"name":"Titar Industries","steam_id":76561198143078476,"connected_time":364000000000,"state":"active","ping":150},{"user_id":812,"name":"Mirson","steam_id":76561198216819539,"connected_time":165000000000,"state":"active","ping":39},{"user_id":813,"name":"Vibing Wave","steam_id":76561198866358613,"connected_time":164000000000,"state":"active","ping":163},{"user_id":738,"name":"M2rtRa","steam_id":76561198111036466,"connected_time":6084000000000,"state":"active","ping":89}]},{"server_id":51,"name":"Uncletopia | Warsaw | 3 | All Maps","name_short":"waw-3","host":"waw-1.pl.uncletopia.com","port":27035,"enabled":true,"region":"eu","cc":"pl","latitude":52.2297,"longitude":21.017532,"reserved":0,"last_update":"0001-01-01T00:00:00Z","name_a2s":"Uncletopia | Warsaw | 3 | All Maps","protocol":17,"map":"pl_swiftwater_final1","folder":"tf","game":"Team Fortress","app_id":440,"player_count":0,"max_players":24,"Bots":0,"server_type":"Dedicated","server_os":"Linux","password":true,"vac":true,"version":"7961495","steam_id":85568392925397852,"keywords":["nocrits","nodmgspread","payload","uncletopia"],"game_id":440,"stv_port":27036,"stv_name":"Uncletopia | Warsaw | 3 | All Maps | STV","players":null},{"server_id":52,"name":"Uncletopia | Warsaw | 4 | All Maps","name_short":"waw-4","host":"waw-1.pl.uncletopia.com","port":27045,"enabled":true,"region":"eu","cc":"pl","latitude":52.2297,"longitude":21.017532,"reserved":0,"last_update":"0001-01-01T00:00:00Z","name_a2s":"Uncletopia | Warsaw | 4 | All Maps","protocol":17,"map":"pl_swiftwater_final1","folder":"tf","game":"Team Fortress","app_id":440,"player_count":0,"max_players":24,"Bots":0,"server_type":"Dedicated","server_os":"Linux","password":true,"vac":true,"version":"7961495","steam_id":85568392925397853,"keywords":["nocrits","nodmgspread","payload","uncletopia"],"game_id":440,"stv_port":27046,"stv_name":"Uncletopia | Warsaw | 4 | All Maps | STV","players":null},{"server_id":53,"name":"Uncletopia | Warsaw | 5 | Stopwatch","name_short":"waw-5","host":"waw-1.pl.uncletopia.com","port":27055,"enabled":true,"region":"eu","cc":"pl","latitude":52.2297,"longitude":21.017532,"reserved":0,"last_update":"0001-01-01T00:00:00Z","name_a2s":"Uncletopia | Warsaw | 5 | Stopwatch","protocol":17,"map":"workshop/koth_clearcut_b15.ugc2107050255","folder":"tf","game":"Team Fortress","app_id":440,"player_count":0,"max_players":24,"Bots":0,"server_type":"Dedicated","server_os":"Linux","password":true,"vac":true,"version":"7961495","steam_id":85568392925397854,"keywords":["cp","nocrits","nodmgspread","uncletopia"],"game_id":440,"stv_port":27056,"stv_name":"Uncletopia | Warsaw | 5 | Stopwatch | STV","players":null},{"server_id":54,"name":"Uncletopia | Warsaw | 6 | Community","name_short":"waw-6","host":"waw-1.pl.uncletopia.com","port":27065,"enabled":true,"region":"eu","cc":"pl","latitude":52.2297,"longitude":21.017532,"reserved":0,"last_update":"0001-01-01T00:00:00Z","name_a2s":"Uncletopia | Warsaw | 6 | Community","protocol":17,"map":"workshop/pl_badwater_pro_v12.ugc2142942074","folder":"tf","game":"Team Fortress","app_id":440,"player_count":0,"max_players":24,"Bots":0,"server_type":"Dedicated","server_os":"Linux","password":true,"vac":true,"version":"7961495","steam_id":85568392925397856,"keywords":["nocrits","nodmgspread","payload","uncletopia"],"game_id":440,"stv_port":27066,"stv_name":"Uncletopia | Warsaw | 6 | Community | STV","players":null}]}