{"status":true,"message":"","result":[{"server_id":9,"name":"Uncletopia | Atlanta | 1 | All Maps","name_short":"atl-1","host":"atl-1.us.uncletopia.com","port":27015,"enabled":true,"region":"us-east","cc":"us","latitude":33.753746,"longitude":-84.38633,"reserved":0,"last_update":"0001-01-01T00:00:00Z","name_a2s":"Uncletopia | Atlanta | 1 | All Maps","protocol":17,"map":"cp_mountainlab","folder":"tf","game":"Team Fortress","app_id":440,"player_count":0,"max_players":24,"Bots":0,"server_type":"Dedicated","server_os":"Linux","password":true,"vac":true,"version":"7757534","steam_id":85568392924469982,"keywords":["cp","nocrits","nodmgspread","uncletopia"],"game_id":440,"stv_port":27016,"stv_name":"Uncletopia | Atlanta | 1 | All Maps | STV","players":null},{"server_id":400,"name":"Uncletopia | Atlanta | 3 | Community","name_short":"atl-3","host":"atl-1.us.uncletopia.com","port":27035,"enabled":true,"region":"us-east","cc":"us","latitude":33.753746,"longitude":-84.38633,"reserved":0,"last_update":"0001-01-01T00:00:00Z","name_a2s":"Uncletopia | Atlanta | 3 | Community","protocol":17,"map":"workshop/koth_ramjam_rc1.ugc459778887","folder":"tf","game":"Team Fortress","app_id":440,"player_count":0,"max_players":24,"Bots":0,"server_type":"Dedicated","server_os":"Linux","password":true,"vac":true,"version":"7757534","steam_id":85568392924515187,"keywords":["cp","nocrits","nodmgspread","uncletopia"],"game_id":440,"stv_port":27036,"stv_name":"Uncletopia | Atlanta | 3 | Community | STV","players":null},{"server_id":401,"name":"Uncletopia | Atlanta | 4 | No Payload","name_short":"atl-4","host":"atl-1.us.uncletopia.com","port":27045,"enabled":true,"region":"us-east","cc":"us","latitude":33.753746,"longitude":-84.38633,"reserved":0,"last_update":"0001-01-01T00:00:00Z","name_a2s":"","protocol":0,"map":"","folder":"","game":"","app_id":0,"player_count":0,"max_players":0,"Bots":0,"server_type":"","server_os":"","password":false,"vac":false,"version":"","steam_id":0,"keywords":null,"game_id":0,"stv_port":0,"stv_name":"","players":null},{"server_id":2,"name":"Uncletopia | Chicago | 1 | All Maps","name_short":"chi-1","host":"chi-1.us.uncletopia.com","port":27015,"enabled":true,"region":"us-central","cc":"us","latitude":41.881832,"longitude":-87.62318,"reserved":0,"last_update":"0001-01-01T00:00:00Z","name_a2s":"Uncletopia | Chicago | 1 | All Maps","protocol":17,"map":"pl_snowycoast","folder":"tf","game":"Team Fortress","app_id":440,"player_count":24,"max_players":24,"Bots":0,"server_type":"Dedicated","server_os":"Linux","password":true,"vac":true,"version":"7757534","steam_id":85568392924469984,"keywords":["nocrits","nodmgspread","payload","uncletopia"],"game_id":440,"stv_port":27016,"stv_name":"Uncletopia | Chicago | 1 | All Maps | STV","players":[{"user_id":955,"name":"SIGMA [BS]","steam_id":76561197962604879,"connected_time":9525000000000,"state":"active","ping":70},{"user_id":1013,"name":"[يهودي] Bill Clinton [אל","steam_id":76561198163291190,"connected_time":5316000000000,"state":"active","ping":82},{"user_id":1052,"name":"scarfs :4","steam_id":76561198008264703,"connected_time":1996000000000,"state":"active","ping":67},{"user_id":1051,"name":"man of the hour","steam_id":76561198264601809,"connected_time":2001000000000,"state":"active","ping":71},{"user_id":1062,"name":"evril vvizard miku","steam_id":76561198164445414,"connected_time":1102000000000,"state":"active","ping":105},{"user_id":1063,"name":"pigswill","steam_id":76561197999081865,"connected_time":1061000000000,"state":"active","ping":90},{"user_id":1034,"name":"Shichinitzi","steam_id":76561198003833732,"connected_time":3229000000000,"state":"active","ping":48},{"user_id":1069,"name":"Purplest","steam_id":76561198093523277,"connected_time":561000000000,"state":"active","ping":31},{"user_id":1072,"name":"Niterux","steam_id":76561198101291574,"connected_time":267000000000,"state":"active","ping":105},{"user_id":1071,"name":"Milkf porn","steam_id":76561198152601497,"connected_time":291000000000,"state":"active","ping":59},{"user_id":1059,"name":"Skrungly","steam_id":76561198072550443,"connected_time":1214000000000,"state":"active","ping":62},{"user_id":1073,"name":"Puppeteer","steam_id":76561198159928108,"connected_time":255000000000,"state":"active","ping":108},{"user_id":1066,"name":"Major Woody","steam_id":76561198835541533,"connected_time":972000000000,"state":"active","ping":74},{"user_id":1067,"name":"Borp","steam_id":76561198070402855,"connected_time":939000000000,"state":"active","ping":55},{"user_id":1074,"name":"Shaizo","steam_id":76561199118241286,"connected_time":234000000000,"state":"active","ping":75},{"user_id":1061,"name":"Cave Rat","steam_id":76561198214003663,"connected_time":1204000000000,"state":"active","ping":95},{"user_id":1075,"name":"Ricky Dicky Doo Dah Grimes","steam_id":76561198080430008,"connected_time":186000000000,"state":"active","ping":70},{"user_id":1068,"name":"Creyon","steam_id":76561198812104058,"connected_time":832000000000,"state":"active","ping":57},{"user_id":1076,"name":"Creature","steam_id":76561198194585781,"connected_time":125000000000,"state":"active","ping":114},{"user_id":1042,"name":"Pyrovision Enthusiast","steam_id":76561198211892779,"connected_time":2861000000000,"state":"active","ping":63},{"user_id":1044,"name":"BaDboY6996","steam_id":76561197969386201,"connected_time":2841000000000,"state":"active","ping":60},{"user_id":1047,"name":"lord bong","steam_id":76561197991387894,"connected_time":2429000000000,"state":"active","ping":61},{"user_id":1056,"name":"vOMIT BOY","steam_id":76561198167279375,"connected_time":1553000000000,"state":"active","ping":94},{"user_id":1045,"name":"MY RATCHET BM CALLING #DECLINED","steam_id":76561198144766439,"connected_time":2841000000000,"state":"active","ping":45}]},{"server_id":106,"name":"Uncletopia | Chicago | 2 | All Maps","name_short":"chi-2","host":"chi-1.us.uncletopia.com","port":27025,"enabled":true,"region":"us-central","cc":"us","latitude":41.881832,"longitude":-87.62318,"reserved":0,"last_update":"0001-01-01T00:00:00Z","name_a2s":"Uncletopia | Chicago | 2 | All Maps","protocol":17,"map":"pl_snowycoast","folder":"tf","game":"Team Fortress","app_id":440,"player_count":0,"max_players":24,"Bots":0,"server_type":"Dedicated","server_os":"Linux","password":true,"vac":true,"version":"7757534","steam_id":85568392924469985,"keywords":["nocrits","nodmgspread","payload","uncletopia"],"game_id":440,"stv_port":27026,"stv_name":"Uncletopia | Chicago | 2 | All Maps | STV","players":null},{"server_id":402,"name":"Uncletopia | Chicago | 3 | All Maps","name_short":"chi-3","host":"chi-1.us.uncletopia.com","port":27035,"enabled":true,"region":"us-central","cc":"us","latitude":41.881832,"longitude":-87.62318,"reserved":0,"last_update":"0001-01-01T00:00:00Z","name_a2s":"Uncletopia | Chicago | 3 | All Maps","protocol":17,"map":"cp_process_final","folder":"tf","game":"Team Fortress","app_id":440,"player_count":0,"max_players":24,"Bots":0,"server_type":"Dedicated","server_os":"Linux","password":true,"vac":true,"version":"7757534","steam_id":85568392924515191,"keywords":["cp","nocrits","nodmgspread","uncletopia"],"game_id":440,"stv_port":27036,"stv_name":"Uncletopia | Chicago | 3 | All Maps | STV","players":null},{"server_id":403,"name":"Uncletopia | Chicago | 4 | All Maps","name_short":"chi-4","host":"chi-1.us.uncletopia.com","port":27045,"enabled":true,"region":"us-central","cc":"us","latitude":41.881832,"longitude":-87.62318,"reserved":0,"last_update":"0001-01-01T00:00:00Z","name_a2s":"Uncletopia | Chicago | 4 | All Maps","protocol":17,"map":"koth_cascade","folder":"tf","game":"Team Fortress","app_id":440,"player_count":0,"max_players":24,"Bots":0,"server_type":"Dedicated","server_os":"Linux","password":true,"vac":true,"version":"7757534","steam_id":85568392924515193,"keywords":["cp","nocrits","nodmgspread","uncletopia"],"game_id":440,"stv_port":27046,"stv_name":"Uncletopia | Chicago | 4 | All Maps | STV","players":null},{"server_id":36,"name":"Uncletopia | Chicago | 5 | All Maps","name_short":"chi-5","host":"chi-2.us.uncletopia.com","port":27015,"enabled":true,"region":"us-central","cc":"us","latitude":41.881832,"longitude":-87.62318,"reserved":0,"last_update":"0001-01-01T00:00:00Z","name_a2s":"Uncletopia | Chicago | 5 | All Maps","protocol":17,"map":"pl_snowycoast","folder":"tf","game":"Team Fortress","app_id":440,"player_count":0,"max_players":24,"Bots":0,"server_type":"Dedicated","server_os":"Linux","password":true,"vac":true,"version":"7757534","steam_id":85568392924866362,"keywords":["nocrits","nodmgspread","payload","uncletopia"],"game_id":440,"stv_port":27016,"stv_name":"Uncletopia | Chicago | 5 | All Maps | STV","players":null},{"server_id":37,"name":"Uncletopia | Chicago | 6 | All Maps","name_short":"chi-6","host":"chi-2.us.uncletopia.com","port":27025,"enabled":true,"region":"us-central","cc":"us","latitude":41.881832,"longitude":-87.62318,"reserved":0,"last_update":"0001-01-01T00:00:00Z","name_a2s":"Uncletopia | Chicago | 6 | All Maps","protocol":17,"map":"pl_snowycoast","folder":"tf","game":"Team Fortress","app_id":440,"player_count":0,"max_players":24,"Bots":0,"server_type":"Dedicated","server_os":"Linux","password":true,"vac":true,"version":"7757534","steam_id":85568392924866363,"keywords":["nocrits","nodmgspread","payload","uncletopia"],"game_id":440,"stv_port":27026,"stv_name":"Uncletopia | Chicago | 6 | All Maps | STV","players":null},{"server_id":38,"name":"Uncletopia | Chicago | 7 | Stopwatch Beta","name_short":"chi-7","host":"chi-2.us.uncletopia.com","port":27035,"enabled":true,"region":"us-central","cc":"us","latitude":41.881832,"longitude":-87.62318,"reserved":0,"last_update":"0001-01-01T00:00:00Z","name_a2s":"Uncletopia | Chicago | 7 | Stopwatch Beta","protocol":17,"map":"koth_viaduct","folder":"tf","game":"Team Fortress","app_id":440,"player_count":0,"max_players":24,"Bots":0,"server_type":"Dedicated","server_os":"Linux","password":true,"vac":true,"version":"7757534","steam_id":85568392924866364,"keywords":["cp","nocrits","nodmgspread","uncletopia"],"game_id":440,"stv_port":27036,"stv_name":"Uncletopia | Chicago | 7 | Stopwatch Beta | STV","players":null},{"server_id":39,"name":"Uncletopia | Chicago | 8 | Community","name_short":"chi-8","host":"chi-2.us.uncletopia.com","port":27045,"enabled":true,"region":"us-central","cc":"us","latitude":41.881832,"longitude":-87.62318,"reserved":0,"last_update":"0001-01-01T00:00:00Z","name_a2s":"Uncletopia | Chicago | 8 | Community","protocol":17,"map":"workshop/koth_ramjam_rc1.ugc459778887","folder":"tf","game":"Team Fortress","app_id":440,"player_count":0,"max_players":24,"Bots":0,"server_type":"Dedicated","server_os":"Linux","password":true,"vac":true,"version":"7757534","steam_id":85568392924866365,"keywords":["cp","nocrits","nodmgspread","uncletopia"],"game_id":440,"stv_port":27046,"stv_name":"Uncletopia | Chicago | 8 | Community | STV","players":null},{"server_id":8,"name":"Uncletopia | Dallas | 1 | All Maps","name_short":"dal-1","host":"dal-1.us.uncletopia.com","port":27015,"enabled":true,"region":"us-central","cc":"us","latitude":32.779167,"longitude":-96.80889,"reserved":0,"last_update":"0001-01-01T00:00:00Z","name_a2s":"Uncletopia | Dallas | 1 | All Maps","protocol":17,"map":"cp_snakewater_final1","folder":"tf","game":"Team Fortress","app_id":440,"player_count":0,"max_players":24,"Bots":0,"server_type":"Dedicated","server_os":"Linux","password":true,"vac":true,"version":"7757534","steam_id":85568392924469986,"keywords":["cp","nocrits","nodmgspread","uncletopia"],"game_id":440,"stv_port":27016,"stv_name":"Uncletopia | Dallas | 1 | All Maps | STV","players":null},{"server_id":108,"name":"Uncletopia | Dallas | 2 | All Maps","name_short":"dal-2","host":"dal-1.us.uncletopia.com","port":27025,"enabled":true,"region":"us-central","cc":"us","latitude":32.779167,"longitude":-96.80889,"reserved":0,"last_update":"0001-01-01T00:00:00Z","name_a2s":"Uncletopia | Dallas | 2 | All Maps","protocol":17,"map":"cp_mountainlab","folder":"tf","game":"Team Fortress","app_id":440,"player_count":21,"max_players":24,"Bots":0,"server_type":"Dedicated","server_os":"Linux","password":true,"vac":true,"version":"7757534","steam_id":85568392924469988,"keywords":["cp","nocrits","nodmgspread","uncletopia"],"game_id":440,"stv_port":27026,"stv_name":"Uncletopia | Dallas | 2 | All Maps | STV","players":[{"user_id":718,"name":"not so much of a gamer","steam_id":76561198003593070,"connected_time":845000000000,"state":"spawning","ping":73},{"user_id":687,"name":"mkl","steam_id":76561197986401685,"connected_time":2161000000000,"state":"active","ping":38},{"user_id":713,"name":"Soju","steam_id":76561198044130442,"connected_time":992000000000,"state":"active","ping":287},{"user_id":711,"name":"Missing Minus","steam_id":76561198120822928,"connected_time":1196000000000,"state":"spawning","ping":71},{"user_id":694,"name":"PageBoiSkull","steam_id":76561198237353578,"connected_time":1799000000000,"state":"active","ping":115},{"user_id":719,"name":"Sabaman55","steam_id":76561198212267979,"connected_time":783000000000,"state":"active","ping":70},{"user_id":720,"name":"♂♥ spum Burgler","steam_id":76561198158003907,"connected_time":683000000000,"state":"active","ping":73},{"user_id":691,"name":"[TGP] T-Virus","steam_id":76561198001963208,"connected_time":1962000000000,"state":"active","ping":122},{"user_id":708,"name":"Kaluka","steam_id":76561198036861445,"connected_time":1358000000000,"state":"active","ping":76},{"user_id":697,"name":"BurnN8or101","steam_id":76561198132668224,"connected_time":1620000000000,"state":"active","ping":123},{"user_id":730,"name":"yitz","steam_id":76561198375575841,"connected_time":169000000000,"state":"active","ping":121},{"user_id":709,"name":"Primrose","steam_id":76561198031708819,"connected_time":1347000000000,"state":"active","ping":48},{"user_id":721,"name":"His Medic","steam_id":76561198083700067,"connected_time":678000000000,"state":"active","ping":93},{"user_id":673,"name":"CreativeUsername","steam_id":76561198186045503,"connected_time":3619000000000,"state":"active","ping":70},{"user_id":731,"name":"Crackbean","steam_id":76561199115082856,"connected_time":131000000000,"state":"active","ping":165},{"user_id":715,"name":"clenZORZ","steam_id":76561198835570628,"connected_time":957000000000,"state":"active","ping":55},{"user_id":732,"name":"psycho killer (french words)","steam_id":76561198185980055,"connected_time":54000000000,"state":"active","ping":63},{"user_id":727,"name":"Spring Heeled Jack","steam_id":76561198285772643,"connected_time":365000000000,"state":"active","ping":136},{"user_id":723,"name":"[PFF] hops_a_pops","steam_id":76561198210902109,"connected_time":665000000000,"state":"active","ping":62},{"user_id":724,"name":"Mericc","steam_id":76561198034969746,"connected_time":656000000000,"state":"active","ping":93},{"user_id":726,"name":"ShadowBolt","steam_id":76561198061610985,"connected_time":481000000000,"state":"active","ping":113}]},{"server_id":5,"name":"Uncletopia | Frankfurt | 1 | All Maps","name_short":"frk-1","host":"frk-1.de.uncletopia.com","port":27015,"enabled":true,"region":"eu","cc":"de","latitude":50.110924,"longitude":8.682127,"reserved":0,"last_update":"0001-01-01T00:00:00Z","name_a2s":"Uncletopia | Frankfurt | 1 | All Maps","protocol":17,"map":"pl_borneo","folder":"tf","game":"Team Fortress","app_id":440,"player_count":24,"max_players":24,"Bots":0,"server_type":"Dedicated","server_os":"Linux","password":true,"vac":true,"version":"7757534","steam_id":85568392924469989,"keywords":["nocrits","nodmgspread","payload","uncletopia"],"game_id":440,"stv_port":27016,"stv_name":"Uncletopia | Frankfurt | 1 | All Maps | STV","players":[{"user_id":88,"name":"Dolcelatte","steam_id":76561198038501770,"connected_time":758000000000,"state":"active","ping":51},{"user_id":75,"name":"shoto (beating tortelloni)","steam_id":76561199033920575,"connected_time":2081000000000,"state":"active","ping":52},{"user_id":76,"name":"Kedy","steam_id":76561198308990457,"connected_time":1965000000000,"state":"active","ping":85},{"user_id":90,"name":"prophits","steam_id":76561198011854314,"connected_time":580000000000,"state":"active","ping":75},{"user_id":92,"name":"Yassine","steam_id":76561198140565712,"connected_time":549000000000,"state":"active","ping":52},{"user_id":94,"name":"The pusheen cat","steam_id":76561199002462516,"connected_time":516000000000,"state":"active","ping":103},{"user_id":95,"name":"StormPumpe","steam_id":76561198081905430,"connected_time":482000000000,"state":"active","ping":67},{"user_id":102,"name":"Phvntqm","steam_id":76561198095172813,"connected_time":327000000000,"state":"active","ping":58},{"user_id":79,"name":"FUKTARD2005","steam_id":76561198839121591,"connected_time":1803000000000,"state":"active","ping":62},{"user_id":56,"name":"Minecraftamere","steam_id":76561198045358081,"connected_time":3631000000000,"state":"active","ping":69},{"user_id":98,"name":"pogfish","steam_id":76561198061427584,"connected_time":463000000000,"state":"active","ping":49},{"user_id":106,"name":"I am piss man","steam_id":76561198039209685,"connected_time":42000000000,"state":"spawning","ping":87},{"user_id":19,"name":"Corpus Christi","steam_id":76561198417999443,"connected_time":5681000000000,"state":"active","ping":91},{"user_id":96,"name":"Joe","steam_id":76561197973896073,"connected_time":479000000000,"state":"active","ping":60},{"user_id":97,"name":"(wm) Das Fleisch","steam_id":76561198001250715,"connected_time":476000000000,"state":"active","ping":55},{"user_id":100,"name":"Mr_Fortress","steam_id":76561198942955994,"connected_time":366000000000,"state":"active","ping":74},{"user_id":103,"name":"Pelaxis","steam_id":76561198180030121,"connected_time":276000000000,"state":"active","ping":72},{"user_id":72,"name":"muehlbacher","steam_id":76561199046112419,"connected_time":2434000000000,"state":"active","ping":68},{"user_id":67,"name":"wireless device","steam_id":76561199216923710,"connected_time":2981000000000,"state":"active","ping":126},{"user_id":63,"name":"nostalgia critic side character","steam_id":76561198273681447,"connected_time":3311000000000,"state":"active","ping":75},{"user_id":101,"name":"pootis_najran","steam_id":76561198108481078,"connected_time":345000000000,"state":"active","ping":108},{"user_id":107,"name":"Chrikin","steam_id":76561198416301532,"connected_time":13000000000,"state":"active","ping":227},{"user_id":105,"name":"Naginacz","steam_id":76561199099232534,"connected_time":189000000000,"state":"active","ping":55},{"user_id":51,"name":"♥ Mark ♥ | P.U.R.","steam_id":76561198965998351,"connected_time":3740000000000,"state":"active","ping":75}]},{"server_id":110,"name":"Uncletopia | Frankfurt | 2 | All Maps","name_short":"frk-2","host":"frk-1.de.uncletopia.com","port":27025,"enabled":true,"region":"eu","cc":"de","latitude":50.110924,"longitude":8.682127,"reserved":0,"last_update":"0001-01-01T00:00:00Z","name_a2s":"Uncletopia | Frankfurt | 2 | All Maps","protocol":17,"map":"pl_swiftwater_final1","folder":"tf","game":"Team Fortress","app_id":440,"player_count":0,"max_players":24,"Bots":0,"server_type":"Dedicated","server_os":"Linux","password":true,"vac":true,"version":"7757534","steam_id":85568392924469990,"keywords":["nocrits","nodmgspread","payload","uncletopia"],"game_id":440,"stv_port":27026,"stv_name":"Uncletopia | Frankfurt | 2 | All Maps | STV","players":null},{"server_id":308,"name":"Uncletopia | Frankfurt | 3 | All Maps","name_short":"frk-3","host":"frk-1.de.uncletopia.com","port":27035,"enabled":true,"region":"eu","cc":"de","latitude":50.110924,"longitude":8.682127,"reserved":0,"last_update":"0001-01-01T00:00:00Z","name_a2s":"Uncletopia | Frankfurt | 3 | All Maps","protocol":17,"map":"koth_viaduct","folder":"tf","game":"Team Fortress","app_id":440,"player_count":0,"max_players":24,"Bots":0,"server_type":"Dedicated","server_os":"Linux","password":true,"vac":true,"version":"7757534","steam_id":85568392924504274,"keywords":["cp","nocrits","nodmgspread","uncletopia"],"game_id":440,"stv_port":27036,"stv_name":"Uncletopia | Frankfurt | 3 | All Maps | STV","players":null},{"server_id":309,"name":"Uncletopia | Frankfurt | 4 | All Maps","name_short":"frk-4","host":"frk-1.de.uncletopia.com","port":27045,"enabled":true,"region":"eu","cc":"de","latitude":50.110924,"longitude":8.682127,"reserved":0,"last_update":"0001-01-01T00:00:00Z","name_a2s":"Uncletopia | Frankfurt | 4 | All Maps","protocol":17,"map":"pl_barnblitz","folder":"tf","game":"Team Fortress","app_id":440,"player_count":24,"max_players":24,"Bots":0,"server_type":"Dedicated","server_os":"Linux","password":true,"vac":true,"version":"7757534","steam_id":85568392924504275,"keywords":["nocrits","nodmgspread","payload","uncletopia"],"game_id":440,"stv_port":27046,"stv_name":"Uncletopia | Frankfurt | 4 | All Maps | STV","players":[{"user_id":4,"name":"SFC Pump","steam_id":76561198129338259,"connected_time":2895000000000,"state":"active","ping":86},{"user_id":5,"name":"RandomGuy","steam_id":76561198801432621,"connected_time":2885000000000,"state":"active","ping":90},{"user_id":6,"name":"StefanXD","steam_id":76561198051095318,"connected_time":2856000000000,"state":"active","ping":83},{"user_id":7,"name":"Aspartus","steam_id":76561198101385763,"connected_time":2826000000000,"state":"active","ping":45},{"user_id":53,"name":"Aneťák","steam_id":76561198159294906,"connected_time":931000000000,"state":"active","ping":51},{"user_id":66,"name":"killer croc","steam_id":76561198261795972,"connected_time":315000000000,"state":"active","ping":70},{"user_id":60,"name":"KAZAM | Tervez","steam_id":76561198045459068,"connected_time":740000000000,"state":"active","ping":75},{"user_id":50,"name":"ShIpDI De Tartle","steam_id":76561198033099511,"connected_time":988000000000,"state":"active","ping":76},{"user_id":13,"name":"Xoukz","steam_id":76561198356014540,"connected_time":2512000000000,"state":"active","ping":98},{"user_id":14,"name":"rein","steam_id":76561198067856323,"connected_time":2496000000000,"state":"active","ping":97},{"user_id":65,"name":"Yorma Mablows","steam_id":76561198123242184,"connected_time":439000000000,"state":"active","ping":106},{"user_id":39,"name":"deflox","steam_id":76561198087450635,"connected_time":1412000000000,"state":"active","ping":42},{"user_id":67,"name":"Mr.4kb","steam_id":76561198027916127,"connected_time":263000000000,"state":"active","ping":57},{"user_id":51,"name":"Mostro","steam_id":76561199121981748,"connected_time":975000000000,"state":"active","ping":67},{"user_id":64,"name":"Kretur","steam_id":76561198161086266,"connected_time":560000000000,"state":"active","ping":95},{"user_id":68,"name":"SynthBox3","steam_id":76561199094075745,"connected_time":179000000000,"state":"active","ping":90},{"user_id":57,"name":"Disasterday","steam_id":76561198044767090,"connected_time":779000000000,"state":"active","ping":44},{"user_id":58,"name":"Creamers","steam_id":76561199158854856,"connected_time":774000000000,"state":"active","ping":60},{"user_id":54,"name":"chgivan","steam_id":76561198060010064,"connected_time":913000000000,"state":"active","ping":75},{"user_id":40,"name":"poliakov.noam","steam_id":76561199259322961,"connected_time":1369000000000,"state":"active","ping":106},{"user_id":69,"name":"Нікітрон","steam_id":76561198044401080,"connected_time":156000000000,"state":"active","ping":61},{"user_id":44,"name":"Денис Базука","steam_id":76561198835849082,"connected_time":1185000000000,"state":"active","ping":105},{"user_id":32,"name":"swueuws","steam_id":76561198020716743,"connected_time":1911000000000,"state":"active","ping":60},{"user_id":59,"name":"KNARRER","steam_id":76561199130777953,"connected_time":754000000000,"state":"active","ping":55}]},{"server_id":310,"name":"Uncletopia | Frankfurt | 5 | All Maps","name_short":"frk-5","host":"frk-1.de.uncletopia.com","port":27055,"enabled":true,"region":"eu","cc":"de","latitude":50.110924,"longitude":8.682127,"reserved":0,"last_update":"0001-01-01T00:00:00Z","name_a2s":"Uncletopia | Frankfurt | 5 | All Maps","protocol":17,"map":"cp_altitude","folder":"tf","game":"Team Fortress","app_id":440,"player_count":0,"max_players":24,"Bots":0,"server_type":"Dedicated","server_os":"Linux","password":true,"vac":true,"version":"7757534","steam_id":85568392924504277,"keywords":["cp","nocrits","nodmgspread","uncletopia"],"game_id":440,"stv_port":27056,"stv_name":"Uncletopia | Frankfurt | 5 | All Maps | STV","players":null},{"server_id":311,"name":"Uncletopia | Frankfurt | 6 | All Maps","name_short":"frk-6","host":"frk-1.de.uncletopia.com","port":27065,"enabled":true,"region":"eu","cc":"de","latitude":50.110924,"longitude":8.682127,"reserved":0,"last_update":"0001-01-01T00:00:00Z","name_a2s":"Uncletopia | Frankfurt | 6 | All Maps","protocol":17,"map":"pl_barnblitz","folder":"tf","game":"Team Fortress","app_id":440,"player_count":0,"max_players":24,"Bots":0,"server_type":"Dedicated","server_os":"Linux","password":true,"vac":true,"version":"7757534","steam_id":85568392924504278,"keywords":["nocrits","nodmgspread","payload","uncletopia"],"game_id":440,"stv_port":27066,"stv_name":"Uncletopia | Frankfurt | 6 | All Maps | STV","players":null},{"server_id":23,"name":"Uncletopia | Frankfurt | 7 | Stopwatch Beta","name_short":"frk-7","host":"frk-1.de.uncletopia.com","port":27075,"enabled":true,"region":"eu","cc":"de","latitude":50.110924,"longitude":8.682127,"reserved":0,"last_update":"0001-01-01T00:00:00Z","name_a2s":"Uncletopia | Frankfurt | 7 | Stopwatch Beta","protocol":17,"map":"workshop/cp_reckoner_rc6.ugc674719999","folder":"tf","game":"Team Fortress","app_id":440,"player_count":0,"max_players":24,"Bots":0,"server_type":"Dedicated","server_os":"Linux","password":true,"vac":true,"version":"7757534","steam_id":85568392924742827,"keywords":["cp","nocrits","nodmgspread","uncletopia"],"game_id":440,"stv_port":27076,"stv_name":"Uncletopia | Frankfurt | 7 | Stopwatch Beta | STV","players":null},{"server_id":24,"name":"Uncletopia | Frankfurt | 8 | Community","name_short":"frk-8","host":"frk-1.de.uncletopia.com","port":27085,"enabled":true,"region":"eu","cc":"de","latitude":50.110924,"longitude":8.682127,"reserved":0,"last_update":"0001-01-01T00:00:00Z","name_a2s":"Uncletopia | Frankfurt | 8 | Community","protocol":17,"map":"koth_viaduct","folder":"tf","game":"Team Fortress","app_id":440,"player_count":0,"max_players":24,"Bots":0,"server_type":"Dedicated","server_os":"Linux","password":true,"vac":true,"version":"7757534","steam_id":85568392924742828,"keywords":["cp","nocrits","nodmgspread","uncletopia"],"game_id":440,"stv_port":27086,"stv_name":"Uncletopia | Frankfurt | 8 | Community | STV","players":null},{"server_id":202,"name":"Uncletopia | Hong Kong | 1 | All Maps","name_short":"hgk-1","host":"hgk-1.hk.uncletopia.com","port":27015,"enabled":true,"region":"asia","cc":"hk","latitude":22.302711,"longitude":114.177216,"reserved":0,"last_update":"0001-01-01T00:00:00Z","name_a2s":"Uncletopia | Hong Kong | 1 | All Maps","protocol":17,"map":"cp_powerhouse","folder":"tf","game":"Team Fortress","app_id":440,"player_count":24,"max_players":24,"Bots":0,"server_type":"Dedicated","server_os":"Linux","password":true,"vac":true,"version":"7757534","steam_id":85568392924494504,"keywords":["cp","nocrits","nodmgspread","uncletopia"],"game_id":440,"stv_port":27016,"stv_name":"Uncletopia | Hong Kong | 1 | All Maps | STV","players":[{"user_id":236,"name":"Nasi Lemak Gaming","steam_id":76561198082921407,"connected_time":705000000000,"state":"active","ping":102},{"user_id":234,"name":"マグナス","steam_id":76561198208990721,"connected_time":931000000000,"state":"active","ping":140},{"user_id":239,"name":"Seiko Shinohara.png","steam_id":76561198089493039,"connected_time":89000000000,"state":"active","ping":132},{"user_id":192,"name":"im_0ff","steam_id":76561198339346695,"connected_time":6774000000000,"state":"active","ping":119},{"user_id":231,"name":"Pizza_Jammies1345","steam_id":76561199228950246,"connected_time":1248000000000,"state":"active","ping":163},{"user_id":221,"name":"AmaiToxic","steam_id":76561199122491157,"connected_time":2907000000000,"state":"active","ping":128},{"user_id":216,"name":"anemoia","steam_id":76561198074339034,"connected_time":3119000000000,"state":"active","ping":75},{"user_id":173,"name":"Vortex Artemisio","steam_id":76561198833527091,"connected_time":8349000000000,"state":"active","ping":87},{"user_id":31,"name":"vintage","steam_id":76561198230213828,"connected_time":18422000000000,"state":"active","ping":61},{"user_id":228,"name":"Buttman","steam_id":76561198044693388,"connected_time":1269000000000,"state":"active","ping":56},{"user_id":238,"name":"TomProPlayer","steam_id":76561199223292521,"connected_time":142000000000,"state":"active","ping":73},{"user_id":232,"name":"mister beast","steam_id":76561198346128694,"connected_time":994000000000,"state":"active","ping":75},{"user_id":56,"name":"Bertengkar","steam_id":76561198213031155,"connected_time":17194000000000,"state":"active","ping":97},{"user_id":237,"name":"Hyrul Warry","steam_id":76561198203073201,"connected_time":184000000000,"state":"active","ping":58},{"user_id":160,"name":"Stupid B","steam_id":76561198131423270,"connected_time":9506000000000,"state":"active","ping":97},{"user_id":199,"name":"Gordon.Freeman","steam_id":76561198337746852,"connected_time":5868000000000,"state":"active","ping":61},{"user_id":235,"name":"76485675","steam_id":76561199390507975,"connected_time":768000000000,"state":"active","ping":56},{"user_id":193,"name":"I love undertime slopper","steam_id":76561198306574432,"connected_time":6721000000000,"state":"active","ping":92},{"user_id":190,"name":"쿠키","steam_id":76561197997220367,"connected_time":7034000000000,"state":"active","ping":56},{"user_id":194,"name":"bmbmbm","steam_id":76561198413116920,"connected_time":6713000000000,"state":"active","ping":105},{"user_id":195,"name":"Noyour","steam_id":76561198323259830,"connected_time":6713000000000,"state":"active","ping":120},{"user_id":224,"name":"sterzun","steam_id":76561198300004922,"connected_time":2182000000000,"state":"active","ping":118},{"user_id":211,"name":"Muck","steam_id":76561199168204576,"connected_time":4110000000000,"state":"active","ping":56},{"user_id":213,"name":"stormy","steam_id":76561198044944261,"connected_time":4096000000000,"state":"active","ping":98}]},{"server_id":1,"name":"Uncletopia | Los Angeles | 1 | All Maps","name_short":"lax-1","host":"lax-1.us.uncletopia.com","port":27015,"enabled":true,"region":"us-west","cc":"us","latitude":33.94279,"longitude":-118.41004,"reserved":0,"last_update":"0001-01-01T00:00:00Z","name_a2s":"Uncletopia | Los Angeles | 1 | All Maps","protocol":17,"map":"cp_dustbowl","folder":"tf","game":"Team Fortress","app_id":440,"player_count":4,"max_players":24,"Bots":0,"server_type":"Dedicated","server_os":"Linux","password":true,"vac":true,"version":"7757534","steam_id":85568392924469991,"keywords":["cp","nocrits","nodmgspread","uncletopia"],"game_id":440,"stv_port":27016,"stv_name":"Uncletopia | Los Angeles | 1 | All Maps | STV","players":[{"user_id":175,"name":"Choppa","steam_id":76561198926443232,"connected_time":7419000000000,"state":"active","ping":82},{"user_id":172,"name":"Gundam Guy","steam_id":76561198178453993,"connected_time":7994000000000,"state":"active","ping":69},{"user_id":217,"name":"postgres","steam_id":76561198011204750,"connected_time":2474000000000,"state":"active","ping":91},{"user_id":173,"name":"KINMEKKI","steam_id":76561198066617702,"connected_time":7925000000000,"state":"active","ping":84}]},{"server_id":112,"name":"Uncletopia | Los Angeles | 2 | All Maps","name_short":"lax-2","host":"lax-1.us.uncletopia.com","port":27025,"enabled":true,"region":"us-west","cc":"us","latitude":33.94279,"longitude":-118.41004,"reserved":0,"last_update":"0001-01-01T00:00:00Z","name_a2s":"Uncletopia | Los Angeles | 2 | All Maps","protocol":17,"map":"cp_process_final","folder":"tf","game":"Team Fortress","app_id":440,"player_count":0,"max_players":24,"Bots":0,"server_type":"Dedicated","server_os":"Linux","password":true,"vac":true,"version":"7757534","steam_id":85568392924469992,"keywords":["cp","nocrits","nodmgspread","uncletopia"],"game_id":440,"stv_port":27026,"stv_name":"Uncletopia | Los Angeles | 2 | All Maps | STV","players":null},{"server_id":324,"name":"Uncletopia | Los Angeles | 3 | All Maps","name_short":"lax-3","host":"lax-1.us.uncletopia.com","port":27035,"enabled":true,"region":"us-west","cc":"us","latitude":33.94279,"longitude":-118.41004,"reserved":0,"last_update":"0001-01-01T00:00:00Z","name_a2s":"Uncletopia | Los Angeles | 3 | All Maps","protocol":17,"map":"pl_frontier_final","folder":"tf","game":"Team Fortress","app_id":440,"player_count":18,"max_players":24,"Bots":0,"server_type":"Dedicated","server_os":"Linux","password":true,"vac":true,"version":"7757534","steam_id":85568392924510198,"keywords":["nocrits","nodmgspread","payload","uncletopia"],"game_id":440,"stv_port":27036,"stv_name":"Uncletopia | Los Angeles | 3 | All Maps | STV","players":[{"user_id":295,"name":"jams","steam_id":76561198131701290,"connected_time":187000000000,"state":"active","ping":50},{"user_id":265,"name":"ice cream (冰淇淋)","steam_id":76561198976530881,"connected_time":2407000000000,"state":"active","ping":44},{"user_id":256,"name":"muffinman12126","steam_id":76561199471924109,"connected_time":3352000000000,"state":"active","ping":55},{"user_id":276,"name":"The Population of Sweden","steam_id":76561198202201644,"connected_time":1958000000000,"state":"active","ping":68},{"user_id":297,"name":"Bee's","steam_id":76561198041888432,"connected_time":28000000000,"state":"active","ping":124},{"user_id":277,"name":"raya","steam_id":76561198051504581,"connected_time":1883000000000,"state":"active","ping":75},{"user_id":296,"name":"Tomoscones","steam_id":76561198813586588,"connected_time":101000000000,"state":"active","ping":65},{"user_id":284,"name":"The Great Karizma!","steam_id":76561198346191193,"connected_time":1381000000000,"state":"active","ping":101},{"user_id":292,"name":"st4rb0y^*","steam_id":76561198337487263,"connected_time":864000000000,"state":"active","ping":58},{"user_id":269,"name":"MrJokester","steam_id":76561198019101367,"connected_time":2154000000000,"state":"active","ping":76},{"user_id":285,"name":"Hornet","steam_id":76561198130369526,"connected_time":1378000000000,"state":"active","ping":43},{"user_id":267,"name":"Xylemon","steam_id":76561197965297420,"connected_time":2236000000000,"state":"active","ping":84},{"user_id":149,"name":"werolat","steam_id":76561197960544784,"connected_time":11632000000000,"state":"active","ping":58},{"user_id":293,"name":"Rexeo035","steam_id":76561198262859725,"connected_time":710000000000,"state":"active","ping":47},{"user_id":289,"name":"s","steam_id":76561198149443710,"connected_time":1237000000000,"state":"active","ping":47},{"user_id":290,"name":"reknud","steam_id":76561198066114874,"connected_time":1235000000000,"state":"active","ping":89},{"user_id":270,"name":"Not Slavoj Žižek","steam_id":76561198004619616,"connected_time":2153000000000,"state":"active","ping":56},{"user_id":275,"name":"MrChaosOK","steam_id":76561197976353083,"connected_time":2015000000000,"state":"active","ping":77}]},{"server_id":25,"name":"Uncletopia | Los Angeles | 4 | Stopwatch Beta","name_short":"lax-4","host":"lax-1.us.uncletopia.com","port":27045,"enabled":true,"region":"us-west","cc":"us","latitude":33.94279,"longitude":-118.41004,"reserved":0,"last_update":"0001-01-01T00:00:00Z","name_a2s":"Uncletopia | Los Angeles | 4 | Stopwatch Beta","protocol":17,"map":"pl_borneo","folder":"tf","game":"Team Fortress","app_id":440,"player_count":0,"max_players":24,"Bots":0,"server_type":"Dedicated","server_os":"Linux","password":true,"vac":true,"version":"7757534","steam_id":85568392924510199,"keywords":["nocrits","nodmgspread","payload","uncletopia"],"game_id":440,"stv_port":27046,"stv_name":"Uncletopia | Los Angeles | 4 | Stopwatch Beta | STV","players":null},{"server_id":11,"name":"Uncletopia | London | 1 | All Maps","name_short":"lon-1","host":"lon-1.uk.uncletopia.com","port":27015,"enabled":true,"region":"eu","cc":"gb","latitude":51.509865,"longitude":-0.118092,"reserved":0,"last_update":"0001-01-01T00:00:00Z","name_a2s":"Uncletopia | London | 1 | All Maps","protocol":17,"map":"cp_altitude","folder":"tf","game":"Team Fortress","app_id":440,"player_count":0,"max_players":24,"Bots":0,"server_type":"Dedicated","server_os":"Linux","password":true,"vac":true,"version":"7757534","steam_id":85568392924367362,"keywords":["cp","nocrits","nodmgspread","uncletopia"],"game_id":440,"stv_port":27016,"stv_name":"Uncletopia | London | 1 | All Maps | STV","players":null},{"server_id":114,"name":"Uncletopia | London | 2 | All Maps","name_short":"lon-2","host":"lon-1.uk.uncletopia.com","port":27025,"enabled":true,"region":"eu","cc":"gb","latitude":51.509865,"longitude":-0.118092,"reserved":0,"last_update":"0001-01-01T00:00:00Z","name_a2s":"Uncletopia | London | 2 | All Maps","protocol":17,"map":"cp_sunshine","folder":"tf","game":"Team Fortress","app_id":440,"player_count":0,"max_players":24,"Bots":0,"server_type":"Dedicated","server_os":"Linux","password":true,"vac":true,"version":"7757534","steam_id":85568392924470941,"keywords":["cp","nocrits","nodmgspread","uncletopia"],"game_id":440,"stv_port":27026,"stv_name":"Uncletopia | London | 2 | All Maps | STV","players":null},{"server_id":320,"name":"Uncletopia | London | 3 | All Maps","name_short":"lon-3","host":"lon-1.uk.uncletopia.com","port":27035,"enabled":true,"region":"eu","cc":"gb","latitude":51.509865,"longitude":-0.118092,"reserved":0,"last_update":"0001-01-01T00:00:00Z","name_a2s":"Uncletopia | London | 3 | All Maps","protocol":17,"map":"pl_pier","folder":"tf","game":"Team Fortress","app_id":440,"player_count":24,"max_players":24,"Bots":0,"server_type":"Dedicated","server_os":"Linux","password":true,"vac":true,"version":"7757534","steam_id":85568392924510192,"keywords":["nocrits","nodmgspread","payload","uncletopia"],"game_id":440,"stv_port":27036,"stv_name":"Uncletopia | London | 3 | All Maps | STV","players":[{"user_id":224,"name":"Looking for tradwife","steam_id":76561198066287815,"connected_time":477000000000,"state":"active","ping":118},{"user_id":229,"name":"DarkFady","steam_id":76561198179099523,"connected_time":127000000000,"state":"active","ping":105},{"user_id":226,"name":"meatsoupcube","steam_id":76561198276802249,"connected_time":385000000000,"state":"active","ping":103},{"user_id":219,"name":"MovingIsOverRated","steam_id":76561198385633292,"connected_time":737000000000,"state":"active","ping":87},{"user_id":210,"name":"wide appreciator","steam_id":76561198083286511,"connected_time":1370000000000,"state":"active","ping":49},{"user_id":228,"name":"I've got a ruddy gun","steam_id":76561198031573426,"connected_time":368000000000,"state":"active","ping":74},{"user_id":225,"name":"2b","steam_id":76561199149307190,"connected_time":406000000000,"state":"active","ping":77},{"user_id":227,"name":"hora","steam_id":76561198404470526,"connected_time":384000000000,"state":"active","ping":92},{"user_id":180,"name":"KAKTyC","steam_id":76561198019296536,"connected_time":3291000000000,"state":"active","ping":94},{"user_id":230,"name":"MIMI:CS","steam_id":76561198255389232,"connected_time":117000000000,"state":"spawning","ping":84},{"user_id":218,"name":"lolgast210(NL)","steam_id":76561198118817234,"connected_time":891000000000,"state":"active","ping":62},{"user_id":231,"name":"Somb","steam_id":76561198101672735,"connected_time":104000000000,"state":"active","ping":75},{"user_id":232,"name":"Ich stinke","steam_id":76561198065076046,"connected_time":84000000000,"state":"active","ping":60},{"user_id":202,"name":"bigfutacock56","steam_id":76561198835619904,"connected_time":1834000000000,"state":"active","ping":114},{"user_id":203,"name":"ashsbhop","steam_id":76561199155075476,"connected_time":1780000000000,"state":"active","ping":90},{"user_id":217,"name":"NO end to POOTIS","steam_id":76561198144879361,"connected_time":1039000000000,"state":"active","ping":118},{"user_id":233,"name":"Na'vi Misato (by popular demand","steam_id":76561198130860698,"connected_time":82000000000,"state":"active","ping":56},{"user_id":234,"name":"Topia","steam_id":76561198163571788,"connected_time":81000000000,"state":"active","ping":85},{"user_id":235,"name":"Bombilla","steam_id":76561198084281798,"connected_time":51000000000,"state":"active","ping":72},{"user_id":221,"name":"jerf","steam_id":76561199213901239,"connected_time":714000000000,"state":"active","ping":46},{"user_id":236,"name":"ballin'","steam_id":76561198312037300,"connected_time":5000000000,"state":"spawning","ping":74},{"user_id":237,"name":"ah yes","steam_id":76561198083615367,"connected_time":5000000000,"state":"spawning","ping":31},{"user_id":185,"name":"Bendy","steam_id":76561198110947303,"connected_time":2832000000000,"state":"active","ping":45},{"user_id":170,"name":"Shynii","steam_id":76561198194682105,"connected_time":4063000000000,"state":"active","ping":63}]},{"server_id":321,"name":"Uncletopia | London | 4 | All Maps","name_short":"lon-4","host":"lon-1.uk.uncletopia.com","port":27045,"enabled":true,"region":"eu","cc":"gb","latitude":51.509865,"longitude":-0.118092,"reserved":0,"last_update":"0001-01-01T00:00:00Z","name_a2s":"Uncletopia | London | 4 | All Maps","protocol":17,"map":"pl_barnblitz","folder":"tf","game":"Team Fortress","app_id":440,"player_count":0,"max_players":24,"Bots":0,"server_type":"Dedicated","server_os":"Linux","password":true,"vac":true,"version":"7757534","steam_id":85568392924510193,"keywords":["nocrits","nodmgspread","payload","uncletopia"],"game_id":440,"stv_port":27046,"stv_name":"Uncletopia | London | 4 | All Maps | STV","players":null},{"server_id":21,"name":"Uncletopia | London | 5 | All Maps","name_short":"lon-5","host":"lon-1.uk.uncletopia.com","port":27055,"enabled":true,"region":"eu","cc":"gb","latitude":51.509865,"longitude":-0.118092,"reserved":0,"last_update":"0001-01-01T00:00:00Z","name_a2s":"Uncletopia | London | 5 | All Maps","protocol":17,"map":"pl_pier","folder":"tf","game":"Team Fortress","app_id":440,"player_count":0,"max_players":24,"Bots":0,"server_type":"Dedicated","server_os":"Linux","password":true,"vac":true,"version":"7757534","steam_id":85568392924742829,"keywords":["nocrits","nodmgspread","payload","uncletopia"],"game_id":440,"stv_port":27056,"stv_name":"Uncletopia | London | 5 | All Maps | STV","players":null},{"server_id":22,"name":"Uncletopia | London | 6 | All Maps","name_short":"lon-6","host":"lon-1.uk.uncletopia.com","port":27065,"enabled":true,"region":"eu","cc":"gb","latitude":51.509865,"longitude":-0.118092,"reserved":0,"last_update":"0001-01-01T00:00:00Z","name_a2s":"Uncletopia | London | 6 | All Maps","protocol":17,"map":"pl_pier","folder":"tf","game":"Team Fortress","app_id":440,"player_count":0,"max_players":24,"Bots":0,"server_type":"Dedicated","server_os":"Linux","password":true,"vac":true,"version":"7757534","steam_id":85568392924742830,"keywords":["nocrits","nodmgspread","payload","uncletopia"],"game_id":440,"stv_port":27066,"stv_name":"Uncletopia | London | 6 | All Maps | STV","players":null},{"server_id":40,"name":"Uncletopia | London | 7 | No Payload","name_short":"lon-7","host":"lon-1.uk.uncletopia.com","port":27075,"enabled":true,"region":"eu","cc":"gb","latitude":51.509865,"longitude":-0.118092,"reserved":0,"last_update":"0001-01-01T00:00:00Z","name_a2s":"Uncletopia | London | 7 | No Payload","protocol":17,"map":"koth_highpass","folder":"tf","game":"Team Fortress","app_id":440,"player_count":2,"max_players":24,"Bots":0,"server_type":"Dedicated","server_os":"Linux","password":true,"vac":true,"version":"7757534","steam_id":85568392924964314,"keywords":["cp","nocrits","nodmgspread","uncletopia"],"game_id":440,"stv_port":27076,"stv_name":"Uncletopia | London | 7 | No Payload | STV","players":[{"user_id":6,"name":"Truegr","steam_id":76561198811912339,"connected_time":571000000000,"state":"active","ping":55},{"user_id":4,"name":"fried","steam_id":76561198307522022,"connected_time":849000000000,"state":"active","ping":47}]},{"server_id":41,"name":"Uncletopia | London | 8 | Community","name_short":"lon-8","host":"lon-1.uk.uncletopia.com","port":27085,"enabled":true,"region":"eu","cc":"gb","latitude":51.509865,"longitude":-0.118092,"reserved":0,"last_update":"0001-01-01T00:00:00Z","name_a2s":"Uncletopia | London | 8 | Community","protocol":17,"map":"cp_altitude","folder":"tf","game":"Team Fortress","app_id":440,"player_count":0,"max_players":24,"Bots":0,"server_type":"Dedicated","server_os":"Linux","password":true,"vac":true,"version":"7757534","steam_id":85568392924964315,"keywords":["cp","nocrits","nodmgspread","uncletopia"],"game_id":440,"stv_port":27086,"stv_name":"Uncletopia | London | 8 | Community | STV","players":null},{"server_id":300,"name":"Uncletopia | Montréal | 1 | All Maps","name_short":"mtl-1","host":"mtl-1.ca.uncletopia.com","port":27015,"enabled":true,"region":"us-east","cc":"ca","latitude":45.50889,"longitude":-73.56167,"reserved":0,"last_update":"0001-01-01T00:00:00Z","name_a2s":"Uncletopia | Montréal | 1 | All Maps","protocol":17,"map":"koth_cascade","folder":"tf","game":"Team Fortress","app_id":440,"player_count":0,"max_players":24,"Bots":0,"server_type":"Dedicated","server_os":"Linux","password":true,"vac":true,"version":"7757534","steam_id":85568392924500087,"keywords":["cp","nocrits","nodmgspread","uncletopia"],"game_id":440,"stv_port":27016,"stv_name":"Uncletopia | Montréal | 1 | All Maps | STV","players":null},{"server_id":301,"name":"Uncletopia | Montréal | 2 | All Maps","name_short":"mtl-2","host":"mtl-1.ca.uncletopia.com","port":27025,"enabled":true,"region":"us-east","cc":"ca","latitude":45.50889,"longitude":-73.56167,"reserved":0,"last_update":"0001-01-01T00:00:00Z","name_a2s":"Uncletopia | Montréal | 2 | All Maps","protocol":17,"map":"cp_snakewater_final1","folder":"tf","game":"Team Fortress","app_id":440,"player_count":0,"max_players":24,"Bots":0,"server_type":"Dedicated","server_os":"Linux","password":true,"vac":true,"version":"7757534","steam_id":85568392924500088,"keywords":["cp","nocrits","nodmgspread","uncletopia"],"game_id":440,"stv_port":27026,"stv_name":"Uncletopia | Montréal | 2 | All Maps | STV","players":null},{"server_id":302,"name":"Uncletopia | Montréal | 3 | All Maps","name_short":"mtl-3","host":"mtl-1.ca.uncletopia.com","port":27035,"enabled":true,"region":"us-east","cc":"ca","latitude":45.50889,"longitude":-73.56167,"reserved":0,"last_update":"0001-01-01T00:00:00Z","name_a2s":"Uncletopia | Montréal | 3 | All Maps","protocol":17,"map":"cp_process_final","folder":"tf","game":"Team Fortress","app_id":440,"player_count":0,"max_players":24,"Bots":0,"server_type":"Dedicated","server_os":"Linux","password":true,"vac":true,"version":"7757534","steam_id":85568392924500089,"keywords":["cp","nocrits","nodmgspread","uncletopia"],"game_id":440,"stv_port":27036,"stv_name":"Uncletopia | Montréal | 3 | All Maps | STV","players":null},{"server_id":303,"name":"Uncletopia | Montréal | 4 | No Payload","name_short":"mtl-4","host":"mtl-1.ca.uncletopia.com","port":27045,"enabled":true,"region":"us-east","cc":"ca","latitude":45.50889,"longitude":-73.56167,"reserved":0,"last_update":"0001-01-01T00:00:00Z","name_a2s":"Uncletopia | Montréal | 4 | No Payload","protocol":17,"map":"plr_pipeline","folder":"tf","game":"Team Fortress","app_id":440,"player_count":0,"max_players":24,"Bots":0,"server_type":"Dedicated","server_os":"Linux","password":true,"vac":true,"version":"7757534","steam_id":85568392924500090,"keywords":["nocrits","nodmgspread","payload","uncletopia"],"game_id":440,"stv_port":27046,"stv_name":"Uncletopia | Montréal | 4 | No Payload | STV","players":null},{"server_id":13,"name":"Uncletopia | New York City | 1 | All Maps","name_short":"nyc-1","host":"nyc-1.us.uncletopia.com","port":27015,"enabled":true,"region":"us-east","cc":"us","latitude":40.73061,"longitude":-73.93524,"reserved":0,"last_update":"0001-01-01T00:00:00Z","name_a2s":"Uncletopia | New York City | 1 | All Maps","protocol":17,"map":"cp_well","folder":"tf","game":"Team Fortress","app_id":440,"player_count":0,"max_players":24,"Bots":0,"server_type":"Dedicated","server_os":"Linux","password":true,"vac":true,"version":"7757534","steam_id":85568392924469993,"keywords":["cp","nocrits","nodmgspread","uncletopia"],"game_id":440,"stv_port":27016,"stv_name":"Uncletopia | New York City | 1 | All Maps | STV","players":null},{"server_id":14,"name":"Uncletopia | New York City | 2 | All Maps","name_short":"nyc-2","host":"nyc-1.us.uncletopia.com","port":27025,"enabled":true,"region":"us-east","cc":"us","latitude":40.73061,"longitude":-73.93524,"reserved":0,"last_update":"0001-01-01T00:00:00Z","name_a2s":"Uncletopia | New York City | 2 | All Maps","protocol":17,"map":"pl_barnblitz","folder":"tf","game":"Team Fortress","app_id":440,"player_count":0,"max_players":24,"Bots":0,"server_type":"Dedicated","server_os":"Linux","password":true,"vac":true,"version":"7757534","steam_id":85568392924469994,"keywords":["nocrits","nodmgspread","payload","uncletopia"],"game_id":440,"stv_port":27026,"stv_name":"Uncletopia | New York City | 2 | All Maps | STV","players":null},{"server_id":15,"name":"Uncletopia | New York City | 3 | Stopwatch Beta","name_short":"nyc-3","host":"nyc-1.us.uncletopia.com","port":27035,"enabled":true,"region":"us-east","cc":"us","latitude":40.73061,"longitude":-73.93524,"reserved":0,"last_update":"0001-01-01T00:00:00Z","name_a2s":"Uncletopia | New York City | 3 | Stopwatch Beta","protocol":17,"map":"cp_process_final","folder":"tf","game":"Team Fortress","app_id":440,"player_count":0,"max_players":24,"Bots":0,"server_type":"Dedicated","server_os":"Linux","password":true,"vac":true,"version":"7757534","steam_id":85568392924742820,"keywords":["cp","nocrits","nodmgspread","uncletopia"],"game_id":440,"stv_port":27036,"stv_name":"Uncletopia | New York City | 3 | Stopwatch Beta | STV","players":null},{"server_id":16,"name":"Uncletopia | New York City | 4 | Community","name_short":"nyc-4","host":"nyc-1.us.uncletopia.com","port":27045,"enabled":true,"region":"us-east","cc":"us","latitude":40.73061,"longitude":-73.93524,"reserved":0,"last_update":"0001-01-01T00:00:00Z","name_a2s":"Uncletopia | New York City | 4 | Community","protocol":17,"map":"workshop/koth_bagel_rc6.ugc2514036946","folder":"tf","game":"Team Fortress","app_id":440,"player_count":0,"max_players":24,"Bots":0,"server_type":"Dedicated","server_os":"Linux","password":true,"vac":true,"version":"7757534","steam_id":85568392924742821,"keywords":["cp","nocrits","nodmgspread","uncletopia"],"game_id":440,"stv_port":27046,"stv_name":"Uncletopia | New York City | 4 | Community | STV","players":null},{"server_id":142,"name":"Uncletopia | São Paulo | 1 | All Maps","name_short":"sao-1","host":"sao-1.br.uncletopia.com","port":27015,"enabled":true,"region":"sa","cc":"br","latitude":-23.533773,"longitude":-46.62529,"reserved":0,"last_update":"0001-01-01T00:00:00Z","name_a2s":"Uncletopia | São Paulo | 1 | All Maps","protocol":17,"map":"cp_altitude","folder":"tf","game":"Team Fortress","app_id":440,"player_count":0,"max_players":24,"Bots":0,"server_type":"Dedicated","server_os":"Linux","password":true,"vac":true,"version":"7757534","steam_id":85568392924469996,"keywords":["cp","nocrits","nodmgspread","uncletopia"],"game_id":440,"stv_port":27016,"stv_name":"Uncletopia | São Paulo | 1 | All Maps | STV","players":null},{"server_id":143,"name":"Uncletopia | São Paulo | 2 | All Maps","name_short":"sao-2","host":"sao-2.br.uncletopia.com","port":27015,"enabled":true,"region":"sa","cc":"br","latitude":-23.533773,"longitude":-46.62529,"reserved":0,"last_update":"0001-01-01T00:00:00Z","name_a2s":"Uncletopia | São Paulo | 2 | All Maps","protocol":17,"map":"koth_viaduct","folder":"tf","game":"Team Fortress","app_id":440,"player_count":0,"max_players":24,"Bots":0,"server_type":"Dedicated","server_os":"Linux","password":true,"vac":true,"version":"7757534","steam_id":85568392924485349,"keywords":["cp","nocrits","nodmgspread","uncletopia"],"game_id":440,"stv_port":27016,"stv_name":"Uncletopia | São Paulo | 2 | All Maps | STV","players":null},{"server_id":7,"name":"Uncletopia | Seattle | 1 | All Maps","name_short":"sea-1","host":"sea-1.us.uncletopia.com","port":27015,"enabled":true,"region":"us-west","cc":"us","latitude":47.608013,"longitude":-122.33517,"reserved":0,"last_update":"0001-01-01T00:00:00Z","name_a2s":"Uncletopia | Seattle | 1 | All Maps","protocol":17,"map":"pl_borneo","folder":"tf","game":"Team Fortress","app_id":440,"player_count":23,"max_players":24,"Bots":0,"server_type":"Dedicated","server_os":"Linux","password":true,"vac":true,"version":"7757534","steam_id":85568392924469997,"keywords":["nocrits","nodmgspread","payload","uncletopia"],"game_id":440,"stv_port":27016,"stv_name":"Uncletopia | Seattle | 1 | All Maps | STV","players":[{"user_id":650,"name":"The Gremlin","steam_id":76561198419066993,"connected_time":33000000000,"state":"spawning","ping":59},{"user_id":644,"name":"North","steam_id":76561199173696836,"connected_time":324000000000,"state":"active","ping":74},{"user_id":620,"name":"Pudsla","steam_id":76561198258974036,"connected_time":2560000000000,"state":"active","ping":64},{"user_id":622,"name":"Chief WaWaWa","steam_id":76561198138312242,"connected_time":2431000000000,"state":"active","ping":88},{"user_id":645,"name":"Arrythmia","steam_id":76561198093748123,"connected_time":322000000000,"state":"active","ping":49},{"user_id":648,"name":"GIYGAS","steam_id":76561198193888289,"connected_time":100000000000,"state":"active","ping":49},{"user_id":649,"name":"\\m/ Cyfun (she/it)","steam_id":76561197960882221,"connected_time":85000000000,"state":"active","ping":90},{"user_id":604,"name":"SvicidalBug","steam_id":76561198221390504,"connected_time":6233000000000,"state":"active","ping":63},{"user_id":651,"name":"KingToaster","steam_id":76561198007903802,"connected_time":18000000000,"state":"active","ping":34},{"user_id":585,"name":"goldhed","steam_id":76561198051751133,"connected_time":7558000000000,"state":"active","ping":52},{"user_id":646,"name":"BeansMan","steam_id":76561198349672838,"connected_time":292000000000,"state":"active","ping":127},{"user_id":635,"name":"Gary, 40, soul sucking 9-5","steam_id":76561198073812888,"connected_time":1628000000000,"state":"active","ping":44},{"user_id":652,"name":"Kirkland Signature bacon","steam_id":76561199102963294,"connected_time":17000000000,"state":"active","ping":72},{"user_id":627,"name":"Joseph","steam_id":76561198056950963,"connected_time":2284000000000,"state":"active","ping":59},{"user_id":634,"name":"GOT MILK?","steam_id":76561198212993755,"connected_time":1816000000000,"state":"active","ping":59},{"user_id":616,"name":"AFunkyPigeon","steam_id":76561199350099870,"connected_time":3774000000000,"state":"active","ping":113},{"user_id":613,"name":"PerKnuckleChuckle","steam_id":76561198023221596,"connected_time":4448000000000,"state":"active","ping":82},{"user_id":653,"name":"мой отец ебанат","steam_id":76561199067513085,"connected_time":1000000000,"state":"spawning","ping":271},{"user_id":610,"name":"strawberry swisher pt.1","steam_id":76561198046073848,"connected_time":4905000000000,"state":"active","ping":47},{"user_id":573,"name":"nescoceo","steam_id":76561198040801160,"connected_time":8972000000000,"state":"active","ping":75},{"user_id":612,"name":"Antzen","steam_id":76561198041343470,"connected_time":4746000000000,"state":"active","ping":72},{"user_id":631,"name":"loppy","steam_id":76561198081870327,"connected_time":2260000000000,"state":"active","ping":88},{"user_id":633,"name":"lug nut larry","steam_id":76561198170643378,"connected_time":2132000000000,"state":"active","ping":99}]},{"server_id":119,"name":"Uncletopia | Seattle | 2 | All Maps","name_short":"sea-2","host":"sea-1.us.uncletopia.com","port":27025,"enabled":true,"region":"us-west","cc":"us","latitude":47.608013,"longitude":-122.33517,"reserved":0,"last_update":"0001-01-01T00:00:00Z","name_a2s":"Uncletopia | Seattle | 2 | All Maps","protocol":17,"map":"pl_badwater","folder":"tf","game":"Team Fortress","app_id":440,"player_count":23,"max_players":24,"Bots":0,"server_type":"Dedicated","server_os":"Linux","password":true,"vac":true,"version":"7757534","steam_id":85568392924469998,"keywords":["nocrits","nodmgspread","payload","uncletopia"],"game_id":440,"stv_port":27026,"stv_name":"Uncletopia | Seattle | 2 | All Maps | STV","players":[{"user_id":853,"name":"ArchmageF","steam_id":76561197992246851,"connected_time":407000000000,"state":"active","ping":48},{"user_id":780,"name":"CHASE","steam_id":76561198090739352,"connected_time":6511000000000,"state":"active","ping":69},{"user_id":816,"name":"RufusJukebox","steam_id":76561198195074028,"connected_time":3214000000000,"state":"active","ping":75},{"user_id":852,"name":"GCTypo","steam_id":76561198111510726,"connected_time":882000000000,"state":"active","ping":46},{"user_id":817,"name":"Zorlovo","steam_id":76561198006443283,"connected_time":3167000000000,"state":"active","ping":88},{"user_id":751,"name":"Neo Kojiro","steam_id":76561198000967076,"connected_time":9254000000000,"state":"active","ping":133},{"user_id":785,"name":"cracky","steam_id":76561197971365444,"connected_time":5959000000000,"state":"active","ping":45},{"user_id":849,"name":"B)","steam_id":76561198093921290,"connected_time":1547000000000,"state":"active","ping":91},{"user_id":813,"name":"River Rat","steam_id":76561198116383976,"connected_time":3536000000000,"state":"active","ping":69},{"user_id":818,"name":"King Of Noob s","steam_id":76561198143209841,"connected_time":3074000000000,"state":"active","ping":45},{"user_id":819,"name":"s4lmon","steam_id":76561198055882807,"connected_time":3009000000000,"state":"active","ping":45},{"user_id":821,"name":"kibben","steam_id":76561198222386220,"connected_time":3002000000000,"state":"active","ping":45},{"user_id":851,"name":"I've Been Drifting Away","steam_id":76561198109445099,"connected_time":1217000000000,"state":"active","ping":48},{"user_id":823,"name":"Ben_meistro","steam_id":76561198876356862,"connected_time":2900000000000,"state":"active","ping":83},{"user_id":839,"name":"gristle","steam_id":76561198046815360,"connected_time":2330000000000,"state":"active","ping":75},{"user_id":835,"name":"TTYmilkman","steam_id":76561199048615674,"connected_time":2596000000000,"state":"active","ping":89},{"user_id":847,"name":"Tee","steam_id":76561198213326445,"connected_time":1750000000000,"state":"active","ping":57},{"user_id":829,"name":"raptorrule","steam_id":76561198164362417,"connected_time":2759000000000,"state":"active","ping":68},{"user_id":756,"name":"Ryanel","steam_id":76561198053075898,"connected_time":9183000000000,"state":"active","ping":75},{"user_id":854,"name":"miji","steam_id":76561198002909892,"connected_time":377000000000,"state":"active","ping":103},{"user_id":855,"name":"ITSPICE","steam_id":76561198173274042,"connected_time":175000000000,"state":"active","ping":61},{"user_id":838,"name":"Shmoo","steam_id":76561198809915108,"connected_time":2531000000000,"state":"active","ping":112},{"user_id":757,"name":"PeptobismolCorndog","steam_id":76561198080072237,"connected_time":9183000000000,"state":"active","ping":145}]},{"server_id":406,"name":"Uncletopia | Seattle | 3 | Stopwatch Beta","name_short":"sea-3","host":"sea-1.us.uncletopia.com","port":27035,"enabled":true,"region":"us-west","cc":"us","latitude":47.608013,"longitude":-122.33517,"reserved":0,"last_update":"0001-01-01T00:00:00Z","name_a2s":"Uncletopia | Seattle | 3 | Stopwatch Beta","protocol":17,"map":"pl_swiftwater_final1","folder":"tf","game":"Team Fortress","app_id":440,"player_count":0,"max_players":24,"Bots":0,"server_type":"Dedicated","server_os":"Linux","password":true,"vac":true,"version":"7757534","steam_id":85568392924515217,"keywords":["nocrits","nodmgspread","payload","uncletopia"],"game_id":440,"stv_port":27036,"stv_name":"Uncletopia | Seattle | 3 | Stopwatch Beta | STV","players":null},{"server_id":17,"name":"Uncletopia | San Francisco | 1 | All Maps","name_short":"sfo-1","host":"sfo-1.us.uncletopia.com","port":27015,"enabled":true,"region":"us-west","cc":"us","latitude":37.77397,"longitude":-122.4313,"reserved":0,"last_update":"0001-01-01T00:00:00Z","name_a2s":"Uncletopia | San Francisco | 1 | All Maps","protocol":17,"map":"pl_pier","folder":"tf","game":"Team Fortress","app_id":440,"player_count":24,"max_players":24,"Bots":0,"server_type":"Dedicated","server_os":"Linux","password":true,"vac":true,"version":"7757534","steam_id":85568392924469999,"keywords":["nocrits","nodmgspread","payload","uncletopia"],"game_id":440,"stv_port":27016,"stv_name":"Uncletopia | San Francisco | 1 | All Maps | STV","players":[{"user_id":705,"name":"squash","steam_id":76561198150281353,"connected_time":3565000000000,"state":"active","ping":73},{"user_id":717,"name":"Bullet Kin","steam_id":76561198219951947,"connected_time":2136000000000,"state":"active","ping":54},{"user_id":736,"name":"Bard of Rage","steam_id":76561198102932650,"connected_time":670000000000,"state":"active","ping":181},{"user_id":629,"name":"p9 delight","steam_id":76561197980280272,"connected_time":9738000000000,"state":"active","ping":60},{"user_id":729,"name":"D3TRΩR3AP3R","steam_id":76561198189423917,"connected_time":1132000000000,"state":"active","ping":76},{"user_id":714,"name":"yungevildoer29k","steam_id":76561198127631900,"connected_time":2217000000000,"state":"active","ping":45},{"user_id":741,"name":"do be us cree chur","steam_id":76561198062663015,"connected_time":238000000000,"state":"active","ping":82},{"user_id":683,"name":"Trips","steam_id":76561198054581597,"connected_time":4514000000000,"state":"active","ping":42},{"user_id":722,"name":"oof","steam_id":76561198068031860,"connected_time":2072000000000,"state":"active","ping":52},{"user_id":731,"name":"chocolat3823","steam_id":76561199249875689,"connected_time":966000000000,"state":"active","ping":51},{"user_id":713,"name":"oiljacket","steam_id":76561199162111049,"connected_time":2530000000000,"state":"active","ping":123},{"user_id":740,"name":"YellowShade","steam_id":76561198200828527,"connected_time":254000000000,"state":"active","ping":81},{"user_id":742,"name":"TheGreatDong","steam_id":76561198000634178,"connected_time":167000000000,"state":"active","ping":55},{"user_id":732,"name":"SpongeBucket","steam_id":76561198393553085,"connected_time":931000000000,"state":"active","ping":73},{"user_id":699,"name":"A Shiny Meat Bicycle","steam_id":76561198358757709,"connected_time":3860000000000,"state":"active","ping":141},{"user_id":725,"name":"123","steam_id":76561198040375911,"connected_time":1762000000000,"state":"active","ping":111},{"user_id":743,"name":"dzcreeper","steam_id":76561198072250723,"connected_time":153000000000,"state":"active","ping":74},{"user_id":720,"name":"dP | I'm in a Wookie Suit","steam_id":76561198083307644,"connected_time":2102000000000,"state":"active","ping":75},{"user_id":734,"name":"gwagwa","steam_id":76561198284013728,"connected_time":872000000000,"state":"active","ping":46},{"user_id":695,"name":"89","steam_id":76561198106308056,"connected_time":3959000000000,"state":"active","ping":66},{"user_id":671,"name":"chanoc","steam_id":76561198026734746,"connected_time":5477000000000,"state":"active","ping":53},{"user_id":744,"name":"mmmm","steam_id":76561198041744957,"connected_time":129000000000,"state":"active","ping":65},{"user_id":703,"name":"p9 jorts FULL of pilk","steam_id":76561199041179985,"connected_time":3757000000000,"state":"active","ping":84},{"user_id":704,"name":"rorywashere /ᐠ - ˕ -マ Ⳋ","steam_id":76561198065825165,"connected_time":3585000000000,"state":"active","ping":89}]},{"server_id":18,"name":"Uncletopia | San Francisco | 2 | All Maps","name_short":"sfo-2","host":"sfo-1.us.uncletopia.com","port":27025,"enabled":true,"region":"us-west","cc":"us","latitude":37.77397,"longitude":-122.4313,"reserved":0,"last_update":"0001-01-01T00:00:00Z","name_a2s":"Uncletopia | San Francisco | 2 | All Maps","protocol":17,"map":"pl_upward","folder":"tf","game":"Team Fortress","app_id":440,"player_count":2,"max_players":24,"Bots":0,"server_type":"Dedicated","server_os":"Linux","password":true,"vac":true,"version":"7757534","steam_id":85568392924470000,"keywords":["nocrits","nodmgspread","payload","uncletopia"],"game_id":440,"stv_port":27026,"stv_name":"Uncletopia | San Francisco | 2 | All Maps | STV","players":[{"user_id":310,"name":"Ediot","steam_id":76561199349494096,"connected_time":3045000000000,"state":"active","ping":130},{"user_id":311,"name":"ChuChu","steam_id":76561199443647976,"connected_time":1953000000000,"state":"active","ping":114}]},{"server_id":19,"name":"Uncletopia | San Francisco | 3 | Stopwatch Beta","name_short":"sfo-3","host":"sfo-1.us.uncletopia.com","port":27035,"enabled":true,"region":"us-west","cc":"us","latitude":37.77397,"longitude":-122.4313,"reserved":0,"last_update":"0001-01-01T00:00:00Z","name_a2s":"Uncletopia | San Francisco | 3 | Stopwatch Beta","protocol":17,"map":"workshop/koth_ramjam_rc1.ugc459778887","folder":"tf","game":"Team Fortress","app_id":440,"player_count":0,"max_players":24,"Bots":0,"server_type":"Dedicated","server_os":"Linux","password":true,"vac":true,"version":"7757534","steam_id":85568392924742824,"keywords":["cp","nocrits","nodmgspread","uncletopia"],"game_id":440,"stv_port":27036,"stv_name":"Uncletopia | San Francisco | 3 | Stopwatch Beta | STV","players":null},{"server_id":20,"name":"Uncletopia | San Francisco | 4 | Community","name_short":"sfo-4","host":"sfo-1.us.uncletopia.com","port":27045,"enabled":true,"region":"us-west","cc":"us","latitude":37.77397,"longitude":-122.4313,"reserved":0,"last_update":"0001-01-01T00:00:00Z","name_a2s":"Uncletopia | San Francisco | 4 | Community","protocol":17,"map":"workshop/koth_slaughter_rc1.ugc1712845210","folder":"tf","game":"Team Fortress","app_id":440,"player_count":0,"max_players":24,"Bots":0,"server_type":"Dedicated","server_os":"Linux","password":true,"vac":true,"version":"7757534","steam_id":85568392924742826,"keywords":["cp","nocrits","nodmgspread","uncletopia"],"game_id":440,"stv_port":27046,"stv_name":"Uncletopia | San Francisco | 4 | Community | STV","players":null},{"server_id":141,"name":"Uncletopia | Sydney | 1 | All Maps","name_short":"syd-1","host":"syd-1.au.uncletopia.com","port":27015,"enabled":true,"region":"au","cc":"au","latitude":-33.865143,"longitude":151.2099,"reserved":0,"last_update":"0001-01-01T00:00:00Z","name_a2s":"Uncletopia | Sydney | 1 | All Maps","protocol":17,"map":"pl_swiftwater_final1","folder":"tf","game":"Team Fortress","app_id":440,"player_count":24,"max_players":24,"Bots":0,"server_type":"Dedicated","server_os":"Linux","password":true,"vac":true,"version":"7757534","steam_id":85568392924470001,"keywords":["nocrits","nodmgspread","payload","uncletopia"],"game_id":440,"stv_port":27016,"stv_name":"Uncletopia | Sydney | 1 | All Maps | STV","players":[{"user_id":555,"name":"tommck","steam_id":76561198376969861,"connected_time":2785000000000,"state":"active","ping":94},{"user_id":591,"name":"Empr","steam_id":76561198024387396,"connected_time":894000000000,"state":"active","ping":70},{"user_id":585,"name":"uncle nephew junior","steam_id":76561198930683342,"connected_time":1631000000000,"state":"active","ping":56},{"user_id":559,"name":"Ganome Chilled","steam_id":76561198064898965,"connected_time":2565000000000,"state":"active","ping":80},{"user_id":588,"name":"Daniel Plainview (no sound)","steam_id":76561197990817274,"connected_time":1173000000000,"state":"active","ping":78},{"user_id":562,"name":"Beehive","steam_id":76561199436707447,"connected_time":2540000000000,"state":"active","ping":48},{"user_id":538,"name":"Charm","steam_id":76561198028891054,"connected_time":3158000000000,"state":"active","ping":60},{"user_id":590,"name":"♥Kai♥","steam_id":76561198066098072,"connected_time":1063000000000,"state":"active","ping":74},{"user_id":561,"name":"SamK #AnnexTF2","steam_id":76561198149051619,"connected_time":2545000000000,"state":"active","ping":67},{"user_id":592,"name":"A Large Fries with Pepsi","steam_id":76561198118487642,"connected_time":861000000000,"state":"active","ping":63},{"user_id":526,"name":"LightningBlock","steam_id":76561198289997742,"connected_time":4963000000000,"state":"active","ping":35},{"user_id":589,"name":"ericacummins","steam_id":76561198946280912,"connected_time":1143000000000,"state":"active","ping":88},{"user_id":570,"name":"abcdef","steam_id":76561198083700749,"connected_time":2332000000000,"state":"active","ping":64},{"user_id":564,"name":"triip","steam_id":76561198009092833,"connected_time":2514000000000,"state":"active","ping":78},{"user_id":577,"name":"sf/k","steam_id":76561198047758776,"connected_time":2043000000000,"state":"active","ping":61},{"user_id":545,"name":"Zeron","steam_id":76561198125778202,"connected_time":3104000000000,"state":"active","ping":54},{"user_id":593,"name":"👑 Illyria 👑","steam_id":76561198143472950,"connected_time":828000000000,"state":"active","ping":60},{"user_id":587,"name":"BigEgg","steam_id":76561197977061249,"connected_time":1300000000000,"state":"active","ping":77},{"user_id":586,"name":"Muffin","steam_id":76561198075391119,"connected_time":1331000000000,"state":"active","ping":59},{"user_id":596,"name":"Fresh Produce Gaming","steam_id":76561198358483352,"connected_time":295000000000,"state":"active","ping":57},{"user_id":546,"name":"thrax","steam_id":76561197992385270,"connected_time":3082000000000,"state":"active","ping":55},{"user_id":557,"name":"skinny loser man","steam_id":76561198094041769,"connected_time":2717000000000,"state":"active","ping":44},{"user_id":566,"name":"Wolf","steam_id":76561198067256350,"connected_time":2482000000000,"state":"active","ping":49},{"user_id":574,"name":"Trins","steam_id":76561198040922808,"connected_time":2188000000000,"state":"active","ping":62}]},{"server_id":123,"name":"Uncletopia | Sydney | 2 | All Maps","name_short":"syd-2","host":"syd-1.au.uncletopia.com","port":27025,"enabled":true,"region":"au","cc":"au","latitude":-33.865143,"longitude":151.2099,"reserved":0,"last_update":"0001-01-01T00:00:00Z","name_a2s":"Uncletopia | Sydney | 2 | All Maps","protocol":17,"map":"koth_brazil","folder":"tf","game":"Team Fortress","app_id":440,"player_count":8,"max_players":24,"Bots":0,"server_type":"Dedicated","server_os":"Linux","password":true,"vac":true,"version":"7757534","steam_id":85568392924470002,"keywords":["cp","nocrits","nodmgspread","uncletopia"],"game_id":440,"stv_port":27026,"stv_name":"Uncletopia | Sydney | 2 | All Maps | STV","players":[{"user_id":122,"name":"frostproto","steam_id":76561198911697195,"connected_time":533000000000,"state":"active","ping":98},{"user_id":123,"name":"moontyinspace","steam_id":76561199284444492,"connected_time":497000000000,"state":"active","ping":106},{"user_id":127,"name":"Flint Lockwood","steam_id":76561198830920173,"connected_time":124000000000,"state":"active","ping":55},{"user_id":125,"name":"Your Cat","steam_id":76561198256416570,"connected_time":341000000000,"state":"active","ping":60},{"user_id":126,"name":"AndrewLLeo","steam_id":76561198802172633,"connected_time":299000000000,"state":"active","ping":246},{"user_id":128,"name":"UnseenStroke","steam_id":76561198265303268,"connected_time":69000000000,"state":"active","ping":59},{"user_id":129,"name":"ToadFungus","steam_id":76561199219667039,"connected_time":30000000000,"state":"active","ping":93},{"user_id":130,"name":"R\u0026R","steam_id":76561198318485462,"connected_time":22000000000,"state":"active","ping":41}]},{"server_id":395,"name":"Uncletopia | Sydney | 3 | All Maps","name_short":"syd-3","host":"syd-1.au.uncletopia.com","port":27035,"enabled":true,"region":"au","cc":"au","latitude":-33.865143,"longitude":151.2099,"reserved":0,"last_update":"0001-01-01T00:00:00Z","name_a2s":"Uncletopia | Sydney | 3 | All Maps","protocol":17,"map":"koth_lakeside_final","folder":"tf","game":"Team Fortress","app_id":440,"player_count":0,"max_players":24,"Bots":0,"server_type":"Dedicated","server_os":"Linux","password":true,"vac":true,"version":"7757534","steam_id":85568392925194467,"keywords":["cp","nocrits","nodmgspread","uncletopia"],"game_id":440,"stv_port":27036,"stv_name":"Uncletopia | Sydney | 3 | All Maps | STV","players":null},{"server_id":396,"name":"Uncletopia | Sydney | 4 | All Maps","name_short":"syd-4","host":"syd-1.au.uncletopia.com","port":27045,"enabled":true,"region":"au","cc":"au","latitude":-33.865143,"longitude":151.2099,"reserved":0,"last_update":"0001-01-01T00:00:00Z","name_a2s":"Uncletopia | Sydney | 4 | All Maps","protocol":17,"map":"koth_lakeside_final","folder":"tf","game":"Team Fortress","app_id":440,"player_count":0,"max_players":24,"Bots":0,"server_type":"Dedicated","server_os":"Linux","password":true,"vac":true,"version":"7757534","steam_id":85568392925397958,"keywords":["cp","nocrits","nodmgspread","uncletopia"],"game_id":440,"stv_port":27046,"stv_name":"Uncletopia | Sydney | 4 | All Maps | STV","players":null},{"server_id":58,"name":"Uncletopia | Sydney | 5 | Stopwatch Beta","name_short":"syd-5","host":"syd-1.au.uncletopia.com","port":27055,"enabled":true,"region":"au","cc":"au","latitude":-33.865143,"longitude":151.2099,"reserved":0,"last_update":"0001-01-01T00:00:00Z","name_a2s":"Uncletopia | Sydney | 5 | Stopwatch Beta","protocol":17,"map":"koth_cascade","folder":"tf","game":"Team Fortress","app_id":440,"player_count":0,"max_players":24,"Bots":0,"server_type":"Dedicated","server_os":"Linux","password":true,"vac":true,"version":"7757534","steam_id":85568392925397959,"keywords":["cp","nocrits","nodmgspread","uncletopia"],"game_id":440,"stv_port":27056,"stv_name":"Uncletopia | Sydney | 5 | Stopwatch Beta | STV","players":null},{"server_id":59,"name":"Uncletopia | Sydney | 6 | Community","name_short":"syd-6","host":"syd-1.au.uncletopia.com","port":27065,"enabled":true,"region":"au","cc":"au","latitude":-33.865143,"longitude":151.2099,"reserved":0,"last_update":"0001-01-01T00:00:00Z","name_a2s":"Uncletopia | Sydney | 6 | Community","protocol":17,"map":"workshop/koth_kemptown_rc1.ugc767410655","folder":"tf","game":"Team Fortress","app_id":440,"player_count":0,"max_players":24,"Bots":0,"server_type":"Dedicated","server_os":"Linux","password":true,"vac":true,"version":"7757534","steam_id":85568392925397960,"keywords":["cp","nocrits","nodmgspread","uncletopia"],"game_id":440,"stv_port":27066,"stv_name":"Uncletopia | Sydney | 6 | Community | STV","players":null},{"server_id":49,"name":"Uncletopia | Warsaw | 1 | All Maps","name_short":"waw-1","host":"waw-1.pl.uncletopia.com","port":27015,"enabled":true,"region":"eu","cc":"pl","latitude":52.2297,"longitude":21.017532,"reserved":0,"last_update":"0001-01-01T00:00:00Z","name_a2s":"","protocol":0,"map":"","folder":"","game":"","app_id":0,"player_count":0,"max_players":0,"Bots":0,"server_type":"","server_os":"","password":false,"vac":false,"version":"","steam_id":0,"keywords":null,"game_id":0,"stv_port":0,"stv_name":"","players":null},{"server_id":50,"name":"Uncletopia | Warsaw | 2 | All Maps","name_short":"waw-2","host":"waw-1.pl.uncletopia.com","port":27025,"enabled":true,"region":"eu","cc":"pl","latitude":52.2297,"longitude":21.017532,"reserved":0,"last_update":"0001-01-01T00:00:00Z","name_a2s":"Uncletopia | Warsaw | 2 | All Maps","protocol":17,"map":"pl_frontier_final","folder":"tf","game":"Team Fortress","app_id":440,"player_count":0,"max_players":24,"Bots":0,"server_type":"Dedicated","server_os":"Linux","password":true,"vac":true,"version":"7757534","steam_id":85568392925397851,"keywords":["nocrits","nodmgspread","payload","uncletopia"],"game_id":440,"stv_port":27026,"stv_name":"Uncletopia | Warsaw | 2 | All Maps | STV","players":null},{"server_id":51,"name":"Uncletopia | Warsaw | 3 | All Maps","name_short":"waw-3","host":"waw-1.pl.uncletopia.com","port":27035,"enabled":true,"region":"eu","cc":"pl","latitude":52.2297,"longitude":21.017532,"reserved":0,"last_update":"0001-01-01T00:00:00Z","name_a2s":"Uncletopia | Warsaw | 3 | All Maps","protocol":17,"map":"pl_barnblitz","folder":"tf","game":"Team Fortress","app_id":440,"player_count":0,"max_players":24,"Bots":0,"server_type":"Dedicated","server_os":"Linux","password":true,"vac":true,"version":"7757534","steam_id":85568392925397852,"keywords":["nocrits","nodmgspread","payload","uncletopia"],"game_id":440,"stv_port":27036,"stv_name":"Uncletopia | Warsaw | 3 | All Maps | STV","players":null},{"server_id":52,"name":"Uncletopia | Warsaw | 4 | All Maps","name_short":"waw-4","host":"waw-1.pl.uncletopia.com","port":27045,"enabled":true,"region":"eu","cc":"pl","latitude":52.2297,"longitude":21.017532,"reserved":0,"last_update":"0001-01-01T00:00:00Z","name_a2s":"Uncletopia | Warsaw | 4 | All Maps","protocol":17,"map":"cp_altitude","folder":"tf","game":"Team Fortress","app_id":440,"player_count":0,"max_players":24,"Bots":0,"server_type":"Dedicated","server_os":"Linux","password":true,"vac":true,"version":"7757534","steam_id":85568392925397853,"keywords":["cp","nocrits","nodmgspread","uncletopia"],"game_id":440,"stv_port":27046,"stv_name":"Uncletopia | Warsaw | 4 | All Maps | STV","players":null},{"server_id":53,"name":"Uncletopia | Warsaw | 5 | Stopwatch Beta","name_short":"waw-5","host":"waw-1.pl.uncletopia.com","port":27055,"enabled":true,"region":"eu","cc":"pl","latitude":52.2297,"longitude":21.017532,"reserved":0,"last_update":"0001-01-01T00:00:00Z","name_a2s":"Uncletopia | Warsaw | 5 | Stopwatch Beta","protocol":17,"map":"pl_pier","folder":"tf","game":"Team Fortress","app_id":440,"player_count":0,"max_players":24,"Bots":0,"server_type":"Dedicated","server_os":"Linux","password":true,"vac":true,"version":"7757534","steam_id":85568392925397854,"keywords":["nocrits","nodmgspread","payload","uncletopia"],"game_id":440,"stv_port":27056,"stv_name":"Uncletopia | Warsaw | 5 | Stopwatch Beta | STV","players":null},{"server_id":54,"name":"Uncletopia | Warsaw | 6 | Community","name_short":"waw-6","host":"waw-1.pl.uncletopia.com","port":27065,"enabled":true,"region":"eu","cc":"pl","latitude":52.2297,"longitude":21.017532,"reserved":0,"last_update":"0001-01-01T00:00:00Z","name_a2s":"Uncletopia | Warsaw | 6 | Community","protocol":17,"map":"koth_highpass","folder":"tf","game":"Team Fortress","app_id":440,"player_count":0,"max_players":24,"Bots":0,"server_type":"Dedicated","server_os":"Linux","password":true,"vac":true,"version":"7757534","steam_id":85568392925397856,"keywords":["cp","nocrits","nodmgspread","uncletopia"],"game_id":440,"stv_port":27066,"stv_name":"Uncletopia | Warsaw | 6 | Community | STV","players":null}]}