{"status":true,"message":"","result":[{"server_id":9,"name":"Uncletopia | Atlanta | 1 | All Maps","name_short":"atl-1","host":"atl-1.us.uncletopia.com","port":27015,"enabled":true,"region":"us-east","cc":"us","latitude":33.753746,"longitude":-84.38633,"reserved":0,"last_update":"0001-01-01T00:00:00Z","name_a2s":"Uncletopia | Atlanta | 1 | All Maps","protocol":17,"map":"koth_highpass","folder":"tf","game":"Team Fortress","app_id":440,"player_count":0,"max_players":24,"Bots":0,"server_type":"Dedicated","server_os":"Linux","password":true,"vac":true,"version":"7757534","steam_id":85568392924469982,"keywords":["cp","nocrits","nodmgspread","uncletopia"],"game_id":440,"stv_port":27016,"stv_name":"Uncletopia | Atlanta | 1 | All Maps | STV","players":null},{"server_id":400,"name":"Uncletopia | Atlanta | 3 | Community","name_short":"atl-3","host":"atl-1.us.uncletopia.com","port":27035,"enabled":true,"region":"us-east","cc":"us","latitude":33.753746,"longitude":-84.38633,"reserved":0,"last_update":"0001-01-01T00:00:00Z","name_a2s":"Uncletopia | Atlanta | 3 | Community","protocol":17,"map":"workshop/cp_reckoner_rc6.ugc674719999","folder":"tf","game":"Team Fortress","app_id":440,"player_count":0,"max_players":24,"Bots":0,"server_type":"Dedicated","server_os":"Linux","password":true,"vac":true,"version":"7757534","steam_id":85568392924515187,"keywords":["cp","nocrits","nodmgspread","uncletopia"],"game_id":440,"stv_port":27036,"stv_name":"Uncletopia | Atlanta | 3 | Community | STV","players":null},{"server_id":401,"name":"Uncletopia | Atlanta | 4 | No Payload","name_short":"atl-4","host":"atl-1.us.uncletopia.com","port":27045,"enabled":true,"region":"us-east","cc":"us","latitude":33.753746,"longitude":-84.38633,"reserved":0,"last_update":"0001-01-01T00:00:00Z","name_a2s":"","protocol":0,"map":"","folder":"","game":"","app_id":0,"player_count":0,"max_players":0,"Bots":0,"server_type":"","server_os":"","password":false,"vac":false,"version":"","steam_id":0,"keywords":null,"game_id":0,"stv_port":0,"stv_name":"","players":null},{"server_id":2,"name":"Uncletopia | Chicago | 1 | All Maps","name_short":"chi-1","host":"chi-1.us.uncletopia.com","port":27015,"enabled":true,"region":"us-central","cc":"us","latitude":41.881832,"longitude":-87.62318,"reserved":0,"last_update":"0001-01-01T00:00:00Z","name_a2s":"Uncletopia | Chicago | 1 | All Maps","protocol":17,"map":"pl_snowycoast","folder":"tf","game":"Team Fortress","app_id":440,"player_count":24,"max_players":24,"Bots":0,"server_type":"Dedicated","server_os":"Linux","password":true,"vac":true,"version":"7757534","steam_id":85568392924469984,"keywords":["nocrits","nodmgspread","payload","uncletopia"],"game_id":440,"stv_port":27016,"stv_name":"Uncletopia | Chicago | 1 | All Maps | STV","players":[{"user_id":569,"name":"WildMtnMonkey","steam_id":76561199106970995,"connected_time":6859000000000,"state":"active","ping":70},{"user_id":703,"name":"twitch.tv/Yoshi21 | TF2Pugs.com","steam_id":76561198002516729,"connected_time":418000000000,"state":"active","ping":63},{"user_id":673,"name":"48","steam_id":76561198894676484,"connected_time":2425000000000,"state":"active","ping":105},{"user_id":681,"name":"Gabinator32","steam_id":76561198872467183,"connected_time":1464000000000,"state":"active","ping":45},{"user_id":698,"name":"Matt.jpg","steam_id":76561198132469465,"connected_time":870000000000,"state":"active","ping":63},{"user_id":676,"name":"Stormz64","steam_id":76561198239036482,"connected_time":1949000000000,"state":"active","ping":58},{"user_id":699,"name":"Riske","steam_id":76561198115840568,"connected_time":798000000000,"state":"active","ping":71},{"user_id":638,"name":"joyeuxnoelle","steam_id":76561198062423120,"connected_time":3274000000000,"state":"active","ping":73},{"user_id":666,"name":"chicanery","steam_id":76561198081654907,"connected_time":2530000000000,"state":"active","ping":82},{"user_id":691,"name":"white ray","steam_id":76561198026664629,"connected_time":1261000000000,"state":"active","ping":56},{"user_id":700,"name":"With respect to x","steam_id":76561198088321636,"connected_time":796000000000,"state":"active","ping":110},{"user_id":689,"name":"‚õß","steam_id":76561198021308963,"connected_time":1340000000000,"state":"active","ping":75},{"user_id":685,"name":"ganjaluvr420","steam_id":76561198048882285,"connected_time":1380000000000,"state":"active","ping":60},{"user_id":682,"name":"Praxis","steam_id":76561197960794303,"connected_time":1452000000000,"state":"active","ping":105},{"user_id":686,"name":"World Famous Skater Sean Pablo","steam_id":76561197999261387,"connected_time":1374000000000,"state":"active","ping":87},{"user_id":690,"name":"Giantbob","steam_id":76561199043760220,"connected_time":1328000000000,"state":"active","ping":123},{"user_id":701,"name":"deez ratz","steam_id":76561198864572366,"connected_time":731000000000,"state":"active","ping":105},{"user_id":702,"name":"Lac-77","steam_id":76561198127045046,"connected_time":667000000000,"state":"active","ping":56},{"user_id":683,"name":"Wingz","steam_id":76561198135885865,"connected_time":1441000000000,"state":"active","ping":46},{"user_id":637,"name":"debin","steam_id":76561198070711217,"connected_time":3305000000000,"state":"active","ping":56},{"user_id":692,"name":"joe","steam_id":76561198045781320,"connected_time":1236000000000,"state":"active","ping":76},{"user_id":693,"name":"Glory","steam_id":76561198013975080,"connected_time":1146000000000,"state":"active","ping":80},{"user_id":695,"name":"Gary Budussy","steam_id":76561197969793969,"connected_time":1088000000000,"state":"active","ping":81},{"user_id":661,"name":"NOLSEY","steam_id":76561198108959504,"connected_time":2562000000000,"state":"active","ping":50}]},{"server_id":106,"name":"Uncletopia | Chicago | 2 | All Maps","name_short":"chi-2","host":"chi-1.us.uncletopia.com","port":27025,"enabled":true,"region":"us-central","cc":"us","latitude":41.881832,"longitude":-87.62318,"reserved":0,"last_update":"0001-01-01T00:00:00Z","name_a2s":"Uncletopia | Chicago | 2 | All Maps","protocol":17,"map":"cp_dustbowl","folder":"tf","game":"Team Fortress","app_id":440,"player_count":0,"max_players":24,"Bots":0,"server_type":"Dedicated","server_os":"Linux","password":true,"vac":true,"version":"7757534","steam_id":85568392924469985,"keywords":["cp","nocrits","nodmgspread","uncletopia"],"game_id":440,"stv_port":27026,"stv_name":"Uncletopia | Chicago | 2 | All Maps | STV","players":null},{"server_id":402,"name":"Uncletopia | Chicago | 3 | All Maps","name_short":"chi-3","host":"chi-1.us.uncletopia.com","port":27035,"enabled":true,"region":"us-central","cc":"us","latitude":41.881832,"longitude":-87.62318,"reserved":0,"last_update":"0001-01-01T00:00:00Z","name_a2s":"Uncletopia | Chicago | 3 | All Maps","protocol":17,"map":"pl_pier","folder":"tf","game":"Team Fortress","app_id":440,"player_count":24,"max_players":24,"Bots":0,"server_type":"Dedicated","server_os":"Linux","password":true,"vac":true,"version":"7757534","steam_id":85568392924515191,"keywords":["nocrits","nodmgspread","payload","uncletopia"],"game_id":440,"stv_port":27036,"stv_name":"Uncletopia | Chicago | 3 | All Maps | STV","players":[{"user_id":614,"name":"nazuna","steam_id":76561198078395002,"connected_time":307000000000,"state":"active","ping":63},{"user_id":613,"name":"AliCat","steam_id":76561198308360862,"connected_time":401000000000,"state":"active","ping":76},{"user_id":596,"name":"Excis","steam_id":76561198103598619,"connected_time":1762000000000,"state":"active","ping":59},{"user_id":581,"name":"Krellah","steam_id":76561198287045069,"connected_time":2858000000000,"state":"active","ping":54},{"user_id":606,"name":"player 2 role","steam_id":76561198173860681,"connected_time":1417000000000,"state":"active","ping":59},{"user_id":577,"name":"Maj. Problem","steam_id":76561198240148840,"connected_time":3470000000000,"state":"active","ping":87},{"user_id":616,"name":"sAven","steam_id":76561198139343389,"connected_time":263000000000,"state":"active","ping":59},{"user_id":594,"name":"cixcin","steam_id":76561199215821942,"connected_time":1803000000000,"state":"active","ping":70},{"user_id":618,"name":"wabba doo","steam_id":76561198867130576,"connected_time":181000000000,"state":"active","ping":75},{"user_id":597,"name":"pathways","steam_id":76561198054832333,"connected_time":1732000000000,"state":"active","ping":61},{"user_id":595,"name":"i luv fat bitches","steam_id":76561198038291026,"connected_time":1802000000000,"state":"active","ping":59},{"user_id":563,"name":"Horrizan","steam_id":76561197965028480,"connected_time":4905000000000,"state":"active","ping":76},{"user_id":615,"name":"Papa Stalin","steam_id":76561198298953716,"connected_time":276000000000,"state":"active","ping":176},{"user_id":610,"name":"DJ Deoxys","steam_id":76561198322147008,"connected_time":728000000000,"state":"active","ping":90},{"user_id":599,"name":"watchfull","steam_id":76561198433266742,"connected_time":1642000000000,"state":"active","ping":114},{"user_id":600,"name":"The Horselords and Animal Gods","steam_id":76561197975094050,"connected_time":1609000000000,"state":"active","ping":109},{"user_id":617,"name":"Six","steam_id":76561198052472822,"connected_time":253000000000,"state":"spawning","ping":63},{"user_id":611,"name":"Maxxycat","steam_id":76561198194062681,"connected_time":538000000000,"state":"active","ping":53},{"user_id":603,"name":"Emperor Dankatine","steam_id":76561198044741086,"connected_time":1593000000000,"state":"active","ping":85},{"user_id":604,"name":"DO NOT call me BART SIMPSON!!","steam_id":76561198069113375,"connected_time":1576000000000,"state":"active","ping":66},{"user_id":605,"name":"jade","steam_id":76561198055611029,"connected_time":1537000000000,"state":"active","ping":61},{"user_id":608,"name":"a crazy hobo","steam_id":76561198289650060,"connected_time":1370000000000,"state":"active","ping":124},{"user_id":609,"name":"cursed_pipboy.exe üëå","steam_id":76561199200092555,"connected_time":1359000000000,"state":"active","ping":190},{"user_id":585,"name":"bikerkid207","steam_id":76561198390782783,"connected_time":2156000000000,"state":"active","ping":68}]},{"server_id":403,"name":"Uncletopia | Chicago | 4 | All Maps","name_short":"chi-4","host":"chi-1.us.uncletopia.com","port":27045,"enabled":true,"region":"us-central","cc":"us","latitude":41.881832,"longitude":-87.62318,"reserved":0,"last_update":"0001-01-01T00:00:00Z","name_a2s":"Uncletopia | Chicago | 4 | All Maps","protocol":17,"map":"cp_dustbowl","folder":"tf","game":"Team Fortress","app_id":440,"player_count":0,"max_players":24,"Bots":0,"server_type":"Dedicated","server_os":"Linux","password":true,"vac":true,"version":"7757534","steam_id":85568392924515193,"keywords":["cp","nocrits","nodmgspread","uncletopia"],"game_id":440,"stv_port":27046,"stv_name":"Uncletopia | Chicago | 4 | All Maps | STV","players":null},{"server_id":36,"name":"Uncletopia | Chicago | 5 | All Maps","name_short":"chi-5","host":"chi-2.us.uncletopia.com","port":27015,"enabled":true,"region":"us-central","cc":"us","latitude":41.881832,"longitude":-87.62318,"reserved":0,"last_update":"0001-01-01T00:00:00Z","name_a2s":"Uncletopia | Chicago | 5 | All Maps","protocol":17,"map":"pl_upward","folder":"tf","game":"Team Fortress","app_id":440,"player_count":0,"max_players":24,"Bots":0,"server_type":"Dedicated","server_os":"Linux","password":true,"vac":true,"version":"7757534","steam_id":85568392924866362,"keywords":["nocrits","nodmgspread","payload","uncletopia"],"game_id":440,"stv_port":27016,"stv_name":"Uncletopia | Chicago | 5 | All Maps | STV","players":null},{"server_id":37,"name":"Uncletopia | Chicago | 6 | All Maps","name_short":"chi-6","host":"chi-2.us.uncletopia.com","port":27025,"enabled":true,"region":"us-central","cc":"us","latitude":41.881832,"longitude":-87.62318,"reserved":0,"last_update":"0001-01-01T00:00:00Z","name_a2s":"Uncletopia | Chicago | 6 | All Maps","protocol":17,"map":"pl_snowycoast","folder":"tf","game":"Team Fortress","app_id":440,"player_count":24,"max_players":24,"Bots":0,"server_type":"Dedicated","server_os":"Linux","password":true,"vac":true,"version":"7757534","steam_id":85568392924866363,"keywords":["nocrits","nodmgspread","payload","uncletopia"],"game_id":440,"stv_port":27026,"stv_name":"Uncletopia | Chicago | 6 | All Maps | STV","players":[{"user_id":395,"name":"BUDWARD","steam_id":76561198014832479,"connected_time":1075000000000,"state":"active","ping":52},{"user_id":370,"name":"xBETRAYALBLOODx","steam_id":76561198245277696,"connected_time":3222000000000,"state":"active","ping":75},{"user_id":378,"name":"rudy","steam_id":76561198088712799,"connected_time":1946000000000,"state":"active","ping":72},{"user_id":347,"name":"ZanoSkull","steam_id":76561198095644372,"connected_time":4814000000000,"state":"active","ping":69},{"user_id":380,"name":"gavingamer1776","steam_id":76561198448059707,"connected_time":1871000000000,"state":"active","ping":81},{"user_id":391,"name":"Space Cops","steam_id":76561198032414253,"connected_time":1275000000000,"state":"active","ping":57},{"user_id":376,"name":"heimdall","steam_id":76561198069380992,"connected_time":2398000000000,"state":"active","ping":88},{"user_id":383,"name":"Dispenser (Twan)","steam_id":76561197991064908,"connected_time":1729000000000,"state":"active","ping":70},{"user_id":292,"name":"Windex","steam_id":76561198105561395,"connected_time":9218000000000,"state":"active","ping":84},{"user_id":399,"name":"Cam(era)","steam_id":76561198285054047,"connected_time":966000000000,"state":"active","ping":75},{"user_id":338,"name":"izzydex","steam_id":76561199101531034,"connected_time":5201000000000,"state":"active","ping":61},{"user_id":307,"name":"BattlePants","steam_id":76561198345056717,"connected_time":7583000000000,"state":"active","ping":93},{"user_id":374,"name":"Thirty Thirty","steam_id":76561197987242808,"connected_time":2562000000000,"state":"active","ping":88},{"user_id":392,"name":"The Nega Shat","steam_id":76561198320218630,"connected_time":1204000000000,"state":"active","ping":93},{"user_id":387,"name":"bbbbbbbbbbbbbbbbbbbbbbbbbbbbbbb","steam_id":76561198339644583,"connected_time":1356000000000,"state":"active","ping":59},{"user_id":400,"name":"Bill 1776","steam_id":76561198079860855,"connected_time":398000000000,"state":"active","ping":69},{"user_id":352,"name":"LevelZ3R0","steam_id":76561199239710681,"connected_time":4135000000000,"state":"active","ping":91},{"user_id":321,"name":"NUt","steam_id":76561198031007966,"connected_time":6338000000000,"state":"active","ping":77},{"user_id":393,"name":"harlowng","steam_id":76561198060542928,"connected_time":1113000000000,"state":"active","ping":120},{"user_id":403,"name":"Stars of Sirius","steam_id":76561198064634697,"connected_time":138000000000,"state":"active","ping":61},{"user_id":401,"name":"makaveli","steam_id":76561198085310326,"connected_time":391000000000,"state":"active","ping":67},{"user_id":402,"name":"Kielakeet‚Ñ¢","steam_id":76561198236133422,"connected_time":372000000000,"state":"active","ping":97},{"user_id":366,"name":"That_Guy_Serj","steam_id":76561198075886098,"connected_time":3325000000000,"state":"active","ping":72},{"user_id":397,"name":"Fish Politics","steam_id":76561198214754864,"connected_time":1028000000000,"state":"active","ping":91}]},{"server_id":38,"name":"Uncletopia | Chicago | 7 | Stopwatch Beta","name_short":"chi-7","host":"chi-2.us.uncletopia.com","port":27035,"enabled":true,"region":"us-central","cc":"us","latitude":41.881832,"longitude":-87.62318,"reserved":0,"last_update":"0001-01-01T00:00:00Z","name_a2s":"Uncletopia | Chicago | 7 | Stopwatch Beta","protocol":17,"map":"pl_swiftwater_final1","folder":"tf","game":"Team Fortress","app_id":440,"player_count":0,"max_players":24,"Bots":0,"server_type":"Dedicated","server_os":"Linux","password":true,"vac":true,"version":"7757534","steam_id":85568392924866364,"keywords":["nocrits","nodmgspread","payload","uncletopia"],"game_id":440,"stv_port":27036,"stv_name":"Uncletopia | Chicago | 7 | Stopwatch Beta | STV","players":null},{"server_id":39,"name":"Uncletopia | Chicago | 8 | Community","name_short":"chi-8","host":"chi-2.us.uncletopia.com","port":27045,"enabled":true,"region":"us-central","cc":"us","latitude":41.881832,"longitude":-87.62318,"reserved":0,"last_update":"0001-01-01T00:00:00Z","name_a2s":"Uncletopia | Chicago | 8 | Community","protocol":17,"map":"workshop/koth_trenchfoot_b1a.ugc731436616","folder":"tf","game":"Team Fortress","app_id":440,"player_count":0,"max_players":24,"Bots":0,"server_type":"Dedicated","server_os":"Linux","password":true,"vac":true,"version":"7757534","steam_id":85568392924866365,"keywords":["cp","nocrits","nodmgspread","uncletopia"],"game_id":440,"stv_port":27046,"stv_name":"Uncletopia | Chicago | 8 | Community | STV","players":null},{"server_id":8,"name":"Uncletopia | Dallas | 1 | All Maps","name_short":"dal-1","host":"dal-1.us.uncletopia.com","port":27015,"enabled":true,"region":"us-central","cc":"us","latitude":32.779167,"longitude":-96.80889,"reserved":0,"last_update":"0001-01-01T00:00:00Z","name_a2s":"Uncletopia | Dallas | 1 | All Maps","protocol":17,"map":"pl_swiftwater_final1","folder":"tf","game":"Team Fortress","app_id":440,"player_count":20,"max_players":24,"Bots":0,"server_type":"Dedicated","server_os":"Linux","password":true,"vac":true,"version":"7757534","steam_id":85568392924469986,"keywords":["nocrits","nodmgspread","payload","uncletopia"],"game_id":440,"stv_port":27016,"stv_name":"Uncletopia | Dallas | 1 | All Maps | STV","players":[{"user_id":380,"name":"McSmitten","steam_id":76561198022358379,"connected_time":520000000000,"state":"active","ping":77},{"user_id":371,"name":"sora","steam_id":76561198094256973,"connected_time":927000000000,"state":"active","ping":86},{"user_id":379,"name":":3","steam_id":76561198008599033,"connected_time":681000000000,"state":"active","ping":118},{"user_id":391,"name":"Stock Medic","steam_id":76561198065479730,"connected_time":125000000000,"state":"active","ping":59},{"user_id":360,"name":"Salda√±a","steam_id":76561198214473001,"connected_time":1297000000000,"state":"active","ping":68},{"user_id":369,"name":"illious","steam_id":76561198169925494,"connected_time":970000000000,"state":"active","ping":85},{"user_id":383,"name":"name420","steam_id":76561198129374525,"connected_time":213000000000,"state":"active","ping":74},{"user_id":373,"name":"Kevin McCarthy","steam_id":76561198843868609,"connected_time":882000000000,"state":"active","ping":75},{"user_id":384,"name":"Bliztank | RGL.gg","steam_id":76561198019252798,"connected_time":207000000000,"state":"active","ping":75},{"user_id":375,"name":"Ranch","steam_id":76561198802138931,"connected_time":852000000000,"state":"active","ping":97},{"user_id":354,"name":"the fella","steam_id":76561198967158026,"connected_time":1734000000000,"state":"active","ping":73},{"user_id":377,"name":"KoolBucky","steam_id":76561198147927648,"connected_time":821000000000,"state":"active","ping":77},{"user_id":378,"name":"Sugercrash","steam_id":76561199187685119,"connected_time":803000000000,"state":"active","ping":72},{"user_id":385,"name":"C papi","steam_id":76561198027779564,"connected_time":202000000000,"state":"active","ping":65},{"user_id":387,"name":"Vladikr1","steam_id":76561198401495362,"connected_time":188000000000,"state":"active","ping":81},{"user_id":389,"name":"trappy (showered)","steam_id":76561198402801140,"connected_time":153000000000,"state":"active","ping":82},{"user_id":390,"name":"Arnyx","steam_id":76561198163410409,"connected_time":138000000000,"state":"active","ping":80},{"user_id":355,"name":"burbuja","steam_id":76561199096507083,"connected_time":1725000000000,"state":"active","ping":69},{"user_id":330,"name":"waffen's kid","steam_id":76561197972661434,"connected_time":4166000000000,"state":"active","ping":58},{"user_id":356,"name":"ƒ†1 ‚ô¶ Synth","steam_id":76561198058660228,"connected_time":1711000000000,"state":"active","ping":46}]},{"server_id":108,"name":"Uncletopia | Dallas | 2 | All Maps","name_short":"dal-2","host":"dal-1.us.uncletopia.com","port":27025,"enabled":true,"region":"us-central","cc":"us","latitude":32.779167,"longitude":-96.80889,"reserved":0,"last_update":"0001-01-01T00:00:00Z","name_a2s":"Uncletopia | Dallas | 2 | All Maps","protocol":17,"map":"pl_upward","folder":"tf","game":"Team Fortress","app_id":440,"player_count":18,"max_players":24,"Bots":0,"server_type":"Dedicated","server_os":"Linux","password":true,"vac":true,"version":"7757534","steam_id":85568392924469988,"keywords":["nocrits","nodmgspread","payload","uncletopia"],"game_id":440,"stv_port":27026,"stv_name":"Uncletopia | Dallas | 2 | All Maps | STV","players":[{"user_id":459,"name":"SKINGRAPH","steam_id":76561198082933650,"connected_time":1234000000000,"state":"active","ping":84},{"user_id":454,"name":"NotSoProfessionalGuy","steam_id":76561199045501608,"connected_time":1405000000000,"state":"active","ping":63},{"user_id":444,"name":"sheep","steam_id":76561198172943006,"connected_time":1909000000000,"state":"active","ping":60},{"user_id":462,"name":"Lore","steam_id":76561198098407538,"connected_time":1048000000000,"state":"active","ping":67},{"user_id":434,"name":"chuckleberry","steam_id":76561197987025017,"connected_time":2202000000000,"state":"active","ping":59},{"user_id":435,"name":"Ohail","steam_id":76561198033073709,"connected_time":2196000000000,"state":"active","ping":86},{"user_id":445,"name":"Panckakebro","steam_id":76561198106419992,"connected_time":1862000000000,"state":"active","ping":52},{"user_id":404,"name":"Etomb","steam_id":76561198210017208,"connected_time":5019000000000,"state":"active","ping":71},{"user_id":407,"name":"Knower","steam_id":76561198036213722,"connected_time":4689000000000,"state":"active","ping":62},{"user_id":431,"name":"VixianUwU","steam_id":76561198948815060,"connected_time":3112000000000,"state":"active","ping":75},{"user_id":457,"name":"Gay Cake","steam_id":76561198004388831,"connected_time":1281000000000,"state":"active","ping":85},{"user_id":458,"name":"Lt. Dan's Legs","steam_id":76561198043851584,"connected_time":1274000000000,"state":"active","ping":129},{"user_id":448,"name":"Jaraz","steam_id":76561197968864666,"connected_time":1832000000000,"state":"active","ping":126},{"user_id":465,"name":"bash -lc ./asshat.sh","steam_id":76561198004584315,"connected_time":705000000000,"state":"active","ping":82},{"user_id":466,"name":"Yiff Police","steam_id":76561198103938356,"connected_time":147000000000,"state":"active","ping":62},{"user_id":422,"name":"El pandora","steam_id":76561198075490385,"connected_time":3828000000000,"state":"active","ping":74},{"user_id":464,"name":"Jebby","steam_id":76561198300150276,"connected_time":874000000000,"state":"active","ping":107},{"user_id":452,"name":"Corellius","steam_id":76561198063959574,"connected_time":1699000000000,"state":"active","ping":132}]},{"server_id":5,"name":"Uncletopia | Frankfurt | 1 | All Maps","name_short":"frk-1","host":"frk-1.de.uncletopia.com","port":27015,"enabled":true,"region":"eu","cc":"de","latitude":50.110924,"longitude":8.682127,"reserved":0,"last_update":"0001-01-01T00:00:00Z","name_a2s":"Uncletopia | Frankfurt | 1 | All Maps","protocol":17,"map":"koth_highpass","folder":"tf","game":"Team Fortress","app_id":440,"player_count":0,"max_players":24,"Bots":0,"server_type":"Dedicated","server_os":"Linux","password":true,"vac":true,"version":"7757534","steam_id":85568392924469989,"keywords":["cp","nocrits","nodmgspread","uncletopia"],"game_id":440,"stv_port":27016,"stv_name":"Uncletopia | Frankfurt | 1 | All Maps | STV","players":null},{"server_id":110,"name":"Uncletopia | Frankfurt | 2 | All Maps","name_short":"frk-2","host":"frk-1.de.uncletopia.com","port":27025,"enabled":true,"region":"eu","cc":"de","latitude":50.110924,"longitude":8.682127,"reserved":0,"last_update":"0001-01-01T00:00:00Z","name_a2s":"Uncletopia | Frankfurt | 2 | All Maps","protocol":17,"map":"koth_lakeside_final","folder":"tf","game":"Team Fortress","app_id":440,"player_count":0,"max_players":24,"Bots":0,"server_type":"Dedicated","server_os":"Linux","password":true,"vac":true,"version":"7757534","steam_id":85568392924469990,"keywords":["cp","nocrits","nodmgspread","uncletopia"],"game_id":440,"stv_port":27026,"stv_name":"Uncletopia | Frankfurt | 2 | All Maps | STV","players":null},{"server_id":308,"name":"Uncletopia | Frankfurt | 3 | All Maps","name_short":"frk-3","host":"frk-1.de.uncletopia.com","port":27035,"enabled":true,"region":"eu","cc":"de","latitude":50.110924,"longitude":8.682127,"reserved":0,"last_update":"0001-01-01T00:00:00Z","name_a2s":"Uncletopia | Frankfurt | 3 | All Maps","protocol":17,"map":"cp_altitude","folder":"tf","game":"Team Fortress","app_id":440,"player_count":0,"max_players":24,"Bots":0,"server_type":"Dedicated","server_os":"Linux","password":true,"vac":true,"version":"7757534","steam_id":85568392924504274,"keywords":["cp","nocrits","nodmgspread","uncletopia"],"game_id":440,"stv_port":27036,"stv_name":"Uncletopia | Frankfurt | 3 | All Maps | STV","players":null},{"server_id":309,"name":"Uncletopia | Frankfurt | 4 | All Maps","name_short":"frk-4","host":"frk-1.de.uncletopia.com","port":27045,"enabled":true,"region":"eu","cc":"de","latitude":50.110924,"longitude":8.682127,"reserved":0,"last_update":"0001-01-01T00:00:00Z","name_a2s":"Uncletopia | Frankfurt | 4 | All Maps","protocol":17,"map":"cp_altitude","folder":"tf","game":"Team Fortress","app_id":440,"player_count":0,"max_players":24,"Bots":0,"server_type":"Dedicated","server_os":"Linux","password":true,"vac":true,"version":"7757534","steam_id":85568392924504275,"keywords":["cp","nocrits","nodmgspread","uncletopia"],"game_id":440,"stv_port":27046,"stv_name":"Uncletopia | Frankfurt | 4 | All Maps | STV","players":null},{"server_id":310,"name":"Uncletopia | Frankfurt | 5 | All Maps","name_short":"frk-5","host":"frk-1.de.uncletopia.com","port":27055,"enabled":true,"region":"eu","cc":"de","latitude":50.110924,"longitude":8.682127,"reserved":0,"last_update":"0001-01-01T00:00:00Z","name_a2s":"Uncletopia | Frankfurt | 5 | All Maps","protocol":17,"map":"cp_altitude","folder":"tf","game":"Team Fortress","app_id":440,"player_count":0,"max_players":24,"Bots":0,"server_type":"Dedicated","server_os":"Linux","password":true,"vac":true,"version":"7757534","steam_id":85568392924504277,"keywords":["cp","nocrits","nodmgspread","uncletopia"],"game_id":440,"stv_port":27056,"stv_name":"Uncletopia | Frankfurt | 5 | All Maps | STV","players":null},{"server_id":311,"name":"Uncletopia | Frankfurt | 6 | All Maps","name_short":"frk-6","host":"frk-1.de.uncletopia.com","port":27065,"enabled":true,"region":"eu","cc":"de","latitude":50.110924,"longitude":8.682127,"reserved":0,"last_update":"0001-01-01T00:00:00Z","name_a2s":"Uncletopia | Frankfurt | 6 | All Maps","protocol":17,"map":"koth_highpass","folder":"tf","game":"Team Fortress","app_id":440,"player_count":0,"max_players":24,"Bots":0,"server_type":"Dedicated","server_os":"Linux","password":true,"vac":true,"version":"7757534","steam_id":85568392924504278,"keywords":["cp","nocrits","nodmgspread","uncletopia"],"game_id":440,"stv_port":27066,"stv_name":"Uncletopia | Frankfurt | 6 | All Maps | STV","players":null},{"server_id":23,"name":"Uncletopia | Frankfurt | 7 | Stopwatch Beta","name_short":"frk-7","host":"frk-1.de.uncletopia.com","port":27075,"enabled":true,"region":"eu","cc":"de","latitude":50.110924,"longitude":8.682127,"reserved":0,"last_update":"0001-01-01T00:00:00Z","name_a2s":"Uncletopia | Frankfurt | 7 | Stopwatch Beta","protocol":17,"map":"pl_frontier_final","folder":"tf","game":"Team Fortress","app_id":440,"player_count":0,"max_players":24,"Bots":0,"server_type":"Dedicated","server_os":"Linux","password":true,"vac":true,"version":"7757534","steam_id":85568392924742827,"keywords":["nocrits","nodmgspread","payload","uncletopia"],"game_id":440,"stv_port":27076,"stv_name":"Uncletopia | Frankfurt | 7 | Stopwatch Beta | STV","players":null},{"server_id":24,"name":"Uncletopia | Frankfurt | 8 | Community","name_short":"frk-8","host":"frk-1.de.uncletopia.com","port":27085,"enabled":true,"region":"eu","cc":"de","latitude":50.110924,"longitude":8.682127,"reserved":0,"last_update":"0001-01-01T00:00:00Z","name_a2s":"Uncletopia | Frankfurt | 8 | Community","protocol":17,"map":"pl_badwater","folder":"tf","game":"Team Fortress","app_id":440,"player_count":0,"max_players":24,"Bots":0,"server_type":"Dedicated","server_os":"Linux","password":true,"vac":true,"version":"7757534","steam_id":85568392924742828,"keywords":["nocrits","nodmgspread","payload","uncletopia"],"game_id":440,"stv_port":27086,"stv_name":"Uncletopia | Frankfurt | 8 | Community | STV","players":null},{"server_id":202,"name":"Uncletopia | Hong Kong | 1 | All Maps","name_short":"hgk-1","host":"hgk-1.hk.uncletopia.com","port":27015,"enabled":true,"region":"asia","cc":"hk","latitude":22.302711,"longitude":114.177216,"reserved":0,"last_update":"0001-01-01T00:00:00Z","name_a2s":"Uncletopia | Hong Kong | 1 | All Maps","protocol":17,"map":"koth_cascade","folder":"tf","game":"Team Fortress","app_id":440,"player_count":0,"max_players":24,"Bots":0,"server_type":"Dedicated","server_os":"Linux","password":true,"vac":true,"version":"7757534","steam_id":85568392924494504,"keywords":["cp","nocrits","nodmgspread","uncletopia"],"game_id":440,"stv_port":27016,"stv_name":"Uncletopia | Hong Kong | 1 | All Maps | STV","players":null},{"server_id":1,"name":"Uncletopia | Los Angeles | 1 | All Maps","name_short":"lax-1","host":"lax-1.us.uncletopia.com","port":27015,"enabled":true,"region":"us-west","cc":"us","latitude":33.94279,"longitude":-118.41004,"reserved":0,"last_update":"0001-01-01T00:00:00Z","name_a2s":"Uncletopia | Los Angeles | 1 | All Maps","protocol":17,"map":"koth_harvest_final","folder":"tf","game":"Team Fortress","app_id":440,"player_count":0,"max_players":24,"Bots":0,"server_type":"Dedicated","server_os":"Linux","password":true,"vac":true,"version":"7757534","steam_id":85568392924469991,"keywords":["cp","nocrits","nodmgspread","uncletopia"],"game_id":440,"stv_port":27016,"stv_name":"Uncletopia | Los Angeles | 1 | All Maps | STV","players":null},{"server_id":112,"name":"Uncletopia | Los Angeles | 2 | All Maps","name_short":"lax-2","host":"lax-1.us.uncletopia.com","port":27025,"enabled":true,"region":"us-west","cc":"us","latitude":33.94279,"longitude":-118.41004,"reserved":0,"last_update":"0001-01-01T00:00:00Z","name_a2s":"Uncletopia | Los Angeles | 2 | All Maps","protocol":17,"map":"koth_cascade","folder":"tf","game":"Team Fortress","app_id":440,"player_count":0,"max_players":24,"Bots":0,"server_type":"Dedicated","server_os":"Linux","password":true,"vac":true,"version":"7757534","steam_id":85568392924469992,"keywords":["cp","nocrits","nodmgspread","uncletopia"],"game_id":440,"stv_port":27026,"stv_name":"Uncletopia | Los Angeles | 2 | All Maps | STV","players":null},{"server_id":324,"name":"Uncletopia | Los Angeles | 3 | All Maps","name_short":"lax-3","host":"lax-1.us.uncletopia.com","port":27035,"enabled":true,"region":"us-west","cc":"us","latitude":33.94279,"longitude":-118.41004,"reserved":0,"last_update":"0001-01-01T00:00:00Z","name_a2s":"Uncletopia | Los Angeles | 3 | All Maps","protocol":17,"map":"pl_swiftwater_final1","folder":"tf","game":"Team Fortress","app_id":440,"player_count":24,"max_players":24,"Bots":0,"server_type":"Dedicated","server_os":"Linux","password":true,"vac":true,"version":"7757534","steam_id":85568392924510198,"keywords":["nocrits","nodmgspread","payload","uncletopia"],"game_id":440,"stv_port":27036,"stv_name":"Uncletopia | Los Angeles | 3 | All Maps | STV","players":[{"user_id":255,"name":"Blackbeard","steam_id":76561198046952265,"connected_time":448000000000,"state":"active","ping":75},{"user_id":194,"name":"noelle","steam_id":76561198842577534,"connected_time":5675000000000,"state":"active","ping":87},{"user_id":234,"name":"wee wiw gamewr","steam_id":76561198314221897,"connected_time":2657000000000,"state":"active","ping":77},{"user_id":249,"name":"Little Buddy","steam_id":76561198214184345,"connected_time":648000000000,"state":"active","ping":46},{"user_id":225,"name":"soda heater","steam_id":76561198864545608,"connected_time":3881000000000,"state":"active","ping":69},{"user_id":235,"name":"StrangeMachine","steam_id":76561198046628064,"connected_time":2652000000000,"state":"active","ping":73},{"user_id":236,"name":"Matisguy","steam_id":76561199020903681,"connected_time":2648000000000,"state":"active","ping":86},{"user_id":250,"name":"hardfork","steam_id":76561197960958019,"connected_time":608000000000,"state":"active","ping":72},{"user_id":251,"name":"the man","steam_id":76561198389268114,"connected_time":599000000000,"state":"active","ping":148},{"user_id":217,"name":"JustAGuy676","steam_id":76561199111878235,"connected_time":4256000000000,"state":"active","ping":89},{"user_id":242,"name":"Baby Llama","steam_id":76561198407155682,"connected_time":1519000000000,"state":"active","ping":72},{"user_id":252,"name":"draginballz2010@gmail.com","steam_id":76561198045844070,"connected_time":593000000000,"state":"active","ping":84},{"user_id":253,"name":"[FGCP] party hat","steam_id":76561198044268609,"connected_time":540000000000,"state":"active","ping":116},{"user_id":219,"name":"Satori Komeiji","steam_id":76561198158211423,"connected_time":4225000000000,"state":"active","ping":44},{"user_id":245,"name":"victordead121","steam_id":76561199180843121,"connected_time":1252000000000,"state":"active","ping":71},{"user_id":247,"name":"MuscleWizard","steam_id":76561198113756539,"connected_time":750000000000,"state":"active","ping":61},{"user_id":243,"name":"Sokky","steam_id":76561198001798544,"connected_time":1518000000000,"state":"active","ping":74},{"user_id":239,"name":"oil","steam_id":76561198099980149,"connected_time":2637000000000,"state":"active","ping":47},{"user_id":254,"name":"raya","steam_id":76561198051504581,"connected_time":539000000000,"state":"active","ping":72},{"user_id":230,"name":"ChibiFerrari","steam_id":76561198825330201,"connected_time":2724000000000,"state":"active","ping":74},{"user_id":229,"name":"PirateJet","steam_id":76561198050858744,"connected_time":3684000000000,"state":"active","ping":55},{"user_id":221,"name":"Duncle Racco","steam_id":76561198009983499,"connected_time":4073000000000,"state":"active","ping":119},{"user_id":204,"name":"cjetson","steam_id":76561198074482272,"connected_time":5253000000000,"state":"active","ping":61},{"user_id":222,"name":"u know i keep","steam_id":76561198094615739,"connected_time":4072000000000,"state":"active","ping":89}]},{"server_id":25,"name":"Uncletopia | Los Angeles | 4 | Stopwatch Beta","name_short":"lax-4","host":"lax-1.us.uncletopia.com","port":27045,"enabled":true,"region":"us-west","cc":"us","latitude":33.94279,"longitude":-118.41004,"reserved":0,"last_update":"0001-01-01T00:00:00Z","name_a2s":"Uncletopia | Los Angeles | 4 | Stopwatch Beta","protocol":17,"map":"pl_frontier_final","folder":"tf","game":"Team Fortress","app_id":440,"player_count":0,"max_players":24,"Bots":0,"server_type":"Dedicated","server_os":"Linux","password":true,"vac":true,"version":"7757534","steam_id":85568392924510199,"keywords":["nocrits","nodmgspread","payload","uncletopia"],"game_id":440,"stv_port":27046,"stv_name":"Uncletopia | Los Angeles | 4 | Stopwatch Beta | STV","players":null},{"server_id":11,"name":"Uncletopia | London | 1 | All Maps","name_short":"lon-1","host":"lon-1.uk.uncletopia.com","port":27015,"enabled":true,"region":"eu","cc":"gb","latitude":51.509865,"longitude":-0.118092,"reserved":0,"last_update":"0001-01-01T00:00:00Z","name_a2s":"Uncletopia | London | 1 | All Maps","protocol":17,"map":"koth_viaduct","folder":"tf","game":"Team Fortress","app_id":440,"player_count":0,"max_players":24,"Bots":0,"server_type":"Dedicated","server_os":"Linux","password":true,"vac":true,"version":"7757534","steam_id":85568392924367362,"keywords":["cp","nocrits","nodmgspread","uncletopia"],"game_id":440,"stv_port":27016,"stv_name":"Uncletopia | London | 1 | All Maps | STV","players":null},{"server_id":114,"name":"Uncletopia | London | 2 | All Maps","name_short":"lon-2","host":"lon-1.uk.uncletopia.com","port":27025,"enabled":true,"region":"eu","cc":"gb","latitude":51.509865,"longitude":-0.118092,"reserved":0,"last_update":"0001-01-01T00:00:00Z","name_a2s":"Uncletopia | London | 2 | All Maps","protocol":17,"map":"cp_dustbowl","folder":"tf","game":"Team Fortress","app_id":440,"player_count":0,"max_players":24,"Bots":0,"server_type":"Dedicated","server_os":"Linux","password":true,"vac":true,"version":"7757534","steam_id":85568392924470941,"keywords":["cp","nocrits","nodmgspread","uncletopia"],"game_id":440,"stv_port":27026,"stv_name":"Uncletopia | London | 2 | All Maps | STV","players":null},{"server_id":320,"name":"Uncletopia | London | 3 | All Maps","name_short":"lon-3","host":"lon-1.uk.uncletopia.com","port":27035,"enabled":true,"region":"eu","cc":"gb","latitude":51.509865,"longitude":-0.118092,"reserved":0,"last_update":"0001-01-01T00:00:00Z","name_a2s":"Uncletopia | London | 3 | All Maps","protocol":17,"map":"pl_badwater","folder":"tf","game":"Team Fortress","app_id":440,"player_count":0,"max_players":24,"Bots":0,"server_type":"Dedicated","server_os":"Linux","password":true,"vac":true,"version":"7757534","steam_id":85568392924510192,"keywords":["nocrits","nodmgspread","payload","uncletopia"],"game_id":440,"stv_port":27036,"stv_name":"Uncletopia | London | 3 | All Maps | STV","players":null},{"server_id":321,"name":"Uncletopia | London | 4 | All Maps","name_short":"lon-4","host":"lon-1.uk.uncletopia.com","port":27045,"enabled":true,"region":"eu","cc":"gb","latitude":51.509865,"longitude":-0.118092,"reserved":0,"last_update":"0001-01-01T00:00:00Z","name_a2s":"Uncletopia | London | 4 | All Maps","protocol":17,"map":"koth_viaduct","folder":"tf","game":"Team Fortress","app_id":440,"player_count":0,"max_players":24,"Bots":0,"server_type":"Dedicated","server_os":"Linux","password":true,"vac":true,"version":"7757534","steam_id":85568392924510193,"keywords":["cp","nocrits","nodmgspread","uncletopia"],"game_id":440,"stv_port":27046,"stv_name":"Uncletopia | London | 4 | All Maps | STV","players":null},{"server_id":21,"name":"Uncletopia | London | 5 | All Maps","name_short":"lon-5","host":"lon-1.uk.uncletopia.com","port":27055,"enabled":true,"region":"eu","cc":"gb","latitude":51.509865,"longitude":-0.118092,"reserved":0,"last_update":"0001-01-01T00:00:00Z","name_a2s":"Uncletopia | London | 5 | All Maps","protocol":17,"map":"pl_badwater","folder":"tf","game":"Team Fortress","app_id":440,"player_count":3,"max_players":24,"Bots":0,"server_type":"Dedicated","server_os":"Linux","password":true,"vac":true,"version":"7757534","steam_id":85568392924742829,"keywords":["nocrits","nodmgspread","payload","uncletopia"],"game_id":440,"stv_port":27056,"stv_name":"Uncletopia | London | 5 | All Maps | STV","players":[{"user_id":3,"name":"fried","steam_id":76561198307522022,"connected_time":1859000000000,"state":"active","ping":46},{"user_id":4,"name":"yeldad","steam_id":76561198447264153,"connected_time":751000000000,"state":"active","ping":116},{"user_id":5,"name":"Green Banana","steam_id":76561198055480280,"connected_time":59000000000,"state":"active","ping":91}]},{"server_id":22,"name":"Uncletopia | London | 6 | All Maps","name_short":"lon-6","host":"lon-1.uk.uncletopia.com","port":27065,"enabled":true,"region":"eu","cc":"gb","latitude":51.509865,"longitude":-0.118092,"reserved":0,"last_update":"0001-01-01T00:00:00Z","name_a2s":"Uncletopia | London | 6 | All Maps","protocol":17,"map":"koth_cascade","folder":"tf","game":"Team Fortress","app_id":440,"player_count":0,"max_players":24,"Bots":0,"server_type":"Dedicated","server_os":"Linux","password":true,"vac":true,"version":"7757534","steam_id":85568392924742830,"keywords":["cp","nocrits","nodmgspread","uncletopia"],"game_id":440,"stv_port":27066,"stv_name":"Uncletopia | London | 6 | All Maps | STV","players":null},{"server_id":40,"name":"Uncletopia | London | 7 | No Payload","name_short":"lon-7","host":"lon-1.uk.uncletopia.com","port":27075,"enabled":true,"region":"eu","cc":"gb","latitude":51.509865,"longitude":-0.118092,"reserved":0,"last_update":"0001-01-01T00:00:00Z","name_a2s":"Uncletopia | London | 7 | No Payload","protocol":17,"map":"cp_process_final","folder":"tf","game":"Team Fortress","app_id":440,"player_count":0,"max_players":24,"Bots":0,"server_type":"Dedicated","server_os":"Linux","password":true,"vac":true,"version":"7757534","steam_id":85568392924964314,"keywords":["cp","nocrits","nodmgspread","uncletopia"],"game_id":440,"stv_port":27076,"stv_name":"Uncletopia | London | 7 | No Payload | STV","players":null},{"server_id":41,"name":"Uncletopia | London | 8 | Community","name_short":"lon-8","host":"lon-1.uk.uncletopia.com","port":27085,"enabled":true,"region":"eu","cc":"gb","latitude":51.509865,"longitude":-0.118092,"reserved":0,"last_update":"0001-01-01T00:00:00Z","name_a2s":"Uncletopia | London | 8 | Community","protocol":17,"map":"pl_upward","folder":"tf","game":"Team Fortress","app_id":440,"player_count":0,"max_players":24,"Bots":0,"server_type":"Dedicated","server_os":"Linux","password":true,"vac":true,"version":"7757534","steam_id":85568392924964315,"keywords":["nocrits","nodmgspread","payload","uncletopia"],"game_id":440,"stv_port":27086,"stv_name":"Uncletopia | London | 8 | Community | STV","players":null},{"server_id":300,"name":"Uncletopia | Montr√©al | 1 | All Maps","name_short":"mtl-1","host":"mtl-1.ca.uncletopia.com","port":27015,"enabled":true,"region":"us-east","cc":"ca","latitude":45.50889,"longitude":-73.56167,"reserved":0,"last_update":"0001-01-01T00:00:00Z","name_a2s":"Uncletopia | Montr√©al | 1 | All Maps","protocol":17,"map":"koth_cascade","folder":"tf","game":"Team Fortress","app_id":440,"player_count":0,"max_players":24,"Bots":0,"server_type":"Dedicated","server_os":"Linux","password":true,"vac":true,"version":"7757534","steam_id":85568392924500087,"keywords":["cp","nocrits","nodmgspread","uncletopia"],"game_id":440,"stv_port":27016,"stv_name":"Uncletopia | Montr√©al | 1 | All Maps | STV","players":null},{"server_id":301,"name":"Uncletopia | Montr√©al | 2 | All Maps","name_short":"mtl-2","host":"mtl-1.ca.uncletopia.com","port":27025,"enabled":true,"region":"us-east","cc":"ca","latitude":45.50889,"longitude":-73.56167,"reserved":0,"last_update":"0001-01-01T00:00:00Z","name_a2s":"Uncletopia | Montr√©al | 2 | All Maps","protocol":17,"map":"koth_highpass","folder":"tf","game":"Team Fortress","app_id":440,"player_count":0,"max_players":24,"Bots":0,"server_type":"Dedicated","server_os":"Linux","password":true,"vac":true,"version":"7757534","steam_id":85568392924500088,"keywords":["cp","nocrits","nodmgspread","uncletopia"],"game_id":440,"stv_port":27026,"stv_name":"Uncletopia | Montr√©al | 2 | All Maps | STV","players":null},{"server_id":302,"name":"Uncletopia | Montr√©al | 3 | All Maps","name_short":"mtl-3","host":"mtl-1.ca.uncletopia.com","port":27035,"enabled":true,"region":"us-east","cc":"ca","latitude":45.50889,"longitude":-73.56167,"reserved":0,"last_update":"0001-01-01T00:00:00Z","name_a2s":"Uncletopia | Montr√©al | 3 | All Maps","protocol":17,"map":"cp_altitude","folder":"tf","game":"Team Fortress","app_id":440,"player_count":0,"max_players":24,"Bots":0,"server_type":"Dedicated","server_os":"Linux","password":true,"vac":true,"version":"7757534","steam_id":85568392924500089,"keywords":["cp","nocrits","nodmgspread","uncletopia"],"game_id":440,"stv_port":27036,"stv_name":"Uncletopia | Montr√©al | 3 | All Maps | STV","players":null},{"server_id":303,"name":"Uncletopia | Montr√©al | 4 | No Payload","name_short":"mtl-4","host":"mtl-1.ca.uncletopia.com","port":27045,"enabled":true,"region":"us-east","cc":"ca","latitude":45.50889,"longitude":-73.56167,"reserved":0,"last_update":"0001-01-01T00:00:00Z","name_a2s":"Uncletopia | Montr√©al | 4 | No Payload","protocol":17,"map":"koth_lazarus","folder":"tf","game":"Team Fortress","app_id":440,"player_count":0,"max_players":24,"Bots":0,"server_type":"Dedicated","server_os":"Linux","password":true,"vac":true,"version":"7757534","steam_id":85568392924500090,"keywords":["cp","nocrits","nodmgspread","uncletopia"],"game_id":440,"stv_port":27046,"stv_name":"Uncletopia | Montr√©al | 4 | No Payload | STV","players":null},{"server_id":13,"name":"Uncletopia | New York City | 1 | All Maps","name_short":"nyc-1","host":"nyc-1.us.uncletopia.com","port":27015,"enabled":true,"region":"us-east","cc":"us","latitude":40.73061,"longitude":-73.93524,"reserved":0,"last_update":"0001-01-01T00:00:00Z","name_a2s":"Uncletopia | New York City | 1 | All Maps","protocol":17,"map":"koth_lakeside_final","folder":"tf","game":"Team Fortress","app_id":440,"player_count":0,"max_players":24,"Bots":0,"server_type":"Dedicated","server_os":"Linux","password":true,"vac":true,"version":"7757534","steam_id":85568392924469993,"keywords":["cp","nocrits","nodmgspread","uncletopia"],"game_id":440,"stv_port":27016,"stv_name":"Uncletopia | New York City | 1 | All Maps | STV","players":null},{"server_id":14,"name":"Uncletopia | New York City | 2 | All Maps","name_short":"nyc-2","host":"nyc-1.us.uncletopia.com","port":27025,"enabled":true,"region":"us-east","cc":"us","latitude":40.73061,"longitude":-73.93524,"reserved":0,"last_update":"0001-01-01T00:00:00Z","name_a2s":"Uncletopia | New York City | 2 | All Maps","protocol":17,"map":"cp_altitude","folder":"tf","game":"Team Fortress","app_id":440,"player_count":7,"max_players":24,"Bots":0,"server_type":"Dedicated","server_os":"Linux","password":true,"vac":true,"version":"7757534","steam_id":85568392924469994,"keywords":["cp","nocrits","nodmgspread","uncletopia"],"game_id":440,"stv_port":27026,"stv_name":"Uncletopia | New York City | 2 | All Maps | STV","players":[{"user_id":569,"name":"Keelasher","steam_id":76561198076027990,"connected_time":113000000000,"state":"active","ping":64},{"user_id":568,"name":"PinguEnjoyer6","steam_id":76561199186723516,"connected_time":173000000000,"state":"active","ping":104},{"user_id":570,"name":"Jakk","steam_id":76561198041537908,"connected_time":50000000000,"state":"active","ping":134},{"user_id":571,"name":"‚ä∞Aero‚ä±","steam_id":76561198084648457,"connected_time":28000000000,"state":"active","ping":81},{"user_id":554,"name":"jmp","steam_id":76561198168283286,"connected_time":1532000000000,"state":"active","ping":135},{"user_id":552,"name":"Noodle","steam_id":76561198306486695,"connected_time":1594000000000,"state":"active","ping":142},{"user_id":538,"name":"Zaider","steam_id":76561198049839645,"connected_time":3680000000000,"state":"active","ping":43}]},{"server_id":15,"name":"Uncletopia | New York City | 3 | Stopwatch Beta","name_short":"nyc-3","host":"nyc-1.us.uncletopia.com","port":27035,"enabled":true,"region":"us-east","cc":"us","latitude":40.73061,"longitude":-73.93524,"reserved":0,"last_update":"0001-01-01T00:00:00Z","name_a2s":"Uncletopia | New York City | 3 | Stopwatch Beta","protocol":17,"map":"workshop/pl_vigil_rc9.ugc1266210012","folder":"tf","game":"Team Fortress","app_id":440,"player_count":0,"max_players":24,"Bots":0,"server_type":"Dedicated","server_os":"Linux","password":true,"vac":true,"version":"7757534","steam_id":85568392924742820,"keywords":["nocrits","nodmgspread","payload","uncletopia"],"game_id":440,"stv_port":27036,"stv_name":"Uncletopia | New York City | 3 | Stopwatch Beta | STV","players":null},{"server_id":16,"name":"Uncletopia | New York City | 4 | Community","name_short":"nyc-4","host":"nyc-1.us.uncletopia.com","port":27045,"enabled":true,"region":"us-east","cc":"us","latitude":40.73061,"longitude":-73.93524,"reserved":0,"last_update":"0001-01-01T00:00:00Z","name_a2s":"Uncletopia | New York City | 4 | Community","protocol":17,"map":"workshop/cp_croissant_final.ugc458840209","folder":"tf","game":"Team Fortress","app_id":440,"player_count":0,"max_players":24,"Bots":0,"server_type":"Dedicated","server_os":"Linux","password":true,"vac":true,"version":"7757534","steam_id":85568392924742821,"keywords":["cp","nocrits","nodmgspread","uncletopia"],"game_id":440,"stv_port":27046,"stv_name":"Uncletopia | New York City | 4 | Community | STV","players":null},{"server_id":142,"name":"Uncletopia | S√£o Paulo | 1 | All Maps","name_short":"sao-1","host":"sao-1.br.uncletopia.com","port":27015,"enabled":true,"region":"sa","cc":"br","latitude":-23.533773,"longitude":-46.62529,"reserved":0,"last_update":"0001-01-01T00:00:00Z","name_a2s":"Uncletopia | S√£o Paulo | 1 | All Maps","protocol":17,"map":"koth_cascade","folder":"tf","game":"Team Fortress","app_id":440,"player_count":0,"max_players":24,"Bots":0,"server_type":"Dedicated","server_os":"Linux","password":true,"vac":true,"version":"7757534","steam_id":85568392924469996,"keywords":["cp","nocrits","nodmgspread","uncletopia"],"game_id":440,"stv_port":27016,"stv_name":"Uncletopia | S√£o Paulo | 1 | All Maps | STV","players":null},{"server_id":143,"name":"Uncletopia | S√£o Paulo | 2 | All Maps","name_short":"sao-2","host":"sao-2.br.uncletopia.com","port":27015,"enabled":true,"region":"sa","cc":"br","latitude":-23.533773,"longitude":-46.62529,"reserved":0,"last_update":"0001-01-01T00:00:00Z","name_a2s":"Uncletopia | S√£o Paulo | 2 | All Maps","protocol":17,"map":"pl_barnblitz","folder":"tf","game":"Team Fortress","app_id":440,"player_count":0,"max_players":24,"Bots":0,"server_type":"Dedicated","server_os":"Linux","password":true,"vac":true,"version":"7757534","steam_id":85568392924485349,"keywords":["nocrits","nodmgspread","payload","uncletopia"],"game_id":440,"stv_port":27016,"stv_name":"Uncletopia | S√£o Paulo | 2 | All Maps | STV","players":null},{"server_id":7,"name":"Uncletopia | Seattle | 1 | All Maps","name_short":"sea-1","host":"sea-1.us.uncletopia.com","port":27015,"enabled":true,"region":"us-west","cc":"us","latitude":47.608013,"longitude":-122.33517,"reserved":0,"last_update":"0001-01-01T00:00:00Z","name_a2s":"Uncletopia | Seattle | 1 | All Maps","protocol":17,"map":"cp_powerhouse","folder":"tf","game":"Team Fortress","app_id":440,"player_count":24,"max_players":24,"Bots":0,"server_type":"Dedicated","server_os":"Linux","password":true,"vac":true,"version":"7757534","steam_id":85568392924469997,"keywords":["cp","nocrits","nodmgspread","uncletopia"],"game_id":440,"stv_port":27016,"stv_name":"Uncletopia | Seattle | 1 | All Maps | STV","players":[{"user_id":879,"name":"getting railed to Oingo Boingo","steam_id":76561198797611732,"connected_time":5092000000000,"state":"active","ping":61},{"user_id":916,"name":"Just ate a big mac ama","steam_id":76561198857237473,"connected_time":1118000000000,"state":"active","ping":50},{"user_id":905,"name":"Oh No! It's Twister!","steam_id":76561198016791916,"connected_time":2308000000000,"state":"active","ping":75},{"user_id":899,"name":"Grill Skills","steam_id":76561198053575147,"connected_time":3001000000000,"state":"active","ping":60},{"user_id":886,"name":"Dr. Karl, the AUS Science Guy","steam_id":76561198031278747,"connected_time":3876000000000,"state":"active","ping":45},{"user_id":889,"name":"Grammaring","steam_id":76561198867366139,"connected_time":3864000000000,"state":"active","ping":77},{"user_id":918,"name":"fwoov","steam_id":76561198129166260,"connected_time":610000000000,"state":"active","ping":83},{"user_id":910,"name":"mike","steam_id":76561198163265338,"connected_time":1420000000000,"state":"active","ping":46},{"user_id":881,"name":"DK360","steam_id":76561198796783094,"connected_time":4832000000000,"state":"active","ping":60},{"user_id":904,"name":"Camohno","steam_id":76561198283519918,"connected_time":2376000000000,"state":"active","ping":74},{"user_id":919,"name":"ich bin glenn quagmire","steam_id":76561198234581744,"connected_time":504000000000,"state":"active","ping":90},{"user_id":885,"name":"gorlab","steam_id":76561198025089694,"connected_time":3881000000000,"state":"active","ping":62},{"user_id":884,"name":"Arsonist Goose","steam_id":76561198147441830,"connected_time":3952000000000,"state":"active","ping":75},{"user_id":920,"name":"Naffers","steam_id":76561198195957335,"connected_time":340000000000,"state":"active","ping":45},{"user_id":870,"name":"Ayayahuasca","steam_id":76561199002906056,"connected_time":5496000000000,"state":"active","ping":53},{"user_id":883,"name":"„Ä£dust„Ä£ -she/her-","steam_id":76561198045218909,"connected_time":4288000000000,"state":"active","ping":44},{"user_id":900,"name":"mub","steam_id":76561197961943948,"connected_time":2998000000000,"state":"active","ping":46},{"user_id":917,"name":"goldhed","steam_id":76561198051751133,"connected_time":841000000000,"state":"active","ping":52},{"user_id":911,"name":"boatz (huntsman gaming)","steam_id":76561198046851181,"connected_time":1408000000000,"state":"active","ping":60},{"user_id":876,"name":"mmmBoyo","steam_id":76561198821360261,"connected_time":5301000000000,"state":"active","ping":56},{"user_id":921,"name":"summerlis","steam_id":76561198165324438,"connected_time":162000000000,"state":"active","ping":68},{"user_id":913,"name":"„ÇØ„Éº„É´„Ç®„Ç§„Éâ„Éû„É≥","steam_id":76561198111645213,"connected_time":1359000000000,"state":"active","ping":78},{"user_id":908,"name":"rat gets the cheese","steam_id":76561198031234032,"connected_time":1697000000000,"state":"active","ping":97},{"user_id":914,"name":"gamerweed5","steam_id":76561198087651151,"connected_time":1345000000000,"state":"active","ping":176}]},{"server_id":119,"name":"Uncletopia | Seattle | 2 | All Maps","name_short":"sea-2","host":"sea-1.us.uncletopia.com","port":27025,"enabled":true,"region":"us-west","cc":"us","latitude":47.608013,"longitude":-122.33517,"reserved":0,"last_update":"0001-01-01T00:00:00Z","name_a2s":"Uncletopia | Seattle | 2 | All Maps","protocol":17,"map":"cp_sunshine","folder":"tf","game":"Team Fortress","app_id":440,"player_count":24,"max_players":24,"Bots":0,"server_type":"Dedicated","server_os":"Linux","password":true,"vac":true,"version":"7757534","steam_id":85568392924469998,"keywords":["cp","nocrits","nodmgspread","uncletopia"],"game_id":440,"stv_port":27026,"stv_name":"Uncletopia | Seattle | 2 | All Maps | STV","players":[{"user_id":573,"name":"Dani","steam_id":76561198408146684,"connected_time":403000000000,"state":"active","ping":71},{"user_id":497,"name":"Uncle Feathers McGraw","steam_id":76561198046442707,"connected_time":4193000000000,"state":"active","ping":48},{"user_id":550,"name":"A B1 Battle Droid","steam_id":76561198050678984,"connected_time":1609000000000,"state":"active","ping":84},{"user_id":569,"name":"xFactr","steam_id":76561198129007422,"connected_time":510000000000,"state":"active","ping":107},{"user_id":574,"name":"ice cream (ÂÜ∞Ê∑áÊ∑ã)","steam_id":76561198976530881,"connected_time":331000000000,"state":"active","ping":60},{"user_id":570,"name":"THIRDPIERCE","steam_id":76561198405366314,"connected_time":461000000000,"state":"active","ping":114},{"user_id":522,"name":"Hey its me Goku at your service","steam_id":76561198201473635,"connected_time":3273000000000,"state":"active","ping":59},{"user_id":554,"name":"dP | I'm in a Wookie Suit","steam_id":76561198083307644,"connected_time":1498000000000,"state":"active","ping":64},{"user_id":568,"name":"Bamboo","steam_id":76561198043139553,"connected_time":593000000000,"state":"active","ping":69},{"user_id":575,"name":"Neopolitan","steam_id":76561198065000185,"connected_time":313000000000,"state":"active","ping":98},{"user_id":495,"name":"Lmao Zedong","steam_id":76561198043765829,"connected_time":5307000000000,"state":"active","ping":47},{"user_id":579,"name":"kaeru","steam_id":76561198043789098,"connected_time":282000000000,"state":"active","ping":60},{"user_id":572,"name":"Fuel","steam_id":76561198115269587,"connected_time":447000000000,"state":"active","ping":115},{"user_id":564,"name":"Leidon","steam_id":76561198078386945,"connected_time":843000000000,"state":"active","ping":97},{"user_id":555,"name":"Nobuunga","steam_id":76561198100614981,"connected_time":1396000000000,"state":"active","ping":51},{"user_id":556,"name":"tender mike","steam_id":76561198058821622,"connected_time":1383000000000,"state":"active","ping":92},{"user_id":576,"name":"smeasly","steam_id":76561198028718812,"connected_time":312000000000,"state":"active","ping":43},{"user_id":580,"name":"s9","steam_id":76561198065339248,"connected_time":191000000000,"state":"active","ping":65},{"user_id":500,"name":"CheeseyJoe","steam_id":76561198062182044,"connected_time":4176000000000,"state":"active","ping":60},{"user_id":578,"name":"JTuu","steam_id":76561198030606396,"connected_time":290000000000,"state":"active","ping":44},{"user_id":581,"name":"SYMBOL_YT","steam_id":76561198848655517,"connected_time":191000000000,"state":"active","ping":63},{"user_id":585,"name":"swarm","steam_id":76561198019435762,"connected_time":30000000000,"state":"active","ping":64},{"user_id":583,"name":"NoNoWire","steam_id":76561198106308056,"connected_time":93000000000,"state":"active","ping":85},{"user_id":586,"name":"uufyfuu","steam_id":76561198142787212,"connected_time":1000000000,"state":"spawning","ping":49}]},{"server_id":406,"name":"Uncletopia | Seattle | 3 | Stopwatch Beta","name_short":"sea-3","host":"sea-1.us.uncletopia.com","port":27035,"enabled":true,"region":"us-west","cc":"us","latitude":47.608013,"longitude":-122.33517,"reserved":0,"last_update":"0001-01-01T00:00:00Z","name_a2s":"Uncletopia | Seattle | 3 | Stopwatch Beta","protocol":17,"map":"workshop/koth_bagel_rc5.ugc2514036946","folder":"tf","game":"Team Fortress","app_id":440,"player_count":0,"max_players":24,"Bots":0,"server_type":"Dedicated","server_os":"Linux","password":true,"vac":true,"version":"7757534","steam_id":85568392924515217,"keywords":["cp","nocrits","nodmgspread","uncletopia"],"game_id":440,"stv_port":27036,"stv_name":"Uncletopia | Seattle | 3 | Stopwatch Beta | STV","players":null},{"server_id":17,"name":"Uncletopia | San Francisco | 1 | All Maps","name_short":"sfo-1","host":"sfo-1.us.uncletopia.com","port":27015,"enabled":true,"region":"us-west","cc":"us","latitude":37.77397,"longitude":-122.4313,"reserved":0,"last_update":"0001-01-01T00:00:00Z","name_a2s":"Uncletopia | San Francisco | 1 | All Maps","protocol":17,"map":"pl_swiftwater_final1","folder":"tf","game":"Team Fortress","app_id":440,"player_count":22,"max_players":24,"Bots":0,"server_type":"Dedicated","server_os":"Linux","password":true,"vac":true,"version":"7757534","steam_id":85568392924469999,"keywords":["nocrits","nodmgspread","payload","uncletopia"],"game_id":440,"stv_port":27016,"stv_name":"Uncletopia | San Francisco | 1 | All Maps | STV","players":[{"user_id":851,"name":"Harmonee","steam_id":76561198441994267,"connected_time":14000000000,"state":"spawning","ping":59},{"user_id":795,"name":"Aubron","steam_id":76561197994782056,"connected_time":3608000000000,"state":"active","ping":51},{"user_id":771,"name":"Calypso","steam_id":76561198082939544,"connected_time":5368000000000,"state":"active","ping":91},{"user_id":848,"name":"Naeole1","steam_id":76561198240378926,"connected_time":119000000000,"state":"active","ping":93},{"user_id":841,"name":"Êó©‰∏äÂ•ΩCHINA#1WARRIORÂÜ∞Ê∑á\ufffd\ufffd","steam_id":76561198964722163,"connected_time":855000000000,"state":"active","ping":63},{"user_id":845,"name":"shadow wizard money gang","steam_id":76561198150406851,"connected_time":447000000000,"state":"active","ping":47},{"user_id":832,"name":"soft bostonian cute girl voice","steam_id":76561198050192689,"connected_time":1742000000000,"state":"active","ping":59},{"user_id":844,"name":"oohho","steam_id":76561198073707607,"connected_time":466000000000,"state":"active","ping":45},{"user_id":842,"name":"need_a_hobby","steam_id":76561198988764495,"connected_time":827000000000,"state":"active","ping":77},{"user_id":847,"name":"alenku","steam_id":76561198997139815,"connected_time":384000000000,"state":"active","ping":72},{"user_id":798,"name":"schlarpc","steam_id":76561198007700826,"connected_time":3587000000000,"state":"active","ping":47},{"user_id":799,"name":"Hadn69","steam_id":76561198047885348,"connected_time":3580000000000,"state":"active","ping":48},{"user_id":828,"name":"Blank_Sicon","steam_id":76561198887041407,"connected_time":1905000000000,"state":"active","ping":92},{"user_id":830,"name":"Assassin","steam_id":76561198321410235,"connected_time":1825000000000,"state":"active","ping":46},{"user_id":809,"name":"Shnakes","steam_id":76561198201649518,"connected_time":3464000000000,"state":"active","ping":69},{"user_id":833,"name":"The Super Mario Bros. Movie","steam_id":76561198871692156,"connected_time":1641000000000,"state":"active","ping":61},{"user_id":846,"name":"Cheff cook","steam_id":76561198451203268,"connected_time":440000000000,"state":"active","ping":50},{"user_id":834,"name":"CheeseCake488","steam_id":76561199407617942,"connected_time":1611000000000,"state":"active","ping":96},{"user_id":835,"name":"Chrisscar","steam_id":76561198086298130,"connected_time":1609000000000,"state":"active","ping":54},{"user_id":838,"name":"M4 Sherman","steam_id":76561198011096132,"connected_time":1211000000000,"state":"active","ping":54},{"user_id":837,"name":"SvicidalBug","steam_id":76561198221390504,"connected_time":1600000000000,"state":"active","ping":85},{"user_id":849,"name":"PonYOOOOOOO","steam_id":76561199067424111,"connected_time":119000000000,"state":"active","ping":60}]},{"server_id":18,"name":"Uncletopia | San Francisco | 2 | All Maps","name_short":"sfo-2","host":"sfo-1.us.uncletopia.com","port":27025,"enabled":true,"region":"us-west","cc":"us","latitude":37.77397,"longitude":-122.4313,"reserved":0,"last_update":"0001-01-01T00:00:00Z","name_a2s":"Uncletopia | San Francisco | 2 | All Maps","protocol":17,"map":"koth_lakeside_final","folder":"tf","game":"Team Fortress","app_id":440,"player_count":0,"max_players":24,"Bots":0,"server_type":"Dedicated","server_os":"Linux","password":true,"vac":true,"version":"7757534","steam_id":85568392924470000,"keywords":["cp","nocrits","nodmgspread","uncletopia"],"game_id":440,"stv_port":27026,"stv_name":"Uncletopia | San Francisco | 2 | All Maps | STV","players":null},{"server_id":19,"name":"Uncletopia | San Francisco | 3 | Stopwatch Beta","name_short":"sfo-3","host":"sfo-1.us.uncletopia.com","port":27035,"enabled":true,"region":"us-west","cc":"us","latitude":37.77397,"longitude":-122.4313,"reserved":0,"last_update":"0001-01-01T00:00:00Z","name_a2s":"Uncletopia | San Francisco | 3 | Stopwatch Beta","protocol":17,"map":"pl_borneo","folder":"tf","game":"Team Fortress","app_id":440,"player_count":0,"max_players":24,"Bots":0,"server_type":"Dedicated","server_os":"Linux","password":true,"vac":true,"version":"7757534","steam_id":85568392924742824,"keywords":["nocrits","nodmgspread","payload","uncletopia"],"game_id":440,"stv_port":27036,"stv_name":"Uncletopia | San Francisco | 3 | Stopwatch Beta | STV","players":null},{"server_id":20,"name":"Uncletopia | San Francisco | 4 | Community","name_short":"sfo-4","host":"sfo-1.us.uncletopia.com","port":27045,"enabled":true,"region":"us-west","cc":"us","latitude":37.77397,"longitude":-122.4313,"reserved":0,"last_update":"0001-01-01T00:00:00Z","name_a2s":"Uncletopia | San Francisco | 4 | Community","protocol":17,"map":"workshop/pl_shoreleave_rc1.ugc1238849347","folder":"tf","game":"Team Fortress","app_id":440,"player_count":24,"max_players":24,"Bots":0,"server_type":"Dedicated","server_os":"Linux","password":true,"vac":true,"version":"7757534","steam_id":85568392924742826,"keywords":["nocrits","nodmgspread","payload","uncletopia"],"game_id":440,"stv_port":27046,"stv_name":"Uncletopia | San Francisco | 4 | Community | STV","players":[{"user_id":67,"name":"ZungryWare","steam_id":76561198033158968,"connected_time":1822000000000,"state":"active","ping":50},{"user_id":62,"name":"HammerHead","steam_id":76561197975668646,"connected_time":2036000000000,"state":"active","ping":79},{"user_id":75,"name":"Akkawi","steam_id":76561198203159952,"connected_time":1316000000000,"state":"active","ping":54},{"user_id":18,"name":"jorts","steam_id":76561199041179985,"connected_time":5788000000000,"state":"active","ping":79},{"user_id":95,"name":"squash","steam_id":76561198150281353,"connected_time":301000000000,"state":"active","ping":80},{"user_id":57,"name":"brk","steam_id":76561198079634017,"connected_time":3120000000000,"state":"active","ping":62},{"user_id":92,"name":"Fargo","steam_id":76561198044703931,"connected_time":593000000000,"state":"active","ping":72},{"user_id":22,"name":"p9 delight","steam_id":76561197980280272,"connected_time":5771000000000,"state":"active","ping":65},{"user_id":76,"name":"mechanicvirus","steam_id":76561198038161480,"connected_time":1184000000000,"state":"active","ping":68},{"user_id":86,"name":"Double Donker","steam_id":76561198209881263,"connected_time":751000000000,"state":"active","ping":64},{"user_id":77,"name":"AKconner","steam_id":76561198312569787,"connected_time":1183000000000,"state":"active","ping":110},{"user_id":81,"name":"reptiledone3airshotsinademoman","steam_id":76561198055972894,"connected_time":1048000000000,"state":"active","ping":60},{"user_id":93,"name":"Cinna Mon","steam_id":76561198005840633,"connected_time":534000000000,"state":"active","ping":69},{"user_id":28,"name":"Antzen","steam_id":76561198041343470,"connected_time":5379000000000,"state":"active","ping":62},{"user_id":91,"name":"RowdyMan420","steam_id":76561198354195935,"connected_time":676000000000,"state":"active","ping":65},{"user_id":72,"name":"Bearingtonn","steam_id":76561198338949704,"connected_time":1505000000000,"state":"active","ping":78},{"user_id":73,"name":"Gamorean Guard","steam_id":76561198816240237,"connected_time":1458000000000,"state":"active","ping":63},{"user_id":74,"name":"djpeanutbutter100","steam_id":76561199310046764,"connected_time":1444000000000,"state":"active","ping":70},{"user_id":89,"name":"Barn.Jones1992","steam_id":76561198197981309,"connected_time":718000000000,"state":"active","ping":58},{"user_id":83,"name":"June","steam_id":76561198141803658,"connected_time":1032000000000,"state":"active","ping":71},{"user_id":61,"name":"me","steam_id":76561199468285784,"connected_time":2254000000000,"state":"active","ping":40},{"user_id":94,"name":"One Horned Bitch Destroyer","steam_id":76561198045810191,"connected_time":465000000000,"state":"active","ping":55},{"user_id":80,"name":"rorywashere /·ê† - Àï -„Éû ‚≥ä","steam_id":76561198065825165,"connected_time":1124000000000,"state":"active","ping":88},{"user_id":45,"name":"alaska","steam_id":76561198017030029,"connected_time":4385000000000,"state":"active","ping":57}]},{"server_id":141,"name":"Uncletopia | Sydney | 1 | All Maps","name_short":"syd-1","host":"syd-1.au.uncletopia.com","port":27015,"enabled":true,"region":"au","cc":"au","latitude":-33.865143,"longitude":151.2099,"reserved":0,"last_update":"0001-01-01T00:00:00Z","name_a2s":"Uncletopia | Sydney | 1 | All Maps","protocol":17,"map":"pl_swiftwater_final1","folder":"tf","game":"Team Fortress","app_id":440,"player_count":22,"max_players":24,"Bots":0,"server_type":"Dedicated","server_os":"Linux","password":true,"vac":true,"version":"7757534","steam_id":85568392924470001,"keywords":["nocrits","nodmgspread","payload","uncletopia"],"game_id":440,"stv_port":27016,"stv_name":"Uncletopia | Sydney | 1 | All Maps | STV","players":[{"user_id":405,"name":"Consolidated Fart","steam_id":76561198924101909,"connected_time":1229000000000,"state":"active","ping":67},{"user_id":381,"name":"Jy","steam_id":76561198104427524,"connected_time":2661000000000,"state":"active","ping":46},{"user_id":404,"name":"Goggles","steam_id":76561199234821488,"connected_time":1548000000000,"state":"active","ping":55},{"user_id":429,"name":"SUSHIMAN","steam_id":76561199089989428,"connected_time":213000000000,"state":"active","ping":92},{"user_id":431,"name":"CouldBeKarlos","steam_id":76561198956180767,"connected_time":63000000000,"state":"active","ping":55},{"user_id":407,"name":"Raven","steam_id":76561198428025966,"connected_time":1185000000000,"state":"active","ping":60},{"user_id":432,"name":"Madallar","steam_id":76561198379635302,"connected_time":60000000000,"state":"active","ping":81},{"user_id":433,"name":"bowser","steam_id":76561198271462646,"connected_time":49000000000,"state":"active","ping":45},{"user_id":336,"name":"Empr","steam_id":76561198024387396,"connected_time":7396000000000,"state":"active","ping":70},{"user_id":415,"name":"ToadFungus","steam_id":76561199219667039,"connected_time":885000000000,"state":"active","ping":103},{"user_id":410,"name":"BlackeyeI Crejkavika","steam_id":76561198338911262,"connected_time":1090000000000,"state":"active","ping":42},{"user_id":385,"name":"Mikey","steam_id":76561198438203131,"connected_time":2269000000000,"state":"active","ping":60},{"user_id":411,"name":"Bobby Bigman","steam_id":76561198044679656,"connected_time":1060000000000,"state":"active","ping":63},{"user_id":423,"name":"Just Brando","steam_id":76561198914415738,"connected_time":612000000000,"state":"active","ping":56},{"user_id":434,"name":"Stone Ghost","steam_id":76561198154177852,"connected_time":6000000000,"state":"spawning","ping":118},{"user_id":414,"name":"Good Boy #1","steam_id":76561198126300023,"connected_time":916000000000,"state":"active","ping":61},{"user_id":420,"name":"Doctor Estonia","steam_id":76561198057365089,"connected_time":724000000000,"state":"active","ping":100},{"user_id":422,"name":"Cup","steam_id":76561198038485845,"connected_time":673000000000,"state":"active","ping":41},{"user_id":424,"name":"Mase","steam_id":76561198797093795,"connected_time":609000000000,"state":"active","ping":46},{"user_id":425,"name":"Hooded","steam_id":76561199013174498,"connected_time":597000000000,"state":"active","ping":76},{"user_id":299,"name":"LittleAucky","steam_id":76561198040678996,"connected_time":10851000000000,"state":"active","ping":78},{"user_id":395,"name":"pepsi_bottle","steam_id":76561199123087971,"connected_time":1886000000000,"state":"active","ping":72}]},{"server_id":123,"name":"Uncletopia | Sydney | 2 | All Maps","name_short":"syd-2","host":"syd-1.au.uncletopia.com","port":27025,"enabled":true,"region":"au","cc":"au","latitude":-33.865143,"longitude":151.2099,"reserved":0,"last_update":"0001-01-01T00:00:00Z","name_a2s":"Uncletopia | Sydney | 2 | All Maps","protocol":17,"map":"pl_badwater","folder":"tf","game":"Team Fortress","app_id":440,"player_count":24,"max_players":24,"Bots":0,"server_type":"Dedicated","server_os":"Linux","password":true,"vac":true,"version":"7757534","steam_id":85568392924470002,"keywords":["nocrits","nodmgspread","payload","uncletopia"],"game_id":440,"stv_port":27026,"stv_name":"Uncletopia | Sydney | 2 | All Maps | STV","players":[{"user_id":187,"name":"Cris.p bacon","steam_id":76561199230423491,"connected_time":298000000000,"state":"active","ping":99},{"user_id":175,"name":"Matt","steam_id":76561198006791420,"connected_time":1090000000000,"state":"active","ping":96},{"user_id":189,"name":"Hot Car Resident","steam_id":76561198967034272,"connected_time":249000000000,"state":"active","ping":76},{"user_id":179,"name":"table","steam_id":76561199218095319,"connected_time":879000000000,"state":"active","ping":41},{"user_id":148,"name":"Capt. Latrios","steam_id":76561198026398620,"connected_time":3462000000000,"state":"active","ping":66},{"user_id":168,"name":"FatScout","steam_id":76561198013870201,"connected_time":1838000000000,"state":"active","ping":69},{"user_id":129,"name":"FriskyPotato","steam_id":76561198061320611,"connected_time":5042000000000,"state":"active","ping":54},{"user_id":139,"name":"( Õ°¬∞ Õú ñ Õ°¬∞)","steam_id":76561199262196710,"connected_time":4094000000000,"state":"active","ping":35},{"user_id":156,"name":"payn.","steam_id":76561199277321828,"connected_time":2880000000000,"state":"active","ping":69},{"user_id":149,"name":"zzzzzzz","steam_id":76561198066726621,"connected_time":3297000000000,"state":"active","ping":54},{"user_id":154,"name":"CoolJosh3k | YouTube","steam_id":76561197997407342,"connected_time":2966000000000,"state":"active","ping":51},{"user_id":192,"name":"armCHAMP Billie Eilish feet mmm","steam_id":76561198044752424,"connected_time":136000000000,"state":"active","ping":54},{"user_id":191,"name":"abcdef","steam_id":76561198083700749,"connected_time":217000000000,"state":"active","ping":55},{"user_id":104,"name":"SaltierThanYou","steam_id":76561198444395188,"connected_time":6256000000000,"state":"active","ping":82},{"user_id":141,"name":"Muffin","steam_id":76561198075391119,"connected_time":4007000000000,"state":"active","ping":55},{"user_id":173,"name":"Gamma","steam_id":76561198281131757,"connected_time":1288000000000,"state":"active","ping":68},{"user_id":193,"name":"P'pot","steam_id":76561198117278590,"connected_time":130000000000,"state":"active","ping":55},{"user_id":153,"name":"AmethystDragon10","steam_id":76561198412979983,"connected_time":2999000000000,"state":"active","ping":79},{"user_id":194,"name":"mrquestables","steam_id":76561198954911129,"connected_time":73000000000,"state":"active","ping":52},{"user_id":182,"name":"liam","steam_id":76561198046239819,"connected_time":744000000000,"state":"active","ping":90},{"user_id":128,"name":"doctor morbin' (real)","steam_id":76561199365241695,"connected_time":5327000000000,"state":"active","ping":121},{"user_id":183,"name":"da Vinci","steam_id":76561197980015398,"connected_time":683000000000,"state":"active","ping":51},{"user_id":160,"name":"Pew pew pew!","steam_id":76561198004120277,"connected_time":2257000000000,"state":"active","ping":42},{"user_id":185,"name":"KnowZero","steam_id":76561198095752015,"connected_time":540000000000,"state":"active","ping":65}]},{"server_id":395,"name":"Uncletopia | Sydney | 3 | All Maps","name_short":"syd-3","host":"syd-1.au.uncletopia.com","port":27035,"enabled":true,"region":"au","cc":"au","latitude":-33.865143,"longitude":151.2099,"reserved":0,"last_update":"0001-01-01T00:00:00Z","name_a2s":"Uncletopia | Sydney | 3 | All Maps","protocol":17,"map":"cp_mountainlab","folder":"tf","game":"Team Fortress","app_id":440,"player_count":2,"max_players":24,"Bots":0,"server_type":"Dedicated","server_os":"Linux","password":true,"vac":true,"version":"7757534","steam_id":85568392925194467,"keywords":["cp","nocrits","nodmgspread","uncletopia"],"game_id":440,"stv_port":27036,"stv_name":"Uncletopia | Sydney | 3 | All Maps | STV","players":[{"user_id":76,"name":"[MORB] MORBIUS Bass Fishing","steam_id":76561198065271601,"connected_time":192000000000,"state":"active","ping":48},{"user_id":15,"name":"Evil Dragons 11","steam_id":76561199010001803,"connected_time":4399000000000,"state":"active","ping":46}]},{"server_id":396,"name":"Uncletopia | Sydney | 4 | All Maps","name_short":"syd-4","host":"syd-1.au.uncletopia.com","port":27045,"enabled":true,"region":"au","cc":"au","latitude":-33.865143,"longitude":151.2099,"reserved":0,"last_update":"0001-01-01T00:00:00Z","name_a2s":"Uncletopia | Sydney | 4 | All Maps","protocol":17,"map":"koth_lakeside_final","folder":"tf","game":"Team Fortress","app_id":440,"player_count":0,"max_players":24,"Bots":0,"server_type":"Dedicated","server_os":"Linux","password":true,"vac":true,"version":"7757534","steam_id":85568392925397958,"keywords":["cp","nocrits","nodmgspread","uncletopia"],"game_id":440,"stv_port":27046,"stv_name":"Uncletopia | Sydney | 4 | All Maps | STV","players":null},{"server_id":58,"name":"Uncletopia | Sydney | 5 | Stopwatch Beta","name_short":"syd-5","host":"syd-1.au.uncletopia.com","port":27055,"enabled":true,"region":"au","cc":"au","latitude":-33.865143,"longitude":151.2099,"reserved":0,"last_update":"0001-01-01T00:00:00Z","name_a2s":"Uncletopia | Sydney | 5 | Stopwatch Beta","protocol":17,"map":"pl_upward","folder":"tf","game":"Team Fortress","app_id":440,"player_count":0,"max_players":24,"Bots":0,"server_type":"Dedicated","server_os":"Linux","password":true,"vac":true,"version":"7757534","steam_id":85568392925397959,"keywords":["nocrits","nodmgspread","payload","uncletopia"],"game_id":440,"stv_port":27056,"stv_name":"Uncletopia | Sydney | 5 | Stopwatch Beta | STV","players":null},{"server_id":59,"name":"Uncletopia | Sydney | 6 | Community","name_short":"syd-6","host":"syd-1.au.uncletopia.com","port":27065,"enabled":true,"region":"au","cc":"au","latitude":-33.865143,"longitude":151.2099,"reserved":0,"last_update":"0001-01-01T00:00:00Z","name_a2s":"Uncletopia | Sydney | 6 | Community","protocol":17,"map":"workshop/koth_product_final.ugc454272353","folder":"tf","game":"Team Fortress","app_id":440,"player_count":0,"max_players":24,"Bots":0,"server_type":"Dedicated","server_os":"Linux","password":true,"vac":true,"version":"7757534","steam_id":85568392925397960,"keywords":["cp","nocrits","nodmgspread","uncletopia"],"game_id":440,"stv_port":27066,"stv_name":"Uncletopia | Sydney | 6 | Community | STV","players":null},{"server_id":49,"name":"Uncletopia | Warsaw | 1 | All Maps","name_short":"waw-1","host":"waw-1.pl.uncletopia.com","port":27015,"enabled":true,"region":"eu","cc":"pl","latitude":52.2297,"longitude":21.017532,"reserved":0,"last_update":"0001-01-01T00:00:00Z","name_a2s":"","protocol":0,"map":"","folder":"","game":"","app_id":0,"player_count":0,"max_players":0,"Bots":0,"server_type":"","server_os":"","password":false,"vac":false,"version":"","steam_id":0,"keywords":null,"game_id":0,"stv_port":0,"stv_name":"","players":null},{"server_id":50,"name":"Uncletopia | Warsaw | 2 | All Maps","name_short":"waw-2","host":"waw-1.pl.uncletopia.com","port":27025,"enabled":true,"region":"eu","cc":"pl","latitude":52.2297,"longitude":21.017532,"reserved":0,"last_update":"0001-01-01T00:00:00Z","name_a2s":"Uncletopia | Warsaw | 2 | All Maps","protocol":17,"map":"cp_process_final","folder":"tf","game":"Team Fortress","app_id":440,"player_count":0,"max_players":24,"Bots":0,"server_type":"Dedicated","server_os":"Linux","password":true,"vac":true,"version":"7757534","steam_id":85568392925397851,"keywords":["cp","nocrits","nodmgspread","uncletopia"],"game_id":440,"stv_port":27026,"stv_name":"Uncletopia | Warsaw | 2 | All Maps | STV","players":null},{"server_id":51,"name":"Uncletopia | Warsaw | 3 | All Maps","name_short":"waw-3","host":"waw-1.pl.uncletopia.com","port":27035,"enabled":true,"region":"eu","cc":"pl","latitude":52.2297,"longitude":21.017532,"reserved":0,"last_update":"0001-01-01T00:00:00Z","name_a2s":"Uncletopia | Warsaw | 3 | All Maps","protocol":17,"map":"pl_barnblitz","folder":"tf","game":"Team Fortress","app_id":440,"player_count":0,"max_players":24,"Bots":0,"server_type":"Dedicated","server_os":"Linux","password":true,"vac":true,"version":"7757534","steam_id":85568392925397852,"keywords":["nocrits","nodmgspread","payload","uncletopia"],"game_id":440,"stv_port":27036,"stv_name":"Uncletopia | Warsaw | 3 | All Maps | STV","players":null},{"server_id":52,"name":"Uncletopia | Warsaw | 4 | All Maps","name_short":"waw-4","host":"waw-1.pl.uncletopia.com","port":27045,"enabled":true,"region":"eu","cc":"pl","latitude":52.2297,"longitude":21.017532,"reserved":0,"last_update":"0001-01-01T00:00:00Z","name_a2s":"Uncletopia | Warsaw | 4 | All Maps","protocol":17,"map":"pl_snowycoast","folder":"tf","game":"Team Fortress","app_id":440,"player_count":0,"max_players":24,"Bots":0,"server_type":"Dedicated","server_os":"Linux","password":true,"vac":true,"version":"7757534","steam_id":85568392925397853,"keywords":["nocrits","nodmgspread","payload","uncletopia"],"game_id":440,"stv_port":27046,"stv_name":"Uncletopia | Warsaw | 4 | All Maps | STV","players":null},{"server_id":53,"name":"Uncletopia | Warsaw | 5 | Stopwatch Beta","name_short":"waw-5","host":"waw-1.pl.uncletopia.com","port":27055,"enabled":true,"region":"eu","cc":"pl","latitude":52.2297,"longitude":21.017532,"reserved":0,"last_update":"0001-01-01T00:00:00Z","name_a2s":"Uncletopia | Warsaw | 5 | Stopwatch Beta","protocol":17,"map":"pl_barnblitz","folder":"tf","game":"Team Fortress","app_id":440,"player_count":0,"max_players":24,"Bots":0,"server_type":"Dedicated","server_os":"Linux","password":true,"vac":true,"version":"7757534","steam_id":85568392925397854,"keywords":["nocrits","nodmgspread","payload","uncletopia"],"game_id":440,"stv_port":27056,"stv_name":"Uncletopia | Warsaw | 5 | Stopwatch Beta | STV","players":null},{"server_id":54,"name":"Uncletopia | Warsaw | 6 | Community","name_short":"waw-6","host":"waw-1.pl.uncletopia.com","port":27065,"enabled":true,"region":"eu","cc":"pl","latitude":52.2297,"longitude":21.017532,"reserved":0,"last_update":"0001-01-01T00:00:00Z","name_a2s":"Uncletopia | Warsaw | 6 | Community","protocol":17,"map":"pl_swiftwater_final1","folder":"tf","game":"Team Fortress","app_id":440,"player_count":0,"max_players":24,"Bots":0,"server_type":"Dedicated","server_os":"Linux","password":true,"vac":true,"version":"7757534","steam_id":85568392925397856,"keywords":["nocrits","nodmgspread","payload","uncletopia"],"game_id":440,"stv_port":27066,"stv_name":"Uncletopia | Warsaw | 6 | Community | STV","players":null}]}