{"status":true,"message":"","result":[{"server_id":9,"name":"Uncletopia | Atlanta | 1 | All Maps","name_short":"atl-1","host":"atl-1.us.uncletopia.com","port":27015,"enabled":true,"region":"us-east","cc":"us","latitude":33.753746,"longitude":-84.38633,"reserved":0,"last_update":"0001-01-01T00:00:00Z","name_a2s":"Uncletopia | Atlanta | 1 | All Maps","protocol":17,"map":"cp_freight_final1","folder":"tf","game":"Team Fortress","app_id":440,"player_count":17,"max_players":24,"Bots":0,"server_type":"Dedicated","server_os":"Linux","password":true,"vac":true,"version":"7961495","steam_id":85568392924469982,"keywords":["cp","nocrits","nodmgspread","uncletopia"],"game_id":440,"stv_port":27016,"stv_name":"Uncletopia | Atlanta | 1 | All Maps | STV","players":[{"user_id":671,"name":"Skudge Sister","steam_id":76561198041766766,"connected_time":62000000000,"state":"active","ping":96},{"user_id":601,"name":"Heathcliff","steam_id":76561198044288534,"connected_time":5344000000000,"state":"active","ping":73},{"user_id":670,"name":"Noid","steam_id":76561197980496241,"connected_time":92000000000,"state":"active","ping":60},{"user_id":669,"name":"paper bag","steam_id":76561199146056862,"connected_time":115000000000,"state":"active","ping":276},{"user_id":564,"name":"StudioMania (#SAVETF2)","steam_id":76561198211315795,"connected_time":7216000000000,"state":"active","ping":84},{"user_id":666,"name":"EnderAsteroid","steam_id":76561198176724091,"connected_time":300000000000,"state":"active","ping":74},{"user_id":658,"name":"Hipster_Giraffe","steam_id":76561198069701092,"connected_time":1099000000000,"state":"active","ping":78},{"user_id":668,"name":"mootier","steam_id":76561198030365192,"connected_time":158000000000,"state":"active","ping":60},{"user_id":622,"name":"She got that strap (on)","steam_id":76561198057745131,"connected_time":4251000000000,"state":"active","ping":33},{"user_id":634,"name":"DuckMann","steam_id":76561198197058638,"connected_time":3645000000000,"state":"active","ping":46},{"user_id":663,"name":"(TPT) Ghost","steam_id":76561198123262873,"connected_time":905000000000,"state":"active","ping":120},{"user_id":657,"name":"TuxWeedo TerrorWeed","steam_id":76561198261025556,"connected_time":1109000000000,"state":"active","ping":112},{"user_id":667,"name":"keffers","steam_id":76561198202338796,"connected_time":283000000000,"state":"active","ping":95},{"user_id":649,"name":"Omlette","steam_id":76561198969911974,"connected_time":1456000000000,"state":"active","ping":73},{"user_id":659,"name":"Yukon Cornelius","steam_id":76561198261512781,"connected_time":1096000000000,"state":"active","ping":50},{"user_id":650,"name":"wabba doo","steam_id":76561198867130576,"connected_time":1452000000000,"state":"active","ping":97},{"user_id":651,"name":"Saucy Boy","steam_id":76561198178332031,"connected_time":1443000000000,"state":"active","ping":90}]},{"server_id":104,"name":"Uncletopia | Atlanta | 2 | All Maps","name_short":"atl-2","host":"atl-1.us.uncletopia.com","port":27025,"enabled":true,"region":"us-east","cc":"us","latitude":33.753746,"longitude":-84.38633,"reserved":0,"last_update":"0001-01-01T00:00:00Z","name_a2s":"Uncletopia | Atlanta | 2 | All Maps","protocol":17,"map":"cp_dustbowl","folder":"tf","game":"Team Fortress","app_id":440,"player_count":18,"max_players":24,"Bots":0,"server_type":"Dedicated","server_os":"Linux","password":true,"vac":true,"version":"7961495","steam_id":85568392924469983,"keywords":["cp","nocrits","nodmgspread","uncletopia"],"game_id":440,"stv_port":27026,"stv_name":"Uncletopia | Atlanta | 2 | All Maps | STV","players":[{"user_id":597,"name":"The Final Terminus","steam_id":76561197964985183,"connected_time":172000000000,"state":"active","ping":50},{"user_id":593,"name":"[iO] kickr0","steam_id":76561197996865131,"connected_time":509000000000,"state":"active","ping":35},{"user_id":557,"name":"dog","steam_id":76561198263873491,"connected_time":3663000000000,"state":"active","ping":47},{"user_id":572,"name":"Mr. Squirt","steam_id":76561198174755679,"connected_time":2761000000000,"state":"active","ping":54},{"user_id":573,"name":"SkkiterSkkater","steam_id":76561198410579054,"connected_time":2738000000000,"state":"active","ping":75},{"user_id":596,"name":"Doob","steam_id":76561199088573055,"connected_time":226000000000,"state":"active","ping":71},{"user_id":536,"name":"Enforcer","steam_id":76561198326564237,"connected_time":5349000000000,"state":"active","ping":61},{"user_id":585,"name":"Canadian Beb","steam_id":76561198055462395,"connected_time":1839000000000,"state":"active","ping":78},{"user_id":599,"name":"Shotgun Faery","steam_id":76561198838248225,"connected_time":54000000000,"state":"active","ping":58},{"user_id":582,"name":"The Sydney Sleeper Itself","steam_id":76561198180251763,"connected_time":2149000000000,"state":"active","ping":65},{"user_id":553,"name":"‚ò£Ô∏éT-Virus S\u003ePEnergyKabuto","steam_id":76561198001963208,"connected_time":3945000000000,"state":"active","ping":112},{"user_id":600,"name":"O'brien","steam_id":76561198289339403,"connected_time":47000000000,"state":"active","ping":69},{"user_id":508,"name":"Nibelsnarf (She/They)","steam_id":76561198137642054,"connected_time":6937000000000,"state":"active","ping":48},{"user_id":564,"name":"IchigoDolphin","steam_id":76561198319769482,"connected_time":3569000000000,"state":"active","ping":60},{"user_id":548,"name":"Jango","steam_id":76561198084589742,"connected_time":4513000000000,"state":"active","ping":60},{"user_id":555,"name":"GoGo is a Drunk Slut","steam_id":76561198023080645,"connected_time":3713000000000,"state":"active","ping":97},{"user_id":559,"name":"Junowo","steam_id":76561199136179696,"connected_time":3661000000000,"state":"active","ping":108},{"user_id":589,"name":"doop","steam_id":76561198370487545,"connected_time":1770000000000,"state":"active","ping":73}]},{"server_id":400,"name":"Uncletopia | Atlanta | 3 | Stopwatch","name_short":"atl-3","host":"atl-1.us.uncletopia.com","port":27035,"enabled":true,"region":"us-east","cc":"us","latitude":33.753746,"longitude":-84.38633,"reserved":0,"last_update":"0001-01-01T00:00:00Z","name_a2s":"Uncletopia | Atlanta | 3 | Stopwatch","protocol":17,"map":"workshop/koth_jamram_rc1a.ugc2964065613","folder":"tf","game":"Team Fortress","app_id":440,"player_count":0,"max_players":24,"Bots":0,"server_type":"Dedicated","server_os":"Linux","password":true,"vac":true,"version":"7961495","steam_id":85568392924515187,"keywords":["cp","nocrits","nodmgspread","uncletopia"],"game_id":440,"stv_port":27036,"stv_name":"Uncletopia | Atlanta | 3 | Stopwatch | STV","players":null},{"server_id":401,"name":"Uncletopia | Atlanta | 4 | Community","name_short":"atl-4","host":"atl-1.us.uncletopia.com","port":27045,"enabled":true,"region":"us-east","cc":"us","latitude":33.753746,"longitude":-84.38633,"reserved":0,"last_update":"0001-01-01T00:00:00Z","name_a2s":"Uncletopia | Atlanta | 4 | Community","protocol":17,"map":"workshop/cp_glassworks_rc7a.ugc454118349","folder":"tf","game":"Team Fortress","app_id":440,"player_count":0,"max_players":24,"Bots":0,"server_type":"Dedicated","server_os":"Linux","password":true,"vac":true,"version":"7961495","steam_id":85568392924515188,"keywords":["cp","nocrits","nodmgspread","uncletopia"],"game_id":440,"stv_port":27046,"stv_name":"Uncletopia | Atlanta | 4 | Community | STV","players":null},{"server_id":2,"name":"Uncletopia | Chicago | 1 | All Maps","name_short":"chi-1","host":"chi-1.us.uncletopia.com","port":27015,"enabled":true,"region":"us-central","cc":"us","latitude":41.881832,"longitude":-87.62318,"reserved":0,"last_update":"0001-01-01T00:00:00Z","name_a2s":"Uncletopia | Chicago | 1 | All Maps","protocol":17,"map":"koth_lakeside_final","folder":"tf","game":"Team Fortress","app_id":440,"player_count":0,"max_players":24,"Bots":0,"server_type":"Dedicated","server_os":"Linux","password":true,"vac":true,"version":"7961495","steam_id":85568392924469984,"keywords":["cp","nocrits","nodmgspread","uncletopia"],"game_id":440,"stv_port":27016,"stv_name":"Uncletopia | Chicago | 1 | All Maps | STV","players":null},{"server_id":106,"name":"Uncletopia | Chicago | 2 | All Maps","name_short":"chi-2","host":"chi-1.us.uncletopia.com","port":27025,"enabled":true,"region":"us-central","cc":"us","latitude":41.881832,"longitude":-87.62318,"reserved":0,"last_update":"0001-01-01T00:00:00Z","name_a2s":"Uncletopia | Chicago | 2 | All Maps","protocol":17,"map":"pl_snowycoast","folder":"tf","game":"Team Fortress","app_id":440,"player_count":24,"max_players":24,"Bots":0,"server_type":"Dedicated","server_os":"Linux","password":true,"vac":true,"version":"7961495","steam_id":85568392924469985,"keywords":["nocrits","nodmgspread","payload","uncletopia"],"game_id":440,"stv_port":27026,"stv_name":"Uncletopia | Chicago | 2 | All Maps | STV","players":[{"user_id":854,"name":"ThePaleKing","steam_id":76561198376695864,"connected_time":4710000000000,"state":"active","ping":78},{"user_id":889,"name":"coda","steam_id":76561198092052685,"connected_time":3325000000000,"state":"active","ping":68},{"user_id":914,"name":"SanitysEdge","steam_id":76561198130732813,"connected_time":1809000000000,"state":"active","ping":123},{"user_id":919,"name":"Fantastic","steam_id":76561198079088978,"connected_time":1651000000000,"state":"active","ping":44},{"user_id":899,"name":"Crazy","steam_id":76561198385594829,"connected_time":2917000000000,"state":"active","ping":78},{"user_id":928,"name":"YeshieSirYesSir","steam_id":76561198080214214,"connected_time":976000000000,"state":"active","ping":43},{"user_id":885,"name":"honked off the bobo","steam_id":76561198123287268,"connected_time":3568000000000,"state":"active","ping":52},{"user_id":905,"name":"Pixel","steam_id":76561198129243055,"connected_time":2263000000000,"state":"active","ping":61},{"user_id":870,"name":"folly","steam_id":76561198133933158,"connected_time":4001000000000,"state":"active","ping":115},{"user_id":875,"name":"‚òëJuanaco is dead","steam_id":76561198029895630,"connected_time":3869000000000,"state":"active","ping":78},{"user_id":934,"name":"·µê·µâ·µí ∑","steam_id":76561199200969139,"connected_time":492000000000,"state":"active","ping":121},{"user_id":900,"name":"Fami","steam_id":76561198193580105,"connected_time":2861000000000,"state":"active","ping":120},{"user_id":937,"name":"BasicallySpring","steam_id":76561198953818016,"connected_time":58000000000,"state":"active","ping":81},{"user_id":922,"name":"GruntRule","steam_id":76561198039987143,"connected_time":1343000000000,"state":"active","ping":85},{"user_id":915,"name":"Belloq","steam_id":76561198060279052,"connected_time":1789000000000,"state":"active","ping":49},{"user_id":935,"name":"Sarbanes-Oxley","steam_id":76561197975898479,"connected_time":277000000000,"state":"active","ping":78},{"user_id":926,"name":"Vulpes","steam_id":76561198038929334,"connected_time":1166000000000,"state":"active","ping":60},{"user_id":929,"name":"Elon Tusk","steam_id":76561198977359400,"connected_time":955000000000,"state":"active","ping":73},{"user_id":936,"name":"crushfan","steam_id":76561199030310670,"connected_time":125000000000,"state":"active","ping":139},{"user_id":917,"name":"Ali-B","steam_id":76561198274455701,"connected_time":1766000000000,"state":"active","ping":96},{"user_id":884,"name":"unidentified little fucker","steam_id":76561198058998371,"connected_time":3575000000000,"state":"active","ping":62},{"user_id":930,"name":"table joe","steam_id":76561198010900487,"connected_time":938000000000,"state":"active","ping":50},{"user_id":898,"name":"Zulphar","steam_id":76561198083686527,"connected_time":3039000000000,"state":"active","ping":79},{"user_id":887,"name":"dunk","steam_id":76561198132476501,"connected_time":3518000000000,"state":"active","ping":56}]},{"server_id":402,"name":"Uncletopia | Chicago | 3 | All Maps","name_short":"chi-3","host":"chi-1.us.uncletopia.com","port":27035,"enabled":true,"region":"us-central","cc":"us","latitude":41.881832,"longitude":-87.62318,"reserved":0,"last_update":"0001-01-01T00:00:00Z","name_a2s":"Uncletopia | Chicago | 3 | All Maps","protocol":17,"map":"pl_swiftwater_final1","folder":"tf","game":"Team Fortress","app_id":440,"player_count":22,"max_players":24,"Bots":0,"server_type":"Dedicated","server_os":"Linux","password":true,"vac":true,"version":"7961495","steam_id":85568392924515191,"keywords":["nocrits","nodmgspread","payload","uncletopia"],"game_id":440,"stv_port":27036,"stv_name":"Uncletopia | Chicago | 3 | All Maps | STV","players":[{"user_id":423,"name":"Makina","steam_id":76561198057475567,"connected_time":2900000000000,"state":"active","ping":53},{"user_id":448,"name":"Toober","steam_id":76561198018136281,"connected_time":1610000000000,"state":"active","ping":82},{"user_id":459,"name":"MausWaffles","steam_id":76561198193160991,"connected_time":989000000000,"state":"active","ping":90},{"user_id":399,"name":"Mixed Up","steam_id":76561198042570322,"connected_time":3791000000000,"state":"active","ping":60},{"user_id":464,"name":"Sex Midfielder","steam_id":76561198048918192,"connected_time":400000000000,"state":"active","ping":63},{"user_id":475,"name":"BuncusBeffer","steam_id":76561198285936616,"connected_time":112000000000,"state":"active","ping":102},{"user_id":439,"name":"tack","steam_id":76561198408477421,"connected_time":2252000000000,"state":"active","ping":80},{"user_id":425,"name":"FELONIOUS MONK","steam_id":76561198201872929,"connected_time":2865000000000,"state":"active","ping":60},{"user_id":457,"name":"‚õß AlphaSatanOmega ‚õß","steam_id":76561198035125511,"connected_time":1292000000000,"state":"active","ping":46},{"user_id":469,"name":"det ringme","steam_id":76561198170859755,"connected_time":337000000000,"state":"active","ping":68},{"user_id":450,"name":"JohnnyGitGud","steam_id":76561198401455467,"connected_time":1605000000000,"state":"active","ping":118},{"user_id":445,"name":"√úberBurst inVinci","steam_id":76561198044470684,"connected_time":1648000000000,"state":"active","ping":69},{"user_id":463,"name":"Six Piece Chicken McNobody","steam_id":76561198129848222,"connected_time":810000000000,"state":"active","ping":71},{"user_id":343,"name":"Lae","steam_id":76561198185527278,"connected_time":8188000000000,"state":"active","ping":78},{"user_id":465,"name":"short bus enthusiast","steam_id":76561198069380992,"connected_time":388000000000,"state":"active","ping":80},{"user_id":441,"name":"allMAX","steam_id":76561198270980670,"connected_time":2200000000000,"state":"active","ping":181},{"user_id":470,"name":"him/her","steam_id":76561198122238340,"connected_time":314000000000,"state":"active","ping":87},{"user_id":471,"name":"Yongle","steam_id":76561198068591156,"connected_time":304000000000,"state":"active","ping":57},{"user_id":462,"name":"harley","steam_id":76561198799384110,"connected_time":859000000000,"state":"active","ping":76},{"user_id":472,"name":"rudy","steam_id":76561198088712799,"connected_time":288000000000,"state":"active","ping":74},{"user_id":473,"name":"Oninja94 | blw.tf","steam_id":76561199467195274,"connected_time":285000000000,"state":"active","ping":89},{"user_id":468,"name":"NovaSc6ut","steam_id":76561198277163301,"connected_time":344000000000,"state":"active","ping":66}]},{"server_id":403,"name":"Uncletopia | Chicago | 4 | All Maps","name_short":"chi-4","host":"chi-1.us.uncletopia.com","port":27045,"enabled":true,"region":"us-central","cc":"us","latitude":41.881832,"longitude":-87.62318,"reserved":0,"last_update":"0001-01-01T00:00:00Z","name_a2s":"Uncletopia | Chicago | 4 | All Maps","protocol":17,"map":"koth_harvest_final","folder":"tf","game":"Team Fortress","app_id":440,"player_count":0,"max_players":24,"Bots":0,"server_type":"Dedicated","server_os":"Linux","password":true,"vac":true,"version":"7961495","steam_id":85568392924515193,"keywords":["cp","nocrits","nodmgspread","uncletopia"],"game_id":440,"stv_port":27046,"stv_name":"Uncletopia | Chicago | 4 | All Maps | STV","players":null},{"server_id":36,"name":"Uncletopia | Chicago | 5 | All Maps","name_short":"chi-5","host":"chi-2.us.uncletopia.com","port":27015,"enabled":true,"region":"us-central","cc":"us","latitude":41.881832,"longitude":-87.62318,"reserved":0,"last_update":"0001-01-01T00:00:00Z","name_a2s":"Uncletopia | Chicago | 5 | All Maps","protocol":17,"map":"pl_goldrush","folder":"tf","game":"Team Fortress","app_id":440,"player_count":24,"max_players":24,"Bots":0,"server_type":"Dedicated","server_os":"Linux","password":true,"vac":true,"version":"7961495","steam_id":85568392924866362,"keywords":["nocrits","nodmgspread","payload","uncletopia"],"game_id":440,"stv_port":27016,"stv_name":"Uncletopia | Chicago | 5 | All Maps | STV","players":[{"user_id":174,"name":"GLURRIN","steam_id":76561198315690955,"connected_time":3029000000000,"state":"active","ping":56},{"user_id":179,"name":"Joe, Banana","steam_id":76561198077551754,"connected_time":2639000000000,"state":"active","ping":65},{"user_id":187,"name":"gayforgod","steam_id":76561198364882421,"connected_time":2203000000000,"state":"active","ping":111},{"user_id":211,"name":"Katy","steam_id":76561198079395814,"connected_time":1337000000000,"state":"active","ping":51},{"user_id":215,"name":"TheBrxYordle","steam_id":76561198066707447,"connected_time":591000000000,"state":"active","ping":69},{"user_id":219,"name":"Steggoman","steam_id":76561198202219235,"connected_time":8000000000,"state":"spawning","ping":73},{"user_id":207,"name":"padrooga","steam_id":76561198335292512,"connected_time":1767000000000,"state":"active","ping":48},{"user_id":180,"name":"Real Neanderthal Shit","steam_id":76561198086991324,"connected_time":2612000000000,"state":"active","ping":92},{"user_id":190,"name":"93.77 TAC BIO-JESUS LIVE SAND ","steam_id":76561198012126625,"connected_time":2130000000000,"state":"active","ping":75},{"user_id":212,"name":"Eomy","steam_id":76561198297783627,"connected_time":1172000000000,"state":"active","ping":86},{"user_id":216,"name":"zaag","steam_id":76561198156386184,"connected_time":578000000000,"state":"active","ping":93},{"user_id":191,"name":"Shorty","steam_id":76561198044873248,"connected_time":2125000000000,"state":"active","ping":45},{"user_id":203,"name":"grim","steam_id":76561198257683177,"connected_time":2028000000000,"state":"active","ping":61},{"user_id":209,"name":"LsForDays","steam_id":76561198018685698,"connected_time":1419000000000,"state":"active","ping":46},{"user_id":193,"name":"press H to change heroes","steam_id":76561198030291655,"connected_time":2119000000000,"state":"active","ping":47},{"user_id":218,"name":"wetto","steam_id":76561198224811504,"connected_time":337000000000,"state":"active","ping":65},{"user_id":205,"name":"Scarecrow","steam_id":76561198045870511,"connected_time":1919000000000,"state":"active","ping":55},{"user_id":196,"name":"‚ö¢","steam_id":76561199117637890,"connected_time":2050000000000,"state":"active","ping":54},{"user_id":197,"name":"Rat_king","steam_id":76561199465689129,"connected_time":2049000000000,"state":"active","ping":88},{"user_id":198,"name":"JackToeRip","steam_id":76561198046523256,"connected_time":2046000000000,"state":"active","ping":86},{"user_id":208,"name":"feed lips","steam_id":76561197971152439,"connected_time":1439000000000,"state":"active","ping":61},{"user_id":213,"name":"Capt.Swag","steam_id":76561198088340994,"connected_time":765000000000,"state":"active","ping":81},{"user_id":214,"name":"Bee","steam_id":76561198074681324,"connected_time":652000000000,"state":"active","ping":53},{"user_id":206,"name":"Therapy Goth","steam_id":76561198048448497,"connected_time":1848000000000,"state":"active","ping":63}]},{"server_id":37,"name":"Uncletopia | Chicago | 6 | All Maps","name_short":"chi-6","host":"chi-2.us.uncletopia.com","port":27025,"enabled":true,"region":"us-central","cc":"us","latitude":41.881832,"longitude":-87.62318,"reserved":0,"last_update":"0001-01-01T00:00:00Z","name_a2s":"Uncletopia | Chicago | 6 | All Maps","protocol":17,"map":"koth_cascade","folder":"tf","game":"Team Fortress","app_id":440,"player_count":0,"max_players":24,"Bots":0,"server_type":"Dedicated","server_os":"Linux","password":true,"vac":true,"version":"7961495","steam_id":85568392924866363,"keywords":["cp","nocrits","nodmgspread","uncletopia"],"game_id":440,"stv_port":27026,"stv_name":"Uncletopia | Chicago | 6 | All Maps | STV","players":null},{"server_id":38,"name":"Uncletopia | Chicago | 7 | Stopwatch","name_short":"chi-7","host":"chi-2.us.uncletopia.com","port":27035,"enabled":true,"region":"us-central","cc":"us","latitude":41.881832,"longitude":-87.62318,"reserved":0,"last_update":"0001-01-01T00:00:00Z","name_a2s":"Uncletopia | Chicago | 7 | Stopwatch","protocol":17,"map":"workshop/cp_reckoner_rc6.ugc674719999","folder":"tf","game":"Team Fortress","app_id":440,"player_count":0,"max_players":24,"Bots":0,"server_type":"Dedicated","server_os":"Linux","password":true,"vac":true,"version":"7961495","steam_id":85568392924866364,"keywords":["cp","nocrits","nodmgspread","uncletopia"],"game_id":440,"stv_port":27036,"stv_name":"Uncletopia | Chicago | 7 | Stopwatch | STV","players":null},{"server_id":39,"name":"Uncletopia | Chicago | 8 | Community","name_short":"chi-8","host":"chi-2.us.uncletopia.com","port":27045,"enabled":true,"region":"us-central","cc":"us","latitude":41.881832,"longitude":-87.62318,"reserved":0,"last_update":"0001-01-01T00:00:00Z","name_a2s":"Uncletopia | Chicago | 8 | Community","protocol":17,"map":"workshop/pl_extinction_rc1.ugc2961457712","folder":"tf","game":"Team Fortress","app_id":440,"player_count":15,"max_players":24,"Bots":0,"server_type":"Dedicated","server_os":"Linux","password":true,"vac":true,"version":"7961495","steam_id":85568392924866365,"keywords":["nocrits","nodmgspread","payload","uncletopia"],"game_id":440,"stv_port":27046,"stv_name":"Uncletopia | Chicago | 8 | Community | STV","players":[{"user_id":60,"name":"lellelyep","steam_id":76561198351006780,"connected_time":1569000000000,"state":"active","ping":103},{"user_id":75,"name":"FastestPizzaNA","steam_id":76561198050008896,"connected_time":412000000000,"state":"active","ping":84},{"user_id":76,"name":"Cthulhu's Malewife","steam_id":76561198085888959,"connected_time":372000000000,"state":"active","ping":52},{"user_id":78,"name":"Viewie","steam_id":76561198280108853,"connected_time":182000000000,"state":"active","ping":200},{"user_id":57,"name":"Adawnby","steam_id":76561198103057295,"connected_time":1851000000000,"state":"active","ping":78},{"user_id":66,"name":"Lennu","steam_id":76561198060730154,"connected_time":1323000000000,"state":"active","ping":76},{"user_id":46,"name":"Scoundrel","steam_id":76561198056672372,"connected_time":2695000000000,"state":"active","ping":85},{"user_id":68,"name":"WeeajEw","steam_id":76561198142481010,"connected_time":1067000000000,"state":"active","ping":46},{"user_id":52,"name":"water","steam_id":76561198163340882,"connected_time":2404000000000,"state":"active","ping":104},{"user_id":54,"name":"SuperEnderGuy","steam_id":76561198352732164,"connected_time":2219000000000,"state":"active","ping":105},{"user_id":69,"name":"add syrup","steam_id":76561198224614084,"connected_time":903000000000,"state":"active","ping":74},{"user_id":73,"name":"Entar","steam_id":76561197968661166,"connected_time":693000000000,"state":"active","ping":58},{"user_id":58,"name":"GamingJuice42","steam_id":76561198110469437,"connected_time":1792000000000,"state":"active","ping":62},{"user_id":71,"name":"Anthid","steam_id":76561198074493797,"connected_time":876000000000,"state":"active","ping":72},{"user_id":72,"name":"the krut","steam_id":76561198084300505,"connected_time":848000000000,"state":"active","ping":61}]},{"server_id":8,"name":"Uncletopia | Dallas | 1 | All Maps","name_short":"dal-1","host":"dal-1.us.uncletopia.com","port":27015,"enabled":true,"region":"us-central","cc":"us","latitude":32.779167,"longitude":-96.80889,"reserved":0,"last_update":"0001-01-01T00:00:00Z","name_a2s":"Uncletopia | Dallas | 1 | All Maps","protocol":17,"map":"koth_harvest_final","folder":"tf","game":"Team Fortress","app_id":440,"player_count":24,"max_players":24,"Bots":0,"server_type":"Dedicated","server_os":"Linux","password":true,"vac":true,"version":"7961495","steam_id":85568392924469986,"keywords":["cp","nocrits","nodmgspread","uncletopia"],"game_id":440,"stv_port":27016,"stv_name":"Uncletopia | Dallas | 1 | All Maps | STV","players":[{"user_id":479,"name":"RockAndRollSteve_1995","steam_id":76561198276332416,"connected_time":4248000000000,"state":"active","ping":108},{"user_id":523,"name":"Pvt. Dimitri Petrenko","steam_id":76561198078040091,"connected_time":1218000000000,"state":"active","ping":53},{"user_id":525,"name":"CeLeb144","steam_id":76561199089907740,"connected_time":958000000000,"state":"active","ping":58},{"user_id":482,"name":"Byan","steam_id":76561198319090131,"connected_time":4132000000000,"state":"active","ping":60},{"user_id":483,"name":"Dynamic","steam_id":76561198204547960,"connected_time":4106000000000,"state":"active","ping":74},{"user_id":521,"name":"I3lasteroid","steam_id":76561197985463901,"connected_time":1422000000000,"state":"active","ping":52},{"user_id":491,"name":"JayEffem","steam_id":76561198071256796,"connected_time":3519000000000,"state":"active","ping":81},{"user_id":531,"name":"Iron Argus","steam_id":76561198181088245,"connected_time":419000000000,"state":"active","ping":84},{"user_id":516,"name":"HiddenEgg","steam_id":76561199045105518,"connected_time":1799000000000,"state":"active","ping":79},{"user_id":489,"name":"Kepa","steam_id":76561198091975728,"connected_time":3538000000000,"state":"active","ping":70},{"user_id":490,"name":"Trundlini","steam_id":76561198810160534,"connected_time":3529000000000,"state":"active","ping":155},{"user_id":513,"name":"CALL OF DUTY BLACKOPPS","steam_id":76561198262422184,"connected_time":1874000000000,"state":"active","ping":51},{"user_id":527,"name":"Void","steam_id":76561199147336845,"connected_time":663000000000,"state":"active","ping":107},{"user_id":524,"name":"Siev","steam_id":76561198000518937,"connected_time":983000000000,"state":"active","ping":63},{"user_id":528,"name":"Legit_Jaxer","steam_id":76561198172234053,"connected_time":598000000000,"state":"active","ping":109},{"user_id":497,"name":"Immoral Boi","steam_id":76561198069551646,"connected_time":3259000000000,"state":"active","ping":92},{"user_id":499,"name":"demobird","steam_id":76561199277633460,"connected_time":3114000000000,"state":"active","ping":59},{"user_id":517,"name":"An00bis","steam_id":76561198044084508,"connected_time":1796000000000,"state":"active","ping":68},{"user_id":501,"name":"Kriperchito","steam_id":76561198358504992,"connected_time":3108000000000,"state":"active","ping":53},{"user_id":512,"name":"ZemkJval","steam_id":76561198154464008,"connected_time":1952000000000,"state":"active","ping":61},{"user_id":526,"name":"RollingCow","steam_id":76561198067114237,"connected_time":752000000000,"state":"active","ping":101},{"user_id":511,"name":"vyx","steam_id":76561198088326263,"connected_time":2412000000000,"state":"active","ping":76},{"user_id":506,"name":"M√°quina de Fuego","steam_id":76561198119445407,"connected_time":3044000000000,"state":"active","ping":66},{"user_id":530,"name":"Young Sheldon Tik-Tok Clip","steam_id":76561198253927199,"connected_time":548000000000,"state":"active","ping":171}]},{"server_id":108,"name":"Uncletopia | Dallas | 2 | All Maps","name_short":"dal-2","host":"dal-1.us.uncletopia.com","port":27025,"enabled":true,"region":"us-central","cc":"us","latitude":32.779167,"longitude":-96.80889,"reserved":0,"last_update":"0001-01-01T00:00:00Z","name_a2s":"Uncletopia | Dallas | 2 | All Maps","protocol":17,"map":"pl_badwater","folder":"tf","game":"Team Fortress","app_id":440,"player_count":24,"max_players":24,"Bots":0,"server_type":"Dedicated","server_os":"Linux","password":true,"vac":true,"version":"7961495","steam_id":85568392924469988,"keywords":["nocrits","nodmgspread","payload","uncletopia"],"game_id":440,"stv_port":27026,"stv_name":"Uncletopia | Dallas | 2 | All Maps | STV","players":[{"user_id":579,"name":"slim goodbody","steam_id":76561197997100185,"connected_time":1110000000000,"state":"active","ping":62},{"user_id":595,"name":"Gunslinger Engi (Derogatory)","steam_id":76561198046526036,"connected_time":454000000000,"state":"active","ping":77},{"user_id":576,"name":"Smoke Stacks","steam_id":76561197999478769,"connected_time":1203000000000,"state":"active","ping":63},{"user_id":582,"name":"porz","steam_id":76561198195711453,"connected_time":1013000000000,"state":"active","ping":47},{"user_id":601,"name":"Strange Child","steam_id":76561198082523009,"connected_time":23000000000,"state":"active","ping":71},{"user_id":596,"name":"Invalid","steam_id":76561198071098415,"connected_time":443000000000,"state":"active","ping":45},{"user_id":533,"name":"Loamy","steam_id":76561198064183674,"connected_time":4414000000000,"state":"active","ping":76},{"user_id":598,"name":"able","steam_id":76561198292552182,"connected_time":427000000000,"state":"active","ping":70},{"user_id":584,"name":"Godot 102","steam_id":76561198083079903,"connected_time":974000000000,"state":"active","ping":121},{"user_id":593,"name":"Noire","steam_id":76561198149370109,"connected_time":563000000000,"state":"active","ping":99},{"user_id":540,"name":"man of the hour","steam_id":76561198264601809,"connected_time":3457000000000,"state":"active","ping":160},{"user_id":578,"name":"Facehurt","steam_id":76561198028504034,"connected_time":1184000000000,"state":"active","ping":92},{"user_id":570,"name":"smissmas rat","steam_id":76561199005687929,"connected_time":1228000000000,"state":"active","ping":85},{"user_id":600,"name":"Vivzen","steam_id":76561198972619900,"connected_time":54000000000,"state":"active","ping":49},{"user_id":583,"name":"jose.gonzales2006","steam_id":76561198114893591,"connected_time":1013000000000,"state":"active","ping":116},{"user_id":525,"name":"Nick","steam_id":76561198043703129,"connected_time":4670000000000,"state":"active","ping":94},{"user_id":588,"name":"Cinnifox","steam_id":76561198068773971,"connected_time":829000000000,"state":"active","ping":89},{"user_id":597,"name":"Sleepy","steam_id":76561198978688451,"connected_time":437000000000,"state":"active","ping":75},{"user_id":586,"name":"webmiss","steam_id":76561198061368012,"connected_time":903000000000,"state":"active","ping":83},{"user_id":531,"name":"muddy","steam_id":76561198035015260,"connected_time":4434000000000,"state":"active","ping":76},{"user_id":594,"name":"The Anime Protagonist","steam_id":76561198131400543,"connected_time":469000000000,"state":"active","ping":72},{"user_id":587,"name":"Greenland Shark","steam_id":76561198046274386,"connected_time":901000000000,"state":"active","ping":84},{"user_id":574,"name":"exten-z","steam_id":76561198004359190,"connected_time":1213000000000,"state":"active","ping":63},{"user_id":575,"name":"YAMALAMA","steam_id":76561198136962776,"connected_time":1212000000000,"state":"active","ping":90}]},{"server_id":404,"name":"Uncletopia | Dallas | 3 | All Maps","name_short":"dal-3","host":"dal-1.us.uncletopia.com","port":27035,"enabled":true,"region":"us-central","cc":"us","latitude":32.779167,"longitude":-96.80889,"reserved":0,"last_update":"0001-01-01T00:00:00Z","name_a2s":"Uncletopia | Dallas | 3 | All Maps","protocol":17,"map":"cp_process_final","folder":"tf","game":"Team Fortress","app_id":440,"player_count":23,"max_players":24,"Bots":0,"server_type":"Dedicated","server_os":"Linux","password":true,"vac":true,"version":"7961495","steam_id":85568392924515219,"keywords":["cp","nocrits","nodmgspread","uncletopia"],"game_id":440,"stv_port":27036,"stv_name":"Uncletopia | Dallas | 3 | All Maps | STV","players":[{"user_id":164,"name":"King","steam_id":76561198010019214,"connected_time":4610000000000,"state":"active","ping":80},{"user_id":199,"name":"Constipated Barry","steam_id":76561198004482269,"connected_time":2540000000000,"state":"active","ping":85},{"user_id":177,"name":"KazmirlYT","steam_id":76561198116008410,"connected_time":3427000000000,"state":"active","ping":115},{"user_id":208,"name":"tsz","steam_id":76561199246231090,"connected_time":2036000000000,"state":"active","ping":77},{"user_id":232,"name":"Lil B (Tha Based/God)","steam_id":76561198133195238,"connected_time":623000000000,"state":"active","ping":98},{"user_id":120,"name":"Friggin_Ponies","steam_id":76561198064379318,"connected_time":7339000000000,"state":"active","ping":86},{"user_id":203,"name":"java","steam_id":76561198030276792,"connected_time":2243000000000,"state":"active","ping":75},{"user_id":200,"name":"ZestyTrev","steam_id":76561198253391039,"connected_time":2521000000000,"state":"active","ping":56},{"user_id":168,"name":"PiolaCat","steam_id":76561199100535345,"connected_time":4320000000000,"state":"active","ping":99},{"user_id":225,"name":"dodecadron","steam_id":76561198027397222,"connected_time":969000000000,"state":"active","ping":108},{"user_id":165,"name":"lanoc","steam_id":76561198055415367,"connected_time":4442000000000,"state":"active","ping":61},{"user_id":239,"name":"Lane","steam_id":76561197965828506,"connected_time":151000000000,"state":"active","ping":56},{"user_id":238,"name":"naurr","steam_id":76561198117206414,"connected_time":178000000000,"state":"active","ping":56},{"user_id":218,"name":"a fuddruckers","steam_id":76561198092656099,"connected_time":1099000000000,"state":"active","ping":48},{"user_id":162,"name":"sithreis","steam_id":76561198000564263,"connected_time":4753000000000,"state":"active","ping":70},{"user_id":237,"name":"Cyanid3","steam_id":76561198259972621,"connected_time":388000000000,"state":"active","ping":85},{"user_id":227,"name":"ùíÜùíóùíäùíçArnoldGamingÔæ†","steam_id":76561198040140247,"connected_time":842000000000,"state":"active","ping":103},{"user_id":236,"name":"EduardoLopez2005","steam_id":76561198188481309,"connected_time":519000000000,"state":"active","ping":97},{"user_id":122,"name":"The Nuclear Kitsune","steam_id":76561198004852482,"connected_time":7304000000000,"state":"active","ping":99},{"user_id":166,"name":"AlecTheNefarious","steam_id":76561198035291230,"connected_time":4417000000000,"state":"active","ping":45},{"user_id":230,"name":"canadian birds","steam_id":76561198059466588,"connected_time":769000000000,"state":"active","ping":77},{"user_id":234,"name":"CampinCarl","steam_id":76561197997373624,"connected_time":592000000000,"state":"active","ping":90},{"user_id":196,"name":"Junk","steam_id":76561198024382753,"connected_time":2701000000000,"state":"active","ping":60}]},{"server_id":405,"name":"Uncletopia | Dallas | 4 | Community","name_short":"dal-4","host":"dal-1.us.uncletopia.com","port":27045,"enabled":true,"region":"us-central","cc":"us","latitude":32.779167,"longitude":-96.80889,"reserved":0,"last_update":"0001-01-01T00:00:00Z","name_a2s":"Uncletopia | Dallas | 4 | Community","protocol":17,"map":"workshop/koth_rotunda_rc10w.ugc2964421291","folder":"tf","game":"Team Fortress","app_id":440,"player_count":0,"max_players":24,"Bots":0,"server_type":"Dedicated","server_os":"Linux","password":true,"vac":true,"version":"7961495","steam_id":85568392924515220,"keywords":["cp","nocrits","nodmgspread","uncletopia"],"game_id":440,"stv_port":27046,"stv_name":"Uncletopia | Dallas | 4 | Community | STV","players":null},{"server_id":5,"name":"Uncletopia | Frankfurt | 1 | All Maps","name_short":"frk-1","host":"frk-1.de.uncletopia.com","port":27015,"enabled":true,"region":"eu","cc":"de","latitude":50.110924,"longitude":8.682127,"reserved":0,"last_update":"0001-01-01T00:00:00Z","name_a2s":"Uncletopia | Frankfurt | 1 | All Maps","protocol":17,"map":"ctf_doublecross","folder":"tf","game":"Team Fortress","app_id":440,"player_count":0,"max_players":24,"Bots":0,"server_type":"Dedicated","server_os":"Linux","password":true,"vac":true,"version":"7961495","steam_id":85568392924469989,"keywords":["ctf","nocrits","nodmgspread","uncletopia"],"game_id":440,"stv_port":27016,"stv_name":"Uncletopia | Frankfurt | 1 | All Maps | STV","players":null},{"server_id":110,"name":"Uncletopia | Frankfurt | 2 | All Maps","name_short":"frk-2","host":"frk-1.de.uncletopia.com","port":27025,"enabled":true,"region":"eu","cc":"de","latitude":50.110924,"longitude":8.682127,"reserved":0,"last_update":"0001-01-01T00:00:00Z","name_a2s":"Uncletopia | Frankfurt | 2 | All Maps","protocol":17,"map":"cp_dustbowl","folder":"tf","game":"Team Fortress","app_id":440,"player_count":15,"max_players":24,"Bots":0,"server_type":"Dedicated","server_os":"Linux","password":true,"vac":true,"version":"7961495","steam_id":85568392924469990,"keywords":["cp","nocrits","nodmgspread","uncletopia"],"game_id":440,"stv_port":27026,"stv_name":"Uncletopia | Frankfurt | 2 | All Maps | STV","players":[{"user_id":36,"name":"‚ù§BufskE‚ù§","steam_id":76561198446055223,"connected_time":377000000000,"state":"active","ping":107},{"user_id":4,"name":"faker","steam_id":76561199179040672,"connected_time":3237000000000,"state":"active","ping":63},{"user_id":31,"name":"Canis[Magnus]Pectus","steam_id":76561198363775072,"connected_time":809000000000,"state":"active","ping":119},{"user_id":24,"name":"HopeDaGamer","steam_id":76561199487262348,"connected_time":1567000000000,"state":"active","ping":149},{"user_id":25,"name":"P","steam_id":76561198399390201,"connected_time":1426000000000,"state":"active","ping":82},{"user_id":9,"name":"CumbustiblePunda","steam_id":76561197974274677,"connected_time":3230000000000,"state":"active","ping":57},{"user_id":26,"name":"kasper.perander","steam_id":76561199510847023,"connected_time":1395000000000,"state":"active","ping":71},{"user_id":11,"name":"Volodya","steam_id":76561198124484658,"connected_time":3200000000000,"state":"active","ping":113},{"user_id":27,"name":"ThellanM","steam_id":76561199014222387,"connected_time":1262000000000,"state":"active","ping":78},{"user_id":34,"name":"Jotun","steam_id":76561199015161498,"connected_time":545000000000,"state":"active","ping":85},{"user_id":33,"name":"Maxy Luck","steam_id":76561199009583144,"connected_time":625000000000,"state":"active","ping":106},{"user_id":38,"name":"patrykzlobicki9","steam_id":76561199502965772,"connected_time":246000000000,"state":"active","ping":90},{"user_id":18,"name":"PENGUN","steam_id":76561199015156956,"connected_time":2955000000000,"state":"active","ping":103},{"user_id":37,"name":"lulu","steam_id":76561199147764133,"connected_time":364000000000,"state":"active","ping":78},{"user_id":39,"name":"◊ê◊ë◊ê","steam_id":76561198184360615,"connected_time":28000000000,"state":"active","ping":94}]},{"server_id":308,"name":"Uncletopia | Frankfurt | 3 | All Maps","name_short":"frk-3","host":"frk-1.de.uncletopia.com","port":27035,"enabled":true,"region":"eu","cc":"de","latitude":50.110924,"longitude":8.682127,"reserved":0,"last_update":"0001-01-01T00:00:00Z","name_a2s":"Uncletopia | Frankfurt | 3 | All Maps","protocol":17,"map":"plr_pipeline","folder":"tf","game":"Team Fortress","app_id":440,"player_count":0,"max_players":24,"Bots":0,"server_type":"Dedicated","server_os":"Linux","password":true,"vac":true,"version":"7961495","steam_id":85568392924504274,"keywords":["nocrits","nodmgspread","payload","uncletopia"],"game_id":440,"stv_port":27036,"stv_name":"Uncletopia | Frankfurt | 3 | All Maps | STV","players":null},{"server_id":309,"name":"Uncletopia | Frankfurt | 4 | All Maps","name_short":"frk-4","host":"frk-1.de.uncletopia.com","port":27045,"enabled":true,"region":"eu","cc":"de","latitude":50.110924,"longitude":8.682127,"reserved":0,"last_update":"0001-01-01T00:00:00Z","name_a2s":"Uncletopia | Frankfurt | 4 | All Maps","protocol":17,"map":"koth_lakeside_final","folder":"tf","game":"Team Fortress","app_id":440,"player_count":0,"max_players":24,"Bots":0,"server_type":"Dedicated","server_os":"Linux","password":true,"vac":true,"version":"7961495","steam_id":85568392924504275,"keywords":["cp","nocrits","nodmgspread","uncletopia"],"game_id":440,"stv_port":27046,"stv_name":"Uncletopia | Frankfurt | 4 | All Maps | STV","players":null},{"server_id":310,"name":"Uncletopia | Frankfurt | 5 | All Maps","name_short":"frk-5","host":"frk-1.de.uncletopia.com","port":27055,"enabled":true,"region":"eu","cc":"de","latitude":50.110924,"longitude":8.682127,"reserved":0,"last_update":"0001-01-01T00:00:00Z","name_a2s":"Uncletopia | Frankfurt | 5 | All Maps","protocol":17,"map":"ctf_landfall","folder":"tf","game":"Team Fortress","app_id":440,"player_count":0,"max_players":24,"Bots":0,"server_type":"Dedicated","server_os":"Linux","password":true,"vac":true,"version":"7961495","steam_id":85568392924504277,"keywords":["ctf","nocrits","nodmgspread","uncletopia"],"game_id":440,"stv_port":27056,"stv_name":"Uncletopia | Frankfurt | 5 | All Maps | STV","players":null},{"server_id":311,"name":"Uncletopia | Frankfurt | 6 | All Maps","name_short":"frk-6","host":"frk-1.de.uncletopia.com","port":27065,"enabled":true,"region":"eu","cc":"de","latitude":50.110924,"longitude":8.682127,"reserved":0,"last_update":"0001-01-01T00:00:00Z","name_a2s":"Uncletopia | Frankfurt | 6 | All Maps","protocol":17,"map":"cp_steel","folder":"tf","game":"Team Fortress","app_id":440,"player_count":0,"max_players":24,"Bots":0,"server_type":"Dedicated","server_os":"Linux","password":true,"vac":true,"version":"7961495","steam_id":85568392924504278,"keywords":["cp","nocrits","nodmgspread","uncletopia"],"game_id":440,"stv_port":27066,"stv_name":"Uncletopia | Frankfurt | 6 | All Maps | STV","players":null},{"server_id":23,"name":"Uncletopia | Frankfurt | 7 | Stopwatch","name_short":"frk-7","host":"frk-1.de.uncletopia.com","port":27075,"enabled":true,"region":"eu","cc":"de","latitude":50.110924,"longitude":8.682127,"reserved":0,"last_update":"0001-01-01T00:00:00Z","name_a2s":"Uncletopia | Frankfurt | 7 | Stopwatch","protocol":17,"map":"koth_highpass","folder":"tf","game":"Team Fortress","app_id":440,"player_count":0,"max_players":24,"Bots":0,"server_type":"Dedicated","server_os":"Linux","password":true,"vac":true,"version":"7961495","steam_id":85568392924742827,"keywords":["cp","nocrits","nodmgspread","uncletopia"],"game_id":440,"stv_port":27076,"stv_name":"Uncletopia | Frankfurt | 7 | Stopwatch | STV","players":null},{"server_id":24,"name":"Uncletopia | Frankfurt | 8 | Community","name_short":"frk-8","host":"frk-1.de.uncletopia.com","port":27085,"enabled":true,"region":"eu","cc":"de","latitude":50.110924,"longitude":8.682127,"reserved":0,"last_update":"0001-01-01T00:00:00Z","name_a2s":"Uncletopia | Frankfurt | 8 | Community","protocol":17,"map":"workshop/pl_stallberg_rc3.ugc1849111469","folder":"tf","game":"Team Fortress","app_id":440,"player_count":0,"max_players":24,"Bots":0,"server_type":"Dedicated","server_os":"Linux","password":true,"vac":true,"version":"7961495","steam_id":85568392924742828,"keywords":["nocrits","nodmgspread","payload","uncletopia"],"game_id":440,"stv_port":27086,"stv_name":"Uncletopia | Frankfurt | 8 | Community | STV","players":null},{"server_id":202,"name":"Uncletopia | Hong Kong | 1 | All Maps","name_short":"hgk-1","host":"hgk-1.hk.uncletopia.com","port":27015,"enabled":true,"region":"asia","cc":"hk","latitude":22.302711,"longitude":114.177216,"reserved":0,"last_update":"0001-01-01T00:00:00Z","name_a2s":"Uncletopia | Hong Kong | 1 | All Maps","protocol":17,"map":"cp_altitude","folder":"tf","game":"Team Fortress","app_id":440,"player_count":0,"max_players":24,"Bots":0,"server_type":"Dedicated","server_os":"Linux","password":true,"vac":true,"version":"7961495","steam_id":85568392924494504,"keywords":["cp","nocrits","nodmgspread","uncletopia"],"game_id":440,"stv_port":27016,"stv_name":"Uncletopia | Hong Kong | 1 | All Maps | STV","players":null},{"server_id":1,"name":"Uncletopia | Los Angeles | 1 | All Maps","name_short":"lax-1","host":"lax-1.us.uncletopia.com","port":27015,"enabled":true,"region":"us-west","cc":"us","latitude":33.94279,"longitude":-118.41004,"reserved":0,"last_update":"0001-01-01T00:00:00Z","name_a2s":"Uncletopia | Los Angeles | 1 | All Maps","protocol":17,"map":"pl_frontier_final","folder":"tf","game":"Team Fortress","app_id":440,"player_count":4,"max_players":24,"Bots":0,"server_type":"Dedicated","server_os":"Linux","password":true,"vac":true,"version":"7961495","steam_id":85568392924469991,"keywords":["nocrits","nodmgspread","payload","uncletopia"],"game_id":440,"stv_port":27016,"stv_name":"Uncletopia | Los Angeles | 1 | All Maps | STV","players":[{"user_id":298,"name":"FlexTape","steam_id":76561198871834867,"connected_time":508000000000,"state":"active","ping":69},{"user_id":299,"name":"gamerkiddude08","steam_id":76561198403417575,"connected_time":402000000000,"state":"active","ping":72},{"user_id":300,"name":"MirrorsAreScary","steam_id":76561198860505587,"connected_time":348000000000,"state":"active","ping":82},{"user_id":302,"name":"TheLiliPad","steam_id":76561198829012349,"connected_time":313000000000,"state":"active","ping":106}]},{"server_id":112,"name":"Uncletopia | Los Angeles | 2 | All Maps","name_short":"lax-2","host":"lax-1.us.uncletopia.com","port":27025,"enabled":true,"region":"us-west","cc":"us","latitude":33.94279,"longitude":-118.41004,"reserved":0,"last_update":"0001-01-01T00:00:00Z","name_a2s":"Uncletopia | Los Angeles | 2 | All Maps","protocol":17,"map":"cp_sunshine","folder":"tf","game":"Team Fortress","app_id":440,"player_count":24,"max_players":24,"Bots":0,"server_type":"Dedicated","server_os":"Linux","password":true,"vac":true,"version":"7961495","steam_id":85568392924469992,"keywords":["cp","nocrits","nodmgspread","uncletopia"],"game_id":440,"stv_port":27026,"stv_name":"Uncletopia | Los Angeles | 2 | All Maps | STV","players":[{"user_id":236,"name":"TeeVeeGee","steam_id":76561198009869685,"connected_time":984000000000,"state":"active","ping":57},{"user_id":212,"name":"ICLII","steam_id":76561198113279795,"connected_time":1651000000000,"state":"active","ping":62},{"user_id":209,"name":"tunaa","steam_id":76561198362763159,"connected_time":1812000000000,"state":"active","ping":57},{"user_id":198,"name":"The Broken Lightbulb","steam_id":76561198141566312,"connected_time":3099000000000,"state":"active","ping":60},{"user_id":231,"name":"slammin","steam_id":76561197965022076,"connected_time":1137000000000,"state":"active","ping":105},{"user_id":237,"name":"Rascallyyy","steam_id":76561198184552369,"connected_time":650000000000,"state":"active","ping":45},{"user_id":210,"name":"Assassin","steam_id":76561198321410235,"connected_time":1797000000000,"state":"active","ping":43},{"user_id":238,"name":"tomfoolery","steam_id":76561198143132686,"connected_time":231000000000,"state":"active","ping":88},{"user_id":207,"name":"Just Juanito","steam_id":76561198241446874,"connected_time":1977000000000,"state":"active","ping":69},{"user_id":214,"name":"NightmareOhm","steam_id":76561198338853664,"connected_time":1495000000000,"state":"active","ping":87},{"user_id":239,"name":"ghostglitch","steam_id":76561197991608573,"connected_time":194000000000,"state":"active","ping":56},{"user_id":216,"name":"Xurtan","steam_id":76561197996705429,"connected_time":1437000000000,"state":"active","ping":75},{"user_id":217,"name":"Liam TF2","steam_id":76561198067137160,"connected_time":1424000000000,"state":"active","ping":60},{"user_id":223,"name":"Soviet Potato","steam_id":76561198068546113,"connected_time":1396000000000,"state":"active","ping":55},{"user_id":233,"name":"Stick","steam_id":76561198044233842,"connected_time":1092000000000,"state":"active","ping":115},{"user_id":240,"name":"Yaoi Boy Princess","steam_id":76561197997343746,"connected_time":176000000000,"state":"active","ping":49},{"user_id":221,"name":"Sigfig","steam_id":76561198000237899,"connected_time":1402000000000,"state":"active","ping":111},{"user_id":222,"name":"Imperial Jenga ‚ú†","steam_id":76561198057256790,"connected_time":1402000000000,"state":"active","ping":109},{"user_id":224,"name":"PerKnuckleChuckle","steam_id":76561198023221596,"connected_time":1363000000000,"state":"active","ping":79},{"user_id":225,"name":"Caboose","steam_id":76561198215451935,"connected_time":1345000000000,"state":"active","ping":91},{"user_id":234,"name":"bukshelf","steam_id":76561198314221897,"connected_time":1091000000000,"state":"active","ping":75},{"user_id":227,"name":"Marcus Sillylius","steam_id":76561198192695482,"connected_time":1328000000000,"state":"active","ping":71},{"user_id":229,"name":"HAT-WEARING‚Ñ¢ Maggot Gamer Cat","steam_id":76561197973992705,"connected_time":1246000000000,"state":"active","ping":68},{"user_id":235,"name":"Sivinus","steam_id":76561198025589541,"connected_time":1089000000000,"state":"active","ping":58}]},{"server_id":324,"name":"Uncletopia | Los Angeles | 3 | All Maps","name_short":"lax-3","host":"lax-1.us.uncletopia.com","port":27035,"enabled":true,"region":"us-west","cc":"us","latitude":33.94279,"longitude":-118.41004,"reserved":0,"last_update":"0001-01-01T00:00:00Z","name_a2s":"Uncletopia | Los Angeles | 3 | All Maps","protocol":17,"map":"pl_barnblitz","folder":"tf","game":"Team Fortress","app_id":440,"player_count":0,"max_players":24,"Bots":0,"server_type":"Dedicated","server_os":"Linux","password":true,"vac":true,"version":"7961495","steam_id":85568392924510198,"keywords":["nocrits","nodmgspread","payload","uncletopia"],"game_id":440,"stv_port":27036,"stv_name":"Uncletopia | Los Angeles | 3 | All Maps | STV","players":null},{"server_id":25,"name":"Uncletopia | Los Angeles | 4 | Stopwatch","name_short":"lax-4","host":"lax-1.us.uncletopia.com","port":27045,"enabled":true,"region":"us-west","cc":"us","latitude":33.94279,"longitude":-118.41004,"reserved":0,"last_update":"0001-01-01T00:00:00Z","name_a2s":"Uncletopia | Los Angeles | 4 | Stopwatch","protocol":17,"map":"workshop/pl_badwater_pro_v12.ugc2142942074","folder":"tf","game":"Team Fortress","app_id":440,"player_count":0,"max_players":24,"Bots":0,"server_type":"Dedicated","server_os":"Linux","password":true,"vac":true,"version":"7961495","steam_id":85568392924510199,"keywords":["nocrits","nodmgspread","payload","uncletopia"],"game_id":440,"stv_port":27046,"stv_name":"Uncletopia | Los Angeles | 4 | Stopwatch | STV","players":null},{"server_id":11,"name":"Uncletopia | London | 1 | All Maps","name_short":"lon-1","host":"lon-1.uk.uncletopia.com","port":27015,"enabled":true,"region":"eu","cc":"gb","latitude":51.509865,"longitude":-0.118092,"reserved":0,"last_update":"0001-01-01T00:00:00Z","name_a2s":"Uncletopia | London | 1 | All Maps","protocol":17,"map":"koth_viaduct","folder":"tf","game":"Team Fortress","app_id":440,"player_count":0,"max_players":24,"Bots":0,"server_type":"Dedicated","server_os":"Linux","password":true,"vac":true,"version":"7961495","steam_id":85568392924367362,"keywords":["cp","nocrits","nodmgspread","uncletopia"],"game_id":440,"stv_port":27016,"stv_name":"Uncletopia | London | 1 | All Maps | STV","players":null},{"server_id":114,"name":"Uncletopia | London | 2 | All Maps","name_short":"lon-2","host":"lon-1.uk.uncletopia.com","port":27025,"enabled":true,"region":"eu","cc":"gb","latitude":51.509865,"longitude":-0.118092,"reserved":0,"last_update":"0001-01-01T00:00:00Z","name_a2s":"Uncletopia | London | 2 | All Maps","protocol":17,"map":"koth_highpass","folder":"tf","game":"Team Fortress","app_id":440,"player_count":0,"max_players":24,"Bots":0,"server_type":"Dedicated","server_os":"Linux","password":true,"vac":true,"version":"7961495","steam_id":85568392924470941,"keywords":["cp","nocrits","nodmgspread","uncletopia"],"game_id":440,"stv_port":27026,"stv_name":"Uncletopia | London | 2 | All Maps | STV","players":null},{"server_id":320,"name":"Uncletopia | London | 3 | All Maps","name_short":"lon-3","host":"lon-1.uk.uncletopia.com","port":27035,"enabled":true,"region":"eu","cc":"gb","latitude":51.509865,"longitude":-0.118092,"reserved":0,"last_update":"0001-01-01T00:00:00Z","name_a2s":"Uncletopia | London | 3 | All Maps","protocol":17,"map":"koth_cascade","folder":"tf","game":"Team Fortress","app_id":440,"player_count":0,"max_players":24,"Bots":0,"server_type":"Dedicated","server_os":"Linux","password":true,"vac":true,"version":"7961495","steam_id":85568392924510192,"keywords":["cp","nocrits","nodmgspread","uncletopia"],"game_id":440,"stv_port":27036,"stv_name":"Uncletopia | London | 3 | All Maps | STV","players":null},{"server_id":321,"name":"Uncletopia | London | 4 | All Maps","name_short":"lon-4","host":"lon-1.uk.uncletopia.com","port":27045,"enabled":true,"region":"eu","cc":"gb","latitude":51.509865,"longitude":-0.118092,"reserved":0,"last_update":"0001-01-01T00:00:00Z","name_a2s":"Uncletopia | London | 4 | All Maps","protocol":17,"map":"cp_snakewater_final1","folder":"tf","game":"Team Fortress","app_id":440,"player_count":0,"max_players":24,"Bots":0,"server_type":"Dedicated","server_os":"Linux","password":true,"vac":true,"version":"7961495","steam_id":85568392924510193,"keywords":["cp","nocrits","nodmgspread","uncletopia"],"game_id":440,"stv_port":27046,"stv_name":"Uncletopia | London | 4 | All Maps | STV","players":null},{"server_id":21,"name":"Uncletopia | London | 5 | All Maps","name_short":"lon-5","host":"lon-1.uk.uncletopia.com","port":27055,"enabled":true,"region":"eu","cc":"gb","latitude":51.509865,"longitude":-0.118092,"reserved":0,"last_update":"0001-01-01T00:00:00Z","name_a2s":"Uncletopia | London | 5 | All Maps","protocol":17,"map":"koth_lakeside_final","folder":"tf","game":"Team Fortress","app_id":440,"player_count":0,"max_players":24,"Bots":0,"server_type":"Dedicated","server_os":"Linux","password":true,"vac":true,"version":"7961495","steam_id":85568392924742829,"keywords":["cp","nocrits","nodmgspread","uncletopia"],"game_id":440,"stv_port":27056,"stv_name":"Uncletopia | London | 5 | All Maps | STV","players":null},{"server_id":22,"name":"Uncletopia | London | 6 | All Maps","name_short":"lon-6","host":"lon-1.uk.uncletopia.com","port":27065,"enabled":true,"region":"eu","cc":"gb","latitude":51.509865,"longitude":-0.118092,"reserved":0,"last_update":"0001-01-01T00:00:00Z","name_a2s":"Uncletopia | London | 6 | All Maps","protocol":17,"map":"koth_viaduct","folder":"tf","game":"Team Fortress","app_id":440,"player_count":0,"max_players":24,"Bots":0,"server_type":"Dedicated","server_os":"Linux","password":true,"vac":true,"version":"7961495","steam_id":85568392924742830,"keywords":["cp","nocrits","nodmgspread","uncletopia"],"game_id":440,"stv_port":27066,"stv_name":"Uncletopia | London | 6 | All Maps | STV","players":null},{"server_id":40,"name":"Uncletopia | London | 7 | Stopwatch","name_short":"lon-7","host":"lon-1.uk.uncletopia.com","port":27075,"enabled":true,"region":"eu","cc":"gb","latitude":51.509865,"longitude":-0.118092,"reserved":0,"last_update":"0001-01-01T00:00:00Z","name_a2s":"Uncletopia | London | 7 | Stopwatch","protocol":17,"map":"workshop/koth_ashville_final.ugc2130459942","folder":"tf","game":"Team Fortress","app_id":440,"player_count":0,"max_players":24,"Bots":0,"server_type":"Dedicated","server_os":"Linux","password":true,"vac":true,"version":"7961495","steam_id":85568392924964314,"keywords":["cp","nocrits","nodmgspread","uncletopia"],"game_id":440,"stv_port":27076,"stv_name":"Uncletopia | London | 7 | Stopwatch | STV","players":null},{"server_id":41,"name":"Uncletopia | London | 8 | Community","name_short":"lon-8","host":"lon-1.uk.uncletopia.com","port":27085,"enabled":true,"region":"eu","cc":"gb","latitude":51.509865,"longitude":-0.118092,"reserved":0,"last_update":"0001-01-01T00:00:00Z","name_a2s":"Uncletopia | London | 8 | Community","protocol":17,"map":"workshop/pl_phoenix_b4a.ugc2969509359","folder":"tf","game":"Team Fortress","app_id":440,"player_count":0,"max_players":24,"Bots":0,"server_type":"Dedicated","server_os":"Linux","password":true,"vac":true,"version":"7961495","steam_id":85568392924964315,"keywords":["nocrits","nodmgspread","payload","uncletopia"],"game_id":440,"stv_port":27086,"stv_name":"Uncletopia | London | 8 | Community | STV","players":null},{"server_id":300,"name":"Uncletopia | Montr√©al | 1 | One Thousand Uncles","name_short":"mtl-1","host":"mtl-1.ca.uncletopia.com","port":27015,"enabled":true,"region":"us-east","cc":"ca","latitude":45.50889,"longitude":-73.56167,"reserved":0,"last_update":"0001-01-01T00:00:00Z","name_a2s":"Uncletopia | Montr√©al | 1 | One Thousand Uncles","protocol":17,"map":"cp_dustbowl","folder":"tf","game":"Team Fortress","app_id":440,"player_count":24,"max_players":32,"Bots":20,"server_type":"Dedicated","server_os":"Linux","password":true,"vac":true,"version":"7961495","steam_id":85568392924500087,"keywords":["alltalk","bots","cp","danepve","increased_maxplayers","norespawntime","uncletopia"],"game_id":440,"stv_port":0,"stv_name":"","players":[{"user_id":487,"name":"1-800-GHOST-DANCE","steam_id":76561198835430429,"connected_time":2280000000000,"state":"active","ping":88},{"user_id":459,"name":"Yozzoy","steam_id":76561198027920369,"connected_time":5095000000000,"state":"active","ping":71},{"user_id":492,"name":"Denn‡πëÔ≠•","steam_id":76561198257270574,"connected_time":151000000000,"state":"active","ping":62},{"user_id":488,"name":"Lots0","steam_id":76561198043143145,"connected_time":1402000000000,"state":"active","ping":105}]},{"server_id":301,"name":"Uncletopia | Montr√©al | 2 | One Thousand Uncles","name_short":"mtl-2","host":"mtl-1.ca.uncletopia.com","port":27025,"enabled":true,"region":"us-east","cc":"ca","latitude":45.50889,"longitude":-73.56167,"reserved":0,"last_update":"0001-01-01T00:00:00Z","name_a2s":"Uncletopia | Montr√©al | 2 | One Thousand Uncles","protocol":17,"map":"cp_mossrock","folder":"tf","game":"Team Fortress","app_id":440,"player_count":0,"max_players":32,"Bots":0,"server_type":"Dedicated","server_os":"Linux","password":true,"vac":true,"version":"7961495","steam_id":85568392924500088,"keywords":["alltalk","cp","danepve","increased_maxplayers","norespawntime","uncletopia"],"game_id":440,"stv_port":0,"stv_name":"","players":null},{"server_id":302,"name":"Uncletopia | Montr√©al | 3 | One Thousand Uncles","name_short":"mtl-3","host":"mtl-1.ca.uncletopia.com","port":27035,"enabled":true,"region":"us-east","cc":"ca","latitude":45.50889,"longitude":-73.56167,"reserved":0,"last_update":"0001-01-01T00:00:00Z","name_a2s":"Uncletopia | Montr√©al | 3 | One Thousand Uncles","protocol":17,"map":"pl_pier","folder":"tf","game":"Team Fortress","app_id":440,"player_count":0,"max_players":32,"Bots":0,"server_type":"Dedicated","server_os":"Linux","password":true,"vac":true,"version":"7961495","steam_id":85568392924500089,"keywords":["alltalk","danepve","increased_maxplayers","norespawntime","payload","uncletopia"],"game_id":440,"stv_port":0,"stv_name":"","players":null},{"server_id":13,"name":"Uncletopia | New York City | 1 | All Maps","name_short":"nyc-1","host":"nyc-1.us.uncletopia.com","port":27015,"enabled":true,"region":"us-east","cc":"us","latitude":40.73061,"longitude":-73.93524,"reserved":0,"last_update":"0001-01-01T00:00:00Z","name_a2s":"Uncletopia | New York City | 1 | All Maps","protocol":17,"map":"pl_badwater","folder":"tf","game":"Team Fortress","app_id":440,"player_count":24,"max_players":24,"Bots":0,"server_type":"Dedicated","server_os":"Linux","password":true,"vac":true,"version":"7961495","steam_id":85568392924469993,"keywords":["nocrits","nodmgspread","payload","uncletopia"],"game_id":440,"stv_port":27016,"stv_name":"Uncletopia | New York City | 1 | All Maps | STV","players":[{"user_id":637,"name":"shenanigan","steam_id":76561198043452925,"connected_time":1359000000000,"state":"active","ping":181},{"user_id":636,"name":"Lambsauce","steam_id":76561198151827926,"connected_time":1432000000000,"state":"active","ping":87},{"user_id":604,"name":"Shwartzy","steam_id":76561198073927139,"connected_time":3305000000000,"state":"active","ping":58},{"user_id":621,"name":"Jadeturtle","steam_id":76561198267516604,"connected_time":2436000000000,"state":"active","ping":69},{"user_id":625,"name":"YASAI JUICE","steam_id":76561198131971992,"connected_time":2346000000000,"state":"active","ping":53},{"user_id":631,"name":"Colonel Sanders jr.","steam_id":76561197990168787,"connected_time":2183000000000,"state":"active","ping":115},{"user_id":642,"name":"last chance for broccoli","steam_id":76561198395577807,"connected_time":935000000000,"state":"active","ping":64},{"user_id":633,"name":"Tony","steam_id":76561198042257740,"connected_time":1565000000000,"state":"active","ping":66},{"user_id":541,"name":"Chanddy","steam_id":76561198058949058,"connected_time":7088000000000,"state":"active","ping":51},{"user_id":586,"name":"Jermaphobe","steam_id":76561198121831789,"connected_time":4559000000000,"state":"active","ping":58},{"user_id":640,"name":"Slauvy","steam_id":76561198001479663,"connected_time":953000000000,"state":"active","ping":75},{"user_id":615,"name":"Primelotus","steam_id":76561198086618284,"connected_time":2889000000000,"state":"active","ping":130},{"user_id":566,"name":"Amiti","steam_id":76561198039521029,"connected_time":5767000000000,"state":"active","ping":88},{"user_id":647,"name":"SPONGE :)","steam_id":76561198432719042,"connected_time":120000000000,"state":"active","ping":52},{"user_id":627,"name":"‚ô¶‚ô£Quadric‚ô•‚ô†","steam_id":76561198061003853,"connected_time":2307000000000,"state":"active","ping":50},{"user_id":607,"name":"Tidwell","steam_id":76561198037414410,"connected_time":3257000000000,"state":"active","ping":61},{"user_id":628,"name":"Fart God","steam_id":76561198140177280,"connected_time":2305000000000,"state":"active","ping":48},{"user_id":632,"name":"Bacchus","steam_id":76561198113244990,"connected_time":2116000000000,"state":"active","ping":67},{"user_id":610,"name":"BiggFoot","steam_id":76561197998605599,"connected_time":3220000000000,"state":"active","ping":68},{"user_id":635,"name":"xFactr","steam_id":76561198129007422,"connected_time":1540000000000,"state":"active","ping":41},{"user_id":629,"name":"Moofins","steam_id":76561198050291949,"connected_time":2294000000000,"state":"active","ping":69},{"user_id":614,"name":"None of that $9.99 bullshit","steam_id":76561198116169903,"connected_time":2961000000000,"state":"active","ping":64},{"user_id":612,"name":"saurhead","steam_id":76561198132937722,"connected_time":3203000000000,"state":"active","ping":45},{"user_id":645,"name":"TLG, Certified Gamer Mom","steam_id":76561198076669951,"connected_time":425000000000,"state":"active","ping":68}]},{"server_id":14,"name":"Uncletopia | New York City | 2 | All Maps","name_short":"nyc-2","host":"nyc-1.us.uncletopia.com","port":27025,"enabled":true,"region":"us-east","cc":"us","latitude":40.73061,"longitude":-73.93524,"reserved":0,"last_update":"0001-01-01T00:00:00Z","name_a2s":"Uncletopia | New York City | 2 | All Maps","protocol":17,"map":"cp_steel","folder":"tf","game":"Team Fortress","app_id":440,"player_count":6,"max_players":24,"Bots":0,"server_type":"Dedicated","server_os":"Linux","password":true,"vac":true,"version":"7961495","steam_id":85568392924469994,"keywords":["cp","nocrits","nodmgspread","uncletopia"],"game_id":440,"stv_port":27026,"stv_name":"Uncletopia | New York City | 2 | All Maps | STV","players":[{"user_id":430,"name":"Uncle Majic the Hip Hop Magicia","steam_id":76561198107924303,"connected_time":2968000000000,"state":"active","ping":46},{"user_id":426,"name":"balls","steam_id":76561198058890821,"connected_time":3255000000000,"state":"active","ping":75},{"user_id":423,"name":"Bonk223","steam_id":76561198112681419,"connected_time":3692000000000,"state":"active","ping":137},{"user_id":418,"name":"Terror-Billy #SaveTF2","steam_id":76561198328141870,"connected_time":3829000000000,"state":"active","ping":64},{"user_id":456,"name":"`o2","steam_id":76561197992030936,"connected_time":835000000000,"state":"active","ping":52},{"user_id":425,"name":"single celled organism","steam_id":76561199217620385,"connected_time":3678000000000,"state":"active","ping":55}]},{"server_id":15,"name":"Uncletopia | New York City | 3 | Stopwatch","name_short":"nyc-3","host":"nyc-1.us.uncletopia.com","port":27035,"enabled":true,"region":"us-east","cc":"us","latitude":40.73061,"longitude":-73.93524,"reserved":0,"last_update":"0001-01-01T00:00:00Z","name_a2s":"Uncletopia | New York City | 3 | Stopwatch","protocol":17,"map":"workshop/koth_bagel_rc6.ugc2514036946","folder":"tf","game":"Team Fortress","app_id":440,"player_count":0,"max_players":24,"Bots":0,"server_type":"Dedicated","server_os":"Linux","password":true,"vac":true,"version":"7961495","steam_id":85568392924742820,"keywords":["cp","nocrits","nodmgspread","uncletopia"],"game_id":440,"stv_port":27036,"stv_name":"Uncletopia | New York City | 3 | Stopwatch | STV","players":null},{"server_id":16,"name":"Uncletopia | New York City | 4 | Community","name_short":"nyc-4","host":"nyc-1.us.uncletopia.com","port":27045,"enabled":true,"region":"us-east","cc":"us","latitude":40.73061,"longitude":-73.93524,"reserved":0,"last_update":"0001-01-01T00:00:00Z","name_a2s":"Uncletopia | New York City | 4 | Community","protocol":17,"map":"workshop/koth_ashville_final.ugc2130459942","folder":"tf","game":"Team Fortress","app_id":440,"player_count":0,"max_players":24,"Bots":0,"server_type":"Dedicated","server_os":"Linux","password":true,"vac":true,"version":"7961495","steam_id":85568392924742821,"keywords":["cp","nocrits","nodmgspread","uncletopia"],"game_id":440,"stv_port":27046,"stv_name":"Uncletopia | New York City | 4 | Community | STV","players":null},{"server_id":142,"name":"Uncletopia | S√£o Paulo | 1 | All Maps","name_short":"sao-1","host":"sao-1.br.uncletopia.com","port":27015,"enabled":true,"region":"sa","cc":"br","latitude":-23.533773,"longitude":-46.62529,"reserved":0,"last_update":"0001-01-01T00:00:00Z","name_a2s":"Uncletopia | S√£o Paulo | 1 | All Maps","protocol":17,"map":"koth_cascade","folder":"tf","game":"Team Fortress","app_id":440,"player_count":0,"max_players":24,"Bots":0,"server_type":"Dedicated","server_os":"Linux","password":true,"vac":true,"version":"7961495","steam_id":85568392924469996,"keywords":["cp","nocrits","nodmgspread","uncletopia"],"game_id":440,"stv_port":27016,"stv_name":"Uncletopia | S√£o Paulo | 1 | All Maps | STV","players":null},{"server_id":143,"name":"Uncletopia | S√£o Paulo | 2 | Community","name_short":"sao-2","host":"sao-2.br.uncletopia.com","port":27015,"enabled":true,"region":"sa","cc":"br","latitude":-23.533773,"longitude":-46.62529,"reserved":0,"last_update":"0001-01-01T00:00:00Z","name_a2s":"Uncletopia | S√£o Paulo | 2 | Community","protocol":17,"map":"workshop/cp_sultry_b8.ugc2775471508","folder":"tf","game":"Team Fortress","app_id":440,"player_count":0,"max_players":24,"Bots":0,"server_type":"Dedicated","server_os":"Linux","password":true,"vac":true,"version":"7961495","steam_id":85568392924485349,"keywords":["cp","nocrits","nodmgspread","uncletopia"],"game_id":440,"stv_port":27016,"stv_name":"Uncletopia | S√£o Paulo | 2 | Community | STV","players":null},{"server_id":7,"name":"Uncletopia | Seattle | 1 | All Maps","name_short":"sea-1","host":"sea-1.us.uncletopia.com","port":27015,"enabled":true,"region":"us-west","cc":"us","latitude":47.608013,"longitude":-122.33517,"reserved":0,"last_update":"0001-01-01T00:00:00Z","name_a2s":"Uncletopia | Seattle | 1 | All Maps","protocol":17,"map":"pl_badwater","folder":"tf","game":"Team Fortress","app_id":440,"player_count":23,"max_players":24,"Bots":0,"server_type":"Dedicated","server_os":"Linux","password":true,"vac":true,"version":"7961495","steam_id":85568392924469997,"keywords":["nocrits","nodmgspread","payload","uncletopia"],"game_id":440,"stv_port":27016,"stv_name":"Uncletopia | Seattle | 1 | All Maps | STV","players":[{"user_id":715,"name":"HotHead","steam_id":76561198138468982,"connected_time":3621000000000,"state":"active","ping":67},{"user_id":748,"name":"K4le","steam_id":76561198747668363,"connected_time":1221000000000,"state":"active","ping":81},{"user_id":755,"name":"Houdini Cache","steam_id":76561198045506970,"connected_time":876000000000,"state":"active","ping":49},{"user_id":739,"name":"laggy mcstab","steam_id":76561198106379962,"connected_time":2686000000000,"state":"active","ping":60},{"user_id":745,"name":"Preston","steam_id":76561198255721392,"connected_time":1749000000000,"state":"active","ping":112},{"user_id":693,"name":"Nom Skirrett","steam_id":76561198014600788,"connected_time":6209000000000,"state":"active","ping":70},{"user_id":749,"name":"Kot","steam_id":76561198380050451,"connected_time":1212000000000,"state":"active","ping":60},{"user_id":742,"name":"gorlab","steam_id":76561198025089694,"connected_time":2395000000000,"state":"active","ping":59},{"user_id":750,"name":"trash mann","steam_id":76561198326437496,"connected_time":1210000000000,"state":"active","ping":83},{"user_id":709,"name":"rat gets the cheese","steam_id":76561198031234032,"connected_time":4436000000000,"state":"active","ping":91},{"user_id":733,"name":"William P. Ennis","steam_id":76561198073464877,"connected_time":2803000000000,"state":"active","ping":90},{"user_id":751,"name":"Thanks Ants","steam_id":76561197966221018,"connected_time":1164000000000,"state":"active","ping":46},{"user_id":740,"name":"november","steam_id":76561198042748172,"connected_time":2534000000000,"state":"active","ping":90},{"user_id":737,"name":"killswitch","steam_id":76561198213385439,"connected_time":2750000000000,"state":"active","ping":73},{"user_id":710,"name":"AveragePhil","steam_id":76561199139836802,"connected_time":4360000000000,"state":"active","ping":51},{"user_id":694,"name":"soup","steam_id":76561198043209046,"connected_time":6039000000000,"state":"active","ping":75},{"user_id":728,"name":"mega","steam_id":76561198089520959,"connected_time":3171000000000,"state":"active","ping":82},{"user_id":649,"name":"ORANGE","steam_id":76561198000401769,"connected_time":10283000000000,"state":"active","ping":52},{"user_id":731,"name":"pog fish","steam_id":76561198054270410,"connected_time":2874000000000,"state":"active","ping":56},{"user_id":752,"name":"Squigzy_","steam_id":76561198061696667,"connected_time":1164000000000,"state":"active","ping":80},{"user_id":744,"name":"Attrition","steam_id":76561197969881916,"connected_time":1898000000000,"state":"active","ping":57},{"user_id":761,"name":"I_Want_A_Soft_Taco","steam_id":76561198225561352,"connected_time":178000000000,"state":"active","ping":72},{"user_id":759,"name":"airbudetc","steam_id":76561199125415611,"connected_time":457000000000,"state":"active","ping":78}]},{"server_id":119,"name":"Uncletopia | Seattle | 2 | All Maps","name_short":"sea-2","host":"sea-1.us.uncletopia.com","port":27025,"enabled":true,"region":"us-west","cc":"us","latitude":47.608013,"longitude":-122.33517,"reserved":0,"last_update":"0001-01-01T00:00:00Z","name_a2s":"Uncletopia | Seattle | 2 | All Maps","protocol":17,"map":"pl_frontier_final","folder":"tf","game":"Team Fortress","app_id":440,"player_count":22,"max_players":24,"Bots":0,"server_type":"Dedicated","server_os":"Linux","password":true,"vac":true,"version":"7961495","steam_id":85568392924469998,"keywords":["nocrits","nodmgspread","payload","uncletopia"],"game_id":440,"stv_port":27026,"stv_name":"Uncletopia | Seattle | 2 | All Maps | STV","players":[{"user_id":420,"name":"RectalExam","steam_id":76561197970502312,"connected_time":84000000000,"state":"active","ping":128},{"user_id":403,"name":"sqwig","steam_id":76561199087353191,"connected_time":1590000000000,"state":"active","ping":43},{"user_id":374,"name":"Violet K.","steam_id":76561198062963842,"connected_time":3562000000000,"state":"active","ping":73},{"user_id":399,"name":"Thexx [she/they]","steam_id":76561198113823050,"connected_time":2063000000000,"state":"active","ping":47},{"user_id":418,"name":"R5-D4","steam_id":76561198025196439,"connected_time":248000000000,"state":"active","ping":54},{"user_id":413,"name":"MyMonkeyBaby","steam_id":76561198046896670,"connected_time":797000000000,"state":"active","ping":59},{"user_id":404,"name":"Scrumfel Nutz","steam_id":76561198123286409,"connected_time":1560000000000,"state":"active","ping":57},{"user_id":377,"name":"John Connor","steam_id":76561198110024994,"connected_time":3296000000000,"state":"active","ping":58},{"user_id":419,"name":"DaBigA","steam_id":76561198326492538,"connected_time":243000000000,"state":"active","ping":30},{"user_id":406,"name":"Cypress [ +/- ] ‚úî","steam_id":76561198067164431,"connected_time":1526000000000,"state":"active","ping":69},{"user_id":421,"name":"pat","steam_id":76561198040595468,"connected_time":82000000000,"state":"active","ping":95},{"user_id":422,"name":"ferby","steam_id":76561198028229594,"connected_time":66000000000,"state":"active","ping":58},{"user_id":378,"name":"Just_Beasty_","steam_id":76561199446196319,"connected_time":3294000000000,"state":"active","ping":106},{"user_id":384,"name":"Boreedom","steam_id":76561198869865648,"connected_time":3022000000000,"state":"active","ping":62},{"user_id":423,"name":"Keamy","steam_id":76561199471434875,"connected_time":37000000000,"state":"active","ping":37},{"user_id":355,"name":"Ashanti Clan","steam_id":76561198032651105,"connected_time":4303000000000,"state":"active","ping":66},{"user_id":410,"name":"Bingleton","steam_id":76561197998930473,"connected_time":1306000000000,"state":"active","ping":44},{"user_id":411,"name":"ArchmageF","steam_id":76561197992246851,"connected_time":872000000000,"state":"active","ping":50},{"user_id":412,"name":"311 fan","steam_id":76561198075128586,"connected_time":862000000000,"state":"active","ping":52},{"user_id":372,"name":"ocean Backwards","steam_id":76561199246614260,"connected_time":3751000000000,"state":"active","ping":59},{"user_id":398,"name":"tomandjerry085","steam_id":76561198800789071,"connected_time":2390000000000,"state":"active","ping":71},{"user_id":415,"name":"Boxcars","steam_id":76561198120978767,"connected_time":496000000000,"state":"active","ping":73}]},{"server_id":406,"name":"Uncletopia | Seattle | 3 | Stopwatch","name_short":"sea-3","host":"sea-1.us.uncletopia.com","port":27035,"enabled":true,"region":"us-west","cc":"us","latitude":47.608013,"longitude":-122.33517,"reserved":0,"last_update":"0001-01-01T00:00:00Z","name_a2s":"Uncletopia | Seattle | 3 | Stopwatch","protocol":17,"map":"workshop/koth_jamram_rc1a.ugc2964065613","folder":"tf","game":"Team Fortress","app_id":440,"player_count":0,"max_players":24,"Bots":0,"server_type":"Dedicated","server_os":"Linux","password":true,"vac":true,"version":"7961495","steam_id":85568392924515217,"keywords":["cp","nocrits","nodmgspread","uncletopia"],"game_id":440,"stv_port":27036,"stv_name":"Uncletopia | Seattle | 3 | Stopwatch | STV","players":null},{"server_id":17,"name":"Uncletopia | San Francisco | 1 | All Maps","name_short":"sfo-1","host":"sfo-1.us.uncletopia.com","port":27015,"enabled":true,"region":"us-west","cc":"us","latitude":37.77397,"longitude":-122.4313,"reserved":0,"last_update":"0001-01-01T00:00:00Z","name_a2s":"Uncletopia | San Francisco | 1 | All Maps","protocol":17,"map":"koth_cascade","folder":"tf","game":"Team Fortress","app_id":440,"player_count":0,"max_players":24,"Bots":0,"server_type":"Dedicated","server_os":"Linux","password":true,"vac":true,"version":"7961495","steam_id":85568392924469999,"keywords":["cp","nocrits","nodmgspread","uncletopia"],"game_id":440,"stv_port":27016,"stv_name":"Uncletopia | San Francisco | 1 | All Maps | STV","players":null},{"server_id":18,"name":"Uncletopia | San Francisco | 2 | All Maps","name_short":"sfo-2","host":"sfo-1.us.uncletopia.com","port":27025,"enabled":true,"region":"us-west","cc":"us","latitude":37.77397,"longitude":-122.4313,"reserved":0,"last_update":"0001-01-01T00:00:00Z","name_a2s":"Uncletopia | San Francisco | 2 | All Maps","protocol":17,"map":"cp_gorge","folder":"tf","game":"Team Fortress","app_id":440,"player_count":24,"max_players":24,"Bots":0,"server_type":"Dedicated","server_os":"Linux","password":true,"vac":true,"version":"7961495","steam_id":85568392924470000,"keywords":["cp","nocrits","nodmgspread","uncletopia"],"game_id":440,"stv_port":27026,"stv_name":"Uncletopia | San Francisco | 2 | All Maps | STV","players":[{"user_id":163,"name":"johnny","steam_id":76561198050225055,"connected_time":4614000000000,"state":"active","ping":56},{"user_id":205,"name":"Chi-Chia","steam_id":76561198067955987,"connected_time":895000000000,"state":"active","ping":62},{"user_id":235,"name":"slowdance","steam_id":76561198097427947,"connected_time":123000000000,"state":"active","ping":110},{"user_id":187,"name":"Len","steam_id":76561199141913673,"connected_time":3233000000000,"state":"active","ping":72},{"user_id":228,"name":"derpywoman5000","steam_id":76561198049258493,"connected_time":471000000000,"state":"active","ping":86},{"user_id":204,"name":"Lambchop","steam_id":76561198043900363,"connected_time":908000000000,"state":"active","ping":65},{"user_id":174,"name":"Whoodie","steam_id":76561198027514565,"connected_time":3870000000000,"state":"active","ping":68},{"user_id":209,"name":"Dingus-Bingus420","steam_id":76561199436500456,"connected_time":748000000000,"state":"active","ping":60},{"user_id":213,"name":"soapdrop","steam_id":76561197999627205,"connected_time":714000000000,"state":"active","ping":85},{"user_id":203,"name":"the pizza","steam_id":76561198221331476,"connected_time":1384000000000,"state":"active","ping":35},{"user_id":230,"name":"davout","steam_id":76561198064662875,"connected_time":424000000000,"state":"active","ping":48},{"user_id":221,"name":"Good Vibes Only","steam_id":76561198020224062,"connected_time":652000000000,"state":"active","ping":68},{"user_id":157,"name":"SuperSchlong","steam_id":76561197963363115,"connected_time":5108000000000,"state":"active","ping":42},{"user_id":223,"name":"Poorly Programmed Bot","steam_id":76561198128299594,"connected_time":548000000000,"state":"active","ping":58},{"user_id":196,"name":"Tomoko2001","steam_id":76561198047117990,"connected_time":2391000000000,"state":"active","ping":109},{"user_id":237,"name":"Imabox32","steam_id":76561199206177858,"connected_time":63000000000,"state":"active","ping":69},{"user_id":169,"name":"N√º√æ","steam_id":76561198043956703,"connected_time":4028000000000,"state":"active","ping":65},{"user_id":231,"name":"ack.awesome676","steam_id":76561199109415958,"connected_time":421000000000,"state":"active","ping":54},{"user_id":227,"name":"zy","steam_id":76561199339997328,"connected_time":488000000000,"state":"active","ping":90},{"user_id":232,"name":"NEBULA3LEM123","steam_id":76561198095433728,"connected_time":420000000000,"state":"active","ping":75},{"user_id":233,"name":"Peter","steam_id":76561198065796300,"connected_time":404000000000,"state":"active","ping":63},{"user_id":193,"name":"Leefizzy","steam_id":76561198025759758,"connected_time":2633000000000,"state":"active","ping":63},{"user_id":197,"name":"Toasterduds","steam_id":76561198163477584,"connected_time":2359000000000,"state":"active","ping":66},{"user_id":234,"name":"Mike Bean Burritos","steam_id":76561198173430607,"connected_time":309000000000,"state":"active","ping":70}]},{"server_id":19,"name":"Uncletopia | San Francisco | 3 | Stopwatch","name_short":"sfo-3","host":"sfo-1.us.uncletopia.com","port":27035,"enabled":true,"region":"us-west","cc":"us","latitude":37.77397,"longitude":-122.4313,"reserved":0,"last_update":"0001-01-01T00:00:00Z","name_a2s":"Uncletopia | San Francisco | 3 | Stopwatch","protocol":17,"map":"workshop/koth_clearcut_b15.ugc2107050255","folder":"tf","game":"Team Fortress","app_id":440,"player_count":0,"max_players":24,"Bots":0,"server_type":"Dedicated","server_os":"Linux","password":true,"vac":true,"version":"7961495","steam_id":85568392924742824,"keywords":["cp","nocrits","nodmgspread","uncletopia"],"game_id":440,"stv_port":27036,"stv_name":"Uncletopia | San Francisco | 3 | Stopwatch | STV","players":null},{"server_id":20,"name":"Uncletopia | San Francisco | 4 | Community","name_short":"sfo-4","host":"sfo-1.us.uncletopia.com","port":27045,"enabled":true,"region":"us-west","cc":"us","latitude":37.77397,"longitude":-122.4313,"reserved":0,"last_update":"0001-01-01T00:00:00Z","name_a2s":"Uncletopia | San Francisco | 4 | Community","protocol":17,"map":"workshop/cp_reckoner_rc6.ugc674719999","folder":"tf","game":"Team Fortress","app_id":440,"player_count":0,"max_players":24,"Bots":0,"server_type":"Dedicated","server_os":"Linux","password":true,"vac":true,"version":"7961495","steam_id":85568392924742826,"keywords":["cp","nocrits","nodmgspread","uncletopia"],"game_id":440,"stv_port":27046,"stv_name":"Uncletopia | San Francisco | 4 | Community | STV","players":null},{"server_id":141,"name":"Uncletopia | Sydney | 1 | All Maps","name_short":"syd-1","host":"syd-1.au.uncletopia.com","port":27015,"enabled":true,"region":"au","cc":"au","latitude":-33.865143,"longitude":151.2099,"reserved":0,"last_update":"0001-01-01T00:00:00Z","name_a2s":"Uncletopia | Sydney | 1 | All Maps","protocol":17,"map":"pl_barnblitz","folder":"tf","game":"Team Fortress","app_id":440,"player_count":0,"max_players":24,"Bots":0,"server_type":"Dedicated","server_os":"Linux","password":true,"vac":true,"version":"7961495","steam_id":85568392924470001,"keywords":["nocrits","nodmgspread","payload","uncletopia"],"game_id":440,"stv_port":27016,"stv_name":"Uncletopia | Sydney | 1 | All Maps | STV","players":null},{"server_id":123,"name":"Uncletopia | Sydney | 2 | All Maps","name_short":"syd-2","host":"syd-1.au.uncletopia.com","port":27025,"enabled":true,"region":"au","cc":"au","latitude":-33.865143,"longitude":151.2099,"reserved":0,"last_update":"0001-01-01T00:00:00Z","name_a2s":"Uncletopia | Sydney | 2 | All Maps","protocol":17,"map":"cp_mercenarypark","folder":"tf","game":"Team Fortress","app_id":440,"player_count":0,"max_players":24,"Bots":0,"server_type":"Dedicated","server_os":"Linux","password":true,"vac":true,"version":"7961495","steam_id":85568392924470002,"keywords":["cp","nocrits","nodmgspread","uncletopia"],"game_id":440,"stv_port":27026,"stv_name":"Uncletopia | Sydney | 2 | All Maps | STV","players":null},{"server_id":395,"name":"Uncletopia | Sydney | 3 | All Maps","name_short":"syd-3","host":"syd-1.au.uncletopia.com","port":27035,"enabled":true,"region":"au","cc":"au","latitude":-33.865143,"longitude":151.2099,"reserved":0,"last_update":"0001-01-01T00:00:00Z","name_a2s":"Uncletopia | Sydney | 3 | All Maps","protocol":17,"map":"koth_brazil","folder":"tf","game":"Team Fortress","app_id":440,"player_count":0,"max_players":24,"Bots":0,"server_type":"Dedicated","server_os":"Linux","password":true,"vac":true,"version":"7961495","steam_id":85568392925194467,"keywords":["cp","nocrits","nodmgspread","uncletopia"],"game_id":440,"stv_port":27036,"stv_name":"Uncletopia | Sydney | 3 | All Maps | STV","players":null},{"server_id":396,"name":"Uncletopia | Sydney | 4 | All Maps","name_short":"syd-4","host":"syd-1.au.uncletopia.com","port":27045,"enabled":true,"region":"au","cc":"au","latitude":-33.865143,"longitude":151.2099,"reserved":0,"last_update":"0001-01-01T00:00:00Z","name_a2s":"Uncletopia | Sydney | 4 | All Maps","protocol":17,"map":"cp_standin_final","folder":"tf","game":"Team Fortress","app_id":440,"player_count":0,"max_players":24,"Bots":0,"server_type":"Dedicated","server_os":"Linux","password":true,"vac":true,"version":"7961495","steam_id":85568392925397958,"keywords":["cp","nocrits","nodmgspread","uncletopia"],"game_id":440,"stv_port":27046,"stv_name":"Uncletopia | Sydney | 4 | All Maps | STV","players":null},{"server_id":58,"name":"Uncletopia | Sydney | 5 | Stopwatch","name_short":"syd-5","host":"syd-1.au.uncletopia.com","port":27055,"enabled":true,"region":"au","cc":"au","latitude":-33.865143,"longitude":151.2099,"reserved":0,"last_update":"0001-01-01T00:00:00Z","name_a2s":"Uncletopia | Sydney | 5 | Stopwatch","protocol":17,"map":"koth_highpass","folder":"tf","game":"Team Fortress","app_id":440,"player_count":0,"max_players":24,"Bots":0,"server_type":"Dedicated","server_os":"Linux","password":true,"vac":true,"version":"7961495","steam_id":85568392925397959,"keywords":["cp","nocrits","nodmgspread","uncletopia"],"game_id":440,"stv_port":27056,"stv_name":"Uncletopia | Sydney | 5 | Stopwatch | STV","players":null},{"server_id":59,"name":"Uncletopia | Sydney | 6 | Community","name_short":"syd-6","host":"syd-1.au.uncletopia.com","port":27065,"enabled":true,"region":"au","cc":"au","latitude":-33.865143,"longitude":151.2099,"reserved":0,"last_update":"0001-01-01T00:00:00Z","name_a2s":"Uncletopia | Sydney | 6 | Community","protocol":17,"map":"workshop/koth_soot_final1.ugc2969540689","folder":"tf","game":"Team Fortress","app_id":440,"player_count":0,"max_players":24,"Bots":0,"server_type":"Dedicated","server_os":"Linux","password":true,"vac":true,"version":"7961495","steam_id":85568392925397960,"keywords":["cp","nocrits","nodmgspread","uncletopia"],"game_id":440,"stv_port":27066,"stv_name":"Uncletopia | Sydney | 6 | Community | STV","players":null},{"server_id":49,"name":"Uncletopia | Warsaw | 1 | One Thousand Uncles","name_short":"waw-1","host":"waw-1.pl.uncletopia.com","port":27015,"enabled":true,"region":"eu","cc":"pl","latitude":52.2297,"longitude":21.017532,"reserved":0,"last_update":"0001-01-01T00:00:00Z","name_a2s":"Uncletopia | Warsaw | 1 | One Thousand Uncles","protocol":17,"map":"cp_egypt_final","folder":"tf","game":"Team Fortress","app_id":440,"player_count":0,"max_players":32,"Bots":0,"server_type":"Dedicated","server_os":"Linux","password":true,"vac":true,"version":"7961495","steam_id":85568392925397850,"keywords":["alltalk","cp","danepve","increased_maxplayers","norespawntime","uncletopia"],"game_id":440,"stv_port":0,"stv_name":"","players":null},{"server_id":50,"name":"Uncletopia | Warsaw | 2 | One Thousand Uncles","name_short":"waw-2","host":"waw-1.pl.uncletopia.com","port":27025,"enabled":true,"region":"eu","cc":"pl","latitude":52.2297,"longitude":21.017532,"reserved":0,"last_update":"0001-01-01T00:00:00Z","name_a2s":"Uncletopia | Warsaw | 2 | One Thousand Uncles","protocol":17,"map":"pl_pier","folder":"tf","game":"Team Fortress","app_id":440,"player_count":0,"max_players":32,"Bots":0,"server_type":"Dedicated","server_os":"Linux","password":true,"vac":true,"version":"7961495","steam_id":85568392925397851,"keywords":["alltalk","danepve","increased_maxplayers","norespawntime","payload","uncletopia"],"game_id":440,"stv_port":0,"stv_name":"","players":null},{"server_id":51,"name":"Uncletopia | Warsaw | 3 | All Maps","name_short":"waw-3","host":"waw-1.pl.uncletopia.com","port":27035,"enabled":true,"region":"eu","cc":"pl","latitude":52.2297,"longitude":21.017532,"reserved":0,"last_update":"0001-01-01T00:00:00Z","name_a2s":"Uncletopia | Warsaw | 3 | All Maps","protocol":17,"map":"pl_frontier_final","folder":"tf","game":"Team Fortress","app_id":440,"player_count":0,"max_players":24,"Bots":0,"server_type":"Dedicated","server_os":"Linux","password":true,"vac":true,"version":"7961495","steam_id":85568392925397852,"keywords":["nocrits","nodmgspread","payload","uncletopia"],"game_id":440,"stv_port":27036,"stv_name":"Uncletopia | Warsaw | 3 | All Maps | STV","players":null},{"server_id":52,"name":"Uncletopia | Warsaw | 4 | All Maps","name_short":"waw-4","host":"waw-1.pl.uncletopia.com","port":27045,"enabled":true,"region":"eu","cc":"pl","latitude":52.2297,"longitude":21.017532,"reserved":0,"last_update":"0001-01-01T00:00:00Z","name_a2s":"Uncletopia | Warsaw | 4 | All Maps","protocol":17,"map":"ctf_turbine","folder":"tf","game":"Team Fortress","app_id":440,"player_count":0,"max_players":24,"Bots":0,"server_type":"Dedicated","server_os":"Linux","password":true,"vac":true,"version":"7961495","steam_id":85568392925397853,"keywords":["ctf","nocrits","nodmgspread","uncletopia"],"game_id":440,"stv_port":27046,"stv_name":"Uncletopia | Warsaw | 4 | All Maps | STV","players":null},{"server_id":53,"name":"Uncletopia | Warsaw | 5 | Stopwatch","name_short":"waw-5","host":"waw-1.pl.uncletopia.com","port":27055,"enabled":true,"region":"eu","cc":"pl","latitude":52.2297,"longitude":21.017532,"reserved":0,"last_update":"0001-01-01T00:00:00Z","name_a2s":"Uncletopia | Warsaw | 5 | Stopwatch","protocol":17,"map":"workshop/koth_clearcut_b15.ugc2107050255","folder":"tf","game":"Team Fortress","app_id":440,"player_count":0,"max_players":24,"Bots":0,"server_type":"Dedicated","server_os":"Linux","password":true,"vac":true,"version":"7961495","steam_id":85568392925397854,"keywords":["cp","nocrits","nodmgspread","uncletopia"],"game_id":440,"stv_port":27056,"stv_name":"Uncletopia | Warsaw | 5 | Stopwatch | STV","players":null},{"server_id":54,"name":"Uncletopia | Warsaw | 6 | Community","name_short":"waw-6","host":"waw-1.pl.uncletopia.com","port":27065,"enabled":true,"region":"eu","cc":"pl","latitude":52.2297,"longitude":21.017532,"reserved":0,"last_update":"0001-01-01T00:00:00Z","name_a2s":"Uncletopia | Warsaw | 6 | Community","protocol":17,"map":"workshop/pl_highwood_b19.ugc1769496557","folder":"tf","game":"Team Fortress","app_id":440,"player_count":0,"max_players":24,"Bots":0,"server_type":"Dedicated","server_os":"Linux","password":true,"vac":true,"version":"7961495","steam_id":85568392925397856,"keywords":["nocrits","nodmgspread","payload","uncletopia"],"game_id":440,"stv_port":27066,"stv_name":"Uncletopia | Warsaw | 6 | Community | STV","players":null}]}