{"status":true,"message":"","result":[{"server_id":9,"name":"Uncletopia | Atlanta | 1 | All Maps","name_short":"atl-1","host":"atl-1.us.uncletopia.com","port":27015,"enabled":true,"region":"us-east","cc":"us","latitude":33.753746,"longitude":-84.38633,"reserved":0,"last_update":"0001-01-01T00:00:00Z","name_a2s":"Uncletopia | Atlanta | 1 | All Maps","protocol":17,"map":"pl_frontier_final","folder":"tf","game":"Team Fortress","app_id":440,"player_count":24,"max_players":24,"Bots":0,"server_type":"Dedicated","server_os":"Linux","password":true,"vac":true,"version":"7757534","steam_id":85568392924469982,"keywords":["nocrits","nodmgspread","payload","uncletopia"],"game_id":440,"stv_port":27016,"stv_name":"Uncletopia | Atlanta | 1 | All Maps | STV","players":[{"user_id":109,"name":"Albino Jellyfish","steam_id":76561198208561097,"connected_time":1257000000000,"state":"active","ping":59},{"user_id":102,"name":"pinple","steam_id":76561198167075606,"connected_time":1941000000000,"state":"active","ping":57},{"user_id":114,"name":"Epifiny","steam_id":76561198027958086,"connected_time":730000000000,"state":"active","ping":85},{"user_id":90,"name":"Wumbologist","steam_id":76561198188729514,"connected_time":2775000000000,"state":"active","ping":47},{"user_id":85,"name":"SeaBass","steam_id":76561197982949108,"connected_time":3279000000000,"state":"active","ping":52},{"user_id":113,"name":"magnolia","steam_id":76561199228865188,"connected_time":785000000000,"state":"active","ping":54},{"user_id":86,"name":"penny :]","steam_id":76561198040848362,"connected_time":3278000000000,"state":"active","ping":82},{"user_id":111,"name":"William Wallace","steam_id":76561199343316814,"connected_time":1219000000000,"state":"active","ping":58},{"user_id":123,"name":"Dr.Q","steam_id":76561198080791537,"connected_time":337000000000,"state":"active","ping":68},{"user_id":121,"name":"DJ-Whatchya #rEtiReD","steam_id":76561198060355298,"connected_time":608000000000,"state":"active","ping":70},{"user_id":60,"name":"LegendaryMister151","steam_id":76561198064890524,"connected_time":5175000000000,"state":"active","ping":85},{"user_id":116,"name":"MayaBon","steam_id":76561198797968261,"connected_time":709000000000,"state":"active","ping":109},{"user_id":104,"name":"Mudlumps","steam_id":76561198839138297,"connected_time":1456000000000,"state":"active","ping":49},{"user_id":92,"name":"metal pipe","steam_id":76561198849461209,"connected_time":2596000000000,"state":"active","ping":77},{"user_id":117,"name":"Kasodani Kyouko","steam_id":76561198023178589,"connected_time":676000000000,"state":"active","ping":99},{"user_id":118,"name":"Wren","steam_id":76561198071109787,"connected_time":671000000000,"state":"active","ping":85},{"user_id":115,"name":"THANATOPHOBIA_","steam_id":76561198038523571,"connected_time":728000000000,"state":"active","ping":72},{"user_id":119,"name":"Scorpie Doodle","steam_id":76561198021845763,"connected_time":664000000000,"state":"active","ping":72},{"user_id":108,"name":"yomo","steam_id":76561198063175935,"connected_time":1337000000000,"state":"active","ping":56},{"user_id":122,"name":"zik","steam_id":76561198122186802,"connected_time":488000000000,"state":"active","ping":45},{"user_id":40,"name":"Lifial","steam_id":76561198271885819,"connected_time":6147000000000,"state":"active","ping":75},{"user_id":110,"name":"--_Cook_--","steam_id":76561198080855748,"connected_time":1257000000000,"state":"active","ping":45},{"user_id":67,"name":"BIG HOG","steam_id":76561198079923652,"connected_time":3853000000000,"state":"active","ping":63},{"user_id":106,"name":"Ashes!","steam_id":76561197998475441,"connected_time":1346000000000,"state":"active","ping":77}]},{"server_id":104,"name":"Uncletopia | Atlanta | 2 | All Maps","name_short":"atl-2","host":"atl-1.us.uncletopia.com","port":27025,"enabled":true,"region":"us-east","cc":"us","latitude":33.753746,"longitude":-84.38633,"reserved":0,"last_update":"0001-01-01T00:00:00Z","name_a2s":"Uncletopia | Atlanta | 2 | All Maps","protocol":17,"map":"pl_snowycoast","folder":"tf","game":"Team Fortress","app_id":440,"player_count":0,"max_players":24,"Bots":0,"server_type":"Dedicated","server_os":"Linux","password":true,"vac":true,"version":"7757534","steam_id":85568392924469983,"keywords":["nocrits","nodmgspread","payload","uncletopia"],"game_id":440,"stv_port":27026,"stv_name":"Uncletopia | Atlanta | 2 | All Maps | STV","players":null},{"server_id":400,"name":"Uncletopia | Atlanta | 3 | Community","name_short":"atl-3","host":"atl-1.us.uncletopia.com","port":27035,"enabled":true,"region":"us-east","cc":"us","latitude":33.753746,"longitude":-84.38633,"reserved":0,"last_update":"0001-01-01T00:00:00Z","name_a2s":"Uncletopia | Atlanta | 3 | Community","protocol":17,"map":"cp_snakewater_final1","folder":"tf","game":"Team Fortress","app_id":440,"player_count":0,"max_players":24,"Bots":0,"server_type":"Dedicated","server_os":"Linux","password":true,"vac":true,"version":"7757534","steam_id":85568392924515187,"keywords":["cp","nocrits","nodmgspread","uncletopia"],"game_id":440,"stv_port":27036,"stv_name":"Uncletopia | Atlanta | 3 | Community | STV","players":null},{"server_id":401,"name":"Uncletopia | Atlanta | 4 | No Payload","name_short":"atl-4","host":"atl-1.us.uncletopia.com","port":27045,"enabled":true,"region":"us-east","cc":"us","latitude":33.753746,"longitude":-84.38633,"reserved":0,"last_update":"0001-01-01T00:00:00Z","name_a2s":"","protocol":0,"map":"","folder":"","game":"","app_id":0,"player_count":0,"max_players":0,"Bots":0,"server_type":"","server_os":"","password":false,"vac":false,"version":"","steam_id":0,"keywords":null,"game_id":0,"stv_port":0,"stv_name":"","players":null},{"server_id":2,"name":"Uncletopia | Chicago | 1 | All Maps","name_short":"chi-1","host":"chi-1.us.uncletopia.com","port":27015,"enabled":true,"region":"us-central","cc":"us","latitude":41.881832,"longitude":-87.62318,"reserved":0,"last_update":"0001-01-01T00:00:00Z","name_a2s":"Uncletopia | Chicago | 1 | All Maps","protocol":17,"map":"pl_borneo","folder":"tf","game":"Team Fortress","app_id":440,"player_count":24,"max_players":24,"Bots":0,"server_type":"Dedicated","server_os":"Linux","password":true,"vac":true,"version":"7757534","steam_id":85568392924469984,"keywords":["nocrits","nodmgspread","payload","uncletopia"],"game_id":440,"stv_port":27016,"stv_name":"Uncletopia | Chicago | 1 | All Maps | STV","players":[{"user_id":202,"name":"val","steam_id":76561198177716494,"connected_time":4581000000000,"state":"active","ping":50},{"user_id":253,"name":"Gnarly Shark Bite","steam_id":76561198004058342,"connected_time":728000000000,"state":"active","ping":70},{"user_id":231,"name":"boredomhitshard","steam_id":76561199445629071,"connected_time":2072000000000,"state":"active","ping":60},{"user_id":242,"name":"Red","steam_id":76561198082958231,"connected_time":1355000000000,"state":"active","ping":59},{"user_id":225,"name":"Pluto","steam_id":76561197979253518,"connected_time":2531000000000,"state":"active","ping":71},{"user_id":221,"name":"mos","steam_id":76561197995777973,"connected_time":3067000000000,"state":"active","ping":57},{"user_id":254,"name":"Chiki","steam_id":76561198063590320,"connected_time":448000000000,"state":"active","ping":65},{"user_id":241,"name":"Doublebagel47","steam_id":76561198832021744,"connected_time":1382000000000,"state":"active","ping":74},{"user_id":243,"name":"SparkZ","steam_id":76561198314637812,"connected_time":1350000000000,"state":"active","ping":161},{"user_id":226,"name":"Niko from Oneshot (NO SOUND)","steam_id":76561198180020521,"connected_time":2344000000000,"state":"active","ping":173},{"user_id":261,"name":"KingCrawful","steam_id":76561198104291657,"connected_time":15000000000,"state":"spawning","ping":49},{"user_id":197,"name":"Gorrest Fump","steam_id":76561198169315998,"connected_time":5102000000000,"state":"active","ping":76},{"user_id":244,"name":"Daisy Le Nerd","steam_id":76561198149350087,"connected_time":1310000000000,"state":"active","ping":171},{"user_id":245,"name":"woosh","steam_id":76561198173020438,"connected_time":1301000000000,"state":"active","ping":75},{"user_id":256,"name":"DOMO_MR_ROBOTO","steam_id":76561198077108345,"connected_time":272000000000,"state":"active","ping":101},{"user_id":257,"name":"flower.boy","steam_id":76561198014557455,"connected_time":256000000000,"state":"active","ping":65},{"user_id":252,"name":"vv","steam_id":76561198134813102,"connected_time":1028000000000,"state":"active","ping":53},{"user_id":235,"name":"maS","steam_id":76561198033846407,"connected_time":1900000000000,"state":"active","ping":61},{"user_id":259,"name":"Iron Argus","steam_id":76561198181088245,"connected_time":223000000000,"state":"active","ping":61},{"user_id":236,"name":"sardine","steam_id":76561198162797626,"connected_time":1899000000000,"state":"active","ping":75},{"user_id":260,"name":"DualiTea","steam_id":76561198081733870,"connected_time":198000000000,"state":"active","ping":59},{"user_id":250,"name":"Hulkster","steam_id":76561198278156353,"connected_time":1166000000000,"state":"active","ping":109},{"user_id":251,"name":"Jill","steam_id":76561198004847013,"connected_time":1154000000000,"state":"active","ping":93},{"user_id":230,"name":"shoe","steam_id":76561198070615198,"connected_time":2129000000000,"state":"active","ping":65}]},{"server_id":106,"name":"Uncletopia | Chicago | 2 | All Maps","name_short":"chi-2","host":"chi-1.us.uncletopia.com","port":27025,"enabled":true,"region":"us-central","cc":"us","latitude":41.881832,"longitude":-87.62318,"reserved":0,"last_update":"0001-01-01T00:00:00Z","name_a2s":"Uncletopia | Chicago | 2 | All Maps","protocol":17,"map":"pl_badwater","folder":"tf","game":"Team Fortress","app_id":440,"player_count":0,"max_players":24,"Bots":0,"server_type":"Dedicated","server_os":"Linux","password":true,"vac":true,"version":"7757534","steam_id":85568392924469985,"keywords":["nocrits","nodmgspread","payload","uncletopia"],"game_id":440,"stv_port":27026,"stv_name":"Uncletopia | Chicago | 2 | All Maps | STV","players":null},{"server_id":402,"name":"Uncletopia | Chicago | 3 | All Maps","name_short":"chi-3","host":"chi-1.us.uncletopia.com","port":27035,"enabled":true,"region":"us-central","cc":"us","latitude":41.881832,"longitude":-87.62318,"reserved":0,"last_update":"0001-01-01T00:00:00Z","name_a2s":"Uncletopia | Chicago | 3 | All Maps","protocol":17,"map":"koth_viaduct","folder":"tf","game":"Team Fortress","app_id":440,"player_count":0,"max_players":24,"Bots":0,"server_type":"Dedicated","server_os":"Linux","password":true,"vac":true,"version":"7757534","steam_id":85568392924515191,"keywords":["cp","nocrits","nodmgspread","uncletopia"],"game_id":440,"stv_port":27036,"stv_name":"Uncletopia | Chicago | 3 | All Maps | STV","players":null},{"server_id":403,"name":"Uncletopia | Chicago | 4 | All Maps","name_short":"chi-4","host":"chi-1.us.uncletopia.com","port":27045,"enabled":true,"region":"us-central","cc":"us","latitude":41.881832,"longitude":-87.62318,"reserved":0,"last_update":"0001-01-01T00:00:00Z","name_a2s":"Uncletopia | Chicago | 4 | All Maps","protocol":17,"map":"koth_lakeside_final","folder":"tf","game":"Team Fortress","app_id":440,"player_count":0,"max_players":24,"Bots":0,"server_type":"Dedicated","server_os":"Linux","password":true,"vac":true,"version":"7757534","steam_id":85568392924515193,"keywords":["cp","nocrits","nodmgspread","uncletopia"],"game_id":440,"stv_port":27046,"stv_name":"Uncletopia | Chicago | 4 | All Maps | STV","players":null},{"server_id":36,"name":"Uncletopia | Chicago | 5 | All Maps","name_short":"chi-5","host":"chi-2.us.uncletopia.com","port":27015,"enabled":true,"region":"us-central","cc":"us","latitude":41.881832,"longitude":-87.62318,"reserved":0,"last_update":"0001-01-01T00:00:00Z","name_a2s":"Uncletopia | Chicago | 5 | All Maps","protocol":17,"map":"koth_cascade","folder":"tf","game":"Team Fortress","app_id":440,"player_count":0,"max_players":24,"Bots":0,"server_type":"Dedicated","server_os":"Linux","password":true,"vac":true,"version":"7757534","steam_id":85568392924866362,"keywords":["cp","nocrits","nodmgspread","uncletopia"],"game_id":440,"stv_port":27016,"stv_name":"Uncletopia | Chicago | 5 | All Maps | STV","players":null},{"server_id":37,"name":"Uncletopia | Chicago | 6 | All Maps","name_short":"chi-6","host":"chi-2.us.uncletopia.com","port":27025,"enabled":true,"region":"us-central","cc":"us","latitude":41.881832,"longitude":-87.62318,"reserved":0,"last_update":"0001-01-01T00:00:00Z","name_a2s":"Uncletopia | Chicago | 6 | All Maps","protocol":17,"map":"cp_dustbowl","folder":"tf","game":"Team Fortress","app_id":440,"player_count":24,"max_players":24,"Bots":0,"server_type":"Dedicated","server_os":"Linux","password":true,"vac":true,"version":"7757534","steam_id":85568392924866363,"keywords":["cp","nocrits","nodmgspread","uncletopia"],"game_id":440,"stv_port":27026,"stv_name":"Uncletopia | Chicago | 6 | All Maps | STV","players":[{"user_id":71,"name":"Sex Enjoyer","steam_id":76561198972105423,"connected_time":420000000000,"state":"active","ping":69},{"user_id":72,"name":"RelativeTitan1 ŒªC","steam_id":76561198073717608,"connected_time":391000000000,"state":"active","ping":107},{"user_id":10,"name":"Dal","steam_id":76561198114064135,"connected_time":5576000000000,"state":"active","ping":79},{"user_id":78,"name":"majorbobfunction","steam_id":76561198042464632,"connected_time":209000000000,"state":"active","ping":49},{"user_id":76,"name":"confused","steam_id":76561198018654093,"connected_time":305000000000,"state":"active","ping":65},{"user_id":50,"name":"FrogInShorts","steam_id":76561198081903213,"connected_time":3230000000000,"state":"active","ping":84},{"user_id":64,"name":"Ringo x Seiran","steam_id":76561198357437908,"connected_time":1585000000000,"state":"active","ping":61},{"user_id":59,"name":"scamper","steam_id":76561199093768105,"connected_time":1979000000000,"state":"active","ping":112},{"user_id":60,"name":"Reverie","steam_id":76561198987005784,"connected_time":1974000000000,"state":"active","ping":61},{"user_id":69,"name":"anonion","steam_id":76561198056477584,"connected_time":855000000000,"state":"active","ping":85},{"user_id":68,"name":"Ekuseebia","steam_id":76561198037504112,"connected_time":1227000000000,"state":"active","ping":71},{"user_id":63,"name":"Tommy Pickles (Very Cool)","steam_id":76561198391261463,"connected_time":1897000000000,"state":"active","ping":70},{"user_id":23,"name":"Quark","steam_id":76561198328155605,"connected_time":5082000000000,"state":"active","ping":55},{"user_id":47,"name":"sklob","steam_id":76561197966804876,"connected_time":3407000000000,"state":"active","ping":82},{"user_id":26,"name":"briggs","steam_id":76561198045655893,"connected_time":4735000000000,"state":"active","ping":60},{"user_id":56,"name":"I'm Going Goblin Mode","steam_id":76561198084167611,"connected_time":2789000000000,"state":"active","ping":63},{"user_id":65,"name":"Scrux","steam_id":76561198129763115,"connected_time":1551000000000,"state":"active","ping":107},{"user_id":52,"name":"Pedro Num","steam_id":76561198854600072,"connected_time":3000000000000,"state":"active","ping":164},{"user_id":53,"name":"Sockhead","steam_id":76561198253181773,"connected_time":2959000000000,"state":"active","ping":86},{"user_id":57,"name":"gamerlegend47","steam_id":76561198122776598,"connected_time":2774000000000,"state":"active","ping":73},{"user_id":36,"name":"cool safe name","steam_id":76561198237827742,"connected_time":4361000000000,"state":"active","ping":67},{"user_id":74,"name":"dildo suctions","steam_id":76561198104679689,"connected_time":360000000000,"state":"active","ping":104},{"user_id":49,"name":"AYAYA!!!","steam_id":76561198992102180,"connected_time":3342000000000,"state":"active","ping":45},{"user_id":77,"name":"crabapples","steam_id":76561198075818655,"connected_time":302000000000,"state":"active","ping":53}]},{"server_id":38,"name":"Uncletopia | Chicago | 7 | Stopwatch Beta","name_short":"chi-7","host":"chi-2.us.uncletopia.com","port":27035,"enabled":true,"region":"us-central","cc":"us","latitude":41.881832,"longitude":-87.62318,"reserved":0,"last_update":"0001-01-01T00:00:00Z","name_a2s":"Uncletopia | Chicago | 7 | Stopwatch Beta","protocol":17,"map":"pl_barnblitz","folder":"tf","game":"Team Fortress","app_id":440,"player_count":0,"max_players":24,"Bots":0,"server_type":"Dedicated","server_os":"Linux","password":true,"vac":true,"version":"7757534","steam_id":85568392924866364,"keywords":["nocrits","nodmgspread","payload","uncletopia"],"game_id":440,"stv_port":27036,"stv_name":"Uncletopia | Chicago | 7 | Stopwatch Beta | STV","players":null},{"server_id":39,"name":"Uncletopia | Chicago | 8 | Community","name_short":"chi-8","host":"chi-2.us.uncletopia.com","port":27045,"enabled":true,"region":"us-central","cc":"us","latitude":41.881832,"longitude":-87.62318,"reserved":0,"last_update":"0001-01-01T00:00:00Z","name_a2s":"Uncletopia | Chicago | 8 | Community","protocol":17,"map":"koth_cascade","folder":"tf","game":"Team Fortress","app_id":440,"player_count":0,"max_players":24,"Bots":0,"server_type":"Dedicated","server_os":"Linux","password":true,"vac":true,"version":"7757534","steam_id":85568392924866365,"keywords":["cp","nocrits","nodmgspread","uncletopia"],"game_id":440,"stv_port":27046,"stv_name":"Uncletopia | Chicago | 8 | Community | STV","players":null},{"server_id":8,"name":"Uncletopia | Dallas | 1 | All Maps","name_short":"dal-1","host":"dal-1.us.uncletopia.com","port":27015,"enabled":true,"region":"us-central","cc":"us","latitude":32.779167,"longitude":-96.80889,"reserved":0,"last_update":"0001-01-01T00:00:00Z","name_a2s":"Uncletopia | Dallas | 1 | All Maps","protocol":17,"map":"pl_pier","folder":"tf","game":"Team Fortress","app_id":440,"player_count":20,"max_players":24,"Bots":0,"server_type":"Dedicated","server_os":"Linux","password":true,"vac":true,"version":"7757534","steam_id":85568392924469986,"keywords":["nocrits","nodmgspread","payload","uncletopia"],"game_id":440,"stv_port":27016,"stv_name":"Uncletopia | Dallas | 1 | All Maps | STV","players":[{"user_id":275,"name":"Mongee","steam_id":76561198161610684,"connected_time":97000000000,"state":"active","ping":50},{"user_id":234,"name":"Vappy019","steam_id":76561198072995939,"connected_time":3098000000000,"state":"active","ping":91},{"user_id":236,"name":"Gavial the Invincible","steam_id":76561198348354629,"connected_time":2710000000000,"state":"active","ping":64},{"user_id":246,"name":"Luna","steam_id":76561198131342156,"connected_time":1786000000000,"state":"active","ping":52},{"user_id":276,"name":"m√ºnnn","steam_id":76561198111147624,"connected_time":90000000000,"state":"active","ping":61},{"user_id":135,"name":"AirMan121","steam_id":76561198042951349,"connected_time":10015000000000,"state":"active","ping":89},{"user_id":272,"name":"Stark105","steam_id":76561198199847805,"connected_time":184000000000,"state":"active","ping":58},{"user_id":273,"name":"Nassu","steam_id":76561198147367577,"connected_time":163000000000,"state":"active","ping":94},{"user_id":277,"name":"themadlad67","steam_id":76561199309554436,"connected_time":14000000000,"state":"spawning","ping":97},{"user_id":274,"name":"Critical","steam_id":76561198123744966,"connected_time":145000000000,"state":"active","ping":86},{"user_id":209,"name":"Boomer Gaming","steam_id":76561198037803087,"connected_time":4227000000000,"state":"active","ping":62},{"user_id":190,"name":"dointhedishes","steam_id":76561198969988882,"connected_time":6411000000000,"state":"active","ping":43},{"user_id":270,"name":"UUUURT","steam_id":76561198047468140,"connected_time":322000000000,"state":"active","ping":115},{"user_id":278,"name":"ZekeN0Tech","steam_id":76561198042151365,"connected_time":6000000000,"state":"spawning","ping":59},{"user_id":251,"name":"Liberty Prime [Dexgod]","steam_id":76561198017130786,"connected_time":1555000000000,"state":"active","ping":87},{"user_id":249,"name":"Cheeeeeeeen","steam_id":76561198986388085,"connected_time":1665000000000,"state":"active","ping":114},{"user_id":255,"name":"youmu","steam_id":76561199267386864,"connected_time":1414000000000,"state":"active","ping":88},{"user_id":230,"name":"Atomik","steam_id":76561199070549800,"connected_time":3376000000000,"state":"active","ping":82},{"user_id":241,"name":"Darthcash","steam_id":76561197993430484,"connected_time":2432000000000,"state":"active","ping":113},{"user_id":271,"name":"Dr. Major Balls","steam_id":76561198417358638,"connected_time":285000000000,"state":"active","ping":88}]},{"server_id":108,"name":"Uncletopia | Dallas | 2 | All Maps","name_short":"dal-2","host":"dal-1.us.uncletopia.com","port":27025,"enabled":true,"region":"us-central","cc":"us","latitude":32.779167,"longitude":-96.80889,"reserved":0,"last_update":"0001-01-01T00:00:00Z","name_a2s":"Uncletopia | Dallas | 2 | All Maps","protocol":17,"map":"pl_frontier_final","folder":"tf","game":"Team Fortress","app_id":440,"player_count":0,"max_players":24,"Bots":0,"server_type":"Dedicated","server_os":"Linux","password":true,"vac":true,"version":"7757534","steam_id":85568392924469988,"keywords":["nocrits","nodmgspread","payload","uncletopia"],"game_id":440,"stv_port":27026,"stv_name":"Uncletopia | Dallas | 2 | All Maps | STV","players":null},{"server_id":5,"name":"Uncletopia | Frankfurt | 1 | All Maps","name_short":"frk-1","host":"frk-1.de.uncletopia.com","port":27015,"enabled":true,"region":"eu","cc":"de","latitude":50.110924,"longitude":8.682127,"reserved":0,"last_update":"0001-01-01T00:00:00Z","name_a2s":"Uncletopia | Frankfurt | 1 | All Maps","protocol":17,"map":"pl_snowycoast","folder":"tf","game":"Team Fortress","app_id":440,"player_count":24,"max_players":24,"Bots":0,"server_type":"Dedicated","server_os":"Linux","password":true,"vac":true,"version":"7757534","steam_id":85568392924469989,"keywords":["nocrits","nodmgspread","payload","uncletopia"],"game_id":440,"stv_port":27016,"stv_name":"Uncletopia | Frankfurt | 1 | All Maps | STV","players":[{"user_id":642,"name":"üÉî Nugg1t(she/they)","steam_id":76561198065652251,"connected_time":57000000000,"state":"active","ping":40},{"user_id":641,"name":"Snek","steam_id":76561198026689255,"connected_time":220000000000,"state":"active","ping":70},{"user_id":624,"name":"69 ME 2NITE","steam_id":76561199124261801,"connected_time":731000000000,"state":"active","ping":113},{"user_id":594,"name":"Hegyi tah√≥ F2P","steam_id":76561199219150356,"connected_time":2635000000000,"state":"active","ping":69},{"user_id":599,"name":"Piox","steam_id":76561198125689157,"connected_time":2343000000000,"state":"active","ping":76},{"user_id":607,"name":"Croffsi","steam_id":76561198079985921,"connected_time":1770000000000,"state":"active","ping":63},{"user_id":613,"name":"TK.TK","steam_id":76561199384193338,"connected_time":1282000000000,"state":"active","ping":66},{"user_id":567,"name":"MLG Peridot","steam_id":76561198069780233,"connected_time":5571000000000,"state":"active","ping":62},{"user_id":608,"name":"obscurum","steam_id":76561198099827790,"connected_time":1560000000000,"state":"active","ping":71},{"user_id":636,"name":"honey bunny","steam_id":76561198043836847,"connected_time":406000000000,"state":"active","ping":60},{"user_id":619,"name":"cazador","steam_id":76561198123096922,"connected_time":986000000000,"state":"active","ping":102},{"user_id":635,"name":"Gy√∂ngy√∂s fick√≥","steam_id":76561198260281759,"connected_time":420000000000,"state":"active","ping":71},{"user_id":602,"name":"justgvbe","steam_id":76561199193230375,"connected_time":2244000000000,"state":"active","ping":51},{"user_id":600,"name":"ldshwt","steam_id":76561198090364357,"connected_time":2315000000000,"state":"active","ping":45},{"user_id":643,"name":"KillerBunny","steam_id":76561198839334419,"connected_time":10000000000,"state":"spawning","ping":101},{"user_id":593,"name":"Drosan „ÉÑ","steam_id":76561197960389216,"connected_time":2932000000000,"state":"active","ping":45},{"user_id":639,"name":"Nero Claudius","steam_id":76561198173936397,"connected_time":314000000000,"state":"active","ping":99},{"user_id":628,"name":"printer is broken","steam_id":76561198234270592,"connected_time":635000000000,"state":"active","ping":57},{"user_id":611,"name":"BerlinPCS","steam_id":76561198856531382,"connected_time":1481000000000,"state":"active","ping":63},{"user_id":630,"name":"Not spy","steam_id":76561199205773751,"connected_time":547000000000,"state":"active","ping":104},{"user_id":632,"name":"B4ByBoI:D","steam_id":76561198878798417,"connected_time":518000000000,"state":"active","ping":97},{"user_id":633,"name":"Hey, I¬¥m Andy!","steam_id":76561198060337777,"connected_time":517000000000,"state":"active","ping":72},{"user_id":640,"name":"Cornelius Shacklebart","steam_id":76561198000735878,"connected_time":293000000000,"state":"active","ping":61},{"user_id":580,"name":"Radegast the Brown","steam_id":76561198075489505,"connected_time":3738000000000,"state":"active","ping":60}]},{"server_id":110,"name":"Uncletopia | Frankfurt | 2 | All Maps","name_short":"frk-2","host":"frk-1.de.uncletopia.com","port":27025,"enabled":true,"region":"eu","cc":"de","latitude":50.110924,"longitude":8.682127,"reserved":0,"last_update":"0001-01-01T00:00:00Z","name_a2s":"Uncletopia | Frankfurt | 2 | All Maps","protocol":17,"map":"koth_cascade","folder":"tf","game":"Team Fortress","app_id":440,"player_count":0,"max_players":24,"Bots":0,"server_type":"Dedicated","server_os":"Linux","password":true,"vac":true,"version":"7757534","steam_id":85568392924469990,"keywords":["cp","nocrits","nodmgspread","uncletopia"],"game_id":440,"stv_port":27026,"stv_name":"Uncletopia | Frankfurt | 2 | All Maps | STV","players":null},{"server_id":308,"name":"Uncletopia | Frankfurt | 3 | All Maps","name_short":"frk-3","host":"frk-1.de.uncletopia.com","port":27035,"enabled":true,"region":"eu","cc":"de","latitude":50.110924,"longitude":8.682127,"reserved":0,"last_update":"0001-01-01T00:00:00Z","name_a2s":"Uncletopia | Frankfurt | 3 | All Maps","protocol":17,"map":"koth_harvest_final","folder":"tf","game":"Team Fortress","app_id":440,"player_count":22,"max_players":24,"Bots":0,"server_type":"Dedicated","server_os":"Linux","password":true,"vac":true,"version":"7757534","steam_id":85568392924504274,"keywords":["cp","nocrits","nodmgspread","uncletopia"],"game_id":440,"stv_port":27036,"stv_name":"Uncletopia | Frankfurt | 3 | All Maps | STV","players":[{"user_id":78,"name":"Dr. Cox","steam_id":76561198246629218,"connected_time":535000000000,"state":"active","ping":80},{"user_id":79,"name":"long crab","steam_id":76561198136239861,"connected_time":517000000000,"state":"active","ping":60},{"user_id":64,"name":"i look at gay people","steam_id":76561198078032019,"connected_time":1259000000000,"state":"active","ping":90},{"user_id":87,"name":"pijacka","steam_id":76561198103899658,"connected_time":205000000000,"state":"active","ping":60},{"user_id":66,"name":"joyful","steam_id":76561198057631622,"connected_time":1203000000000,"state":"active","ping":179},{"user_id":80,"name":"Ixion","steam_id":76561198041660675,"connected_time":516000000000,"state":"active","ping":74},{"user_id":81,"name":"r0nja_","steam_id":76561197963298322,"connected_time":502000000000,"state":"active","ping":70},{"user_id":82,"name":"GGabe","steam_id":76561198117199068,"connected_time":499000000000,"state":"active","ping":60},{"user_id":33,"name":"—É–≤—ã–Ω—Å–∫","steam_id":76561198172046813,"connected_time":2625000000000,"state":"active","ping":75},{"user_id":83,"name":"alejandro","steam_id":76561198326470064,"connected_time":470000000000,"state":"active","ping":67},{"user_id":84,"name":"Pan W","steam_id":76561198384111099,"connected_time":348000000000,"state":"active","ping":62},{"user_id":91,"name":"Stuid","steam_id":76561199427506542,"connected_time":38000000000,"state":"active","ping":72},{"user_id":88,"name":"bliss","steam_id":76561198067459427,"connected_time":196000000000,"state":"active","ping":46},{"user_id":39,"name":"Pingus","steam_id":76561198164880756,"connected_time":2447000000000,"state":"active","ping":76},{"user_id":68,"name":"Gio'sMonkey","steam_id":76561198892432223,"connected_time":1164000000000,"state":"active","ping":64},{"user_id":89,"name":"mrk_","steam_id":76561198120166752,"connected_time":134000000000,"state":"active","ping":68},{"user_id":69,"name":"Josh","steam_id":76561198274546904,"connected_time":1139000000000,"state":"active","ping":159},{"user_id":90,"name":"bad at tf2 episode 2","steam_id":76561198002451113,"connected_time":113000000000,"state":"active","ping":91},{"user_id":65,"name":"copium addict","steam_id":76561199401665282,"connected_time":1220000000000,"state":"active","ping":104},{"user_id":51,"name":"Cagnus Marlsen","steam_id":76561198077859721,"connected_time":2068000000000,"state":"active","ping":55},{"user_id":54,"name":"Kamikrazy","steam_id":76561198044254918,"connected_time":1928000000000,"state":"active","ping":73},{"user_id":63,"name":"lacurio","steam_id":76561198059701776,"connected_time":1626000000000,"state":"active","ping":63}]},{"server_id":309,"name":"Uncletopia | Frankfurt | 4 | All Maps","name_short":"frk-4","host":"frk-1.de.uncletopia.com","port":27045,"enabled":true,"region":"eu","cc":"de","latitude":50.110924,"longitude":8.682127,"reserved":0,"last_update":"0001-01-01T00:00:00Z","name_a2s":"Uncletopia | Frankfurt | 4 | All Maps","protocol":17,"map":"koth_viaduct","folder":"tf","game":"Team Fortress","app_id":440,"player_count":0,"max_players":24,"Bots":0,"server_type":"Dedicated","server_os":"Linux","password":true,"vac":true,"version":"7757534","steam_id":85568392924504275,"keywords":["cp","nocrits","nodmgspread","uncletopia"],"game_id":440,"stv_port":27046,"stv_name":"Uncletopia | Frankfurt | 4 | All Maps | STV","players":null},{"server_id":310,"name":"Uncletopia | Frankfurt | 5 | All Maps","name_short":"frk-5","host":"frk-1.de.uncletopia.com","port":27055,"enabled":true,"region":"eu","cc":"de","latitude":50.110924,"longitude":8.682127,"reserved":0,"last_update":"0001-01-01T00:00:00Z","name_a2s":"Uncletopia | Frankfurt | 5 | All Maps","protocol":17,"map":"koth_lakeside_final","folder":"tf","game":"Team Fortress","app_id":440,"player_count":0,"max_players":24,"Bots":0,"server_type":"Dedicated","server_os":"Linux","password":true,"vac":true,"version":"7757534","steam_id":85568392924504277,"keywords":["cp","nocrits","nodmgspread","uncletopia"],"game_id":440,"stv_port":27056,"stv_name":"Uncletopia | Frankfurt | 5 | All Maps | STV","players":null},{"server_id":311,"name":"Uncletopia | Frankfurt | 6 | All Maps","name_short":"frk-6","host":"frk-1.de.uncletopia.com","port":27065,"enabled":true,"region":"eu","cc":"de","latitude":50.110924,"longitude":8.682127,"reserved":0,"last_update":"0001-01-01T00:00:00Z","name_a2s":"Uncletopia | Frankfurt | 6 | All Maps","protocol":17,"map":"pl_upward","folder":"tf","game":"Team Fortress","app_id":440,"player_count":24,"max_players":24,"Bots":0,"server_type":"Dedicated","server_os":"Linux","password":true,"vac":true,"version":"7757534","steam_id":85568392924504278,"keywords":["nocrits","nodmgspread","payload","uncletopia"],"game_id":440,"stv_port":27066,"stv_name":"Uncletopia | Frankfurt | 6 | All Maps | STV","players":[{"user_id":143,"name":"Galaxy","steam_id":76561199386322722,"connected_time":638000000000,"state":"active","ping":98},{"user_id":17,"name":"taima","steam_id":76561198281053248,"connected_time":8968000000000,"state":"active","ping":70},{"user_id":11,"name":"Jackriz","steam_id":76561198024882111,"connected_time":9248000000000,"state":"active","ping":68},{"user_id":149,"name":"Providence","steam_id":76561198003920270,"connected_time":382000000000,"state":"active","ping":85},{"user_id":153,"name":"socaramel","steam_id":76561197984480336,"connected_time":183000000000,"state":"active","ping":85},{"user_id":154,"name":"KenPendersOfficial","steam_id":76561198065112022,"connected_time":180000000000,"state":"active","ping":107},{"user_id":144,"name":"schweppestr","steam_id":76561198037485644,"connected_time":543000000000,"state":"active","ping":38},{"user_id":148,"name":"Big Trader","steam_id":76561197992364667,"connected_time":423000000000,"state":"active","ping":81},{"user_id":82,"name":"Spinyapickle","steam_id":76561198086653667,"connected_time":4624000000000,"state":"active","ping":72},{"user_id":146,"name":"pepper","steam_id":76561198059782462,"connected_time":526000000000,"state":"active","ping":54},{"user_id":142,"name":"I have aids","steam_id":76561198860347851,"connected_time":872000000000,"state":"active","ping":131},{"user_id":116,"name":"lizard","steam_id":76561199074653209,"connected_time":2108000000000,"state":"active","ping":75},{"user_id":147,"name":"Boki","steam_id":76561198044553351,"connected_time":466000000000,"state":"active","ping":78},{"user_id":86,"name":"Helon","steam_id":76561198050761682,"connected_time":4188000000000,"state":"active","ping":57},{"user_id":150,"name":"Creature from the piss drawer","steam_id":76561198055949151,"connected_time":353000000000,"state":"active","ping":60},{"user_id":111,"name":"Soldier of God","steam_id":76561198110470565,"connected_time":2677000000000,"state":"active","ping":106},{"user_id":109,"name":"Hedge Knight","steam_id":76561198989449047,"connected_time":2795000000000,"state":"active","ping":121},{"user_id":151,"name":"Ben UFO","steam_id":76561198001648348,"connected_time":253000000000,"state":"active","ping":61},{"user_id":84,"name":"El Gato Volador","steam_id":76561198021296882,"connected_time":4605000000000,"state":"active","ping":74},{"user_id":123,"name":"DiscoTraveler","steam_id":76561199240168088,"connected_time":1875000000000,"state":"active","ping":134},{"user_id":125,"name":"Tec","steam_id":76561199096762480,"connected_time":1739000000000,"state":"active","ping":75},{"user_id":157,"name":"ThatAlienBoi","steam_id":76561198357396428,"connected_time":127000000000,"state":"active","ping":85},{"user_id":127,"name":"Duck","steam_id":76561198841587079,"connected_time":1717000000000,"state":"active","ping":64},{"user_id":99,"name":"snovi","steam_id":76561198984436595,"connected_time":3621000000000,"state":"active","ping":77}]},{"server_id":23,"name":"Uncletopia | Frankfurt | 7 | Stopwatch Beta","name_short":"frk-7","host":"frk-1.de.uncletopia.com","port":27075,"enabled":true,"region":"eu","cc":"de","latitude":50.110924,"longitude":8.682127,"reserved":0,"last_update":"0001-01-01T00:00:00Z","name_a2s":"Uncletopia | Frankfurt | 7 | Stopwatch Beta","protocol":17,"map":"workshop/pl_summercoast_rc8e.ugc1761528829","folder":"tf","game":"Team Fortress","app_id":440,"player_count":0,"max_players":24,"Bots":0,"server_type":"Dedicated","server_os":"Linux","password":true,"vac":true,"version":"7757534","steam_id":85568392924742827,"keywords":["nocrits","nodmgspread","payload","uncletopia"],"game_id":440,"stv_port":27076,"stv_name":"Uncletopia | Frankfurt | 7 | Stopwatch Beta | STV","players":null},{"server_id":24,"name":"Uncletopia | Frankfurt | 8 | Community","name_short":"frk-8","host":"frk-1.de.uncletopia.com","port":27085,"enabled":true,"region":"eu","cc":"de","latitude":50.110924,"longitude":8.682127,"reserved":0,"last_update":"0001-01-01T00:00:00Z","name_a2s":"Uncletopia | Frankfurt | 8 | Community","protocol":17,"map":"workshop/cp_sulfur_rc2.ugc619869471","folder":"tf","game":"Team Fortress","app_id":440,"player_count":18,"max_players":24,"Bots":0,"server_type":"Dedicated","server_os":"Linux","password":true,"vac":true,"version":"7757534","steam_id":85568392924742828,"keywords":["cp","nocrits","nodmgspread","uncletopia"],"game_id":440,"stv_port":27086,"stv_name":"Uncletopia | Frankfurt | 8 | Community | STV","players":[{"user_id":94,"name":"TheSquirrelofHuscurl","steam_id":76561198073379623,"connected_time":1556000000000,"state":"active","ping":165},{"user_id":109,"name":"Daykayn","steam_id":76561199138533622,"connected_time":499000000000,"state":"active","ping":95},{"user_id":93,"name":"NatP","steam_id":76561198012083811,"connected_time":2017000000000,"state":"active","ping":61},{"user_id":111,"name":"Fat Pigeon","steam_id":76561198817940142,"connected_time":403000000000,"state":"active","ping":46},{"user_id":107,"name":"miiq130","steam_id":76561198188010666,"connected_time":824000000000,"state":"active","ping":79},{"user_id":114,"name":"Rodia","steam_id":76561197968293161,"connected_time":161000000000,"state":"active","ping":60},{"user_id":97,"name":"Rez","steam_id":76561198410598772,"connected_time":1519000000000,"state":"active","ping":58},{"user_id":113,"name":"Subterranean","steam_id":76561198106684566,"connected_time":376000000000,"state":"active","ping":75},{"user_id":115,"name":"tummaluppo taivaltaja","steam_id":76561198093458326,"connected_time":135000000000,"state":"active","ping":59},{"user_id":64,"name":"Scipionemiliano","steam_id":76561198027646559,"connected_time":4528000000000,"state":"active","ping":102},{"user_id":116,"name":"bibib17","steam_id":76561198143319217,"connected_time":118000000000,"state":"active","ping":75},{"user_id":102,"name":"LikedLizardGaming","steam_id":76561199048253197,"connected_time":1357000000000,"state":"active","ping":94},{"user_id":117,"name":"TSx* Osa__PL","steam_id":76561198027016799,"connected_time":36000000000,"state":"active","ping":63},{"user_id":118,"name":"TSx* Dante","steam_id":76561198139309331,"connected_time":31000000000,"state":"spawning","ping":159},{"user_id":119,"name":"TSx* Naxer","steam_id":76561198011986779,"connected_time":27000000000,"state":"spawning","ping":150},{"user_id":108,"name":"Rat King","steam_id":76561198256783599,"connected_time":756000000000,"state":"active","ping":69},{"user_id":100,"name":"einEisTee","steam_id":76561198079788813,"connected_time":1378000000000,"state":"active","ping":54},{"user_id":101,"name":"Mr. Luigi","steam_id":76561198167312951,"connected_time":1375000000000,"state":"active","ping":53}]},{"server_id":202,"name":"Uncletopia | Hong Kong | 1 | All Maps","name_short":"hgk-1","host":"hgk-1.hk.uncletopia.com","port":27015,"enabled":true,"region":"asia","cc":"hk","latitude":22.302711,"longitude":114.177216,"reserved":0,"last_update":"0001-01-01T00:00:00Z","name_a2s":"Uncletopia | Hong Kong | 1 | All Maps","protocol":17,"map":"koth_highpass","folder":"tf","game":"Team Fortress","app_id":440,"player_count":0,"max_players":24,"Bots":0,"server_type":"Dedicated","server_os":"Linux","password":true,"vac":true,"version":"7757534","steam_id":85568392924494504,"keywords":["cp","nocrits","nodmgspread","uncletopia"],"game_id":440,"stv_port":27016,"stv_name":"Uncletopia | Hong Kong | 1 | All Maps | STV","players":null},{"server_id":1,"name":"Uncletopia | Los Angeles | 1 | All Maps","name_short":"lax-1","host":"lax-1.us.uncletopia.com","port":27015,"enabled":true,"region":"us-west","cc":"us","latitude":33.94279,"longitude":-118.41004,"reserved":0,"last_update":"0001-01-01T00:00:00Z","name_a2s":"Uncletopia | Los Angeles | 1 | All Maps","protocol":17,"map":"koth_lakeside_final","folder":"tf","game":"Team Fortress","app_id":440,"player_count":0,"max_players":24,"Bots":0,"server_type":"Dedicated","server_os":"Linux","password":true,"vac":true,"version":"7757534","steam_id":85568392924469991,"keywords":["cp","nocrits","nodmgspread","uncletopia"],"game_id":440,"stv_port":27016,"stv_name":"Uncletopia | Los Angeles | 1 | All Maps | STV","players":null},{"server_id":112,"name":"Uncletopia | Los Angeles | 2 | All Maps","name_short":"lax-2","host":"lax-1.us.uncletopia.com","port":27025,"enabled":true,"region":"us-west","cc":"us","latitude":33.94279,"longitude":-118.41004,"reserved":0,"last_update":"0001-01-01T00:00:00Z","name_a2s":"Uncletopia | Los Angeles | 2 | All Maps","protocol":17,"map":"pl_badwater","folder":"tf","game":"Team Fortress","app_id":440,"player_count":0,"max_players":24,"Bots":0,"server_type":"Dedicated","server_os":"Linux","password":true,"vac":true,"version":"7757534","steam_id":85568392924469992,"keywords":["nocrits","nodmgspread","payload","uncletopia"],"game_id":440,"stv_port":27026,"stv_name":"Uncletopia | Los Angeles | 2 | All Maps | STV","players":null},{"server_id":324,"name":"Uncletopia | Los Angeles | 3 | All Maps","name_short":"lax-3","host":"lax-1.us.uncletopia.com","port":27035,"enabled":true,"region":"us-west","cc":"us","latitude":33.94279,"longitude":-118.41004,"reserved":0,"last_update":"0001-01-01T00:00:00Z","name_a2s":"Uncletopia | Los Angeles | 3 | All Maps","protocol":17,"map":"pl_barnblitz","folder":"tf","game":"Team Fortress","app_id":440,"player_count":0,"max_players":24,"Bots":0,"server_type":"Dedicated","server_os":"Linux","password":true,"vac":true,"version":"7757534","steam_id":85568392924510198,"keywords":["nocrits","nodmgspread","payload","uncletopia"],"game_id":440,"stv_port":27036,"stv_name":"Uncletopia | Los Angeles | 3 | All Maps | STV","players":null},{"server_id":25,"name":"Uncletopia | Los Angeles | 4 | Stopwatch Beta","name_short":"lax-4","host":"lax-1.us.uncletopia.com","port":27045,"enabled":true,"region":"us-west","cc":"us","latitude":33.94279,"longitude":-118.41004,"reserved":0,"last_update":"0001-01-01T00:00:00Z","name_a2s":"Uncletopia | Los Angeles | 4 | Stopwatch Beta","protocol":17,"map":"pl_swiftwater_final1","folder":"tf","game":"Team Fortress","app_id":440,"player_count":0,"max_players":24,"Bots":0,"server_type":"Dedicated","server_os":"Linux","password":true,"vac":true,"version":"7757534","steam_id":85568392924510199,"keywords":["nocrits","nodmgspread","payload","uncletopia"],"game_id":440,"stv_port":27046,"stv_name":"Uncletopia | Los Angeles | 4 | Stopwatch Beta | STV","players":null},{"server_id":11,"name":"Uncletopia | London | 1 | All Maps","name_short":"lon-1","host":"lon-1.uk.uncletopia.com","port":27015,"enabled":true,"region":"eu","cc":"gb","latitude":51.509865,"longitude":-0.118092,"reserved":0,"last_update":"0001-01-01T00:00:00Z","name_a2s":"Uncletopia | London | 1 | All Maps","protocol":17,"map":"ctf_2fort","folder":"tf","game":"Team Fortress","app_id":440,"player_count":24,"max_players":24,"Bots":0,"server_type":"Dedicated","server_os":"Linux","password":true,"vac":true,"version":"7757534","steam_id":85568392924367362,"keywords":["ctf","nocrits","nodmgspread","uncletopia"],"game_id":440,"stv_port":27016,"stv_name":"Uncletopia | London | 1 | All Maps | STV","players":[{"user_id":88,"name":"AAAAAAAAAAAAA","steam_id":76561198018826108,"connected_time":1064000000000,"state":"active","ping":73},{"user_id":24,"name":"jimmy bob","steam_id":76561198319583692,"connected_time":4911000000000,"state":"active","ping":59},{"user_id":89,"name":"TryX","steam_id":76561199356781475,"connected_time":1063000000000,"state":"active","ping":83},{"user_id":26,"name":"Ferlo","steam_id":76561198095561504,"connected_time":4710000000000,"state":"active","ping":45},{"user_id":27,"name":"Nycto","steam_id":76561198050032617,"connected_time":4705000000000,"state":"active","ping":141},{"user_id":91,"name":"mundy","steam_id":76561198010590171,"connected_time":1049000000000,"state":"active","ping":60},{"user_id":81,"name":"Graytust Gaymar","steam_id":76561199057844390,"connected_time":2203000000000,"state":"active","ping":186},{"user_id":82,"name":"Hypenite","steam_id":76561198067589713,"connected_time":1925000000000,"state":"active","ping":95},{"user_id":92,"name":"Strafely","steam_id":76561199242567438,"connected_time":1024000000000,"state":"active","ping":68},{"user_id":66,"name":"avewszystkim","steam_id":76561199382492530,"connected_time":2826000000000,"state":"active","ping":74},{"user_id":83,"name":"Tavish","steam_id":76561198003756572,"connected_time":1614000000000,"state":"active","ping":44},{"user_id":35,"name":"class1driller","steam_id":76561198029068574,"connected_time":4223000000000,"state":"active","ping":75},{"user_id":36,"name":"Butt Fangs Fetish","steam_id":76561198038130063,"connected_time":4217000000000,"state":"active","ping":88},{"user_id":37,"name":"Havelyn","steam_id":76561198036159862,"connected_time":4217000000000,"state":"active","ping":138},{"user_id":95,"name":"NuGs","steam_id":76561198305550934,"connected_time":865000000000,"state":"active","ping":57},{"user_id":106,"name":"JownCenta","steam_id":76561198121397124,"connected_time":651000000000,"state":"active","ping":45},{"user_id":108,"name":"Purps","steam_id":76561198053886680,"connected_time":454000000000,"state":"active","ping":45},{"user_id":100,"name":"Uncle Terry","steam_id":76561198396415736,"connected_time":765000000000,"state":"active","ping":63},{"user_id":109,"name":"Someone","steam_id":76561199030195879,"connected_time":450000000000,"state":"active","ping":49},{"user_id":113,"name":"Topia","steam_id":76561198163571788,"connected_time":34000000000,"state":"active","ping":95},{"user_id":99,"name":"bird (trans rights)","steam_id":76561198393596975,"connected_time":792000000000,"state":"active","ping":48},{"user_id":111,"name":"[waffles]","steam_id":76561198951206047,"connected_time":82000000000,"state":"active","ping":91},{"user_id":107,"name":"Sonnakai","steam_id":76561198051688749,"connected_time":622000000000,"state":"active","ping":41},{"user_id":112,"name":"R0mulone","steam_id":76561198352513792,"connected_time":81000000000,"state":"active","ping":63}]},{"server_id":114,"name":"Uncletopia | London | 2 | All Maps","name_short":"lon-2","host":"lon-1.uk.uncletopia.com","port":27025,"enabled":true,"region":"eu","cc":"gb","latitude":51.509865,"longitude":-0.118092,"reserved":0,"last_update":"0001-01-01T00:00:00Z","name_a2s":"Uncletopia | London | 2 | All Maps","protocol":17,"map":"pl_frontier_final","folder":"tf","game":"Team Fortress","app_id":440,"player_count":24,"max_players":24,"Bots":0,"server_type":"Dedicated","server_os":"Linux","password":true,"vac":true,"version":"7757534","steam_id":85568392924470941,"keywords":["nocrits","nodmgspread","payload","uncletopia"],"game_id":440,"stv_port":27026,"stv_name":"Uncletopia | London | 2 | All Maps | STV","players":[{"user_id":268,"name":"Gearless","steam_id":76561198362367074,"connected_time":418000000000,"state":"active","ping":99},{"user_id":202,"name":"Mercedes Dens","steam_id":76561198397955132,"connected_time":3638000000000,"state":"active","ping":168},{"user_id":271,"name":"Zakira Zakira!","steam_id":76561198064806293,"connected_time":299000000000,"state":"active","ping":121},{"user_id":209,"name":"Evil Jak","steam_id":76561198005548437,"connected_time":3209000000000,"state":"active","ping":184},{"user_id":246,"name":"moon","steam_id":76561198256097786,"connected_time":1428000000000,"state":"active","ping":46},{"user_id":266,"name":"[Sheep] Tomco","steam_id":76561198388549261,"connected_time":448000000000,"state":"active","ping":57},{"user_id":265,"name":"derfie","steam_id":76561198062797578,"connected_time":456000000000,"state":"active","ping":65},{"user_id":241,"name":"Wiki","steam_id":76561198148455642,"connected_time":1938000000000,"state":"active","ping":42},{"user_id":205,"name":"Shork","steam_id":76561198130195469,"connected_time":3516000000000,"state":"active","ping":84},{"user_id":258,"name":"meatpet","steam_id":76561198891774011,"connected_time":673000000000,"state":"active","ping":61},{"user_id":267,"name":"the honey monster","steam_id":76561198012351808,"connected_time":446000000000,"state":"active","ping":51},{"user_id":249,"name":"Raulca25","steam_id":76561199068256964,"connected_time":1352000000000,"state":"active","ping":79},{"user_id":248,"name":"Practice","steam_id":76561198104765420,"connected_time":1369000000000,"state":"active","ping":54},{"user_id":226,"name":"Pink Cheese","steam_id":76561198972186436,"connected_time":2514000000000,"state":"active","ping":56},{"user_id":255,"name":"jaakkima","steam_id":76561198229205512,"connected_time":938000000000,"state":"active","ping":66},{"user_id":270,"name":"Baby Sniper","steam_id":76561198826005248,"connected_time":383000000000,"state":"active","ping":64},{"user_id":256,"name":"todesfall","steam_id":76561199057953617,"connected_time":734000000000,"state":"active","ping":66},{"user_id":262,"name":"TTK","steam_id":76561198444561078,"connected_time":581000000000,"state":"active","ping":82},{"user_id":223,"name":"finest fucker in dc","steam_id":76561199042470246,"connected_time":2596000000000,"state":"active","ping":58},{"user_id":263,"name":"Smilez","steam_id":76561197999353870,"connected_time":579000000000,"state":"active","ping":47},{"user_id":260,"name":"Daperlin","steam_id":76561198091299113,"connected_time":662000000000,"state":"active","ping":146},{"user_id":231,"name":"mummi","steam_id":76561198137614047,"connected_time":2454000000000,"state":"active","ping":74},{"user_id":264,"name":"yusef","steam_id":76561198108481078,"connected_time":560000000000,"state":"active","ping":105}]},{"server_id":320,"name":"Uncletopia | London | 3 | All Maps","name_short":"lon-3","host":"lon-1.uk.uncletopia.com","port":27035,"enabled":true,"region":"eu","cc":"gb","latitude":51.509865,"longitude":-0.118092,"reserved":0,"last_update":"0001-01-01T00:00:00Z","name_a2s":"Uncletopia | London | 3 | All Maps","protocol":17,"map":"cp_mercenarypark","folder":"tf","game":"Team Fortress","app_id":440,"player_count":22,"max_players":24,"Bots":0,"server_type":"Dedicated","server_os":"Linux","password":true,"vac":true,"version":"7757534","steam_id":85568392924510192,"keywords":["cp","nocrits","nodmgspread","uncletopia"],"game_id":440,"stv_port":27036,"stv_name":"Uncletopia | London | 3 | All Maps | STV","players":[{"user_id":580,"name":"Lil Ari","steam_id":76561198218178180,"connected_time":136000000000,"state":"active","ping":75},{"user_id":571,"name":"Avarus","steam_id":76561198040324008,"connected_time":954000000000,"state":"active","ping":62},{"user_id":574,"name":"[dopijus]","steam_id":76561198943009513,"connected_time":500000000000,"state":"active","ping":96},{"user_id":543,"name":"dnljns","steam_id":76561198085091752,"connected_time":2526000000000,"state":"active","ping":85},{"user_id":582,"name":"XSCod","steam_id":76561198124586634,"connected_time":53000000000,"state":"spawning","ping":59},{"user_id":567,"name":"Terhen","steam_id":76561198218299273,"connected_time":1164000000000,"state":"active","ping":90},{"user_id":583,"name":"Jeff","steam_id":76561198949174773,"connected_time":18000000000,"state":"spawning","ping":74},{"user_id":385,"name":"Dr. Mike","steam_id":76561197991205793,"connected_time":12947000000000,"state":"active","ping":77},{"user_id":575,"name":"hunky, rich, elite level gamer","steam_id":76561199036687361,"connected_time":486000000000,"state":"active","ping":128},{"user_id":556,"name":"Xoukz","steam_id":76561198356014540,"connected_time":1429000000000,"state":"active","ping":91},{"user_id":555,"name":"BenteBent","steam_id":76561198297920637,"connected_time":1601000000000,"state":"active","ping":25},{"user_id":568,"name":"Ape","steam_id":76561198322703872,"connected_time":1088000000000,"state":"active","ping":90},{"user_id":577,"name":"Marmew","steam_id":76561198014969237,"connected_time":276000000000,"state":"active","ping":40},{"user_id":578,"name":"Chlo","steam_id":76561198114485345,"connected_time":242000000000,"state":"active","ping":44},{"user_id":520,"name":"gegit08","steam_id":76561199040010283,"connected_time":3481000000000,"state":"active","ping":89},{"user_id":533,"name":"Emil","steam_id":76561198053054845,"connected_time":3064000000000,"state":"active","ping":70},{"user_id":559,"name":"„Åô LightFlight „Åó","steam_id":76561198079007530,"connected_time":1298000000000,"state":"active","ping":46},{"user_id":558,"name":"1ggy","steam_id":76561199051285912,"connected_time":1420000000000,"state":"active","ping":83},{"user_id":569,"name":"Persic","steam_id":76561197997828319,"connected_time":1045000000000,"state":"active","ping":85},{"user_id":572,"name":"_iHaveBigEyes_","steam_id":76561198972273741,"connected_time":889000000000,"state":"active","ping":55},{"user_id":545,"name":"Moisty","steam_id":76561198078625011,"connected_time":2506000000000,"state":"active","ping":66},{"user_id":509,"name":"UltraCoolKiddo","steam_id":76561198102025290,"connected_time":4767000000000,"state":"active","ping":58}]},{"server_id":321,"name":"Uncletopia | London | 4 | All Maps","name_short":"lon-4","host":"lon-1.uk.uncletopia.com","port":27045,"enabled":true,"region":"eu","cc":"gb","latitude":51.509865,"longitude":-0.118092,"reserved":0,"last_update":"0001-01-01T00:00:00Z","name_a2s":"Uncletopia | London | 4 | All Maps","protocol":17,"map":"cp_altitude","folder":"tf","game":"Team Fortress","app_id":440,"player_count":0,"max_players":24,"Bots":0,"server_type":"Dedicated","server_os":"Linux","password":true,"vac":true,"version":"7757534","steam_id":85568392924510193,"keywords":["cp","nocrits","nodmgspread","uncletopia"],"game_id":440,"stv_port":27046,"stv_name":"Uncletopia | London | 4 | All Maps | STV","players":null},{"server_id":21,"name":"Uncletopia | London | 5 | All Maps","name_short":"lon-5","host":"lon-1.uk.uncletopia.com","port":27055,"enabled":true,"region":"eu","cc":"gb","latitude":51.509865,"longitude":-0.118092,"reserved":0,"last_update":"0001-01-01T00:00:00Z","name_a2s":"Uncletopia | London | 5 | All Maps","protocol":17,"map":"pl_swiftwater_final1","folder":"tf","game":"Team Fortress","app_id":440,"player_count":24,"max_players":24,"Bots":0,"server_type":"Dedicated","server_os":"Linux","password":true,"vac":true,"version":"7757534","steam_id":85568392924742829,"keywords":["nocrits","nodmgspread","payload","uncletopia"],"game_id":440,"stv_port":27056,"stv_name":"Uncletopia | London | 5 | All Maps | STV","players":[{"user_id":245,"name":"Festive Keshu","steam_id":76561198852603168,"connected_time":1941000000000,"state":"active","ping":74},{"user_id":272,"name":"Undertaker","steam_id":76561198364121077,"connected_time":1092000000000,"state":"active","ping":100},{"user_id":263,"name":"JeanCorben","steam_id":76561197965133561,"connected_time":1494000000000,"state":"active","ping":39},{"user_id":210,"name":"aghaste","steam_id":76561198139501579,"connected_time":4621000000000,"state":"active","ping":97},{"user_id":283,"name":"Troll Masiv","steam_id":76561198319562372,"connected_time":12000000000,"state":"spawning","ping":84},{"user_id":273,"name":"balanced diet","steam_id":76561198240320806,"connected_time":1083000000000,"state":"active","ping":75},{"user_id":246,"name":"Turbo_Jesus","steam_id":76561197963985952,"connected_time":1935000000000,"state":"active","ping":68},{"user_id":279,"name":"Sirzen","steam_id":76561198170155434,"connected_time":823000000000,"state":"active","ping":46},{"user_id":180,"name":"Dark","steam_id":76561198086889620,"connected_time":6246000000000,"state":"active","ping":56},{"user_id":238,"name":"GabeTheGoldfish","steam_id":76561198153408011,"connected_time":2264000000000,"state":"active","ping":70},{"user_id":244,"name":"shminky dinky","steam_id":76561199088913787,"connected_time":1958000000000,"state":"active","ping":55},{"user_id":282,"name":"Chambersite","steam_id":76561198197022399,"connected_time":342000000000,"state":"active","ping":79},{"user_id":236,"name":"Elix","steam_id":76561199072306920,"connected_time":2886000000000,"state":"active","ping":100},{"user_id":218,"name":"Remerv Keberb","steam_id":76561198154280406,"connected_time":4295000000000,"state":"active","ping":82},{"user_id":269,"name":"Woman (Real)","steam_id":76561199151823932,"connected_time":1296000000000,"state":"active","ping":82},{"user_id":206,"name":"Tink","steam_id":76561198118235443,"connected_time":4902000000000,"state":"active","ping":55},{"user_id":220,"name":"dimitrij_6ix_god","steam_id":76561199023275543,"connected_time":3709000000000,"state":"active","ping":85},{"user_id":274,"name":"insanitY","steam_id":76561198055666742,"connected_time":1069000000000,"state":"active","ping":131},{"user_id":239,"name":"Zerfesh","steam_id":76561198117534358,"connected_time":2249000000000,"state":"active","ping":101},{"user_id":271,"name":"scout dude","steam_id":76561198410592736,"connected_time":1255000000000,"state":"active","ping":49},{"user_id":284,"name":"Hyperek","steam_id":76561198130797464,"connected_time":0,"state":"spawning","ping":0},{"user_id":170,"name":"Penis Contortionist","steam_id":76561198073663784,"connected_time":7227000000000,"state":"active","ping":36},{"user_id":281,"name":"MR.CRAB","steam_id":76561198329833659,"connected_time":679000000000,"state":"active","ping":86},{"user_id":257,"name":"HOT LOIS","steam_id":76561198302623594,"connected_time":1610000000000,"state":"active","ping":101}]},{"server_id":22,"name":"Uncletopia | London | 6 | All Maps","name_short":"lon-6","host":"lon-1.uk.uncletopia.com","port":27065,"enabled":true,"region":"eu","cc":"gb","latitude":51.509865,"longitude":-0.118092,"reserved":0,"last_update":"0001-01-01T00:00:00Z","name_a2s":"Uncletopia | London | 6 | All Maps","protocol":17,"map":"koth_lakeside_final","folder":"tf","game":"Team Fortress","app_id":440,"player_count":0,"max_players":24,"Bots":0,"server_type":"Dedicated","server_os":"Linux","password":true,"vac":true,"version":"7757534","steam_id":85568392924742830,"keywords":["cp","nocrits","nodmgspread","uncletopia"],"game_id":440,"stv_port":27066,"stv_name":"Uncletopia | London | 6 | All Maps | STV","players":null},{"server_id":40,"name":"Uncletopia | London | 7 | No Payload","name_short":"lon-7","host":"lon-1.uk.uncletopia.com","port":27075,"enabled":true,"region":"eu","cc":"gb","latitude":51.509865,"longitude":-0.118092,"reserved":0,"last_update":"0001-01-01T00:00:00Z","name_a2s":"Uncletopia | London | 7 | No Payload","protocol":17,"map":"cp_egypt_final","folder":"tf","game":"Team Fortress","app_id":440,"player_count":0,"max_players":24,"Bots":0,"server_type":"Dedicated","server_os":"Linux","password":true,"vac":true,"version":"7757534","steam_id":85568392924964314,"keywords":["cp","nocrits","nodmgspread","uncletopia"],"game_id":440,"stv_port":27076,"stv_name":"Uncletopia | London | 7 | No Payload | STV","players":null},{"server_id":41,"name":"Uncletopia | London | 8 | Community","name_short":"lon-8","host":"lon-1.uk.uncletopia.com","port":27085,"enabled":true,"region":"eu","cc":"gb","latitude":51.509865,"longitude":-0.118092,"reserved":0,"last_update":"0001-01-01T00:00:00Z","name_a2s":"Uncletopia | London | 8 | Community","protocol":17,"map":"pl_barnblitz","folder":"tf","game":"Team Fortress","app_id":440,"player_count":0,"max_players":24,"Bots":0,"server_type":"Dedicated","server_os":"Linux","password":true,"vac":true,"version":"7757534","steam_id":85568392924964315,"keywords":["nocrits","nodmgspread","payload","uncletopia"],"game_id":440,"stv_port":27086,"stv_name":"Uncletopia | London | 8 | Community | STV","players":null},{"server_id":300,"name":"Uncletopia | Montr√©al | 1 | All Maps","name_short":"mtl-1","host":"mtl-1.ca.uncletopia.com","port":27015,"enabled":true,"region":"us-east","cc":"ca","latitude":45.50889,"longitude":-73.56167,"reserved":0,"last_update":"0001-01-01T00:00:00Z","name_a2s":"Uncletopia | Montr√©al | 1 | All Maps","protocol":17,"map":"pl_barnblitz","folder":"tf","game":"Team Fortress","app_id":440,"player_count":2,"max_players":24,"Bots":0,"server_type":"Dedicated","server_os":"Linux","password":true,"vac":true,"version":"7757534","steam_id":85568392924500087,"keywords":["nocrits","nodmgspread","payload","uncletopia"],"game_id":440,"stv_port":27016,"stv_name":"Uncletopia | Montr√©al | 1 | All Maps | STV","players":[{"user_id":5,"name":"„Äå·¥õ ú·¥á  ô…™…¢…¢·¥áÍú±·¥õ \ufffd","steam_id":76561198190323610,"connected_time":499000000000,"state":"active","ping":75},{"user_id":7,"name":"The Bull Shark","steam_id":76561198110935781,"connected_time":46000000000,"state":"active","ping":81}]},{"server_id":301,"name":"Uncletopia | Montr√©al | 2 | All Maps","name_short":"mtl-2","host":"mtl-1.ca.uncletopia.com","port":27025,"enabled":true,"region":"us-east","cc":"ca","latitude":45.50889,"longitude":-73.56167,"reserved":0,"last_update":"0001-01-01T00:00:00Z","name_a2s":"Uncletopia | Montr√©al | 2 | All Maps","protocol":17,"map":"cp_altitude","folder":"tf","game":"Team Fortress","app_id":440,"player_count":0,"max_players":24,"Bots":0,"server_type":"Dedicated","server_os":"Linux","password":true,"vac":true,"version":"7757534","steam_id":85568392924500088,"keywords":["cp","nocrits","nodmgspread","uncletopia"],"game_id":440,"stv_port":27026,"stv_name":"Uncletopia | Montr√©al | 2 | All Maps | STV","players":null},{"server_id":302,"name":"Uncletopia | Montr√©al | 3 | All Maps","name_short":"mtl-3","host":"mtl-1.ca.uncletopia.com","port":27035,"enabled":true,"region":"us-east","cc":"ca","latitude":45.50889,"longitude":-73.56167,"reserved":0,"last_update":"0001-01-01T00:00:00Z","name_a2s":"Uncletopia | Montr√©al | 3 | All Maps","protocol":17,"map":"pl_swiftwater_final1","folder":"tf","game":"Team Fortress","app_id":440,"player_count":0,"max_players":24,"Bots":0,"server_type":"Dedicated","server_os":"Linux","password":true,"vac":true,"version":"7757534","steam_id":85568392924500089,"keywords":["nocrits","nodmgspread","payload","uncletopia"],"game_id":440,"stv_port":27036,"stv_name":"Uncletopia | Montr√©al | 3 | All Maps | STV","players":null},{"server_id":303,"name":"Uncletopia | Montr√©al | 4 | No Payload","name_short":"mtl-4","host":"mtl-1.ca.uncletopia.com","port":27045,"enabled":true,"region":"us-east","cc":"ca","latitude":45.50889,"longitude":-73.56167,"reserved":0,"last_update":"0001-01-01T00:00:00Z","name_a2s":"Uncletopia | Montr√©al | 4 | No Payload","protocol":17,"map":"pl_pier","folder":"tf","game":"Team Fortress","app_id":440,"player_count":0,"max_players":24,"Bots":0,"server_type":"Dedicated","server_os":"Linux","password":true,"vac":true,"version":"7757534","steam_id":85568392924500090,"keywords":["nocrits","nodmgspread","payload","uncletopia"],"game_id":440,"stv_port":27046,"stv_name":"Uncletopia | Montr√©al | 4 | No Payload | STV","players":null},{"server_id":13,"name":"Uncletopia | New York City | 1 | All Maps","name_short":"nyc-1","host":"nyc-1.us.uncletopia.com","port":27015,"enabled":true,"region":"us-east","cc":"us","latitude":40.73061,"longitude":-73.93524,"reserved":0,"last_update":"0001-01-01T00:00:00Z","name_a2s":"Uncletopia | New York City | 1 | All Maps","protocol":17,"map":"pl_swiftwater_final1","folder":"tf","game":"Team Fortress","app_id":440,"player_count":24,"max_players":24,"Bots":0,"server_type":"Dedicated","server_os":"Linux","password":true,"vac":true,"version":"7757534","steam_id":85568392924469993,"keywords":["nocrits","nodmgspread","payload","uncletopia"],"game_id":440,"stv_port":27016,"stv_name":"Uncletopia | New York City | 1 | All Maps | STV","players":[{"user_id":4,"name":"Gamer Girl Meth","steam_id":76561199276295259,"connected_time":3700000000000,"state":"active","ping":80},{"user_id":53,"name":"FerroDeus","steam_id":76561198294143707,"connected_time":822000000000,"state":"active","ping":99},{"user_id":59,"name":"abed","steam_id":76561198072856511,"connected_time":286000000000,"state":"active","ping":73},{"user_id":20,"name":"lucky","steam_id":76561198323426623,"connected_time":2556000000000,"state":"active","ping":95},{"user_id":17,"name":"Your Wurst Nightmare","steam_id":76561198874531590,"connected_time":3267000000000,"state":"active","ping":60},{"user_id":39,"name":"^_x","steam_id":76561198986849199,"connected_time":1386000000000,"state":"active","ping":150},{"user_id":54,"name":"larguu","steam_id":76561197994336210,"connected_time":751000000000,"state":"active","ping":39},{"user_id":23,"name":"MetalTao","steam_id":76561198189408110,"connected_time":2416000000000,"state":"active","ping":80},{"user_id":61,"name":"Krysys","steam_id":76561198059740403,"connected_time":274000000000,"state":"active","ping":44},{"user_id":58,"name":"amnyak","steam_id":76561198165831950,"connected_time":300000000000,"state":"active","ping":69},{"user_id":25,"name":"DaRoyalYoshi","steam_id":76561198145186375,"connected_time":2166000000000,"state":"active","ping":47},{"user_id":26,"name":"Casket The Clown","steam_id":76561198041346308,"connected_time":2119000000000,"state":"active","ping":88},{"user_id":56,"name":"ShiverBorn","steam_id":76561198384811149,"connected_time":565000000000,"state":"active","ping":100},{"user_id":28,"name":"Iron_Dave_Qc","steam_id":76561198159325213,"connected_time":2090000000000,"state":"active","ping":59},{"user_id":32,"name":"Domczyslaw","steam_id":76561199044080201,"connected_time":1776000000000,"state":"active","ping":146},{"user_id":33,"name":"Robot B0Y","steam_id":76561199073578222,"connected_time":1693000000000,"state":"active","ping":83},{"user_id":55,"name":"Challenger Charles","steam_id":76561198005576553,"connected_time":701000000000,"state":"active","ping":71},{"user_id":35,"name":"Richard 'Dick' Pingus","steam_id":76561198257724646,"connected_time":1562000000000,"state":"active","ping":88},{"user_id":63,"name":"trobin120","steam_id":76561199122420273,"connected_time":234000000000,"state":"active","ping":52},{"user_id":62,"name":"brett","steam_id":76561198799740059,"connected_time":265000000000,"state":"active","ping":52},{"user_id":38,"name":"Glep McYezills","steam_id":76561198213584428,"connected_time":1465000000000,"state":"active","ping":112},{"user_id":57,"name":"DaveyTheDuck","steam_id":76561198163000315,"connected_time":457000000000,"state":"active","ping":66},{"user_id":45,"name":"NoobPwner","steam_id":76561199122289629,"connected_time":1168000000000,"state":"active","ping":130},{"user_id":52,"name":"Mister Mundy","steam_id":76561198145675134,"connected_time":886000000000,"state":"active","ping":66}]},{"server_id":14,"name":"Uncletopia | New York City | 2 | All Maps","name_short":"nyc-2","host":"nyc-1.us.uncletopia.com","port":27025,"enabled":true,"region":"us-east","cc":"us","latitude":40.73061,"longitude":-73.93524,"reserved":0,"last_update":"0001-01-01T00:00:00Z","name_a2s":"Uncletopia | New York City | 2 | All Maps","protocol":17,"map":"pl_badwater","folder":"tf","game":"Team Fortress","app_id":440,"player_count":0,"max_players":24,"Bots":0,"server_type":"Dedicated","server_os":"Linux","password":true,"vac":true,"version":"7757534","steam_id":85568392924469994,"keywords":["nocrits","nodmgspread","payload","uncletopia"],"game_id":440,"stv_port":27026,"stv_name":"Uncletopia | New York City | 2 | All Maps | STV","players":null},{"server_id":15,"name":"Uncletopia | New York City | 3 | Stopwatch Beta","name_short":"nyc-3","host":"nyc-1.us.uncletopia.com","port":27035,"enabled":true,"region":"us-east","cc":"us","latitude":40.73061,"longitude":-73.93524,"reserved":0,"last_update":"0001-01-01T00:00:00Z","name_a2s":"Uncletopia | New York City | 3 | Stopwatch Beta","protocol":17,"map":"pl_upward","folder":"tf","game":"Team Fortress","app_id":440,"player_count":0,"max_players":24,"Bots":0,"server_type":"Dedicated","server_os":"Linux","password":true,"vac":true,"version":"7757534","steam_id":85568392924742820,"keywords":["nocrits","nodmgspread","payload","uncletopia"],"game_id":440,"stv_port":27036,"stv_name":"Uncletopia | New York City | 3 | Stopwatch Beta | STV","players":null},{"server_id":16,"name":"Uncletopia | New York City | 4 | Community","name_short":"nyc-4","host":"nyc-1.us.uncletopia.com","port":27045,"enabled":true,"region":"us-east","cc":"us","latitude":40.73061,"longitude":-73.93524,"reserved":0,"last_update":"0001-01-01T00:00:00Z","name_a2s":"Uncletopia | New York City | 4 | Community","protocol":17,"map":"pl_swiftwater_final1","folder":"tf","game":"Team Fortress","app_id":440,"player_count":0,"max_players":24,"Bots":0,"server_type":"Dedicated","server_os":"Linux","password":true,"vac":true,"version":"7757534","steam_id":85568392924742821,"keywords":["nocrits","nodmgspread","payload","uncletopia"],"game_id":440,"stv_port":27046,"stv_name":"Uncletopia | New York City | 4 | Community | STV","players":null},{"server_id":142,"name":"Uncletopia | S√£o Paulo | 1 | All Maps","name_short":"sao-1","host":"sao-1.br.uncletopia.com","port":27015,"enabled":true,"region":"sa","cc":"br","latitude":-23.533773,"longitude":-46.62529,"reserved":0,"last_update":"0001-01-01T00:00:00Z","name_a2s":"Uncletopia | S√£o Paulo | 1 | All Maps","protocol":17,"map":"koth_viaduct","folder":"tf","game":"Team Fortress","app_id":440,"player_count":0,"max_players":24,"Bots":0,"server_type":"Dedicated","server_os":"Linux","password":true,"vac":true,"version":"7757534","steam_id":85568392924469996,"keywords":["cp","nocrits","nodmgspread","uncletopia"],"game_id":440,"stv_port":27016,"stv_name":"Uncletopia | S√£o Paulo | 1 | All Maps | STV","players":null},{"server_id":143,"name":"Uncletopia | S√£o Paulo | 2 | All Maps","name_short":"sao-2","host":"sao-2.br.uncletopia.com","port":27015,"enabled":true,"region":"sa","cc":"br","latitude":-23.533773,"longitude":-46.62529,"reserved":0,"last_update":"0001-01-01T00:00:00Z","name_a2s":"Uncletopia | S√£o Paulo | 2 | All Maps","protocol":17,"map":"pl_snowycoast","folder":"tf","game":"Team Fortress","app_id":440,"player_count":0,"max_players":24,"Bots":0,"server_type":"Dedicated","server_os":"Linux","password":true,"vac":true,"version":"7757534","steam_id":85568392924485349,"keywords":["nocrits","nodmgspread","payload","uncletopia"],"game_id":440,"stv_port":27016,"stv_name":"Uncletopia | S√£o Paulo | 2 | All Maps | STV","players":null},{"server_id":7,"name":"Uncletopia | Seattle | 1 | All Maps","name_short":"sea-1","host":"sea-1.us.uncletopia.com","port":27015,"enabled":true,"region":"us-west","cc":"us","latitude":47.608013,"longitude":-122.33517,"reserved":0,"last_update":"0001-01-01T00:00:00Z","name_a2s":"Uncletopia | Seattle | 1 | All Maps","protocol":17,"map":"ctf_2fort","folder":"tf","game":"Team Fortress","app_id":440,"player_count":2,"max_players":24,"Bots":0,"server_type":"Dedicated","server_os":"Linux","password":true,"vac":true,"version":"7757534","steam_id":85568392924469997,"keywords":["ctf","nocrits","nodmgspread","uncletopia"],"game_id":440,"stv_port":27016,"stv_name":"Uncletopia | Seattle | 1 | All Maps | STV","players":[{"user_id":11,"name":"SibilantSerpent","steam_id":76561198154488754,"connected_time":1868000000000,"state":"active","ping":49},{"user_id":12,"name":"dust | she/it","steam_id":76561198045218909,"connected_time":1568000000000,"state":"active","ping":42}]},{"server_id":119,"name":"Uncletopia | Seattle | 2 | All Maps","name_short":"sea-2","host":"sea-1.us.uncletopia.com","port":27025,"enabled":true,"region":"us-west","cc":"us","latitude":47.608013,"longitude":-122.33517,"reserved":0,"last_update":"0001-01-01T00:00:00Z","name_a2s":"Uncletopia | Seattle | 2 | All Maps","protocol":17,"map":"pl_badwater","folder":"tf","game":"Team Fortress","app_id":440,"player_count":0,"max_players":24,"Bots":0,"server_type":"Dedicated","server_os":"Linux","password":true,"vac":true,"version":"7757534","steam_id":85568392924469998,"keywords":["nocrits","nodmgspread","payload","uncletopia"],"game_id":440,"stv_port":27026,"stv_name":"Uncletopia | Seattle | 2 | All Maps | STV","players":null},{"server_id":406,"name":"Uncletopia | Seattle | 3 | Stopwatch Beta","name_short":"sea-3","host":"sea-1.us.uncletopia.com","port":27035,"enabled":true,"region":"us-west","cc":"us","latitude":47.608013,"longitude":-122.33517,"reserved":0,"last_update":"0001-01-01T00:00:00Z","name_a2s":"Uncletopia | Seattle | 3 | Stopwatch Beta","protocol":17,"map":"cp_dustbowl","folder":"tf","game":"Team Fortress","app_id":440,"player_count":0,"max_players":24,"Bots":0,"server_type":"Dedicated","server_os":"Linux","password":true,"vac":true,"version":"7757534","steam_id":85568392924515217,"keywords":["cp","nocrits","nodmgspread","uncletopia"],"game_id":440,"stv_port":27036,"stv_name":"Uncletopia | Seattle | 3 | Stopwatch Beta | STV","players":null},{"server_id":17,"name":"Uncletopia | San Francisco | 1 | All Maps","name_short":"sfo-1","host":"sfo-1.us.uncletopia.com","port":27015,"enabled":true,"region":"us-west","cc":"us","latitude":37.77397,"longitude":-122.4313,"reserved":0,"last_update":"0001-01-01T00:00:00Z","name_a2s":"Uncletopia | San Francisco | 1 | All Maps","protocol":17,"map":"pl_snowycoast","folder":"tf","game":"Team Fortress","app_id":440,"player_count":24,"max_players":24,"Bots":0,"server_type":"Dedicated","server_os":"Linux","password":true,"vac":true,"version":"7757534","steam_id":85568392924469999,"keywords":["nocrits","nodmgspread","payload","uncletopia"],"game_id":440,"stv_port":27016,"stv_name":"Uncletopia | San Francisco | 1 | All Maps | STV","players":[{"user_id":190,"name":"WhatsHisName","steam_id":76561198982712556,"connected_time":1092000000000,"state":"active","ping":100},{"user_id":183,"name":"stboncho","steam_id":76561198172275301,"connected_time":1896000000000,"state":"active","ping":57},{"user_id":125,"name":"ark","steam_id":76561198041066271,"connected_time":5399000000000,"state":"active","ping":75},{"user_id":195,"name":"THE_DARK_TRICKSTER","steam_id":76561198870649125,"connected_time":862000000000,"state":"active","ping":99},{"user_id":198,"name":"SomeUnknownThing","steam_id":76561198412163316,"connected_time":210000000000,"state":"active","ping":45},{"user_id":201,"name":"ball wiggler","steam_id":76561198360660145,"connected_time":62000000000,"state":"active","ping":66},{"user_id":189,"name":"bodie._.","steam_id":76561198079474904,"connected_time":1097000000000,"state":"active","ping":75},{"user_id":184,"name":"Semeka","steam_id":76561198405404117,"connected_time":1894000000000,"state":"active","ping":59},{"user_id":188,"name":"General Fisticuffs","steam_id":76561198255721392,"connected_time":1439000000000,"state":"active","ping":109},{"user_id":127,"name":"kitsu ‚ô•","steam_id":76561198091741658,"connected_time":5147000000000,"state":"active","ping":63},{"user_id":197,"name":"Drapph","steam_id":76561199384213314,"connected_time":512000000000,"state":"active","ping":121},{"user_id":97,"name":"sly cooper","steam_id":76561198163717474,"connected_time":7282000000000,"state":"active","ping":61},{"user_id":171,"name":"Ôº≥Ôº¨Ôº∂Ôº¥Ôº£Ôº®Ôº°Ôº≠Ôº∞","steam_id":76561198883157736,"connected_time":2515000000000,"state":"active","ping":77},{"user_id":159,"name":"Cursed Dog","steam_id":76561198090785078,"connected_time":3265000000000,"state":"active","ping":113},{"user_id":200,"name":"Zetta","steam_id":76561198045710113,"connected_time":126000000000,"state":"active","ping":76},{"user_id":180,"name":"Zobozo","steam_id":76561198028954297,"connected_time":2130000000000,"state":"active","ping":51},{"user_id":199,"name":"my money washed like george","steam_id":76561198115458307,"connected_time":137000000000,"state":"active","ping":57},{"user_id":194,"name":"mr.edderkopper","steam_id":76561198152614478,"connected_time":902000000000,"state":"active","ping":102},{"user_id":163,"name":"Just a Good Friend","steam_id":76561198140052403,"connected_time":2929000000000,"state":"active","ping":42},{"user_id":181,"name":"o o o o o o o o o","steam_id":76561197993757506,"connected_time":2113000000000,"state":"active","ping":51},{"user_id":196,"name":"PrinterLights","steam_id":76561198145909722,"connected_time":571000000000,"state":"active","ping":63},{"user_id":187,"name":"DefectiveWarhead","steam_id":76561198067746049,"connected_time":1561000000000,"state":"active","ping":79},{"user_id":193,"name":"They/Them Rattussy","steam_id":76561198238186628,"connected_time":1029000000000,"state":"active","ping":60},{"user_id":98,"name":"Ayylmao","steam_id":76561198104780147,"connected_time":7258000000000,"state":"active","ping":94}]},{"server_id":18,"name":"Uncletopia | San Francisco | 2 | All Maps","name_short":"sfo-2","host":"sfo-1.us.uncletopia.com","port":27025,"enabled":true,"region":"us-west","cc":"us","latitude":37.77397,"longitude":-122.4313,"reserved":0,"last_update":"0001-01-01T00:00:00Z","name_a2s":"Uncletopia | San Francisco | 2 | All Maps","protocol":17,"map":"koth_highpass","folder":"tf","game":"Team Fortress","app_id":440,"player_count":0,"max_players":24,"Bots":0,"server_type":"Dedicated","server_os":"Linux","password":true,"vac":true,"version":"7757534","steam_id":85568392924470000,"keywords":["cp","nocrits","nodmgspread","uncletopia"],"game_id":440,"stv_port":27026,"stv_name":"Uncletopia | San Francisco | 2 | All Maps | STV","players":null},{"server_id":19,"name":"Uncletopia | San Francisco | 3 | Stopwatch Beta","name_short":"sfo-3","host":"sfo-1.us.uncletopia.com","port":27035,"enabled":true,"region":"us-west","cc":"us","latitude":37.77397,"longitude":-122.4313,"reserved":0,"last_update":"0001-01-01T00:00:00Z","name_a2s":"Uncletopia | San Francisco | 3 | Stopwatch Beta","protocol":17,"map":"koth_lakeside_final","folder":"tf","game":"Team Fortress","app_id":440,"player_count":0,"max_players":24,"Bots":0,"server_type":"Dedicated","server_os":"Linux","password":true,"vac":true,"version":"7757534","steam_id":85568392924742824,"keywords":["cp","nocrits","nodmgspread","uncletopia"],"game_id":440,"stv_port":27036,"stv_name":"Uncletopia | San Francisco | 3 | Stopwatch Beta | STV","players":null},{"server_id":20,"name":"Uncletopia | San Francisco | 4 | Community","name_short":"sfo-4","host":"sfo-1.us.uncletopia.com","port":27045,"enabled":true,"region":"us-west","cc":"us","latitude":37.77397,"longitude":-122.4313,"reserved":0,"last_update":"0001-01-01T00:00:00Z","name_a2s":"Uncletopia | San Francisco | 4 | Community","protocol":17,"map":"cp_altitude","folder":"tf","game":"Team Fortress","app_id":440,"player_count":0,"max_players":24,"Bots":0,"server_type":"Dedicated","server_os":"Linux","password":true,"vac":true,"version":"7757534","steam_id":85568392924742826,"keywords":["cp","nocrits","nodmgspread","uncletopia"],"game_id":440,"stv_port":27046,"stv_name":"Uncletopia | San Francisco | 4 | Community | STV","players":null},{"server_id":141,"name":"Uncletopia | Sydney | 1 | All Maps","name_short":"syd-1","host":"syd-1.au.uncletopia.com","port":27015,"enabled":true,"region":"au","cc":"au","latitude":-33.865143,"longitude":151.2099,"reserved":0,"last_update":"0001-01-01T00:00:00Z","name_a2s":"Uncletopia | Sydney | 1 | All Maps","protocol":17,"map":"cp_altitude","folder":"tf","game":"Team Fortress","app_id":440,"player_count":0,"max_players":24,"Bots":0,"server_type":"Dedicated","server_os":"Linux","password":true,"vac":true,"version":"7757534","steam_id":85568392924470001,"keywords":["cp","nocrits","nodmgspread","uncletopia"],"game_id":440,"stv_port":27016,"stv_name":"Uncletopia | Sydney | 1 | All Maps | STV","players":null},{"server_id":123,"name":"Uncletopia | Sydney | 2 | All Maps","name_short":"syd-2","host":"syd-1.au.uncletopia.com","port":27025,"enabled":true,"region":"au","cc":"au","latitude":-33.865143,"longitude":151.2099,"reserved":0,"last_update":"0001-01-01T00:00:00Z","name_a2s":"Uncletopia | Sydney | 2 | All Maps","protocol":17,"map":"cp_sunshine","folder":"tf","game":"Team Fortress","app_id":440,"player_count":0,"max_players":24,"Bots":0,"server_type":"Dedicated","server_os":"Linux","password":true,"vac":true,"version":"7757534","steam_id":85568392924470002,"keywords":["cp","nocrits","nodmgspread","uncletopia"],"game_id":440,"stv_port":27026,"stv_name":"Uncletopia | Sydney | 2 | All Maps | STV","players":null},{"server_id":395,"name":"Uncletopia | Sydney | 3 | All Maps","name_short":"syd-3","host":"syd-1.au.uncletopia.com","port":27035,"enabled":true,"region":"au","cc":"au","latitude":-33.865143,"longitude":151.2099,"reserved":0,"last_update":"0001-01-01T00:00:00Z","name_a2s":"Uncletopia | Sydney | 3 | All Maps","protocol":17,"map":"koth_cascade","folder":"tf","game":"Team Fortress","app_id":440,"player_count":0,"max_players":24,"Bots":0,"server_type":"Dedicated","server_os":"Linux","password":true,"vac":true,"version":"7757534","steam_id":85568392925194467,"keywords":["cp","nocrits","nodmgspread","uncletopia"],"game_id":440,"stv_port":27036,"stv_name":"Uncletopia | Sydney | 3 | All Maps | STV","players":null},{"server_id":396,"name":"Uncletopia | Sydney | 4 | All Maps","name_short":"syd-4","host":"syd-1.au.uncletopia.com","port":27045,"enabled":true,"region":"au","cc":"au","latitude":-33.865143,"longitude":151.2099,"reserved":0,"last_update":"0001-01-01T00:00:00Z","name_a2s":"Uncletopia | Sydney | 4 | All Maps","protocol":17,"map":"koth_highpass","folder":"tf","game":"Team Fortress","app_id":440,"player_count":0,"max_players":24,"Bots":0,"server_type":"Dedicated","server_os":"Linux","password":true,"vac":true,"version":"7757534","steam_id":85568392925397958,"keywords":["cp","nocrits","nodmgspread","uncletopia"],"game_id":440,"stv_port":27046,"stv_name":"Uncletopia | Sydney | 4 | All Maps | STV","players":null},{"server_id":58,"name":"Uncletopia | Sydney | 5 | Stopwatch Beta","name_short":"syd-5","host":"syd-1.au.uncletopia.com","port":27055,"enabled":true,"region":"au","cc":"au","latitude":-33.865143,"longitude":151.2099,"reserved":0,"last_update":"0001-01-01T00:00:00Z","name_a2s":"Uncletopia | Sydney | 5 | Stopwatch Beta","protocol":17,"map":"pl_upward","folder":"tf","game":"Team Fortress","app_id":440,"player_count":0,"max_players":24,"Bots":0,"server_type":"Dedicated","server_os":"Linux","password":true,"vac":true,"version":"7757534","steam_id":85568392925397959,"keywords":["nocrits","nodmgspread","payload","uncletopia"],"game_id":440,"stv_port":27056,"stv_name":"Uncletopia | Sydney | 5 | Stopwatch Beta | STV","players":null},{"server_id":59,"name":"Uncletopia | Sydney | 6 | Community","name_short":"syd-6","host":"syd-1.au.uncletopia.com","port":27065,"enabled":true,"region":"au","cc":"au","latitude":-33.865143,"longitude":151.2099,"reserved":0,"last_update":"0001-01-01T00:00:00Z","name_a2s":"Uncletopia | Sydney | 6 | Community","protocol":17,"map":"workshop/koth_slaughter_rc1.ugc1712845210","folder":"tf","game":"Team Fortress","app_id":440,"player_count":0,"max_players":24,"Bots":0,"server_type":"Dedicated","server_os":"Linux","password":true,"vac":true,"version":"7757534","steam_id":85568392925397960,"keywords":["cp","nocrits","nodmgspread","uncletopia"],"game_id":440,"stv_port":27066,"stv_name":"Uncletopia | Sydney | 6 | Community | STV","players":null},{"server_id":49,"name":"Uncletopia | Warsaw | 1 | All Maps","name_short":"waw-1","host":"waw-1.pl.uncletopia.com","port":27015,"enabled":true,"region":"eu","cc":"pl","latitude":52.2297,"longitude":21.017532,"reserved":0,"last_update":"0001-01-01T00:00:00Z","name_a2s":"","protocol":0,"map":"","folder":"","game":"","app_id":0,"player_count":0,"max_players":0,"Bots":0,"server_type":"","server_os":"","password":false,"vac":false,"version":"","steam_id":0,"keywords":null,"game_id":0,"stv_port":0,"stv_name":"","players":null},{"server_id":50,"name":"Uncletopia | Warsaw | 2 | All Maps","name_short":"waw-2","host":"waw-1.pl.uncletopia.com","port":27025,"enabled":true,"region":"eu","cc":"pl","latitude":52.2297,"longitude":21.017532,"reserved":0,"last_update":"0001-01-01T00:00:00Z","name_a2s":"Uncletopia | Warsaw | 2 | All Maps","protocol":17,"map":"koth_viaduct","folder":"tf","game":"Team Fortress","app_id":440,"player_count":2,"max_players":24,"Bots":0,"server_type":"Dedicated","server_os":"Linux","password":true,"vac":true,"version":"7757534","steam_id":85568392925397851,"keywords":["cp","nocrits","nodmgspread","uncletopia"],"game_id":440,"stv_port":27026,"stv_name":"Uncletopia | Warsaw | 2 | All Maps | STV","players":[{"user_id":8,"name":"The","steam_id":76561199028541854,"connected_time":2984000000000,"state":"active","ping":93},{"user_id":10,"name":"Jack.Orlando","steam_id":76561198802400236,"connected_time":768000000000,"state":"active","ping":84}]},{"server_id":51,"name":"Uncletopia | Warsaw | 3 | All Maps","name_short":"waw-3","host":"waw-1.pl.uncletopia.com","port":27035,"enabled":true,"region":"eu","cc":"pl","latitude":52.2297,"longitude":21.017532,"reserved":0,"last_update":"0001-01-01T00:00:00Z","name_a2s":"Uncletopia | Warsaw | 3 | All Maps","protocol":17,"map":"cp_altitude","folder":"tf","game":"Team Fortress","app_id":440,"player_count":0,"max_players":24,"Bots":0,"server_type":"Dedicated","server_os":"Linux","password":true,"vac":true,"version":"7757534","steam_id":85568392925397852,"keywords":["cp","nocrits","nodmgspread","uncletopia"],"game_id":440,"stv_port":27036,"stv_name":"Uncletopia | Warsaw | 3 | All Maps | STV","players":null},{"server_id":52,"name":"Uncletopia | Warsaw | 4 | All Maps","name_short":"waw-4","host":"waw-1.pl.uncletopia.com","port":27045,"enabled":true,"region":"eu","cc":"pl","latitude":52.2297,"longitude":21.017532,"reserved":0,"last_update":"0001-01-01T00:00:00Z","name_a2s":"Uncletopia | Warsaw | 4 | All Maps","protocol":17,"map":"koth_lakeside_final","folder":"tf","game":"Team Fortress","app_id":440,"player_count":0,"max_players":24,"Bots":0,"server_type":"Dedicated","server_os":"Linux","password":true,"vac":true,"version":"7757534","steam_id":85568392925397853,"keywords":["cp","nocrits","nodmgspread","uncletopia"],"game_id":440,"stv_port":27046,"stv_name":"Uncletopia | Warsaw | 4 | All Maps | STV","players":null},{"server_id":53,"name":"Uncletopia | Warsaw | 5 | Stopwatch Beta","name_short":"waw-5","host":"waw-1.pl.uncletopia.com","port":27055,"enabled":true,"region":"eu","cc":"pl","latitude":52.2297,"longitude":21.017532,"reserved":0,"last_update":"0001-01-01T00:00:00Z","name_a2s":"Uncletopia | Warsaw | 5 | Stopwatch Beta","protocol":17,"map":"pl_borneo","folder":"tf","game":"Team Fortress","app_id":440,"player_count":0,"max_players":24,"Bots":0,"server_type":"Dedicated","server_os":"Linux","password":true,"vac":true,"version":"7757534","steam_id":85568392925397854,"keywords":["nocrits","nodmgspread","payload","uncletopia"],"game_id":440,"stv_port":27056,"stv_name":"Uncletopia | Warsaw | 5 | Stopwatch Beta | STV","players":null},{"server_id":54,"name":"Uncletopia | Warsaw | 6 | Community","name_short":"waw-6","host":"waw-1.pl.uncletopia.com","port":27065,"enabled":true,"region":"eu","cc":"pl","latitude":52.2297,"longitude":21.017532,"reserved":0,"last_update":"0001-01-01T00:00:00Z","name_a2s":"Uncletopia | Warsaw | 6 | Community","protocol":17,"map":"koth_lakeside_final","folder":"tf","game":"Team Fortress","app_id":440,"player_count":0,"max_players":24,"Bots":0,"server_type":"Dedicated","server_os":"Linux","password":true,"vac":true,"version":"7757534","steam_id":85568392925397856,"keywords":["cp","nocrits","nodmgspread","uncletopia"],"game_id":440,"stv_port":27066,"stv_name":"Uncletopia | Warsaw | 6 | Community | STV","players":null}]}