{"status":true,"message":"","result":[{"server_id":9,"name":"Uncletopia | Atlanta | 1 | All Maps","name_short":"atl-1","host":"atl-1.us.uncletopia.com","port":27015,"enabled":true,"region":"us-east","cc":"us","latitude":33.753746,"longitude":-84.38633,"reserved":0,"last_update":"0001-01-01T00:00:00Z","name_a2s":"Uncletopia | Atlanta | 1 | All Maps","protocol":17,"map":"cp_snakewater_final1","folder":"tf","game":"Team Fortress","app_id":440,"player_count":0,"max_players":24,"Bots":0,"server_type":"Dedicated","server_os":"Linux","password":true,"vac":true,"version":"7932396","steam_id":85568392924469982,"keywords":["cp","nocrits","nodmgspread","uncletopia"],"game_id":440,"stv_port":27016,"stv_name":"Uncletopia | Atlanta | 1 | All Maps | STV","players":null},{"server_id":104,"name":"Uncletopia | Atlanta | 2 | All Maps","name_short":"atl-2","host":"atl-1.us.uncletopia.com","port":27025,"enabled":true,"region":"us-east","cc":"us","latitude":33.753746,"longitude":-84.38633,"reserved":0,"last_update":"0001-01-01T00:00:00Z","name_a2s":"Uncletopia | Atlanta | 2 | All Maps","protocol":17,"map":"cp_snakewater_final1","folder":"tf","game":"Team Fortress","app_id":440,"player_count":0,"max_players":24,"Bots":0,"server_type":"Dedicated","server_os":"Linux","password":true,"vac":true,"version":"7932396","steam_id":85568392924469983,"keywords":["cp","nocrits","nodmgspread","uncletopia"],"game_id":440,"stv_port":27026,"stv_name":"Uncletopia | Atlanta | 2 | All Maps | STV","players":null},{"server_id":400,"name":"Uncletopia | Atlanta | 3 | Community","name_short":"atl-3","host":"atl-1.us.uncletopia.com","port":27035,"enabled":true,"region":"us-east","cc":"us","latitude":33.753746,"longitude":-84.38633,"reserved":0,"last_update":"0001-01-01T00:00:00Z","name_a2s":"Uncletopia | Atlanta | 3 | Community","protocol":17,"map":"workshop/cp_bruhstbowl_b5.ugc2878604990","folder":"tf","game":"Team Fortress","app_id":440,"player_count":0,"max_players":24,"Bots":0,"server_type":"Dedicated","server_os":"Linux","password":true,"vac":true,"version":"7932396","steam_id":85568392924515187,"keywords":["cp","nocrits","nodmgspread","uncletopia"],"game_id":440,"stv_port":27036,"stv_name":"Uncletopia | Atlanta | 3 | Community | STV","players":null},{"server_id":401,"name":"Uncletopia | Atlanta | 4 | No Payload","name_short":"atl-4","host":"atl-1.us.uncletopia.com","port":27045,"enabled":true,"region":"us-east","cc":"us","latitude":33.753746,"longitude":-84.38633,"reserved":0,"last_update":"0001-01-01T00:00:00Z","name_a2s":"","protocol":0,"map":"","folder":"","game":"","app_id":0,"player_count":0,"max_players":0,"Bots":0,"server_type":"","server_os":"","password":false,"vac":false,"version":"","steam_id":0,"keywords":null,"game_id":0,"stv_port":0,"stv_name":"","players":null},{"server_id":2,"name":"Uncletopia | Chicago | 1 | All Maps","name_short":"chi-1","host":"chi-1.us.uncletopia.com","port":27015,"enabled":true,"region":"us-central","cc":"us","latitude":41.881832,"longitude":-87.62318,"reserved":0,"last_update":"0001-01-01T00:00:00Z","name_a2s":"Uncletopia | Chicago | 1 | All Maps","protocol":17,"map":"pl_barnblitz","folder":"tf","game":"Team Fortress","app_id":440,"player_count":24,"max_players":24,"Bots":0,"server_type":"Dedicated","server_os":"Linux","password":true,"vac":true,"version":"7932396","steam_id":85568392924469984,"keywords":["nocrits","nodmgspread","payload","uncletopia"],"game_id":440,"stv_port":27016,"stv_name":"Uncletopia | Chicago | 1 | All Maps | STV","players":[{"user_id":372,"name":"Tommy Provolone","steam_id":76561198170062377,"connected_time":5123000000000,"state":"active","ping":76},{"user_id":426,"name":"Sage","steam_id":76561198143101697,"connected_time":71000000000,"state":"active","ping":97},{"user_id":354,"name":"Skinny pete","steam_id":76561198801608576,"connected_time":6918000000000,"state":"active","ping":74},{"user_id":419,"name":"Burt Macklin","steam_id":76561198038080028,"connected_time":505000000000,"state":"active","ping":86},{"user_id":425,"name":"Frontier Psychiatrist","steam_id":76561198038689088,"connected_time":86000000000,"state":"active","ping":84},{"user_id":427,"name":"[S]Mr. X [No Monitor]","steam_id":76561197963746035,"connected_time":63000000000,"state":"active","ping":139},{"user_id":394,"name":"Polly Geist","steam_id":76561198271964253,"connected_time":1945000000000,"state":"active","ping":76},{"user_id":422,"name":"the private","steam_id":76561198232500756,"connected_time":208000000000,"state":"active","ping":77},{"user_id":345,"name":"AVSteve","steam_id":76561198017253298,"connected_time":7261000000000,"state":"active","ping":84},{"user_id":420,"name":"Cpl Coomer","steam_id":76561199143310951,"connected_time":489000000000,"state":"active","ping":59},{"user_id":405,"name":"Somegamer Deathcannon Brokengun","steam_id":76561199065430919,"connected_time":1156000000000,"state":"active","ping":89},{"user_id":398,"name":"LWebb","steam_id":76561199162936929,"connected_time":1896000000000,"state":"active","ping":75},{"user_id":404,"name":"tincant","steam_id":76561198357137800,"connected_time":1171000000000,"state":"active","ping":105},{"user_id":382,"name":"riSygneD","steam_id":76561198331618687,"connected_time":3791000000000,"state":"active","ping":101},{"user_id":406,"name":"thehookerslammer","steam_id":76561198050136796,"connected_time":1134000000000,"state":"active","ping":77},{"user_id":430,"name":"Joshy","steam_id":76561198061405421,"connected_time":33000000000,"state":"spawning","ping":85},{"user_id":431,"name":"Mail Delivery","steam_id":76561198290046318,"connected_time":23000000000,"state":"active","ping":61},{"user_id":411,"name":"ChrisCrafter","steam_id":76561198330277088,"connected_time":933000000000,"state":"active","ping":99},{"user_id":413,"name":"Flint","steam_id":76561198148412420,"connected_time":889000000000,"state":"active","ping":73},{"user_id":429,"name":"JUST ONE PEPSI","steam_id":76561198084334538,"connected_time":52000000000,"state":"active","ping":65},{"user_id":291,"name":"Mank","steam_id":76561198189421005,"connected_time":10208000000000,"state":"active","ping":45},{"user_id":432,"name":"Hector Salamanca","steam_id":76561199103213955,"connected_time":7000000000,"state":"spawning","ping":103},{"user_id":418,"name":"ultralisk52","steam_id":76561198051666604,"connected_time":518000000000,"state":"active","ping":61},{"user_id":353,"name":"DiGiorno's Pizza","steam_id":76561198142244035,"connected_time":6996000000000,"state":"active","ping":54}]},{"server_id":106,"name":"Uncletopia | Chicago | 2 | All Maps","name_short":"chi-2","host":"chi-1.us.uncletopia.com","port":27025,"enabled":true,"region":"us-central","cc":"us","latitude":41.881832,"longitude":-87.62318,"reserved":0,"last_update":"0001-01-01T00:00:00Z","name_a2s":"Uncletopia | Chicago | 2 | All Maps","protocol":17,"map":"pl_swiftwater_final1","folder":"tf","game":"Team Fortress","app_id":440,"player_count":24,"max_players":24,"Bots":0,"server_type":"Dedicated","server_os":"Linux","password":true,"vac":true,"version":"7932396","steam_id":85568392924469985,"keywords":["nocrits","nodmgspread","payload","uncletopia"],"game_id":440,"stv_port":27026,"stv_name":"Uncletopia | Chicago | 2 | All Maps | STV","players":[{"user_id":423,"name":"Rukks","steam_id":76561197993918954,"connected_time":460000000000,"state":"active","ping":83},{"user_id":415,"name":"moneymoneyganggang464","steam_id":76561199228490429,"connected_time":661000000000,"state":"active","ping":73},{"user_id":393,"name":"Nigel","steam_id":76561198115574712,"connected_time":2228000000000,"state":"active","ping":58},{"user_id":424,"name":"IRS Spec Ops","steam_id":76561198129148160,"connected_time":83000000000,"state":"active","ping":67},{"user_id":386,"name":"aleksei","steam_id":76561199061380038,"connected_time":3468000000000,"state":"active","ping":74},{"user_id":334,"name":"SHADY SWEATER SALESMAN","steam_id":76561198014616865,"connected_time":7262000000000,"state":"active","ping":73},{"user_id":417,"name":"Kidjays","steam_id":76561198124941901,"connected_time":656000000000,"state":"active","ping":96},{"user_id":372,"name":"radical","steam_id":76561197960364912,"connected_time":4346000000000,"state":"active","ping":77},{"user_id":398,"name":"chiswola","steam_id":76561198046920142,"connected_time":2135000000000,"state":"active","ping":66},{"user_id":391,"name":"Etzel","steam_id":76561198123309120,"connected_time":2322000000000,"state":"active","ping":62},{"user_id":427,"name":"Mush","steam_id":76561198393461065,"connected_time":18000000000,"state":"active","ping":77},{"user_id":410,"name":"hotguy6pack","steam_id":76561198881665250,"connected_time":1265000000000,"state":"active","ping":101},{"user_id":425,"name":"Freyja","steam_id":76561198207412177,"connected_time":78000000000,"state":"active","ping":67},{"user_id":419,"name":"Vali","steam_id":76561199487388562,"connected_time":647000000000,"state":"active","ping":70},{"user_id":402,"name":"burger_hero","steam_id":76561198232617936,"connected_time":1833000000000,"state":"active","ping":60},{"user_id":403,"name":"Â¥","steam_id":76561198037518646,"connected_time":1824000000000,"state":"active","ping":74},{"user_id":409,"name":"feel alive","steam_id":76561198173047169,"connected_time":1671000000000,"state":"active","ping":58},{"user_id":306,"name":"Shrep","steam_id":76561198127341481,"connected_time":8969000000000,"state":"active","ping":58},{"user_id":406,"name":"thelostrobotmusic","steam_id":76561199013230288,"connected_time":1759000000000,"state":"active","ping":102},{"user_id":369,"name":"Der Krieger105","steam_id":76561197978384609,"connected_time":4393000000000,"state":"active","ping":86},{"user_id":407,"name":"concrete_car","steam_id":76561198388207363,"connected_time":1723000000000,"state":"active","ping":77},{"user_id":365,"name":"Scorpianswag","steam_id":76561198260651036,"connected_time":5569000000000,"state":"active","ping":90},{"user_id":426,"name":"Anderred","steam_id":76561198149983847,"connected_time":34000000000,"state":"active","ping":79},{"user_id":413,"name":"123","steam_id":76561198106308056,"connected_time":779000000000,"state":"active","ping":131}]},{"server_id":402,"name":"Uncletopia | Chicago | 3 | All Maps","name_short":"chi-3","host":"chi-1.us.uncletopia.com","port":27035,"enabled":true,"region":"us-central","cc":"us","latitude":41.881832,"longitude":-87.62318,"reserved":0,"last_update":"0001-01-01T00:00:00Z","name_a2s":"Uncletopia | Chicago | 3 | All Maps","protocol":17,"map":"koth_suijin","folder":"tf","game":"Team Fortress","app_id":440,"player_count":24,"max_players":24,"Bots":0,"server_type":"Dedicated","server_os":"Linux","password":true,"vac":true,"version":"7932396","steam_id":85568392924515191,"keywords":["cp","nocrits","nodmgspread","uncletopia"],"game_id":440,"stv_port":27036,"stv_name":"Uncletopia | Chicago | 3 | All Maps | STV","players":[{"user_id":328,"name":"paetho YT","steam_id":76561198152690003,"connected_time":1803000000000,"state":"active","ping":54},{"user_id":343,"name":"Jabawakai","steam_id":76561198088881254,"connected_time":1358000000000,"state":"active","ping":56},{"user_id":312,"name":"olga gurlukovich â™¡","steam_id":76561198165615964,"connected_time":3870000000000,"state":"active","ping":87},{"user_id":331,"name":"robotspy890","steam_id":76561199211762981,"connected_time":1593000000000,"state":"active","ping":102},{"user_id":345,"name":"Pizza","steam_id":76561198118748364,"connected_time":1116000000000,"state":"active","ping":76},{"user_id":342,"name":"Vladikr1","steam_id":76561198401495362,"connected_time":1419000000000,"state":"active","ping":60},{"user_id":329,"name":"catmario332","steam_id":76561199006346912,"connected_time":1754000000000,"state":"active","ping":90},{"user_id":357,"name":"Dip","steam_id":76561198340433719,"connected_time":263000000000,"state":"active","ping":55},{"user_id":330,"name":"rat obliterater","steam_id":76561199147385953,"connected_time":1745000000000,"state":"active","ping":91},{"user_id":325,"name":"evilstuntman","steam_id":76561198056911537,"connected_time":2044000000000,"state":"active","ping":60},{"user_id":334,"name":"l4d2 marshall","steam_id":76561198042570322,"connected_time":1494000000000,"state":"active","ping":60},{"user_id":353,"name":"framp down","steam_id":76561198006316527,"connected_time":452000000000,"state":"active","ping":106},{"user_id":313,"name":"YEE","steam_id":76561198317068510,"connected_time":3868000000000,"state":"active","ping":55},{"user_id":352,"name":"--_Cook_--","steam_id":76561198080855748,"connected_time":472000000000,"state":"active","ping":46},{"user_id":336,"name":"daemon","steam_id":76561198001541433,"connected_time":1472000000000,"state":"active","ping":58},{"user_id":337,"name":"Strange Festive Femboy","steam_id":76561198050385093,"connected_time":1467000000000,"state":"active","ping":88},{"user_id":355,"name":"ChaingunnerFails","steam_id":76561198963075967,"connected_time":427000000000,"state":"active","ping":95},{"user_id":310,"name":"ChozoChorizo","steam_id":76561198272609196,"connected_time":3892000000000,"state":"active","ping":65},{"user_id":311,"name":"IKOVKY/TTV","steam_id":76561198138035040,"connected_time":3888000000000,"state":"active","ping":41},{"user_id":338,"name":"V!CT!M","steam_id":76561198962721502,"connected_time":1467000000000,"state":"active","ping":87},{"user_id":339,"name":"C Papi","steam_id":76561198027779564,"connected_time":1454000000000,"state":"active","ping":56},{"user_id":356,"name":"ðŸ…œðŸ…”ðŸ…”ðŸ…šðŸ…¢ðŸ…£ðŸ…”\ufffd\ufffd\ufffd","steam_id":76561197999748343,"connected_time":426000000000,"state":"active","ping":62},{"user_id":344,"name":"Waddlehi","steam_id":76561198072553840,"connected_time":1308000000000,"state":"active","ping":59},{"user_id":351,"name":"Mitchu The Bidness Man","steam_id":76561198102494381,"connected_time":536000000000,"state":"active","ping":61}]},{"server_id":403,"name":"Uncletopia | Chicago | 4 | All Maps","name_short":"chi-4","host":"chi-1.us.uncletopia.com","port":27045,"enabled":true,"region":"us-central","cc":"us","latitude":41.881832,"longitude":-87.62318,"reserved":0,"last_update":"0001-01-01T00:00:00Z","name_a2s":"Uncletopia | Chicago | 4 | All Maps","protocol":17,"map":"koth_lakeside_final","folder":"tf","game":"Team Fortress","app_id":440,"player_count":7,"max_players":24,"Bots":0,"server_type":"Dedicated","server_os":"Linux","password":true,"vac":true,"version":"7932396","steam_id":85568392924515193,"keywords":["cp","nocrits","nodmgspread","uncletopia"],"game_id":440,"stv_port":27046,"stv_name":"Uncletopia | Chicago | 4 | All Maps | STV","players":[{"user_id":307,"name":"Cherry Coke","steam_id":76561198178233006,"connected_time":1654000000000,"state":"active","ping":64},{"user_id":323,"name":"eryn ðŸ—º","steam_id":76561198004433070,"connected_time":867000000000,"state":"active","ping":66},{"user_id":316,"name":"E P H E M E R A L","steam_id":76561198128614882,"connected_time":1321000000000,"state":"active","ping":95},{"user_id":331,"name":"justaids96","steam_id":76561199036695414,"connected_time":138000000000,"state":"active","ping":68},{"user_id":326,"name":"NikoOS (NO SOUND)","steam_id":76561198180020521,"connected_time":773000000000,"state":"active","ping":130},{"user_id":308,"name":"leaf","steam_id":76561198059680103,"connected_time":1652000000000,"state":"active","ping":59},{"user_id":311,"name":"Just Dez","steam_id":76561199327664719,"connected_time":1580000000000,"state":"active","ping":130}]},{"server_id":36,"name":"Uncletopia | Chicago | 5 | All Maps","name_short":"chi-5","host":"chi-2.us.uncletopia.com","port":27015,"enabled":true,"region":"us-central","cc":"us","latitude":41.881832,"longitude":-87.62318,"reserved":0,"last_update":"0001-01-01T00:00:00Z","name_a2s":"Uncletopia | Chicago | 5 | All Maps","protocol":17,"map":"pl_upward","folder":"tf","game":"Team Fortress","app_id":440,"player_count":14,"max_players":24,"Bots":0,"server_type":"Dedicated","server_os":"Linux","password":true,"vac":true,"version":"7932396","steam_id":85568392924866362,"keywords":["nocrits","nodmgspread","payload","uncletopia"],"game_id":440,"stv_port":27016,"stv_name":"Uncletopia | Chicago | 5 | All Maps | STV","players":[{"user_id":407,"name":"D4NMAR","steam_id":76561198056453091,"connected_time":3608000000000,"state":"active","ping":46},{"user_id":419,"name":"BigDeac","steam_id":76561198091237274,"connected_time":2854000000000,"state":"active","ping":55},{"user_id":425,"name":"Bryguy","steam_id":76561198092096120,"connected_time":2496000000000,"state":"active","ping":45},{"user_id":434,"name":"Ariscorech","steam_id":76561198117206414,"connected_time":1396000000000,"state":"active","ping":72},{"user_id":448,"name":"Feel the bern","steam_id":76561198078824519,"connected_time":200000000000,"state":"connecting","ping":0},{"user_id":449,"name":"Fargo","steam_id":76561198044703931,"connected_time":195000000000,"state":"active","ping":61},{"user_id":451,"name":"OneLess","steam_id":76561198150870338,"connected_time":26000000000,"state":"active","ping":78},{"user_id":450,"name":"BigWack","steam_id":76561198334878169,"connected_time":106000000000,"state":"active","ping":89},{"user_id":376,"name":"Astrial","steam_id":76561198068145656,"connected_time":6156000000000,"state":"active","ping":86},{"user_id":296,"name":"alN","steam_id":76561198329171346,"connected_time":11812000000000,"state":"active","ping":42},{"user_id":433,"name":"noah","steam_id":76561198173310157,"connected_time":2084000000000,"state":"active","ping":54},{"user_id":427,"name":"Goober","steam_id":76561198988863807,"connected_time":2447000000000,"state":"active","ping":76},{"user_id":372,"name":"Periculosum PhD in Funny","steam_id":76561198123370914,"connected_time":6654000000000,"state":"active","ping":70},{"user_id":446,"name":"Ramiâœ¿","steam_id":76561198993652475,"connected_time":829000000000,"state":"active","ping":86}]},{"server_id":37,"name":"Uncletopia | Chicago | 6 | All Maps","name_short":"chi-6","host":"chi-2.us.uncletopia.com","port":27025,"enabled":true,"region":"us-central","cc":"us","latitude":41.881832,"longitude":-87.62318,"reserved":0,"last_update":"0001-01-01T00:00:00Z","name_a2s":"Uncletopia | Chicago | 6 | All Maps","protocol":17,"map":"cp_process_final","folder":"tf","game":"Team Fortress","app_id":440,"player_count":23,"max_players":24,"Bots":0,"server_type":"Dedicated","server_os":"Linux","password":true,"vac":true,"version":"7932396","steam_id":85568392924866363,"keywords":["cp","nocrits","nodmgspread","uncletopia"],"game_id":440,"stv_port":27026,"stv_name":"Uncletopia | Chicago | 6 | All Maps | STV","players":[{"user_id":436,"name":"Ryan Lewis truther","steam_id":76561198050505826,"connected_time":301000000000,"state":"active","ping":83},{"user_id":421,"name":"bladees saddest, realest verse","steam_id":76561198098099826,"connected_time":1148000000000,"state":"active","ping":88},{"user_id":401,"name":"CherriKat","steam_id":76561198821297512,"connected_time":2250000000000,"state":"active","ping":106},{"user_id":402,"name":"ALBINO LESBIAN MIDGET","steam_id":76561198122691714,"connected_time":1904000000000,"state":"active","ping":83},{"user_id":395,"name":"é‡ŒèŠ‹ - Tarooo","steam_id":76561198392986348,"connected_time":2888000000000,"state":"active","ping":84},{"user_id":416,"name":"Alejandro","steam_id":76561197970051493,"connected_time":1465000000000,"state":"active","ping":141},{"user_id":376,"name":"Punished \"Venom\" Snick","steam_id":76561198066566813,"connected_time":4357000000000,"state":"active","ping":130},{"user_id":404,"name":"willow","steam_id":76561198068266114,"connected_time":1813000000000,"state":"active","ping":62},{"user_id":415,"name":"WILT","steam_id":76561198142893003,"connected_time":1569000000000,"state":"active","ping":66},{"user_id":405,"name":"micah","steam_id":76561197984579630,"connected_time":1803000000000,"state":"active","ping":93},{"user_id":426,"name":"Pyro she/her","steam_id":76561198214080773,"connected_time":1043000000000,"state":"active","ping":88},{"user_id":432,"name":"AAAAAAAAAAAAAAAAAAAAAAAAAAAAAAA","steam_id":76561198125467937,"connected_time":566000000000,"state":"active","ping":114},{"user_id":412,"name":"the witness enthusiast","steam_id":76561198277979851,"connected_time":1647000000000,"state":"active","ping":87},{"user_id":373,"name":"motherfucker 2.0","steam_id":76561198141189209,"connected_time":4440000000000,"state":"active","ping":59},{"user_id":423,"name":"Space Lizard","steam_id":76561198056798193,"connected_time":1134000000000,"state":"active","ping":82},{"user_id":431,"name":"Williams Driver #63","steam_id":76561198339376559,"connected_time":796000000000,"state":"active","ping":60},{"user_id":434,"name":"A Tub of Scorpions","steam_id":76561198037295298,"connected_time":490000000000,"state":"active","ping":72},{"user_id":437,"name":"igotswag.com","steam_id":76561198083851689,"connected_time":162000000000,"state":"active","ping":65},{"user_id":438,"name":"St. Michael","steam_id":76561198037611052,"connected_time":107000000000,"state":"active","ping":68},{"user_id":424,"name":"countlesschromosome","steam_id":76561197972601902,"connected_time":1111000000000,"state":"active","ping":89},{"user_id":427,"name":"Jeong Jeong","steam_id":76561198125063586,"connected_time":992000000000,"state":"active","ping":45},{"user_id":393,"name":"duneblaster0","steam_id":76561198040364680,"connected_time":3090000000000,"state":"active","ping":45},{"user_id":382,"name":"tsun.","steam_id":76561198079488962,"connected_time":4318000000000,"state":"active","ping":104}]},{"server_id":38,"name":"Uncletopia | Chicago | 7 | Stopwatch Beta","name_short":"chi-7","host":"chi-2.us.uncletopia.com","port":27035,"enabled":true,"region":"us-central","cc":"us","latitude":41.881832,"longitude":-87.62318,"reserved":0,"last_update":"0001-01-01T00:00:00Z","name_a2s":"Uncletopia | Chicago | 7 | Stopwatch Beta","protocol":17,"map":"workshop/koth_ashville_final.ugc2130459942","folder":"tf","game":"Team Fortress","app_id":440,"player_count":0,"max_players":24,"Bots":0,"server_type":"Dedicated","server_os":"Linux","password":true,"vac":true,"version":"7932396","steam_id":85568392924866364,"keywords":["cp","nocrits","nodmgspread","uncletopia"],"game_id":440,"stv_port":27036,"stv_name":"Uncletopia | Chicago | 7 | Stopwatch Beta | STV","players":null},{"server_id":39,"name":"Uncletopia | Chicago | 8 | Community","name_short":"chi-8","host":"chi-2.us.uncletopia.com","port":27045,"enabled":true,"region":"us-central","cc":"us","latitude":41.881832,"longitude":-87.62318,"reserved":0,"last_update":"0001-01-01T00:00:00Z","name_a2s":"Uncletopia | Chicago | 8 | Community","protocol":17,"map":"workshop/pl_barnblitz_pro7.ugc582280235","folder":"tf","game":"Team Fortress","app_id":440,"player_count":23,"max_players":24,"Bots":0,"server_type":"Dedicated","server_os":"Linux","password":true,"vac":true,"version":"7932396","steam_id":85568392924866365,"keywords":["nocrits","nodmgspread","payload","uncletopia"],"game_id":440,"stv_port":27046,"stv_name":"Uncletopia | Chicago | 8 | Community | STV","players":[{"user_id":197,"name":"Jesse Bear","steam_id":76561198217075305,"connected_time":3983000000000,"state":"active","ping":92},{"user_id":231,"name":"devmunk","steam_id":76561198090807130,"connected_time":1066000000000,"state":"active","ping":85},{"user_id":182,"name":"Beef Jerky32","steam_id":76561198192526325,"connected_time":4869000000000,"state":"active","ping":86},{"user_id":205,"name":"lilmanband","steam_id":76561198082460728,"connected_time":3072000000000,"state":"active","ping":60},{"user_id":183,"name":"transbian disaster","steam_id":76561198407600762,"connected_time":4786000000000,"state":"active","ping":94},{"user_id":206,"name":"Q47","steam_id":76561198087128341,"connected_time":3036000000000,"state":"active","ping":128},{"user_id":209,"name":"xFactr","steam_id":76561198129007422,"connected_time":2762000000000,"state":"active","ping":53},{"user_id":203,"name":"SharkBearGator","steam_id":76561198071233739,"connected_time":3406000000000,"state":"active","ping":60},{"user_id":228,"name":"Team Fartpiss Poo","steam_id":76561199163591880,"connected_time":1470000000000,"state":"active","ping":97},{"user_id":220,"name":"westward (was/were)","steam_id":76561198805512350,"connected_time":2143000000000,"state":"active","ping":116},{"user_id":233,"name":"2L84U","steam_id":76561198079176017,"connected_time":996000000000,"state":"active","ping":85},{"user_id":234,"name":"Archie","steam_id":76561198137112917,"connected_time":955000000000,"state":"active","ping":94},{"user_id":242,"name":"Rubber Child","steam_id":76561198144654350,"connected_time":567000000000,"state":"active","ping":94},{"user_id":213,"name":"This is hat is one of a kind","steam_id":76561198065649195,"connected_time":2412000000000,"state":"active","ping":95},{"user_id":221,"name":"burger","steam_id":76561198058209703,"connected_time":2131000000000,"state":"active","ping":55},{"user_id":239,"name":"Fstev âœ˜","steam_id":76561198358766202,"connected_time":776000000000,"state":"active","ping":147},{"user_id":237,"name":"KÂ²","steam_id":76561197988977896,"connected_time":807000000000,"state":"active","ping":46},{"user_id":247,"name":"erf","steam_id":76561198078203677,"connected_time":90000000000,"state":"active","ping":76},{"user_id":214,"name":"Dennis","steam_id":76561198090531755,"connected_time":2398000000000,"state":"active","ping":74},{"user_id":246,"name":"The Life Aquatic","steam_id":76561199059257565,"connected_time":374000000000,"state":"active","ping":85},{"user_id":227,"name":"burt","steam_id":76561198137548311,"connected_time":1515000000000,"state":"active","ping":74},{"user_id":241,"name":"frank","steam_id":76561198137777483,"connected_time":679000000000,"state":"active","ping":63},{"user_id":244,"name":"Zoro01","steam_id":76561198407989540,"connected_time":510000000000,"state":"active","ping":131}]},{"server_id":8,"name":"Uncletopia | Dallas | 1 | All Maps","name_short":"dal-1","host":"dal-1.us.uncletopia.com","port":27015,"enabled":true,"region":"us-central","cc":"us","latitude":32.779167,"longitude":-96.80889,"reserved":0,"last_update":"0001-01-01T00:00:00Z","name_a2s":"Uncletopia | Dallas | 1 | All Maps","protocol":17,"map":"pl_snowycoast","folder":"tf","game":"Team Fortress","app_id":440,"player_count":24,"max_players":24,"Bots":0,"server_type":"Dedicated","server_os":"Linux","password":true,"vac":true,"version":"7932396","steam_id":85568392924469986,"keywords":["nocrits","nodmgspread","payload","uncletopia"],"game_id":440,"stv_port":27016,"stv_name":"Uncletopia | Dallas | 1 | All Maps | STV","players":[{"user_id":627,"name":"Rubeb","steam_id":76561198179489037,"connected_time":705000000000,"state":"active","ping":75},{"user_id":538,"name":"java","steam_id":76561198030276792,"connected_time":6304000000000,"state":"active","ping":61},{"user_id":584,"name":"ATL1 | Le4n!!!","steam_id":76561198045522596,"connected_time":3507000000000,"state":"active","ping":89},{"user_id":622,"name":"Toonice","steam_id":76561198402994885,"connected_time":1458000000000,"state":"active","ping":101},{"user_id":621,"name":"blaine_\\","steam_id":76561198042444734,"connected_time":1537000000000,"state":"active","ping":67},{"user_id":617,"name":"Bitblock","steam_id":76561198359772017,"connected_time":1892000000000,"state":"active","ping":75},{"user_id":634,"name":"Yummy Kabobz","steam_id":76561198067661705,"connected_time":408000000000,"state":"active","ping":76},{"user_id":635,"name":"Townze","steam_id":76561198081827165,"connected_time":389000000000,"state":"active","ping":56},{"user_id":624,"name":"Otterman Empire","steam_id":76561198047758442,"connected_time":890000000000,"state":"active","ping":112},{"user_id":603,"name":"Ferruco:3","steam_id":76561198431714229,"connected_time":2456000000000,"state":"active","ping":60},{"user_id":619,"name":"Sophie","steam_id":76561198170408057,"connected_time":1686000000000,"state":"active","ping":61},{"user_id":611,"name":"Ù†ØµÙ„ÙŠ Ù…Ù† Ø£Ø¬Ù„ Ø³Ù‚ÙˆØ·Ù‡","steam_id":76561198021308963,"connected_time":2074000000000,"state":"active","ping":61},{"user_id":632,"name":"basmati jarate","steam_id":76561198319442494,"connected_time":450000000000,"state":"active","ping":90},{"user_id":555,"name":"sithreis","steam_id":76561198000564263,"connected_time":5249000000000,"state":"active","ping":73},{"user_id":539,"name":"King","steam_id":76561198010019214,"connected_time":6297000000000,"state":"active","ping":77},{"user_id":628,"name":"KING KONG","steam_id":76561198927517471,"connected_time":705000000000,"state":"active","ping":71},{"user_id":633,"name":"ntjohn","steam_id":76561198043367011,"connected_time":447000000000,"state":"active","ping":91},{"user_id":620,"name":"eish","steam_id":76561198089463603,"connected_time":1571000000000,"state":"active","ping":138},{"user_id":630,"name":"great1photo","steam_id":76561198085481933,"connected_time":601000000000,"state":"active","ping":102},{"user_id":638,"name":"honk","steam_id":76561198050398028,"connected_time":167000000000,"state":"active","ping":90},{"user_id":543,"name":"lanoc","steam_id":76561198055415367,"connected_time":6118000000000,"state":"active","ping":60},{"user_id":595,"name":"Katzenwerfer","steam_id":76561198345464748,"connected_time":3148000000000,"state":"active","ping":75},{"user_id":636,"name":"Gram","steam_id":76561199487315859,"connected_time":386000000000,"state":"active","ping":68},{"user_id":610,"name":"trackin ops like NORAD","steam_id":76561198040675606,"connected_time":2156000000000,"state":"active","ping":53}]},{"server_id":108,"name":"Uncletopia | Dallas | 2 | All Maps","name_short":"dal-2","host":"dal-1.us.uncletopia.com","port":27025,"enabled":true,"region":"us-central","cc":"us","latitude":32.779167,"longitude":-96.80889,"reserved":0,"last_update":"0001-01-01T00:00:00Z","name_a2s":"Uncletopia | Dallas | 2 | All Maps","protocol":17,"map":"pl_upward","folder":"tf","game":"Team Fortress","app_id":440,"player_count":24,"max_players":24,"Bots":0,"server_type":"Dedicated","server_os":"Linux","password":true,"vac":true,"version":"7932396","steam_id":85568392924469988,"keywords":["nocrits","nodmgspread","payload","uncletopia"],"game_id":440,"stv_port":27026,"stv_name":"Uncletopia | Dallas | 2 | All Maps | STV","players":[{"user_id":504,"name":"Lore","steam_id":76561198098407538,"connected_time":1173000000000,"state":"active","ping":70},{"user_id":496,"name":"Flying Frenchman","steam_id":76561198318256099,"connected_time":2164000000000,"state":"active","ping":90},{"user_id":510,"name":"Reisen Udongein Inaba","steam_id":76561198051082314,"connected_time":813000000000,"state":"active","ping":95},{"user_id":514,"name":"BigPimpin","steam_id":76561198119549348,"connected_time":144000000000,"state":"active","ping":37},{"user_id":509,"name":"bobletoob","steam_id":76561199184464900,"connected_time":830000000000,"state":"active","ping":85},{"user_id":467,"name":"Akornical","steam_id":76561199171025092,"connected_time":4293000000000,"state":"active","ping":88},{"user_id":515,"name":"Panda Loser","steam_id":76561198828745176,"connected_time":117000000000,"state":"active","ping":80},{"user_id":450,"name":"Snake Handler","steam_id":76561198027198306,"connected_time":5256000000000,"state":"active","ping":76},{"user_id":491,"name":"spiderguy","steam_id":76561198412074955,"connected_time":2977000000000,"state":"active","ping":65},{"user_id":451,"name":"Nemir","steam_id":76561198063123150,"connected_time":5241000000000,"state":"active","ping":43},{"user_id":506,"name":"Left_otd","steam_id":76561198117190963,"connected_time":1159000000000,"state":"active","ping":308},{"user_id":511,"name":"Valfour","steam_id":76561197995997680,"connected_time":615000000000,"state":"active","ping":82},{"user_id":512,"name":"glowskull","steam_id":76561198013650292,"connected_time":568000000000,"state":"active","ping":119},{"user_id":507,"name":"frostedflakes99","steam_id":76561199049292578,"connected_time":1150000000000,"state":"active","ping":75},{"user_id":408,"name":"Holly","steam_id":76561198982631429,"connected_time":8441000000000,"state":"active","ping":55},{"user_id":493,"name":"coolbust carti","steam_id":76561198065384345,"connected_time":2920000000000,"state":"active","ping":90},{"user_id":485,"name":"Spinch","steam_id":76561198296224166,"connected_time":3210000000000,"state":"active","ping":81},{"user_id":381,"name":"Squiliam","steam_id":76561198025278006,"connected_time":10966000000000,"state":"active","ping":40},{"user_id":508,"name":"Bubbasloosky","steam_id":76561198082227045,"connected_time":980000000000,"state":"active","ping":115},{"user_id":494,"name":"AlcoholicDad454","steam_id":76561198157414556,"connected_time":2858000000000,"state":"active","ping":84},{"user_id":486,"name":"Publo","steam_id":76561198161777140,"connected_time":3207000000000,"state":"active","ping":58},{"user_id":513,"name":"It's a Doggydog World","steam_id":76561198018232414,"connected_time":314000000000,"state":"active","ping":100},{"user_id":501,"name":"Drez47","steam_id":76561198380714058,"connected_time":1546000000000,"state":"active","ping":60},{"user_id":477,"name":"Tskuno","steam_id":76561198129291597,"connected_time":3811000000000,"state":"active","ping":85}]},{"server_id":5,"name":"Uncletopia | Frankfurt | 1 | All Maps","name_short":"frk-1","host":"frk-1.de.uncletopia.com","port":27015,"enabled":true,"region":"eu","cc":"de","latitude":50.110924,"longitude":8.682127,"reserved":0,"last_update":"0001-01-01T00:00:00Z","name_a2s":"Uncletopia | Frankfurt | 1 | All Maps","protocol":17,"map":"koth_cascade","folder":"tf","game":"Team Fortress","app_id":440,"player_count":0,"max_players":24,"Bots":0,"server_type":"Dedicated","server_os":"Linux","password":true,"vac":true,"version":"7932396","steam_id":85568392924469989,"keywords":["cp","nocrits","nodmgspread","uncletopia"],"game_id":440,"stv_port":27016,"stv_name":"Uncletopia | Frankfurt | 1 | All Maps | STV","players":null},{"server_id":110,"name":"Uncletopia | Frankfurt | 2 | All Maps","name_short":"frk-2","host":"frk-1.de.uncletopia.com","port":27025,"enabled":true,"region":"eu","cc":"de","latitude":50.110924,"longitude":8.682127,"reserved":0,"last_update":"0001-01-01T00:00:00Z","name_a2s":"Uncletopia | Frankfurt | 2 | All Maps","protocol":17,"map":"koth_lakeside_final","folder":"tf","game":"Team Fortress","app_id":440,"player_count":0,"max_players":24,"Bots":0,"server_type":"Dedicated","server_os":"Linux","password":true,"vac":true,"version":"7932396","steam_id":85568392924469990,"keywords":["cp","nocrits","nodmgspread","uncletopia"],"game_id":440,"stv_port":27026,"stv_name":"Uncletopia | Frankfurt | 2 | All Maps | STV","players":null},{"server_id":308,"name":"Uncletopia | Frankfurt | 3 | All Maps","name_short":"frk-3","host":"frk-1.de.uncletopia.com","port":27035,"enabled":true,"region":"eu","cc":"de","latitude":50.110924,"longitude":8.682127,"reserved":0,"last_update":"0001-01-01T00:00:00Z","name_a2s":"Uncletopia | Frankfurt | 3 | All Maps","protocol":17,"map":"pl_barnblitz","folder":"tf","game":"Team Fortress","app_id":440,"player_count":0,"max_players":24,"Bots":0,"server_type":"Dedicated","server_os":"Linux","password":true,"vac":true,"version":"7932396","steam_id":85568392924504274,"keywords":["nocrits","nodmgspread","payload","uncletopia"],"game_id":440,"stv_port":27036,"stv_name":"Uncletopia | Frankfurt | 3 | All Maps | STV","players":null},{"server_id":309,"name":"Uncletopia | Frankfurt | 4 | All Maps","name_short":"frk-4","host":"frk-1.de.uncletopia.com","port":27045,"enabled":true,"region":"eu","cc":"de","latitude":50.110924,"longitude":8.682127,"reserved":0,"last_update":"0001-01-01T00:00:00Z","name_a2s":"Uncletopia | Frankfurt | 4 | All Maps","protocol":17,"map":"koth_cascade","folder":"tf","game":"Team Fortress","app_id":440,"player_count":0,"max_players":24,"Bots":0,"server_type":"Dedicated","server_os":"Linux","password":true,"vac":true,"version":"7932396","steam_id":85568392924504275,"keywords":["cp","nocrits","nodmgspread","uncletopia"],"game_id":440,"stv_port":27046,"stv_name":"Uncletopia | Frankfurt | 4 | All Maps | STV","players":null},{"server_id":310,"name":"Uncletopia | Frankfurt | 5 | All Maps","name_short":"frk-5","host":"frk-1.de.uncletopia.com","port":27055,"enabled":true,"region":"eu","cc":"de","latitude":50.110924,"longitude":8.682127,"reserved":0,"last_update":"0001-01-01T00:00:00Z","name_a2s":"Uncletopia | Frankfurt | 5 | All Maps","protocol":17,"map":"plr_hightower","folder":"tf","game":"Team Fortress","app_id":440,"player_count":0,"max_players":24,"Bots":0,"server_type":"Dedicated","server_os":"Linux","password":true,"vac":true,"version":"7932396","steam_id":85568392924504277,"keywords":["nocrits","nodmgspread","payload","uncletopia"],"game_id":440,"stv_port":27056,"stv_name":"Uncletopia | Frankfurt | 5 | All Maps | STV","players":null},{"server_id":311,"name":"Uncletopia | Frankfurt | 6 | All Maps","name_short":"frk-6","host":"frk-1.de.uncletopia.com","port":27065,"enabled":true,"region":"eu","cc":"de","latitude":50.110924,"longitude":8.682127,"reserved":0,"last_update":"0001-01-01T00:00:00Z","name_a2s":"Uncletopia | Frankfurt | 6 | All Maps","protocol":17,"map":"koth_highpass","folder":"tf","game":"Team Fortress","app_id":440,"player_count":0,"max_players":24,"Bots":0,"server_type":"Dedicated","server_os":"Linux","password":true,"vac":true,"version":"7932396","steam_id":85568392924504278,"keywords":["cp","nocrits","nodmgspread","uncletopia"],"game_id":440,"stv_port":27066,"stv_name":"Uncletopia | Frankfurt | 6 | All Maps | STV","players":null},{"server_id":23,"name":"Uncletopia | Frankfurt | 7 | Stopwatch Beta","name_short":"frk-7","host":"frk-1.de.uncletopia.com","port":27075,"enabled":true,"region":"eu","cc":"de","latitude":50.110924,"longitude":8.682127,"reserved":0,"last_update":"0001-01-01T00:00:00Z","name_a2s":"Uncletopia | Frankfurt | 7 | Stopwatch Beta","protocol":17,"map":"workshop/koth_bagel_rc6.ugc2514036946","folder":"tf","game":"Team Fortress","app_id":440,"player_count":0,"max_players":24,"Bots":0,"server_type":"Dedicated","server_os":"Linux","password":true,"vac":true,"version":"7932396","steam_id":85568392924742827,"keywords":["cp","nocrits","nodmgspread","uncletopia"],"game_id":440,"stv_port":27076,"stv_name":"Uncletopia | Frankfurt | 7 | Stopwatch Beta | STV","players":null},{"server_id":24,"name":"Uncletopia | Frankfurt | 8 | Community","name_short":"frk-8","host":"frk-1.de.uncletopia.com","port":27085,"enabled":true,"region":"eu","cc":"de","latitude":50.110924,"longitude":8.682127,"reserved":0,"last_update":"0001-01-01T00:00:00Z","name_a2s":"Uncletopia | Frankfurt | 8 | Community","protocol":17,"map":"workshop/rd_asteroid_redux_b1.ugc2154902912","folder":"tf","game":"Team Fortress","app_id":440,"player_count":0,"max_players":24,"Bots":0,"server_type":"Dedicated","server_os":"Linux","password":true,"vac":true,"version":"7932396","steam_id":85568392924742828,"keywords":["beta","nocrits","nodmgspread","rd","uncletopia"],"game_id":440,"stv_port":27086,"stv_name":"Uncletopia | Frankfurt | 8 | Community | STV","players":null},{"server_id":202,"name":"Uncletopia | Hong Kong | 1 | All Maps","name_short":"hgk-1","host":"hgk-1.hk.uncletopia.com","port":27015,"enabled":true,"region":"asia","cc":"hk","latitude":22.302711,"longitude":114.177216,"reserved":0,"last_update":"0001-01-01T00:00:00Z","name_a2s":"Uncletopia | Hong Kong | 1 | All Maps","protocol":17,"map":"pl_badwater","folder":"tf","game":"Team Fortress","app_id":440,"player_count":0,"max_players":24,"Bots":0,"server_type":"Dedicated","server_os":"Linux","password":true,"vac":true,"version":"7932396","steam_id":85568392924494504,"keywords":["nocrits","nodmgspread","payload","uncletopia"],"game_id":440,"stv_port":27016,"stv_name":"Uncletopia | Hong Kong | 1 | All Maps | STV","players":null},{"server_id":1,"name":"Uncletopia | Los Angeles | 1 | All Maps","name_short":"lax-1","host":"lax-1.us.uncletopia.com","port":27015,"enabled":true,"region":"us-west","cc":"us","latitude":33.94279,"longitude":-118.41004,"reserved":0,"last_update":"0001-01-01T00:00:00Z","name_a2s":"Uncletopia | Los Angeles | 1 | All Maps","protocol":17,"map":"pl_pier","folder":"tf","game":"Team Fortress","app_id":440,"player_count":24,"max_players":24,"Bots":0,"server_type":"Dedicated","server_os":"Linux","password":true,"vac":true,"version":"7932396","steam_id":85568392924469991,"keywords":["nocrits","nodmgspread","payload","uncletopia"],"game_id":440,"stv_port":27016,"stv_name":"Uncletopia | Los Angeles | 1 | All Maps | STV","players":[{"user_id":420,"name":"Taco+Taco=Burrito","steam_id":76561198063128663,"connected_time":713000000000,"state":"active","ping":42},{"user_id":448,"name":"EdxTheFig","steam_id":76561198108650109,"connected_time":109000000000,"state":"active","ping":46},{"user_id":446,"name":"nice skull","steam_id":76561198229001436,"connected_time":210000000000,"state":"active","ping":69},{"user_id":346,"name":"Jimmy","steam_id":76561198857959855,"connected_time":3854000000000,"state":"active","ping":42},{"user_id":421,"name":"ahazz","steam_id":76561198138161605,"connected_time":711000000000,"state":"active","ping":56},{"user_id":318,"name":"The Dinkle","steam_id":76561198098155041,"connected_time":6789000000000,"state":"active","ping":72},{"user_id":424,"name":"Joe Biden (Deceased)","steam_id":76561198170427507,"connected_time":621000000000,"state":"active","ping":50},{"user_id":449,"name":"Igrium","steam_id":76561198119549811,"connected_time":39000000000,"state":"spawning","ping":51},{"user_id":425,"name":"mcgram2","steam_id":76561199121850792,"connected_time":593000000000,"state":"active","ping":101},{"user_id":430,"name":"Walrus","steam_id":76561198001799905,"connected_time":454000000000,"state":"active","ping":48},{"user_id":411,"name":"Escapist Robot","steam_id":76561198121501913,"connected_time":1179000000000,"state":"active","ping":56},{"user_id":415,"name":"Fostrel","steam_id":76561198152160601,"connected_time":822000000000,"state":"active","ping":90},{"user_id":447,"name":"Olibeea","steam_id":76561198079445380,"connected_time":139000000000,"state":"active","ping":71},{"user_id":416,"name":"Throws Before Brosó €¡","steam_id":76561197992905530,"connected_time":779000000000,"state":"active","ping":59},{"user_id":397,"name":"Deetchy","steam_id":76561198072091523,"connected_time":2038000000000,"state":"active","ping":84},{"user_id":440,"name":"Revey","steam_id":76561198194076949,"connected_time":317000000000,"state":"active","ping":119},{"user_id":427,"name":"Joe Biden","steam_id":76561198238699798,"connected_time":546000000000,"state":"active","ping":86},{"user_id":444,"name":"El Chunko","steam_id":76561198839459309,"connected_time":243000000000,"state":"active","ping":67},{"user_id":398,"name":"souuuljah","steam_id":76561198427653112,"connected_time":2015000000000,"state":"active","ping":48},{"user_id":399,"name":"jadesouledout","steam_id":76561198866936507,"connected_time":2012000000000,"state":"active","ping":55},{"user_id":354,"name":"californjoe","steam_id":76561197965047795,"connected_time":3514000000000,"state":"active","ping":55},{"user_id":450,"name":"lker","steam_id":76561197976975075,"connected_time":37000000000,"state":"active","ping":91},{"user_id":401,"name":"HanakoToast","steam_id":76561198045233131,"connected_time":2008000000000,"state":"active","ping":62},{"user_id":436,"name":"ToeNail","steam_id":76561198059906357,"connected_time":370000000000,"state":"active","ping":40}]},{"server_id":112,"name":"Uncletopia | Los Angeles | 2 | All Maps","name_short":"lax-2","host":"lax-1.us.uncletopia.com","port":27025,"enabled":true,"region":"us-west","cc":"us","latitude":33.94279,"longitude":-118.41004,"reserved":0,"last_update":"0001-01-01T00:00:00Z","name_a2s":"Uncletopia | Los Angeles | 2 | All Maps","protocol":17,"map":"pl_badwater","folder":"tf","game":"Team Fortress","app_id":440,"player_count":24,"max_players":24,"Bots":0,"server_type":"Dedicated","server_os":"Linux","password":true,"vac":true,"version":"7932396","steam_id":85568392924469992,"keywords":["nocrits","nodmgspread","payload","uncletopia"],"game_id":440,"stv_port":27026,"stv_name":"Uncletopia | Los Angeles | 2 | All Maps | STV","players":[{"user_id":323,"name":"Xakdub","steam_id":76561198823298989,"connected_time":414000000000,"state":"active","ping":97},{"user_id":294,"name":"chanoc","steam_id":76561198026734746,"connected_time":2107000000000,"state":"active","ping":54},{"user_id":304,"name":"fish","steam_id":76561198194508197,"connected_time":1637000000000,"state":"active","ping":68},{"user_id":326,"name":"Enforcer Enthusiast","steam_id":76561199124102271,"connected_time":191000000000,"state":"active","ping":73},{"user_id":327,"name":"Sniff Cheeks","steam_id":76561199127423378,"connected_time":76000000000,"state":"active","ping":59},{"user_id":313,"name":"Beeveelution","steam_id":76561198331526301,"connected_time":1000000000000,"state":"active","ping":61},{"user_id":276,"name":"IonicMist","steam_id":76561198047105563,"connected_time":3520000000000,"state":"active","ping":92},{"user_id":322,"name":"Huh?","steam_id":76561198054866271,"connected_time":465000000000,"state":"active","ping":76},{"user_id":314,"name":"dudescore","steam_id":76561199091453555,"connected_time":963000000000,"state":"active","ping":71},{"user_id":309,"name":"Skarp129","steam_id":76561198108679057,"connected_time":1057000000000,"state":"active","ping":45},{"user_id":321,"name":"peanut ball :}","steam_id":76561198309911829,"connected_time":550000000000,"state":"active","ping":70},{"user_id":303,"name":"diddy bop","steam_id":76561198327633561,"connected_time":1662000000000,"state":"active","ping":62},{"user_id":317,"name":"Sol","steam_id":76561198121500201,"connected_time":888000000000,"state":"active","ping":45},{"user_id":298,"name":"johnman gooberguy","steam_id":76561199014859764,"connected_time":2055000000000,"state":"active","ping":69},{"user_id":282,"name":"Power Jake","steam_id":76561198051510260,"connected_time":3428000000000,"state":"active","ping":57},{"user_id":324,"name":"Jebediah Bushwick","steam_id":76561198843349296,"connected_time":343000000000,"state":"active","ping":53},{"user_id":318,"name":"dyyd7706","steam_id":76561199230461523,"connected_time":867000000000,"state":"active","ping":109},{"user_id":273,"name":"UneditedAndy","steam_id":76561198982544947,"connected_time":3813000000000,"state":"active","ping":54},{"user_id":140,"name":"fashionably on time","steam_id":76561198042913843,"connected_time":15304000000000,"state":"active","ping":89},{"user_id":307,"name":"Squatter1","steam_id":76561198078987734,"connected_time":1424000000000,"state":"active","ping":72},{"user_id":319,"name":"moopmop","steam_id":76561198065224965,"connected_time":850000000000,"state":"active","ping":59},{"user_id":251,"name":"a cat plushie","steam_id":76561198080046542,"connected_time":5263000000000,"state":"active","ping":66},{"user_id":242,"name":"Roosevelt Chadwick","steam_id":76561198278169311,"connected_time":6742000000000,"state":"active","ping":66},{"user_id":320,"name":"vioxynteris","steam_id":76561198161428666,"connected_time":760000000000,"state":"active","ping":32}]},{"server_id":324,"name":"Uncletopia | Los Angeles | 3 | All Maps","name_short":"lax-3","host":"lax-1.us.uncletopia.com","port":27035,"enabled":true,"region":"us-west","cc":"us","latitude":33.94279,"longitude":-118.41004,"reserved":0,"last_update":"0001-01-01T00:00:00Z","name_a2s":"Uncletopia | Los Angeles | 3 | All Maps","protocol":17,"map":"pl_borneo","folder":"tf","game":"Team Fortress","app_id":440,"player_count":0,"max_players":24,"Bots":0,"server_type":"Dedicated","server_os":"Linux","password":true,"vac":true,"version":"7932396","steam_id":85568392924510198,"keywords":["nocrits","nodmgspread","payload","uncletopia"],"game_id":440,"stv_port":27036,"stv_name":"Uncletopia | Los Angeles | 3 | All Maps | STV","players":null},{"server_id":25,"name":"Uncletopia | Los Angeles | 4 | Stopwatch Beta","name_short":"lax-4","host":"lax-1.us.uncletopia.com","port":27045,"enabled":true,"region":"us-west","cc":"us","latitude":33.94279,"longitude":-118.41004,"reserved":0,"last_update":"0001-01-01T00:00:00Z","name_a2s":"Uncletopia | Los Angeles | 4 | Stopwatch Beta","protocol":17,"map":"pl_swiftwater_final1","folder":"tf","game":"Team Fortress","app_id":440,"player_count":0,"max_players":24,"Bots":0,"server_type":"Dedicated","server_os":"Linux","password":true,"vac":true,"version":"7932396","steam_id":85568392924510199,"keywords":["nocrits","nodmgspread","payload","uncletopia"],"game_id":440,"stv_port":27046,"stv_name":"Uncletopia | Los Angeles | 4 | Stopwatch Beta | STV","players":null},{"server_id":11,"name":"Uncletopia | London | 1 | All Maps","name_short":"lon-1","host":"lon-1.uk.uncletopia.com","port":27015,"enabled":true,"region":"eu","cc":"gb","latitude":51.509865,"longitude":-0.118092,"reserved":0,"last_update":"0001-01-01T00:00:00Z","name_a2s":"Uncletopia | London | 1 | All Maps","protocol":17,"map":"cp_mountainlab","folder":"tf","game":"Team Fortress","app_id":440,"player_count":0,"max_players":24,"Bots":0,"server_type":"Dedicated","server_os":"Linux","password":true,"vac":true,"version":"7932396","steam_id":85568392924367362,"keywords":["cp","nocrits","nodmgspread","uncletopia"],"game_id":440,"stv_port":27016,"stv_name":"Uncletopia | London | 1 | All Maps | STV","players":null},{"server_id":114,"name":"Uncletopia | London | 2 | All Maps","name_short":"lon-2","host":"lon-1.uk.uncletopia.com","port":27025,"enabled":true,"region":"eu","cc":"gb","latitude":51.509865,"longitude":-0.118092,"reserved":0,"last_update":"0001-01-01T00:00:00Z","name_a2s":"Uncletopia | London | 2 | All Maps","protocol":17,"map":"koth_highpass","folder":"tf","game":"Team Fortress","app_id":440,"player_count":0,"max_players":24,"Bots":0,"server_type":"Dedicated","server_os":"Linux","password":true,"vac":true,"version":"7932396","steam_id":85568392924470941,"keywords":["cp","nocrits","nodmgspread","uncletopia"],"game_id":440,"stv_port":27026,"stv_name":"Uncletopia | London | 2 | All Maps | STV","players":null},{"server_id":320,"name":"Uncletopia | London | 3 | All Maps","name_short":"lon-3","host":"lon-1.uk.uncletopia.com","port":27035,"enabled":true,"region":"eu","cc":"gb","latitude":51.509865,"longitude":-0.118092,"reserved":0,"last_update":"0001-01-01T00:00:00Z","name_a2s":"Uncletopia | London | 3 | All Maps","protocol":17,"map":"cp_sunshine","folder":"tf","game":"Team Fortress","app_id":440,"player_count":0,"max_players":24,"Bots":0,"server_type":"Dedicated","server_os":"Linux","password":true,"vac":true,"version":"7932396","steam_id":85568392924510192,"keywords":["cp","nocrits","nodmgspread","uncletopia"],"game_id":440,"stv_port":27036,"stv_name":"Uncletopia | London | 3 | All Maps | STV","players":null},{"server_id":321,"name":"Uncletopia | London | 4 | All Maps","name_short":"lon-4","host":"lon-1.uk.uncletopia.com","port":27045,"enabled":true,"region":"eu","cc":"gb","latitude":51.509865,"longitude":-0.118092,"reserved":0,"last_update":"0001-01-01T00:00:00Z","name_a2s":"Uncletopia | London | 4 | All Maps","protocol":17,"map":"pl_frontier_final","folder":"tf","game":"Team Fortress","app_id":440,"player_count":0,"max_players":24,"Bots":0,"server_type":"Dedicated","server_os":"Linux","password":true,"vac":true,"version":"7932396","steam_id":85568392924510193,"keywords":["nocrits","nodmgspread","payload","uncletopia"],"game_id":440,"stv_port":27046,"stv_name":"Uncletopia | London | 4 | All Maps | STV","players":null},{"server_id":21,"name":"Uncletopia | London | 5 | All Maps","name_short":"lon-5","host":"lon-1.uk.uncletopia.com","port":27055,"enabled":true,"region":"eu","cc":"gb","latitude":51.509865,"longitude":-0.118092,"reserved":0,"last_update":"0001-01-01T00:00:00Z","name_a2s":"Uncletopia | London | 5 | All Maps","protocol":17,"map":"pl_swiftwater_final1","folder":"tf","game":"Team Fortress","app_id":440,"player_count":0,"max_players":24,"Bots":0,"server_type":"Dedicated","server_os":"Linux","password":true,"vac":true,"version":"7932396","steam_id":85568392924742829,"keywords":["nocrits","nodmgspread","payload","uncletopia"],"game_id":440,"stv_port":27056,"stv_name":"Uncletopia | London | 5 | All Maps | STV","players":null},{"server_id":22,"name":"Uncletopia | London | 6 | All Maps","name_short":"lon-6","host":"lon-1.uk.uncletopia.com","port":27065,"enabled":true,"region":"eu","cc":"gb","latitude":51.509865,"longitude":-0.118092,"reserved":0,"last_update":"0001-01-01T00:00:00Z","name_a2s":"Uncletopia | London | 6 | All Maps","protocol":17,"map":"cp_sunshine","folder":"tf","game":"Team Fortress","app_id":440,"player_count":13,"max_players":24,"Bots":0,"server_type":"Dedicated","server_os":"Linux","password":true,"vac":true,"version":"7932396","steam_id":85568392924742830,"keywords":["cp","nocrits","nodmgspread","uncletopia"],"game_id":440,"stv_port":27066,"stv_name":"Uncletopia | London | 6 | All Maps | STV","players":[{"user_id":366,"name":"the indomitable human spirit","steam_id":76561198718760200,"connected_time":2787000000000,"state":"active","ping":48},{"user_id":367,"name":"Winter","steam_id":76561198134805479,"connected_time":2566000000000,"state":"active","ping":45},{"user_id":369,"name":"alleoops","steam_id":76561199435854673,"connected_time":1842000000000,"state":"active","ping":45},{"user_id":342,"name":"Nyhde","steam_id":76561198012771416,"connected_time":5861000000000,"state":"active","ping":108},{"user_id":374,"name":"KrissAsterisk","steam_id":76561198141191648,"connected_time":773000000000,"state":"active","ping":38},{"user_id":381,"name":"MichaÅ‚","steam_id":76561198320346362,"connected_time":352000000000,"state":"active","ping":72},{"user_id":372,"name":"bebedanotbebedahebebedashebebed","steam_id":76561198277943630,"connected_time":1282000000000,"state":"active","ping":67},{"user_id":373,"name":"noided","steam_id":76561199480942903,"connected_time":1179000000000,"state":"active","ping":70},{"user_id":382,"name":"Xeno","steam_id":76561198975556646,"connected_time":101000000000,"state":"active","ping":59},{"user_id":376,"name":"Tired","steam_id":76561198072620682,"connected_time":600000000000,"state":"active","ping":157},{"user_id":378,"name":"hammertime","steam_id":76561199097714393,"connected_time":492000000000,"state":"active","ping":160},{"user_id":383,"name":"vadr","steam_id":76561198334528186,"connected_time":69000000000,"state":"spawning","ping":51},{"user_id":318,"name":"Worm","steam_id":76561198296497176,"connected_time":7714000000000,"state":"active","ping":44}]},{"server_id":40,"name":"Uncletopia | London | 7 | No Payload","name_short":"lon-7","host":"lon-1.uk.uncletopia.com","port":27075,"enabled":true,"region":"eu","cc":"gb","latitude":51.509865,"longitude":-0.118092,"reserved":0,"last_update":"0001-01-01T00:00:00Z","name_a2s":"Uncletopia | London | 7 | No Payload","protocol":17,"map":"koth_sawmill","folder":"tf","game":"Team Fortress","app_id":440,"player_count":0,"max_players":24,"Bots":0,"server_type":"Dedicated","server_os":"Linux","password":true,"vac":true,"version":"7932396","steam_id":85568392924964314,"keywords":["cp","nocrits","nodmgspread","uncletopia"],"game_id":440,"stv_port":27076,"stv_name":"Uncletopia | London | 7 | No Payload | STV","players":null},{"server_id":41,"name":"Uncletopia | London | 8 | Community","name_short":"lon-8","host":"lon-1.uk.uncletopia.com","port":27085,"enabled":true,"region":"eu","cc":"gb","latitude":51.509865,"longitude":-0.118092,"reserved":0,"last_update":"0001-01-01T00:00:00Z","name_a2s":"Uncletopia | London | 8 | Community","protocol":17,"map":"workshop/koth_ramjam_rc1.ugc459778887","folder":"tf","game":"Team Fortress","app_id":440,"player_count":0,"max_players":24,"Bots":0,"server_type":"Dedicated","server_os":"Linux","password":true,"vac":true,"version":"7932396","steam_id":85568392924964315,"keywords":["cp","nocrits","nodmgspread","uncletopia"],"game_id":440,"stv_port":27086,"stv_name":"Uncletopia | London | 8 | Community | STV","players":null},{"server_id":300,"name":"Uncletopia | MontrÃ©al | 1 | All Maps","name_short":"mtl-1","host":"mtl-1.ca.uncletopia.com","port":27015,"enabled":true,"region":"us-east","cc":"ca","latitude":45.50889,"longitude":-73.56167,"reserved":0,"last_update":"0001-01-01T00:00:00Z","name_a2s":"Uncletopia | MontrÃ©al | 1 | All Maps","protocol":17,"map":"pl_upward","folder":"tf","game":"Team Fortress","app_id":440,"player_count":0,"max_players":24,"Bots":0,"server_type":"Dedicated","server_os":"Linux","password":true,"vac":true,"version":"7932396","steam_id":85568392924500087,"keywords":["nocrits","nodmgspread","payload","uncletopia"],"game_id":440,"stv_port":27016,"stv_name":"Uncletopia | MontrÃ©al | 1 | All Maps | STV","players":null},{"server_id":301,"name":"Uncletopia | MontrÃ©al | 2 | All Maps","name_short":"mtl-2","host":"mtl-1.ca.uncletopia.com","port":27025,"enabled":true,"region":"us-east","cc":"ca","latitude":45.50889,"longitude":-73.56167,"reserved":0,"last_update":"0001-01-01T00:00:00Z","name_a2s":"Uncletopia | MontrÃ©al | 2 | All Maps","protocol":17,"map":"koth_highpass","folder":"tf","game":"Team Fortress","app_id":440,"player_count":0,"max_players":24,"Bots":0,"server_type":"Dedicated","server_os":"Linux","password":true,"vac":true,"version":"7932396","steam_id":85568392924500088,"keywords":["cp","nocrits","nodmgspread","uncletopia"],"game_id":440,"stv_port":27026,"stv_name":"Uncletopia | MontrÃ©al | 2 | All Maps | STV","players":null},{"server_id":302,"name":"Uncletopia | MontrÃ©al | 3 | All Maps","name_short":"mtl-3","host":"mtl-1.ca.uncletopia.com","port":27035,"enabled":true,"region":"us-east","cc":"ca","latitude":45.50889,"longitude":-73.56167,"reserved":0,"last_update":"0001-01-01T00:00:00Z","name_a2s":"Uncletopia | MontrÃ©al | 3 | All Maps","protocol":17,"map":"pl_badwater","folder":"tf","game":"Team Fortress","app_id":440,"player_count":22,"max_players":24,"Bots":0,"server_type":"Dedicated","server_os":"Linux","password":true,"vac":true,"version":"7932396","steam_id":85568392924500089,"keywords":["nocrits","nodmgspread","payload","uncletopia"],"game_id":440,"stv_port":27036,"stv_name":"Uncletopia | MontrÃ©al | 3 | All Maps | STV","players":[{"user_id":173,"name":"machineclone","steam_id":76561198076320219,"connected_time":5026000000000,"state":"active","ping":171},{"user_id":197,"name":"emseaeye","steam_id":76561198161499803,"connected_time":3156000000000,"state":"active","ping":50},{"user_id":211,"name":"the guy who touched sasha","steam_id":76561198983694250,"connected_time":281000000000,"state":"active","ping":121},{"user_id":212,"name":"Trash","steam_id":76561198358471281,"connected_time":232000000000,"state":"active","ping":60},{"user_id":198,"name":"Scud","steam_id":76561198079364693,"connected_time":2751000000000,"state":"active","ping":180},{"user_id":186,"name":"big tats","steam_id":76561198103496593,"connected_time":4038000000000,"state":"active","ping":74},{"user_id":210,"name":"vanta","steam_id":76561198084317504,"connected_time":347000000000,"state":"active","ping":45},{"user_id":213,"name":"Flashtasm","steam_id":76561198026635660,"connected_time":225000000000,"state":"active","ping":55},{"user_id":214,"name":"sgebhardt","steam_id":76561198065931587,"connected_time":101000000000,"state":"active","ping":120},{"user_id":183,"name":"jooby","steam_id":76561198131065492,"connected_time":4158000000000,"state":"active","ping":59},{"user_id":204,"name":"hashmap","steam_id":76561198043794014,"connected_time":1990000000000,"state":"active","ping":104},{"user_id":191,"name":"a 1930s robber","steam_id":76561198125237406,"connected_time":3698000000000,"state":"active","ping":68},{"user_id":192,"name":"Sh!t","steam_id":76561198126498212,"connected_time":3680000000000,"state":"active","ping":56},{"user_id":193,"name":"isaiah","steam_id":76561197962607364,"connected_time":3640000000000,"state":"active","ping":81},{"user_id":215,"name":"mendokusai","steam_id":76561197965022076,"connected_time":87000000000,"state":"active","ping":42},{"user_id":207,"name":"cornshot","steam_id":76561198043496387,"connected_time":1795000000000,"state":"active","ping":94},{"user_id":202,"name":"CorruptedSpoon","steam_id":76561198106826974,"connected_time":2203000000000,"state":"active","ping":67},{"user_id":170,"name":"The Juice","steam_id":76561198065307144,"connected_time":5445000000000,"state":"active","ping":75},{"user_id":205,"name":"cool #1 weezer fan","steam_id":76561199172518546,"connected_time":1909000000000,"state":"active","ping":60},{"user_id":206,"name":"Starbound","steam_id":76561198417285529,"connected_time":1905000000000,"state":"active","ping":118},{"user_id":179,"name":"Chad","steam_id":76561198222313772,"connected_time":4700000000000,"state":"active","ping":93},{"user_id":209,"name":"fae","steam_id":76561197994492154,"connected_time":1275000000000,"state":"active","ping":161}]},{"server_id":303,"name":"Uncletopia | MontrÃ©al | 4 | No Payload","name_short":"mtl-4","host":"mtl-1.ca.uncletopia.com","port":27045,"enabled":true,"region":"us-east","cc":"ca","latitude":45.50889,"longitude":-73.56167,"reserved":0,"last_update":"0001-01-01T00:00:00Z","name_a2s":"Uncletopia | MontrÃ©al | 4 | No Payload","protocol":17,"map":"koth_lazarus","folder":"tf","game":"Team Fortress","app_id":440,"player_count":0,"max_players":24,"Bots":0,"server_type":"Dedicated","server_os":"Linux","password":true,"vac":true,"version":"7932396","steam_id":85568392924500090,"keywords":["cp","nocrits","nodmgspread","uncletopia"],"game_id":440,"stv_port":27046,"stv_name":"Uncletopia | MontrÃ©al | 4 | No Payload | STV","players":null},{"server_id":13,"name":"Uncletopia | New York City | 1 | All Maps","name_short":"nyc-1","host":"nyc-1.us.uncletopia.com","port":27015,"enabled":true,"region":"us-east","cc":"us","latitude":40.73061,"longitude":-73.93524,"reserved":0,"last_update":"0001-01-01T00:00:00Z","name_a2s":"Uncletopia | New York City | 1 | All Maps","protocol":17,"map":"pl_upward","folder":"tf","game":"Team Fortress","app_id":440,"player_count":23,"max_players":24,"Bots":0,"server_type":"Dedicated","server_os":"Linux","password":true,"vac":true,"version":"7932396","steam_id":85568392924469993,"keywords":["nocrits","nodmgspread","payload","uncletopia"],"game_id":440,"stv_port":27016,"stv_name":"Uncletopia | New York City | 1 | All Maps | STV","players":[{"user_id":260,"name":"grunt","steam_id":76561198860913617,"connected_time":3207000000000,"state":"active","ping":121},{"user_id":204,"name":"constance clicker","steam_id":76561198046130544,"connected_time":7752000000000,"state":"active","ping":42},{"user_id":264,"name":"Blobbyfish","steam_id":76561198822962650,"connected_time":2933000000000,"state":"active","ping":56},{"user_id":288,"name":"Marc G","steam_id":76561198062650363,"connected_time":451000000000,"state":"active","ping":75},{"user_id":276,"name":"Thingy","steam_id":76561198140161202,"connected_time":653000000000,"state":"active","ping":74},{"user_id":268,"name":"d00ie","steam_id":76561198151032242,"connected_time":2572000000000,"state":"active","ping":45},{"user_id":277,"name":"Happy Yaoi Friday","steam_id":76561198111290441,"connected_time":652000000000,"state":"active","ping":44},{"user_id":271,"name":"The_Stomach_Stone_Surgeon","steam_id":76561198044643725,"connected_time":1723000000000,"state":"active","ping":69},{"user_id":280,"name":"Nikki","steam_id":76561199485086969,"connected_time":562000000000,"state":"active","ping":125},{"user_id":269,"name":"Cesium","steam_id":76561198340902384,"connected_time":2265000000000,"state":"active","ping":69},{"user_id":257,"name":"Dr Oshawott","steam_id":76561198042021629,"connected_time":3762000000000,"state":"active","ping":84},{"user_id":281,"name":"Sprinklingmydoughnut","steam_id":76561198168009092,"connected_time":548000000000,"state":"active","ping":65},{"user_id":292,"name":"Sully","steam_id":76561198055418425,"connected_time":122000000000,"state":"active","ping":58},{"user_id":283,"name":"Lawtumn (trans rights \u003c3)","steam_id":76561198347286009,"connected_time":543000000000,"state":"active","ping":56},{"user_id":178,"name":"the piss boiling machine","steam_id":76561198113716047,"connected_time":10024000000000,"state":"active","ping":62},{"user_id":285,"name":"Ghworg","steam_id":76561198324891401,"connected_time":521000000000,"state":"active","ping":61},{"user_id":291,"name":"Glanderson booper","steam_id":76561198021223747,"connected_time":339000000000,"state":"active","ping":128},{"user_id":287,"name":"Cosmic Torgue","steam_id":76561198828724945,"connected_time":496000000000,"state":"active","ping":86},{"user_id":289,"name":"Gentoo Linux Gaming","steam_id":76561197999657118,"connected_time":445000000000,"state":"active","ping":67},{"user_id":232,"name":"juanjoesc","steam_id":76561198186368430,"connected_time":5362000000000,"state":"active","ping":133},{"user_id":272,"name":"Sticks","steam_id":76561199013914575,"connected_time":1459000000000,"state":"active","ping":51},{"user_id":182,"name":"Kingpin","steam_id":76561198362916241,"connected_time":9734000000000,"state":"active","ping":74},{"user_id":290,"name":"Rudy","steam_id":76561198013456828,"connected_time":411000000000,"state":"active","ping":59}]},{"server_id":14,"name":"Uncletopia | New York City | 2 | All Maps","name_short":"nyc-2","host":"nyc-1.us.uncletopia.com","port":27025,"enabled":true,"region":"us-east","cc":"us","latitude":40.73061,"longitude":-73.93524,"reserved":0,"last_update":"0001-01-01T00:00:00Z","name_a2s":"Uncletopia | New York City | 2 | All Maps","protocol":17,"map":"pl_badwater","folder":"tf","game":"Team Fortress","app_id":440,"player_count":22,"max_players":24,"Bots":0,"server_type":"Dedicated","server_os":"Linux","password":true,"vac":true,"version":"7932396","steam_id":85568392924469994,"keywords":["nocrits","nodmgspread","payload","uncletopia"],"game_id":440,"stv_port":27026,"stv_name":"Uncletopia | New York City | 2 | All Maps | STV","players":[{"user_id":153,"name":"girldick senator","steam_id":76561199207285498,"connected_time":1539000000000,"state":"active","ping":114},{"user_id":145,"name":"Larkaldi","steam_id":76561198029668456,"connected_time":2135000000000,"state":"active","ping":60},{"user_id":128,"name":"Kip ðŸ‡","steam_id":76561198075476523,"connected_time":2819000000000,"state":"active","ping":75},{"user_id":109,"name":"put my hand in the cashregister","steam_id":76561198062991744,"connected_time":4879000000000,"state":"active","ping":46},{"user_id":154,"name":"gulp","steam_id":76561198068257774,"connected_time":743000000000,"state":"active","ping":112},{"user_id":129,"name":"Moe Fugga","steam_id":76561198102044366,"connected_time":2797000000000,"state":"active","ping":95},{"user_id":166,"name":"Ballstead","steam_id":76561198144152293,"connected_time":355000000000,"state":"active","ping":50},{"user_id":157,"name":"thats a big problem","steam_id":76561198080310253,"connected_time":542000000000,"state":"active","ping":116},{"user_id":167,"name":"Qeb","steam_id":76561198205527368,"connected_time":199000000000,"state":"active","ping":74},{"user_id":142,"name":"E4Estrogen","steam_id":76561198085813708,"connected_time":2372000000000,"state":"active","ping":65},{"user_id":150,"name":"agleeps","steam_id":76561198810128404,"connected_time":1628000000000,"state":"active","ping":53},{"user_id":144,"name":"Zamboni","steam_id":76561198071840129,"connected_time":2173000000000,"state":"active","ping":55},{"user_id":133,"name":"29 buried 0 found","steam_id":76561199153376034,"connected_time":2529000000000,"state":"active","ping":83},{"user_id":149,"name":"Golurk with some bitches","steam_id":76561198085888959,"connected_time":1971000000000,"state":"active","ping":60},{"user_id":135,"name":"Dollar Bill (Crisp)","steam_id":76561197999478769,"connected_time":2505000000000,"state":"active","ping":91},{"user_id":158,"name":"Fart Goblin","steam_id":76561198072147068,"connected_time":513000000000,"state":"active","ping":132},{"user_id":152,"name":"Antifa Supersoldier","steam_id":76561198141816516,"connected_time":1572000000000,"state":"active","ping":77},{"user_id":143,"name":"Takareer","steam_id":76561198001751765,"connected_time":2336000000000,"state":"active","ping":69},{"user_id":88,"name":"The Eyeball Man","steam_id":76561198013534207,"connected_time":6393000000000,"state":"active","ping":74},{"user_id":155,"name":"Valkyrie","steam_id":76561198998403448,"connected_time":676000000000,"state":"active","ping":164},{"user_id":156,"name":"Sett","steam_id":76561198084484734,"connected_time":664000000000,"state":"active","ping":134},{"user_id":138,"name":"exten-z","steam_id":76561198004359190,"connected_time":2493000000000,"state":"active","ping":44}]},{"server_id":15,"name":"Uncletopia | New York City | 3 | Stopwatch Beta","name_short":"nyc-3","host":"nyc-1.us.uncletopia.com","port":27035,"enabled":true,"region":"us-east","cc":"us","latitude":40.73061,"longitude":-73.93524,"reserved":0,"last_update":"0001-01-01T00:00:00Z","name_a2s":"Uncletopia | New York City | 3 | Stopwatch Beta","protocol":17,"map":"workshop/koth_product_final.ugc454272353","folder":"tf","game":"Team Fortress","app_id":440,"player_count":0,"max_players":24,"Bots":0,"server_type":"Dedicated","server_os":"Linux","password":true,"vac":true,"version":"7932396","steam_id":85568392924742820,"keywords":["cp","nocrits","nodmgspread","uncletopia"],"game_id":440,"stv_port":27036,"stv_name":"Uncletopia | New York City | 3 | Stopwatch Beta | STV","players":null},{"server_id":16,"name":"Uncletopia | New York City | 4 | Community","name_short":"nyc-4","host":"nyc-1.us.uncletopia.com","port":27045,"enabled":true,"region":"us-east","cc":"us","latitude":40.73061,"longitude":-73.93524,"reserved":0,"last_update":"0001-01-01T00:00:00Z","name_a2s":"Uncletopia | New York City | 4 | Community","protocol":17,"map":"workshop/cp_logjam_rc12.ugc454812035","folder":"tf","game":"Team Fortress","app_id":440,"player_count":2,"max_players":24,"Bots":0,"server_type":"Dedicated","server_os":"Linux","password":true,"vac":true,"version":"7932396","steam_id":85568392924742821,"keywords":["cp","nocrits","nodmgspread","uncletopia"],"game_id":440,"stv_port":27046,"stv_name":"Uncletopia | New York City | 4 | Community | STV","players":[{"user_id":215,"name":"ColbertDolbert?","steam_id":76561198299613842,"connected_time":2189000000000,"state":"active","ping":90},{"user_id":188,"name":"Chicken Joe","steam_id":76561198278185182,"connected_time":4326000000000,"state":"active","ping":44}]},{"server_id":142,"name":"Uncletopia | SÃ£o Paulo | 1 | All Maps","name_short":"sao-1","host":"sao-1.br.uncletopia.com","port":27015,"enabled":true,"region":"sa","cc":"br","latitude":-23.533773,"longitude":-46.62529,"reserved":0,"last_update":"0001-01-01T00:00:00Z","name_a2s":"Uncletopia | SÃ£o Paulo | 1 | All Maps","protocol":17,"map":"koth_lakeside_final","folder":"tf","game":"Team Fortress","app_id":440,"player_count":0,"max_players":24,"Bots":0,"server_type":"Dedicated","server_os":"Linux","password":true,"vac":true,"version":"7932396","steam_id":85568392924469996,"keywords":["cp","nocrits","nodmgspread","uncletopia"],"game_id":440,"stv_port":27016,"stv_name":"Uncletopia | SÃ£o Paulo | 1 | All Maps | STV","players":null},{"server_id":143,"name":"Uncletopia | SÃ£o Paulo | 2 | All Maps","name_short":"sao-2","host":"sao-2.br.uncletopia.com","port":27015,"enabled":true,"region":"sa","cc":"br","latitude":-23.533773,"longitude":-46.62529,"reserved":0,"last_update":"0001-01-01T00:00:00Z","name_a2s":"Uncletopia | SÃ£o Paulo | 2 | All Maps","protocol":17,"map":"plr_nightfall_final","folder":"tf","game":"Team Fortress","app_id":440,"player_count":0,"max_players":24,"Bots":0,"server_type":"Dedicated","server_os":"Linux","password":true,"vac":true,"version":"7932396","steam_id":85568392924485349,"keywords":["nocrits","nodmgspread","payload","uncletopia"],"game_id":440,"stv_port":27016,"stv_name":"Uncletopia | SÃ£o Paulo | 2 | All Maps | STV","players":null},{"server_id":7,"name":"Uncletopia | Seattle | 1 | All Maps","name_short":"sea-1","host":"sea-1.us.uncletopia.com","port":27015,"enabled":true,"region":"us-west","cc":"us","latitude":47.608013,"longitude":-122.33517,"reserved":0,"last_update":"0001-01-01T00:00:00Z","name_a2s":"Uncletopia | Seattle | 1 | All Maps","protocol":17,"map":"pl_pier","folder":"tf","game":"Team Fortress","app_id":440,"player_count":24,"max_players":24,"Bots":0,"server_type":"Dedicated","server_os":"Linux","password":true,"vac":true,"version":"7932396","steam_id":85568392924469997,"keywords":["nocrits","nodmgspread","payload","uncletopia"],"game_id":440,"stv_port":27016,"stv_name":"Uncletopia | Seattle | 1 | All Maps | STV","players":[{"user_id":351,"name":"jayeskae","steam_id":76561198144220801,"connected_time":4012000000000,"state":"active","ping":52},{"user_id":350,"name":"TROY","steam_id":76561197983852176,"connected_time":4054000000000,"state":"active","ping":73},{"user_id":391,"name":"lili","steam_id":76561199391478575,"connected_time":1150000000000,"state":"active","ping":54},{"user_id":370,"name":"NEBULA","steam_id":76561198086878595,"connected_time":2950000000000,"state":"active","ping":72},{"user_id":305,"name":"ORANGE","steam_id":76561198000401769,"connected_time":7920000000000,"state":"active","ping":48},{"user_id":380,"name":"spenca","steam_id":76561198025371154,"connected_time":2175000000000,"state":"active","ping":75},{"user_id":373,"name":"MyMonkeyBaby","steam_id":76561198046896670,"connected_time":2826000000000,"state":"active","ping":65},{"user_id":327,"name":"Mignyanne :3","steam_id":76561198048754056,"connected_time":5180000000000,"state":"active","ping":69},{"user_id":396,"name":"resting neutral face","steam_id":76561197999259502,"connected_time":1118000000000,"state":"active","ping":60},{"user_id":397,"name":"jorts","steam_id":76561199041179985,"connected_time":1092000000000,"state":"active","ping":48},{"user_id":357,"name":"oo","steam_id":76561198119626492,"connected_time":3659000000000,"state":"active","ping":71},{"user_id":363,"name":"makeshift_burrito","steam_id":76561198042510825,"connected_time":3504000000000,"state":"active","ping":71},{"user_id":399,"name":"i.love.ants.321","steam_id":76561198169755734,"connected_time":378000000000,"state":"active","ping":71},{"user_id":392,"name":"Elfy","steam_id":76561199166448617,"connected_time":1149000000000,"state":"active","ping":62},{"user_id":400,"name":"rorywashere /á  - Ë• -ãƒž â³Š","steam_id":76561198065825165,"connected_time":350000000000,"state":"active","ping":91},{"user_id":381,"name":"thunderous prophet","steam_id":76561198131166135,"connected_time":2136000000000,"state":"active","ping":35},{"user_id":353,"name":"Mom","steam_id":76561198207936000,"connected_time":3941000000000,"state":"active","ping":60},{"user_id":390,"name":"SwoopShoot","steam_id":76561199024079388,"connected_time":1160000000000,"state":"active","ping":47},{"user_id":384,"name":"Twitch.tv/Jinx_VM","steam_id":76561198280150602,"connected_time":1781000000000,"state":"active","ping":67},{"user_id":386,"name":"Chili","steam_id":76561198042942046,"connected_time":1438000000000,"state":"active","ping":97},{"user_id":367,"name":"Tom Skirrett","steam_id":76561198014600788,"connected_time":3113000000000,"state":"active","ping":72},{"user_id":393,"name":"smeasly","steam_id":76561198028718812,"connected_time":1149000000000,"state":"active","ping":37},{"user_id":394,"name":"lil boogie","steam_id":76561198064059721,"connected_time":1148000000000,"state":"active","ping":47},{"user_id":387,"name":"Durazorn","steam_id":76561198096327396,"connected_time":1427000000000,"state":"active","ping":122}]},{"server_id":119,"name":"Uncletopia | Seattle | 2 | All Maps","name_short":"sea-2","host":"sea-1.us.uncletopia.com","port":27025,"enabled":true,"region":"us-west","cc":"us","latitude":47.608013,"longitude":-122.33517,"reserved":0,"last_update":"0001-01-01T00:00:00Z","name_a2s":"Uncletopia | Seattle | 2 | All Maps","protocol":17,"map":"cp_5gorge","folder":"tf","game":"Team Fortress","app_id":440,"player_count":24,"max_players":24,"Bots":0,"server_type":"Dedicated","server_os":"Linux","password":true,"vac":true,"version":"7932396","steam_id":85568392924469998,"keywords":["cp","nocrits","nodmgspread","uncletopia"],"game_id":440,"stv_port":27026,"stv_name":"Uncletopia | Seattle | 2 | All Maps | STV","players":[{"user_id":404,"name":"Ymiir","steam_id":76561198118284271,"connected_time":4607000000000,"state":"active","ping":87},{"user_id":438,"name":"SvicidalBug","steam_id":76561198221390504,"connected_time":1236000000000,"state":"active","ping":61},{"user_id":446,"name":"R5-D4","steam_id":76561198025196439,"connected_time":655000000000,"state":"active","ping":53},{"user_id":425,"name":"pishnauts","steam_id":76561198960850707,"connected_time":2250000000000,"state":"active","ping":82},{"user_id":447,"name":"JalapeÃ±o Poppers","steam_id":76561198082093612,"connected_time":643000000000,"state":"active","ping":53},{"user_id":442,"name":"Pikemen","steam_id":76561198141338432,"connected_time":932000000000,"state":"active","ping":30},{"user_id":430,"name":"Dr.DeFriend","steam_id":76561198081356344,"connected_time":1478000000000,"state":"active","ping":67},{"user_id":431,"name":"Zatrahel (hie/hym/hys)","steam_id":76561198262628370,"connected_time":1459000000000,"state":"active","ping":68},{"user_id":373,"name":"The Noble Lavender","steam_id":76561198078395639,"connected_time":6585000000000,"state":"active","ping":90},{"user_id":364,"name":"Quarter Cheese","steam_id":76561198115814588,"connected_time":6929000000000,"state":"active","ping":46},{"user_id":450,"name":"Capitalism","steam_id":76561198068677316,"connected_time":98000000000,"state":"active","ping":55},{"user_id":441,"name":"DoubleTee","steam_id":76561198018980347,"connected_time":986000000000,"state":"active","ping":141},{"user_id":418,"name":"Raian","steam_id":76561199138048671,"connected_time":3222000000000,"state":"active","ping":72},{"user_id":385,"name":"ejschild745","steam_id":76561199013388867,"connected_time":6173000000000,"state":"active","ping":73},{"user_id":338,"name":"Speedy","steam_id":76561198080761661,"connected_time":7942000000000,"state":"active","ping":126},{"user_id":445,"name":"Soda Popinski","steam_id":76561198045209288,"connected_time":711000000000,"state":"active","ping":73},{"user_id":378,"name":"Grand","steam_id":76561198290143399,"connected_time":6437000000000,"state":"active","ping":75},{"user_id":434,"name":"Miami \"The Cunnysseur\" Zeal","steam_id":76561198124558226,"connected_time":1411000000000,"state":"active","ping":57},{"user_id":448,"name":"Red Orbama","steam_id":76561198047002366,"connected_time":477000000000,"state":"active","ping":45},{"user_id":436,"name":"Stinko","steam_id":76561198142619873,"connected_time":1404000000000,"state":"active","ping":75},{"user_id":389,"name":"RainboomCrash","steam_id":76561198065612273,"connected_time":5685000000000,"state":"active","ping":53},{"user_id":449,"name":"portal","steam_id":76561198142432749,"connected_time":345000000000,"state":"active","ping":119},{"user_id":392,"name":"Truffles","steam_id":76561198095868800,"connected_time":5309000000000,"state":"active","ping":114},{"user_id":424,"name":"Frank [LIVE ON TWITCH]","steam_id":76561198126681511,"connected_time":2261000000000,"state":"active","ping":79}]},{"server_id":406,"name":"Uncletopia | Seattle | 3 | Stopwatch Beta","name_short":"sea-3","host":"sea-1.us.uncletopia.com","port":27035,"enabled":true,"region":"us-west","cc":"us","latitude":47.608013,"longitude":-122.33517,"reserved":0,"last_update":"0001-01-01T00:00:00Z","name_a2s":"Uncletopia | Seattle | 3 | Stopwatch Beta","protocol":17,"map":"workshop/cp_process_f12.ugc2302948105","folder":"tf","game":"Team Fortress","app_id":440,"player_count":18,"max_players":24,"Bots":0,"server_type":"Dedicated","server_os":"Linux","password":true,"vac":true,"version":"7932396","steam_id":85568392924515217,"keywords":["cp","nocrits","nodmgspread","uncletopia"],"game_id":440,"stv_port":27036,"stv_name":"Uncletopia | Seattle | 3 | Stopwatch Beta | STV","players":[{"user_id":325,"name":"mmmBoyo","steam_id":76561198821360261,"connected_time":1518000000000,"state":"active","ping":74},{"user_id":329,"name":"Dr. Dad Rock Deluxe","steam_id":76561198051224819,"connected_time":1455000000000,"state":"active","ping":88},{"user_id":335,"name":"MegaBron James","steam_id":76561198066091050,"connected_time":1261000000000,"state":"active","ping":46},{"user_id":343,"name":"Bagaboned","steam_id":76561198043761335,"connected_time":359000000000,"state":"active","ping":47},{"user_id":351,"name":"Uncle Dad","steam_id":76561198058073652,"connected_time":38000000000,"state":"active","ping":61},{"user_id":352,"name":"Da Wizard","steam_id":76561198842482031,"connected_time":5000000000,"state":"spawning","ping":117},{"user_id":317,"name":"4 for $4 Meal Deal","steam_id":76561198044362988,"connected_time":2451000000000,"state":"active","ping":92},{"user_id":327,"name":"Lucky","steam_id":76561199108883530,"connected_time":1511000000000,"state":"active","ping":76},{"user_id":341,"name":"delight","steam_id":76561197980280272,"connected_time":587000000000,"state":"active","ping":42},{"user_id":342,"name":"Chronic Bad At Game Disease","steam_id":76561198179387139,"connected_time":581000000000,"state":"active","ping":63},{"user_id":348,"name":"mac_cheese","steam_id":76561198071334162,"connected_time":165000000000,"state":"active","ping":45},{"user_id":336,"name":"lol","steam_id":76561198026491738,"connected_time":1238000000000,"state":"active","ping":76},{"user_id":350,"name":"Henchie!","steam_id":76561198047567464,"connected_time":156000000000,"state":"active","ping":103},{"user_id":339,"name":"exephur","steam_id":76561198135763234,"connected_time":793000000000,"state":"active","ping":58},{"user_id":313,"name":"Raptor Jesus","steam_id":76561198078664132,"connected_time":2770000000000,"state":"active","ping":45},{"user_id":347,"name":"benji","steam_id":76561198084417967,"connected_time":195000000000,"state":"active","ping":70},{"user_id":345,"name":"Pho","steam_id":76561198306515742,"connected_time":309000000000,"state":"active","ping":64},{"user_id":337,"name":"jello","steam_id":76561198149683030,"connected_time":1153000000000,"state":"active","ping":62}]},{"server_id":17,"name":"Uncletopia | San Francisco | 1 | All Maps","name_short":"sfo-1","host":"sfo-1.us.uncletopia.com","port":27015,"enabled":true,"region":"us-west","cc":"us","latitude":37.77397,"longitude":-122.4313,"reserved":0,"last_update":"0001-01-01T00:00:00Z","name_a2s":"Uncletopia | San Francisco | 1 | All Maps","protocol":17,"map":"pl_swiftwater_final1","folder":"tf","game":"Team Fortress","app_id":440,"player_count":0,"max_players":24,"Bots":0,"server_type":"Dedicated","server_os":"Linux","password":true,"vac":true,"version":"7932396","steam_id":85568392924469999,"keywords":["nocrits","nodmgspread","payload","uncletopia"],"game_id":440,"stv_port":27016,"stv_name":"Uncletopia | San Francisco | 1 | All Maps | STV","players":null},{"server_id":18,"name":"Uncletopia | San Francisco | 2 | All Maps","name_short":"sfo-2","host":"sfo-1.us.uncletopia.com","port":27025,"enabled":true,"region":"us-west","cc":"us","latitude":37.77397,"longitude":-122.4313,"reserved":0,"last_update":"0001-01-01T00:00:00Z","name_a2s":"Uncletopia | San Francisco | 2 | All Maps","protocol":17,"map":"pl_borneo","folder":"tf","game":"Team Fortress","app_id":440,"player_count":24,"max_players":24,"Bots":0,"server_type":"Dedicated","server_os":"Linux","password":true,"vac":true,"version":"7932396","steam_id":85568392924470000,"keywords":["nocrits","nodmgspread","payload","uncletopia"],"game_id":440,"stv_port":27026,"stv_name":"Uncletopia | San Francisco | 2 | All Maps | STV","players":[{"user_id":127,"name":"hookerfucker5000000000","steam_id":76561198063099828,"connected_time":2213000000000,"state":"active","ping":98},{"user_id":72,"name":"FAKE uncletopia server","steam_id":76561198065662025,"connected_time":5326000000000,"state":"active","ping":50},{"user_id":112,"name":"cringy","steam_id":76561198323000455,"connected_time":2708000000000,"state":"active","ping":70},{"user_id":152,"name":"josiah","steam_id":76561198139824227,"connected_time":193000000000,"state":"active","ping":65},{"user_id":142,"name":"jar of pickles","steam_id":76561198206922028,"connected_time":1021000000000,"state":"active","ping":60},{"user_id":114,"name":"Cheesed Burger","steam_id":76561198066425198,"connected_time":2642000000000,"state":"active","ping":63},{"user_id":153,"name":"BIGGS","steam_id":76561198057399996,"connected_time":189000000000,"state":"active","ping":61},{"user_id":150,"name":"demomanfan2008","steam_id":76561198077030486,"connected_time":327000000000,"state":"active","ping":54},{"user_id":138,"name":"pearl","steam_id":76561198858474714,"connected_time":1301000000000,"state":"active","ping":72},{"user_id":144,"name":"Oneshot","steam_id":76561199061899768,"connected_time":967000000000,"state":"active","ping":114},{"user_id":154,"name":"el wokismo","steam_id":76561198058617608,"connected_time":174000000000,"state":"active","ping":62},{"user_id":119,"name":"NewGuy","steam_id":76561198968058652,"connected_time":2354000000000,"state":"active","ping":69},{"user_id":145,"name":"c a c t u s","steam_id":76561199273395913,"connected_time":951000000000,"state":"active","ping":70},{"user_id":89,"name":"Local","steam_id":76561198170915102,"connected_time":4290000000000,"state":"active","ping":67},{"user_id":111,"name":"sussycheese","steam_id":76561198384139570,"connected_time":2874000000000,"state":"active","ping":67},{"user_id":102,"name":"zach","steam_id":76561198110695177,"connected_time":3660000000000,"state":"active","ping":114},{"user_id":151,"name":"BrightOrangeMango","steam_id":76561198023144607,"connected_time":216000000000,"state":"active","ping":72},{"user_id":155,"name":"Feel the bern","steam_id":76561198078824519,"connected_time":173000000000,"state":"active","ping":52},{"user_id":123,"name":"Real Azure #SaveTF2","steam_id":76561198095912284,"connected_time":2320000000000,"state":"active","ping":74},{"user_id":156,"name":"(TPT) Ghost","steam_id":76561198123262873,"connected_time":120000000000,"state":"active","ping":72},{"user_id":149,"name":"SHADOW (he/him)","steam_id":76561198207768148,"connected_time":703000000000,"state":"active","ping":61},{"user_id":128,"name":"Retrace","steam_id":76561198080620966,"connected_time":2210000000000,"state":"active","ping":75},{"user_id":129,"name":"wlfgng","steam_id":76561198316639499,"connected_time":2192000000000,"state":"active","ping":37},{"user_id":48,"name":"Bluedemon","steam_id":76561199212058684,"connected_time":7331000000000,"state":"active","ping":93}]},{"server_id":19,"name":"Uncletopia | San Francisco | 3 | Stopwatch Beta","name_short":"sfo-3","host":"sfo-1.us.uncletopia.com","port":27035,"enabled":true,"region":"us-west","cc":"us","latitude":37.77397,"longitude":-122.4313,"reserved":0,"last_update":"0001-01-01T00:00:00Z","name_a2s":"Uncletopia | San Francisco | 3 | Stopwatch Beta","protocol":17,"map":"koth_highpass","folder":"tf","game":"Team Fortress","app_id":440,"player_count":0,"max_players":24,"Bots":0,"server_type":"Dedicated","server_os":"Linux","password":true,"vac":true,"version":"7932396","steam_id":85568392924742824,"keywords":["cp","nocrits","nodmgspread","uncletopia"],"game_id":440,"stv_port":27036,"stv_name":"Uncletopia | San Francisco | 3 | Stopwatch Beta | STV","players":null},{"server_id":20,"name":"Uncletopia | San Francisco | 4 | Community","name_short":"sfo-4","host":"sfo-1.us.uncletopia.com","port":27045,"enabled":true,"region":"us-west","cc":"us","latitude":37.77397,"longitude":-122.4313,"reserved":0,"last_update":"0001-01-01T00:00:00Z","name_a2s":"Uncletopia | San Francisco | 4 | Community","protocol":17,"map":"workshop/cp_sulfur_rc2.ugc619869471","folder":"tf","game":"Team Fortress","app_id":440,"player_count":7,"max_players":24,"Bots":0,"server_type":"Dedicated","server_os":"Linux","password":true,"vac":true,"version":"7932396","steam_id":85568392924742826,"keywords":["cp","nocrits","nodmgspread","uncletopia"],"game_id":440,"stv_port":27046,"stv_name":"Uncletopia | San Francisco | 4 | Community | STV","players":[{"user_id":10,"name":"Karen","steam_id":76561198309442440,"connected_time":185000000000,"state":"active","ping":76},{"user_id":6,"name":"-ThiccMarcos","steam_id":76561198277151165,"connected_time":239000000000,"state":"active","ping":73},{"user_id":7,"name":"mango","steam_id":76561198121529858,"connected_time":217000000000,"state":"active","ping":74},{"user_id":11,"name":"kush cowboy","steam_id":76561198087422193,"connected_time":159000000000,"state":"active","ping":46},{"user_id":9,"name":"goldhed","steam_id":76561198051751133,"connected_time":201000000000,"state":"active","ping":77},{"user_id":13,"name":"Maddex","steam_id":76561198397934395,"connected_time":45000000000,"state":"active","ping":82},{"user_id":14,"name":"A UsedNom","steam_id":76561198402832756,"connected_time":39000000000,"state":"active","ping":45}]},{"server_id":141,"name":"Uncletopia | Sydney | 1 | All Maps","name_short":"syd-1","host":"syd-1.au.uncletopia.com","port":27015,"enabled":true,"region":"au","cc":"au","latitude":-33.865143,"longitude":151.2099,"reserved":0,"last_update":"0001-01-01T00:00:00Z","name_a2s":"Uncletopia | Sydney | 1 | All Maps","protocol":17,"map":"pl_pier","folder":"tf","game":"Team Fortress","app_id":440,"player_count":22,"max_players":24,"Bots":0,"server_type":"Dedicated","server_os":"Linux","password":true,"vac":true,"version":"7932396","steam_id":85568392924470001,"keywords":["nocrits","nodmgspread","payload","uncletopia"],"game_id":440,"stv_port":27016,"stv_name":"Uncletopia | Sydney | 1 | All Maps | STV","players":[{"user_id":102,"name":"TheNeutrality","steam_id":76561199017954062,"connected_time":1331000000000,"state":"active","ping":182},{"user_id":110,"name":"CheeseFlag126","steam_id":76561199262769917,"connected_time":822000000000,"state":"active","ping":63},{"user_id":79,"name":"Croc","steam_id":76561198357882246,"connected_time":2421000000000,"state":"active","ping":57},{"user_id":108,"name":"timboe","steam_id":76561198003442007,"connected_time":935000000000,"state":"active","ping":59},{"user_id":114,"name":"Tibs","steam_id":76561198408712825,"connected_time":541000000000,"state":"active","ping":59},{"user_id":90,"name":"juusha","steam_id":76561198911542330,"connected_time":1847000000000,"state":"active","ping":82},{"user_id":40,"name":"dreamydoggy","steam_id":76561198448243169,"connected_time":5053000000000,"state":"active","ping":53},{"user_id":99,"name":"Brocc_Is_Eternal","steam_id":76561199126221315,"connected_time":1591000000000,"state":"active","ping":33},{"user_id":26,"name":"Unnaturally Bad","steam_id":76561198383320315,"connected_time":5938000000000,"state":"active","ping":70},{"user_id":84,"name":"perturb (feed/seed)","steam_id":76561198085124297,"connected_time":2075000000000,"state":"active","ping":59},{"user_id":74,"name":"hobo","steam_id":76561199046481213,"connected_time":2670000000000,"state":"active","ping":71},{"user_id":70,"name":"thrax","steam_id":76561197992385270,"connected_time":2897000000000,"state":"active","ping":51},{"user_id":115,"name":"Luscious_Lucifer","steam_id":76561198064993980,"connected_time":393000000000,"state":"active","ping":108},{"user_id":111,"name":"BOT Gary","steam_id":76561198376950841,"connected_time":818000000000,"state":"active","ping":70},{"user_id":113,"name":"wazza","steam_id":76561198081910343,"connected_time":646000000000,"state":"active","ping":48},{"user_id":97,"name":"john.grasinili342@hotmail.com","steam_id":76561198129086334,"connected_time":1640000000000,"state":"active","ping":69},{"user_id":62,"name":"Zepi","steam_id":76561198018887052,"connected_time":3719000000000,"state":"active","ping":56},{"user_id":116,"name":"Yillix","steam_id":76561198213327008,"connected_time":376000000000,"state":"active","ping":58},{"user_id":117,"name":"nod","steam_id":76561198046715699,"connected_time":373000000000,"state":"active","ping":57},{"user_id":85,"name":"Marzell","steam_id":76561198151276153,"connected_time":2071000000000,"state":"active","ping":90},{"user_id":118,"name":"Warren","steam_id":76561198120350917,"connected_time":350000000000,"state":"active","ping":42},{"user_id":122,"name":"Yeat","steam_id":76561198202555552,"connected_time":148000000000,"state":"active","ping":35}]},{"server_id":123,"name":"Uncletopia | Sydney | 2 | All Maps","name_short":"syd-2","host":"syd-1.au.uncletopia.com","port":27025,"enabled":true,"region":"au","cc":"au","latitude":-33.865143,"longitude":151.2099,"reserved":0,"last_update":"0001-01-01T00:00:00Z","name_a2s":"Uncletopia | Sydney | 2 | All Maps","protocol":17,"map":"pl_borneo","folder":"tf","game":"Team Fortress","app_id":440,"player_count":0,"max_players":24,"Bots":0,"server_type":"Dedicated","server_os":"Linux","password":true,"vac":true,"version":"7932396","steam_id":85568392924470002,"keywords":["nocrits","nodmgspread","payload","uncletopia"],"game_id":440,"stv_port":27026,"stv_name":"Uncletopia | Sydney | 2 | All Maps | STV","players":null},{"server_id":395,"name":"Uncletopia | Sydney | 3 | All Maps","name_short":"syd-3","host":"syd-1.au.uncletopia.com","port":27035,"enabled":true,"region":"au","cc":"au","latitude":-33.865143,"longitude":151.2099,"reserved":0,"last_update":"0001-01-01T00:00:00Z","name_a2s":"Uncletopia | Sydney | 3 | All Maps","protocol":17,"map":"pl_frontier_final","folder":"tf","game":"Team Fortress","app_id":440,"player_count":0,"max_players":24,"Bots":0,"server_type":"Dedicated","server_os":"Linux","password":true,"vac":true,"version":"7932396","steam_id":85568392925194467,"keywords":["nocrits","nodmgspread","payload","uncletopia"],"game_id":440,"stv_port":27036,"stv_name":"Uncletopia | Sydney | 3 | All Maps | STV","players":null},{"server_id":396,"name":"Uncletopia | Sydney | 4 | All Maps","name_short":"syd-4","host":"syd-1.au.uncletopia.com","port":27045,"enabled":true,"region":"au","cc":"au","latitude":-33.865143,"longitude":151.2099,"reserved":0,"last_update":"0001-01-01T00:00:00Z","name_a2s":"Uncletopia | Sydney | 4 | All Maps","protocol":17,"map":"pl_badwater","folder":"tf","game":"Team Fortress","app_id":440,"player_count":0,"max_players":24,"Bots":0,"server_type":"Dedicated","server_os":"Linux","password":true,"vac":true,"version":"7932396","steam_id":85568392925397958,"keywords":["nocrits","nodmgspread","payload","uncletopia"],"game_id":440,"stv_port":27046,"stv_name":"Uncletopia | Sydney | 4 | All Maps | STV","players":null},{"server_id":58,"name":"Uncletopia | Sydney | 5 | Stopwatch Beta","name_short":"syd-5","host":"syd-1.au.uncletopia.com","port":27055,"enabled":true,"region":"au","cc":"au","latitude":-33.865143,"longitude":151.2099,"reserved":0,"last_update":"0001-01-01T00:00:00Z","name_a2s":"Uncletopia | Sydney | 5 | Stopwatch Beta","protocol":17,"map":"pl_pier","folder":"tf","game":"Team Fortress","app_id":440,"player_count":0,"max_players":24,"Bots":0,"server_type":"Dedicated","server_os":"Linux","password":true,"vac":true,"version":"7932396","steam_id":85568392925397959,"keywords":["nocrits","nodmgspread","payload","uncletopia"],"game_id":440,"stv_port":27056,"stv_name":"Uncletopia | Sydney | 5 | Stopwatch Beta | STV","players":null},{"server_id":59,"name":"Uncletopia | Sydney | 6 | Community","name_short":"syd-6","host":"syd-1.au.uncletopia.com","port":27065,"enabled":true,"region":"au","cc":"au","latitude":-33.865143,"longitude":151.2099,"reserved":0,"last_update":"0001-01-01T00:00:00Z","name_a2s":"Uncletopia | Sydney | 6 | Community","protocol":17,"map":"pl_frontier_final","folder":"tf","game":"Team Fortress","app_id":440,"player_count":0,"max_players":24,"Bots":0,"server_type":"Dedicated","server_os":"Linux","password":true,"vac":true,"version":"7932396","steam_id":85568392925397960,"keywords":["nocrits","nodmgspread","payload","uncletopia"],"game_id":440,"stv_port":27066,"stv_name":"Uncletopia | Sydney | 6 | Community | STV","players":null},{"server_id":49,"name":"Uncletopia | Warsaw | 1 | All Maps","name_short":"waw-1","host":"waw-1.pl.uncletopia.com","port":27015,"enabled":true,"region":"eu","cc":"pl","latitude":52.2297,"longitude":21.017532,"reserved":0,"last_update":"0001-01-01T00:00:00Z","name_a2s":"","protocol":0,"map":"","folder":"","game":"","app_id":0,"player_count":0,"max_players":0,"Bots":0,"server_type":"","server_os":"","password":false,"vac":false,"version":"","steam_id":0,"keywords":null,"game_id":0,"stv_port":0,"stv_name":"","players":null},{"server_id":50,"name":"Uncletopia | Warsaw | 2 | All Maps","name_short":"waw-2","host":"waw-1.pl.uncletopia.com","port":27025,"enabled":true,"region":"eu","cc":"pl","latitude":52.2297,"longitude":21.017532,"reserved":0,"last_update":"0001-01-01T00:00:00Z","name_a2s":"Uncletopia | Warsaw | 2 | All Maps","protocol":17,"map":"koth_highpass","folder":"tf","game":"Team Fortress","app_id":440,"player_count":0,"max_players":24,"Bots":0,"server_type":"Dedicated","server_os":"Linux","password":true,"vac":true,"version":"7932396","steam_id":85568392925397851,"keywords":["cp","nocrits","nodmgspread","uncletopia"],"game_id":440,"stv_port":27026,"stv_name":"Uncletopia | Warsaw | 2 | All Maps | STV","players":null},{"server_id":51,"name":"Uncletopia | Warsaw | 3 | All Maps","name_short":"waw-3","host":"waw-1.pl.uncletopia.com","port":27035,"enabled":true,"region":"eu","cc":"pl","latitude":52.2297,"longitude":21.017532,"reserved":0,"last_update":"0001-01-01T00:00:00Z","name_a2s":"Uncletopia | Warsaw | 3 | All Maps","protocol":17,"map":"koth_viaduct","folder":"tf","game":"Team Fortress","app_id":440,"player_count":0,"max_players":24,"Bots":0,"server_type":"Dedicated","server_os":"Linux","password":true,"vac":true,"version":"7932396","steam_id":85568392925397852,"keywords":["cp","nocrits","nodmgspread","uncletopia"],"game_id":440,"stv_port":27036,"stv_name":"Uncletopia | Warsaw | 3 | All Maps | STV","players":null},{"server_id":52,"name":"Uncletopia | Warsaw | 4 | All Maps","name_short":"waw-4","host":"waw-1.pl.uncletopia.com","port":27045,"enabled":true,"region":"eu","cc":"pl","latitude":52.2297,"longitude":21.017532,"reserved":0,"last_update":"0001-01-01T00:00:00Z","name_a2s":"Uncletopia | Warsaw | 4 | All Maps","protocol":17,"map":"cp_mountainlab","folder":"tf","game":"Team Fortress","app_id":440,"player_count":0,"max_players":24,"Bots":0,"server_type":"Dedicated","server_os":"Linux","password":true,"vac":true,"version":"7932396","steam_id":85568392925397853,"keywords":["cp","nocrits","nodmgspread","uncletopia"],"game_id":440,"stv_port":27046,"stv_name":"Uncletopia | Warsaw | 4 | All Maps | STV","players":null},{"server_id":53,"name":"Uncletopia | Warsaw | 5 | Stopwatch Beta","name_short":"waw-5","host":"waw-1.pl.uncletopia.com","port":27055,"enabled":true,"region":"eu","cc":"pl","latitude":52.2297,"longitude":21.017532,"reserved":0,"last_update":"0001-01-01T00:00:00Z","name_a2s":"Uncletopia | Warsaw | 5 | Stopwatch Beta","protocol":17,"map":"cp_process_final","folder":"tf","game":"Team Fortress","app_id":440,"player_count":0,"max_players":24,"Bots":0,"server_type":"Dedicated","server_os":"Linux","password":true,"vac":true,"version":"7932396","steam_id":85568392925397854,"keywords":["cp","nocrits","nodmgspread","uncletopia"],"game_id":440,"stv_port":27056,"stv_name":"Uncletopia | Warsaw | 5 | Stopwatch Beta | STV","players":null},{"server_id":54,"name":"Uncletopia | Warsaw | 6 | Community","name_short":"waw-6","host":"waw-1.pl.uncletopia.com","port":27065,"enabled":true,"region":"eu","cc":"pl","latitude":52.2297,"longitude":21.017532,"reserved":0,"last_update":"0001-01-01T00:00:00Z","name_a2s":"Uncletopia | Warsaw | 6 | Community","protocol":17,"map":"workshop/cp_bruhstbowl_b6.ugc2878604990","folder":"tf","game":"Team Fortress","app_id":440,"player_count":0,"max_players":24,"Bots":0,"server_type":"Dedicated","server_os":"Linux","password":true,"vac":true,"version":"7932396","steam_id":85568392925397856,"keywords":["cp","nocrits","nodmgspread","uncletopia"],"game_id":440,"stv_port":27066,"stv_name":"Uncletopia | Warsaw | 6 | Community | STV","players":null}]}