{"status":true,"message":"","result":[{"server_id":9,"name":"Uncletopia | Atlanta | 1 | All Maps","name_short":"atl-1","host":"atl-1.us.uncletopia.com","port":27015,"enabled":true,"region":"us-east","cc":"us","latitude":33.753746,"longitude":-84.38633,"reserved":0,"last_update":"0001-01-01T00:00:00Z","name_a2s":"Uncletopia | Atlanta | 1 | All Maps","protocol":17,"map":"cp_dustbowl","folder":"tf","game":"Team Fortress","app_id":440,"player_count":0,"max_players":24,"Bots":0,"server_type":"Dedicated","server_os":"Linux","password":true,"vac":true,"version":"7961495","steam_id":85568392924469982,"keywords":["cp","nocrits","nodmgspread","uncletopia"],"game_id":440,"stv_port":27016,"stv_name":"Uncletopia | Atlanta | 1 | All Maps | STV","players":null},{"server_id":104,"name":"Uncletopia | Atlanta | 2 | All Maps","name_short":"atl-2","host":"atl-1.us.uncletopia.com","port":27025,"enabled":true,"region":"us-east","cc":"us","latitude":33.753746,"longitude":-84.38633,"reserved":0,"last_update":"0001-01-01T00:00:00Z","name_a2s":"Uncletopia | Atlanta | 2 | All Maps","protocol":17,"map":"koth_cascade","folder":"tf","game":"Team Fortress","app_id":440,"player_count":0,"max_players":24,"Bots":0,"server_type":"Dedicated","server_os":"Linux","password":true,"vac":true,"version":"7961495","steam_id":85568392924469983,"keywords":["cp","nocrits","nodmgspread","uncletopia"],"game_id":440,"stv_port":27026,"stv_name":"Uncletopia | Atlanta | 2 | All Maps | STV","players":null},{"server_id":400,"name":"Uncletopia | Atlanta | 3 | Stopwatch","name_short":"atl-3","host":"atl-1.us.uncletopia.com","port":27035,"enabled":true,"region":"us-east","cc":"us","latitude":33.753746,"longitude":-84.38633,"reserved":0,"last_update":"0001-01-01T00:00:00Z","name_a2s":"Uncletopia | Atlanta | 3 | Stopwatch","protocol":17,"map":"pl_badwater","folder":"tf","game":"Team Fortress","app_id":440,"player_count":0,"max_players":24,"Bots":0,"server_type":"Dedicated","server_os":"Linux","password":true,"vac":true,"version":"7961495","steam_id":85568392924515187,"keywords":["nocrits","nodmgspread","payload","uncletopia"],"game_id":440,"stv_port":27036,"stv_name":"Uncletopia | Atlanta | 3 | Stopwatch | STV","players":null},{"server_id":401,"name":"Uncletopia | Atlanta | 4 | Community","name_short":"atl-4","host":"atl-1.us.uncletopia.com","port":27045,"enabled":true,"region":"us-east","cc":"us","latitude":33.753746,"longitude":-84.38633,"reserved":0,"last_update":"0001-01-01T00:00:00Z","name_a2s":"Uncletopia | Atlanta | 4 | Community","protocol":17,"map":"cp_sunshine","folder":"tf","game":"Team Fortress","app_id":440,"player_count":0,"max_players":24,"Bots":0,"server_type":"Dedicated","server_os":"Linux","password":true,"vac":true,"version":"7961495","steam_id":85568392924515188,"keywords":["cp","nocrits","nodmgspread","uncletopia"],"game_id":440,"stv_port":27046,"stv_name":"Uncletopia | Atlanta | 4 | Community | STV","players":null},{"server_id":2,"name":"Uncletopia | Chicago | 1 | All Maps","name_short":"chi-1","host":"chi-1.us.uncletopia.com","port":27015,"enabled":true,"region":"us-central","cc":"us","latitude":41.881832,"longitude":-87.62318,"reserved":0,"last_update":"0001-01-01T00:00:00Z","name_a2s":"Uncletopia | Chicago | 1 | All Maps","protocol":17,"map":"pl_badwater","folder":"tf","game":"Team Fortress","app_id":440,"player_count":24,"max_players":24,"Bots":0,"server_type":"Dedicated","server_os":"Linux","password":true,"vac":true,"version":"7961495","steam_id":85568392924469984,"keywords":["nocrits","nodmgspread","payload","uncletopia"],"game_id":440,"stv_port":27016,"stv_name":"Uncletopia | Chicago | 1 | All Maps | STV","players":[{"user_id":19,"name":"OH BOY","steam_id":76561199052273428,"connected_time":5419000000000,"state":"active","ping":52},{"user_id":94,"name":"TeeTree","steam_id":76561198862307874,"connected_time":618000000000,"state":"active","ping":60},{"user_id":105,"name":".✮ RoseLina ✮.","steam_id":76561198104370559,"connected_time":301000000000,"state":"active","ping":105},{"user_id":100,"name":"stall","steam_id":76561199152861652,"connected_time":501000000000,"state":"active","ping":59},{"user_id":101,"name":"SHUSH nikoOS","steam_id":76561198180020521,"connected_time":483000000000,"state":"active","ping":106},{"user_id":93,"name":"gmaay","steam_id":76561199104911185,"connected_time":682000000000,"state":"active","ping":72},{"user_id":28,"name":"Jaeger","steam_id":76561199392187099,"connected_time":4337000000000,"state":"active","ping":76},{"user_id":91,"name":"chimpin","steam_id":76561198858089300,"connected_time":1227000000000,"state":"active","ping":72},{"user_id":86,"name":"Blaze","steam_id":76561198043797702,"connected_time":1669000000000,"state":"active","ping":68},{"user_id":107,"name":"boo","steam_id":76561199281298949,"connected_time":221000000000,"state":"active","ping":156},{"user_id":96,"name":"poopybutt420","steam_id":76561199000805315,"connected_time":574000000000,"state":"active","ping":87},{"user_id":60,"name":"Apache","steam_id":76561198279344571,"connected_time":3234000000000,"state":"active","ping":70},{"user_id":85,"name":"dadgummit","steam_id":76561198005806915,"connected_time":1689000000000,"state":"active","ping":54},{"user_id":95,"name":"dog","steam_id":76561198263873491,"connected_time":576000000000,"state":"active","ping":50},{"user_id":89,"name":"Tarot Warden","steam_id":76561198284383023,"connected_time":1616000000000,"state":"active","ping":75},{"user_id":103,"name":"TheBrocklobster","steam_id":76561198039682984,"connected_time":424000000000,"state":"active","ping":105},{"user_id":106,"name":"Ariel","steam_id":76561199072335323,"connected_time":284000000000,"state":"active","ping":129},{"user_id":97,"name":"gunch","steam_id":76561198029318657,"connected_time":543000000000,"state":"active","ping":65},{"user_id":82,"name":"Nibelsnarf (She/They)","steam_id":76561198137642054,"connected_time":1891000000000,"state":"active","ping":59},{"user_id":66,"name":"e doctor","steam_id":76561198081851446,"connected_time":3015000000000,"state":"active","ping":45},{"user_id":67,"name":"Clean Lines","steam_id":76561197960691518,"connected_time":3013000000000,"state":"active","ping":60},{"user_id":83,"name":"Sylvain","steam_id":76561198113385271,"connected_time":1888000000000,"state":"active","ping":78},{"user_id":76,"name":"Volteer","steam_id":76561198069395024,"connected_time":2549000000000,"state":"active","ping":75},{"user_id":92,"name":"thrompo","steam_id":76561197996845059,"connected_time":1011000000000,"state":"active","ping":60}]},{"server_id":106,"name":"Uncletopia | Chicago | 2 | All Maps","name_short":"chi-2","host":"chi-1.us.uncletopia.com","port":27025,"enabled":true,"region":"us-central","cc":"us","latitude":41.881832,"longitude":-87.62318,"reserved":0,"last_update":"0001-01-01T00:00:00Z","name_a2s":"Uncletopia | Chicago | 2 | All Maps","protocol":17,"map":"pl_swiftwater_final1","folder":"tf","game":"Team Fortress","app_id":440,"player_count":23,"max_players":24,"Bots":0,"server_type":"Dedicated","server_os":"Linux","password":true,"vac":true,"version":"7961495","steam_id":85568392924469985,"keywords":["nocrits","nodmgspread","payload","uncletopia"],"game_id":440,"stv_port":27026,"stv_name":"Uncletopia | Chicago | 2 | All Maps | STV","players":[{"user_id":141,"name":"ekgooby","steam_id":76561198043678479,"connected_time":1843000000000,"state":"active","ping":54},{"user_id":20,"name":"Snitzman","steam_id":76561198068303272,"connected_time":10542000000000,"state":"active","ping":95},{"user_id":91,"name":"hearthian","steam_id":76561198113235260,"connected_time":5814000000000,"state":"active","ping":95},{"user_id":118,"name":"Novaya","steam_id":76561198263560946,"connected_time":3162000000000,"state":"active","ping":58},{"user_id":126,"name":"Greg_M74","steam_id":76561198823492311,"connected_time":2733000000000,"state":"active","ping":67},{"user_id":112,"name":"Mburesh","steam_id":76561198137460717,"connected_time":3919000000000,"state":"active","ping":54},{"user_id":148,"name":"Bunni","steam_id":76561198065169997,"connected_time":1098000000000,"state":"active","ping":87},{"user_id":159,"name":"LeRoy42","steam_id":76561198035591428,"connected_time":704000000000,"state":"active","ping":70},{"user_id":161,"name":"guy","steam_id":76561198163306561,"connected_time":114000000000,"state":"active","ping":74},{"user_id":147,"name":"he suckin on my rick til i mort","steam_id":76561198310711692,"connected_time":1176000000000,"state":"active","ping":178},{"user_id":143,"name":"Sergeant Joker","steam_id":76561198854616604,"connected_time":1420000000000,"state":"active","ping":61},{"user_id":136,"name":"TheGrassMan (He/Him)","steam_id":76561198118984048,"connected_time":1977000000000,"state":"active","ping":70},{"user_id":92,"name":"NotoriousThicc","steam_id":76561198244650474,"connected_time":5290000000000,"state":"active","ping":105},{"user_id":153,"name":"eduard","steam_id":76561198136550093,"connected_time":1038000000000,"state":"active","ping":76},{"user_id":93,"name":"Chicken","steam_id":76561198855273194,"connected_time":5243000000000,"state":"active","ping":61},{"user_id":120,"name":"GoodleShoes/ttv","steam_id":76561198030993521,"connected_time":3123000000000,"state":"active","ping":69},{"user_id":160,"name":"ThatOneKnight","steam_id":76561198388583650,"connected_time":131000000000,"state":"active","ping":62},{"user_id":44,"name":"Woke Portugal Agenda","steam_id":76561198083276946,"connected_time":9450000000000,"state":"active","ping":67},{"user_id":158,"name":"Skudge Sister","steam_id":76561198041766766,"connected_time":970000000000,"state":"active","ping":77},{"user_id":162,"name":"Chucklenut productions","steam_id":76561199506242768,"connected_time":33000000000,"state":"active","ping":118},{"user_id":146,"name":"Acro","steam_id":76561198092451804,"connected_time":1240000000000,"state":"active","ping":106},{"user_id":94,"name":"CabezaGrande","steam_id":76561197972555502,"connected_time":5236000000000,"state":"active","ping":55},{"user_id":142,"name":"Chuina","steam_id":76561198056871257,"connected_time":1709000000000,"state":"active","ping":65}]},{"server_id":402,"name":"Uncletopia | Chicago | 3 | All Maps","name_short":"chi-3","host":"chi-1.us.uncletopia.com","port":27035,"enabled":true,"region":"us-central","cc":"us","latitude":41.881832,"longitude":-87.62318,"reserved":0,"last_update":"0001-01-01T00:00:00Z","name_a2s":"Uncletopia | Chicago | 3 | All Maps","protocol":17,"map":"cp_dustbowl","folder":"tf","game":"Team Fortress","app_id":440,"player_count":0,"max_players":24,"Bots":0,"server_type":"Dedicated","server_os":"Linux","password":true,"vac":true,"version":"7961495","steam_id":85568392924515191,"keywords":["cp","nocrits","nodmgspread","uncletopia"],"game_id":440,"stv_port":27036,"stv_name":"Uncletopia | Chicago | 3 | All Maps | STV","players":null},{"server_id":403,"name":"Uncletopia | Chicago | 4 | All Maps","name_short":"chi-4","host":"chi-1.us.uncletopia.com","port":27045,"enabled":true,"region":"us-central","cc":"us","latitude":41.881832,"longitude":-87.62318,"reserved":0,"last_update":"0001-01-01T00:00:00Z","name_a2s":"Uncletopia | Chicago | 4 | All Maps","protocol":17,"map":"pl_upward","folder":"tf","game":"Team Fortress","app_id":440,"player_count":24,"max_players":24,"Bots":0,"server_type":"Dedicated","server_os":"Linux","password":true,"vac":true,"version":"7961495","steam_id":85568392924515193,"keywords":["nocrits","nodmgspread","payload","uncletopia"],"game_id":440,"stv_port":27046,"stv_name":"Uncletopia | Chicago | 4 | All Maps | STV","players":[{"user_id":340,"name":"Kartyac","steam_id":76561197991069005,"connected_time":631000000000,"state":"active","ping":76},{"user_id":331,"name":"Dumpster Baby","steam_id":76561198206177593,"connected_time":1420000000000,"state":"active","ping":103},{"user_id":332,"name":"Steven","steam_id":76561198075526342,"connected_time":1405000000000,"state":"active","ping":62},{"user_id":316,"name":"princesspaisleycupcakesunshine","steam_id":76561198325980914,"connected_time":2338000000000,"state":"active","ping":88},{"user_id":289,"name":"my pitbull eats women under 5'7","steam_id":76561198142756572,"connected_time":6351000000000,"state":"active","ping":67},{"user_id":290,"name":"Punchy","steam_id":76561198200000641,"connected_time":6306000000000,"state":"active","ping":51},{"user_id":339,"name":"Decolour","steam_id":76561199045608372,"connected_time":1074000000000,"state":"active","ping":73},{"user_id":328,"name":"Louis Litt","steam_id":76561198170859755,"connected_time":1594000000000,"state":"active","ping":69},{"user_id":341,"name":"Emperor Prince","steam_id":76561197987164008,"connected_time":226000000000,"state":"active","ping":60},{"user_id":311,"name":"Kung fu MUNGUS","steam_id":76561198069281556,"connected_time":2977000000000,"state":"active","ping":71},{"user_id":248,"name":"Horrowes","steam_id":76561198318446417,"connected_time":11122000000000,"state":"active","ping":81},{"user_id":335,"name":"Just PYE","steam_id":76561199439622967,"connected_time":1257000000000,"state":"active","ping":96},{"user_id":313,"name":"jpuck","steam_id":76561198025018960,"connected_time":2438000000000,"state":"active","ping":78},{"user_id":318,"name":"OldRavensFan","steam_id":76561198043919562,"connected_time":2155000000000,"state":"active","ping":70},{"user_id":303,"name":"Waesel","steam_id":76561198069188177,"connected_time":4432000000000,"state":"active","ping":71},{"user_id":343,"name":"1998 Volvo S70 T5","steam_id":76561198258615044,"connected_time":55000000000,"state":"active","ping":77},{"user_id":296,"name":"Little Skull Boi","steam_id":76561198093595888,"connected_time":4652000000000,"state":"active","ping":96},{"user_id":338,"name":"Kuri","steam_id":76561199037050183,"connected_time":1097000000000,"state":"active","ping":80},{"user_id":327,"name":"beats (across the sea)","steam_id":76561199245717718,"connected_time":1728000000000,"state":"active","ping":56},{"user_id":306,"name":"HUMBY","steam_id":76561198065045867,"connected_time":4079000000000,"state":"active","ping":89},{"user_id":329,"name":"dr peppah chug!","steam_id":76561198068835693,"connected_time":1532000000000,"state":"active","ping":100},{"user_id":275,"name":"Heathcliff","steam_id":76561198044288534,"connected_time":7370000000000,"state":"active","ping":90},{"user_id":285,"name":"C Papi","steam_id":76561198027779564,"connected_time":6532000000000,"state":"active","ping":60},{"user_id":337,"name":"Dr.Inkmix(femboy)","steam_id":76561198854070384,"connected_time":1194000000000,"state":"active","ping":110}]},{"server_id":36,"name":"Uncletopia | Chicago | 5 | All Maps","name_short":"chi-5","host":"chi-2.us.uncletopia.com","port":27015,"enabled":true,"region":"us-central","cc":"us","latitude":41.881832,"longitude":-87.62318,"reserved":0,"last_update":"0001-01-01T00:00:00Z","name_a2s":"Uncletopia | Chicago | 5 | All Maps","protocol":17,"map":"pl_frontier_final","folder":"tf","game":"Team Fortress","app_id":440,"player_count":24,"max_players":24,"Bots":0,"server_type":"Dedicated","server_os":"Linux","password":true,"vac":true,"version":"7961495","steam_id":85568392924866362,"keywords":["nocrits","nodmgspread","payload","uncletopia"],"game_id":440,"stv_port":27016,"stv_name":"Uncletopia | Chicago | 5 | All Maps | STV","players":[{"user_id":221,"name":"Breach","steam_id":76561198045060392,"connected_time":320000000000,"state":"active","ping":45},{"user_id":203,"name":"Brastion","steam_id":76561198257707303,"connected_time":2528000000000,"state":"active","ping":88},{"user_id":213,"name":"Shuko","steam_id":76561197995563378,"connected_time":1410000000000,"state":"active","ping":80},{"user_id":157,"name":"Truly Cryo","steam_id":76561198347497484,"connected_time":6586000000000,"state":"active","ping":86},{"user_id":205,"name":"Luci★Fer","steam_id":76561199030343810,"connected_time":2093000000000,"state":"active","ping":55},{"user_id":220,"name":"triple negative gamer","steam_id":76561198071047016,"connected_time":353000000000,"state":"active","ping":54},{"user_id":216,"name":"Gantzero","steam_id":76561198046379464,"connected_time":488000000000,"state":"active","ping":179},{"user_id":208,"name":"deez ratz","steam_id":76561198864572366,"connected_time":1955000000000,"state":"active","ping":90},{"user_id":184,"name":"Luca!","steam_id":76561198137880777,"connected_time":4043000000000,"state":"active","ping":86},{"user_id":195,"name":"incredirocks","steam_id":76561198061079993,"connected_time":3209000000000,"state":"active","ping":45},{"user_id":217,"name":"Battalion's Backup","steam_id":76561198066153777,"connected_time":475000000000,"state":"active","ping":39},{"user_id":215,"name":"Dallas","steam_id":76561198066542919,"connected_time":570000000000,"state":"active","ping":94},{"user_id":212,"name":"Rat Cycle","steam_id":76561198113364714,"connected_time":1443000000000,"state":"active","ping":55},{"user_id":191,"name":"Renota","steam_id":76561198058224488,"connected_time":3336000000000,"state":"active","ping":97},{"user_id":211,"name":"Solan iler","steam_id":76561198809720926,"connected_time":1747000000000,"state":"active","ping":92},{"user_id":207,"name":"Borderinvader","steam_id":76561197969809273,"connected_time":1995000000000,"state":"active","ping":54},{"user_id":222,"name":"Red_Hatkins","steam_id":76561198214004105,"connected_time":295000000000,"state":"active","ping":89},{"user_id":218,"name":"GtownMenace","steam_id":76561198079359870,"connected_time":473000000000,"state":"active","ping":112},{"user_id":210,"name":"Lovedaddy","steam_id":76561198006569710,"connected_time":1912000000000,"state":"active","ping":84},{"user_id":171,"name":"gooselover42069","steam_id":76561198059562839,"connected_time":5618000000000,"state":"active","ping":57},{"user_id":181,"name":"BLOCKHEAD","steam_id":76561198808224331,"connected_time":4444000000000,"state":"active","ping":102},{"user_id":152,"name":"Sprit ♥","steam_id":76561198268780781,"connected_time":6942000000000,"state":"active","ping":47},{"user_id":172,"name":"King","steam_id":76561198039763676,"connected_time":5600000000000,"state":"active","ping":69},{"user_id":223,"name":"everything is a lie (wake up)","steam_id":76561198144436132,"connected_time":260000000000,"state":"active","ping":69}]},{"server_id":37,"name":"Uncletopia | Chicago | 6 | All Maps","name_short":"chi-6","host":"chi-2.us.uncletopia.com","port":27025,"enabled":true,"region":"us-central","cc":"us","latitude":41.881832,"longitude":-87.62318,"reserved":0,"last_update":"0001-01-01T00:00:00Z","name_a2s":"Uncletopia | Chicago | 6 | All Maps","protocol":17,"map":"cp_process_final","folder":"tf","game":"Team Fortress","app_id":440,"player_count":0,"max_players":24,"Bots":0,"server_type":"Dedicated","server_os":"Linux","password":true,"vac":true,"version":"7961495","steam_id":85568392924866363,"keywords":["cp","nocrits","nodmgspread","uncletopia"],"game_id":440,"stv_port":27026,"stv_name":"Uncletopia | Chicago | 6 | All Maps | STV","players":null},{"server_id":38,"name":"Uncletopia | Chicago | 7 | Stopwatch","name_short":"chi-7","host":"chi-2.us.uncletopia.com","port":27035,"enabled":true,"region":"us-central","cc":"us","latitude":41.881832,"longitude":-87.62318,"reserved":0,"last_update":"0001-01-01T00:00:00Z","name_a2s":"Uncletopia | Chicago | 7 | Stopwatch","protocol":17,"map":"workshop/koth_ramjam_rc1.ugc459778887","folder":"tf","game":"Team Fortress","app_id":440,"player_count":1,"max_players":24,"Bots":0,"server_type":"Dedicated","server_os":"Linux","password":true,"vac":true,"version":"7961495","steam_id":85568392924866364,"keywords":["cp","nocrits","nodmgspread","uncletopia"],"game_id":440,"stv_port":27036,"stv_name":"Uncletopia | Chicago | 7 | Stopwatch | STV","players":[{"user_id":8,"name":"H0ovy","steam_id":76561198996230924,"connected_time":107000000000,"state":"active","ping":66}]},{"server_id":39,"name":"Uncletopia | Chicago | 8 | Community","name_short":"chi-8","host":"chi-2.us.uncletopia.com","port":27045,"enabled":true,"region":"us-central","cc":"us","latitude":41.881832,"longitude":-87.62318,"reserved":0,"last_update":"0001-01-01T00:00:00Z","name_a2s":"Uncletopia | Chicago | 8 | Community","protocol":17,"map":"pl_pier","folder":"tf","game":"Team Fortress","app_id":440,"player_count":0,"max_players":24,"Bots":0,"server_type":"Dedicated","server_os":"Linux","password":true,"vac":true,"version":"7961495","steam_id":85568392924866365,"keywords":["nocrits","nodmgspread","payload","uncletopia"],"game_id":440,"stv_port":27046,"stv_name":"Uncletopia | Chicago | 8 | Community | STV","players":null},{"server_id":8,"name":"Uncletopia | Dallas | 1 | All Maps","name_short":"dal-1","host":"dal-1.us.uncletopia.com","port":27015,"enabled":true,"region":"us-central","cc":"us","latitude":32.779167,"longitude":-96.80889,"reserved":0,"last_update":"0001-01-01T00:00:00Z","name_a2s":"Uncletopia | Dallas | 1 | All Maps","protocol":17,"map":"pl_swiftwater_final1","folder":"tf","game":"Team Fortress","app_id":440,"player_count":0,"max_players":24,"Bots":0,"server_type":"Dedicated","server_os":"Linux","password":true,"vac":true,"version":"7961495","steam_id":85568392924469986,"keywords":["nocrits","nodmgspread","payload","uncletopia"],"game_id":440,"stv_port":27016,"stv_name":"Uncletopia | Dallas | 1 | All Maps | STV","players":null},{"server_id":108,"name":"Uncletopia | Dallas | 2 | All Maps","name_short":"dal-2","host":"dal-1.us.uncletopia.com","port":27025,"enabled":true,"region":"us-central","cc":"us","latitude":32.779167,"longitude":-96.80889,"reserved":0,"last_update":"0001-01-01T00:00:00Z","name_a2s":"Uncletopia | Dallas | 2 | All Maps","protocol":17,"map":"cp_sunshine","folder":"tf","game":"Team Fortress","app_id":440,"player_count":24,"max_players":24,"Bots":0,"server_type":"Dedicated","server_os":"Linux","password":true,"vac":true,"version":"7961495","steam_id":85568392924469988,"keywords":["cp","nocrits","nodmgspread","uncletopia"],"game_id":440,"stv_port":27026,"stv_name":"Uncletopia | Dallas | 2 | All Maps | STV","players":[{"user_id":119,"name":"demon girl","steam_id":76561198100477765,"connected_time":1742000000000,"state":"active","ping":106},{"user_id":96,"name":"Kuyumiester","steam_id":76561198126835302,"connected_time":2631000000000,"state":"active","ping":62},{"user_id":120,"name":"Antifa Supersoldier","steam_id":76561198141816516,"connected_time":1730000000000,"state":"active","ping":41},{"user_id":131,"name":"Kerpal45","steam_id":76561198153340350,"connected_time":316000000000,"state":"active","ping":91},{"user_id":105,"name":"Aviyarn","steam_id":76561199074194652,"connected_time":2487000000000,"state":"active","ping":69},{"user_id":127,"name":"ChozoChozo","steam_id":76561198272609196,"connected_time":1533000000000,"state":"active","ping":71},{"user_id":95,"name":"Schwartzy","steam_id":76561198098576795,"connected_time":2711000000000,"state":"active","ping":45},{"user_id":98,"name":"NeoWolf","steam_id":76561198144759784,"connected_time":2620000000000,"state":"active","ping":104},{"user_id":121,"name":"Lolxdloldx","steam_id":76561198136887125,"connected_time":1717000000000,"state":"active","ping":71},{"user_id":122,"name":"texas butthole tickling bandit","steam_id":76561198984228021,"connected_time":1710000000000,"state":"active","ping":77},{"user_id":101,"name":"eptastic","steam_id":76561198119173648,"connected_time":2606000000000,"state":"active","ping":165},{"user_id":104,"name":"demon girl kisser","steam_id":76561198248461754,"connected_time":2497000000000,"state":"active","ping":90},{"user_id":129,"name":"schmuck","steam_id":76561198143789773,"connected_time":743000000000,"state":"active","ping":44},{"user_id":117,"name":"Kafka Stan","steam_id":76561198127039453,"connected_time":1919000000000,"state":"active","ping":77},{"user_id":81,"name":"mkl","steam_id":76561197986401685,"connected_time":4576000000000,"state":"active","ping":55},{"user_id":107,"name":"Nassu","steam_id":76561198147367577,"connected_time":2418000000000,"state":"active","ping":97},{"user_id":123,"name":"Greasy Guavas","steam_id":76561198089650428,"connected_time":1685000000000,"state":"active","ping":78},{"user_id":128,"name":"shellaa","steam_id":76561198044124102,"connected_time":1277000000000,"state":"active","ping":53},{"user_id":50,"name":"Franticraven177","steam_id":76561198334105579,"connected_time":7173000000000,"state":"active","ping":80},{"user_id":111,"name":"Starkiller","steam_id":76561198101643120,"connected_time":2200000000000,"state":"active","ping":103},{"user_id":132,"name":"babywhoa","steam_id":76561198070854627,"connected_time":177000000000,"state":"active","ping":97},{"user_id":113,"name":"Curse of the Blackened Eye","steam_id":76561198097175164,"connected_time":2138000000000,"state":"active","ping":110},{"user_id":130,"name":"DicksOnPizza","steam_id":76561198928660206,"connected_time":635000000000,"state":"active","ping":91},{"user_id":116,"name":"radicalPolio","steam_id":76561197961561855,"connected_time":2079000000000,"state":"active","ping":46}]},{"server_id":404,"name":"Uncletopia | Dallas | 3 | All Maps","name_short":"dal-3","host":"dal-1.us.uncletopia.com","port":27035,"enabled":true,"region":"us-central","cc":"us","latitude":32.779167,"longitude":-96.80889,"reserved":0,"last_update":"0001-01-01T00:00:00Z","name_a2s":"Uncletopia | Dallas | 3 | All Maps","protocol":17,"map":"pl_badwater","folder":"tf","game":"Team Fortress","app_id":440,"player_count":0,"max_players":24,"Bots":0,"server_type":"Dedicated","server_os":"Linux","password":true,"vac":true,"version":"7961495","steam_id":85568392924515219,"keywords":["nocrits","nodmgspread","payload","uncletopia"],"game_id":440,"stv_port":27036,"stv_name":"Uncletopia | Dallas | 3 | All Maps | STV","players":null},{"server_id":405,"name":"Uncletopia | Dallas | 4 | Community","name_short":"dal-4","host":"dal-1.us.uncletopia.com","port":27045,"enabled":true,"region":"us-central","cc":"us","latitude":32.779167,"longitude":-96.80889,"reserved":0,"last_update":"0001-01-01T00:00:00Z","name_a2s":"Uncletopia | Dallas | 4 | Community","protocol":17,"map":"workshop/cp_villa_b19.ugc2113052569","folder":"tf","game":"Team Fortress","app_id":440,"player_count":0,"max_players":24,"Bots":0,"server_type":"Dedicated","server_os":"Linux","password":true,"vac":true,"version":"7961495","steam_id":85568392924515220,"keywords":["cp","nocrits","nodmgspread","uncletopia"],"game_id":440,"stv_port":27046,"stv_name":"Uncletopia | Dallas | 4 | Community | STV","players":null},{"server_id":5,"name":"Uncletopia | Frankfurt | 1 | All Maps","name_short":"frk-1","host":"frk-1.de.uncletopia.com","port":27015,"enabled":true,"region":"eu","cc":"de","latitude":50.110924,"longitude":8.682127,"reserved":0,"last_update":"0001-01-01T00:00:00Z","name_a2s":"Uncletopia | Frankfurt | 1 | All Maps","protocol":17,"map":"pl_badwater","folder":"tf","game":"Team Fortress","app_id":440,"player_count":24,"max_players":24,"Bots":0,"server_type":"Dedicated","server_os":"Linux","password":true,"vac":true,"version":"7961495","steam_id":85568392924469989,"keywords":["nocrits","nodmgspread","payload","uncletopia"],"game_id":440,"stv_port":27016,"stv_name":"Uncletopia | Frankfurt | 1 | All Maps | STV","players":[{"user_id":410,"name":"Solid","steam_id":76561198357049292,"connected_time":1836000000000,"state":"active","ping":87},{"user_id":452,"name":"Cat-loaf gaming","steam_id":76561198065438030,"connected_time":270000000000,"state":"active","ping":121},{"user_id":437,"name":"Gregor Samsa","steam_id":76561198973069177,"connected_time":909000000000,"state":"active","ping":50},{"user_id":418,"name":"tallen","steam_id":76561198061708595,"connected_time":1365000000000,"state":"active","ping":70},{"user_id":453,"name":"Moses","steam_id":76561198257652671,"connected_time":249000000000,"state":"active","ping":59},{"user_id":421,"name":"デトミー","steam_id":76561198068945560,"connected_time":1292000000000,"state":"active","ping":55},{"user_id":449,"name":"mag-nə-ˈmō-pəs","steam_id":76561198045716575,"connected_time":419000000000,"state":"active","ping":58},{"user_id":409,"name":"SalCrabber deluxe","steam_id":76561198275942961,"connected_time":1983000000000,"state":"active","ping":43},{"user_id":417,"name":"Ullapool scotsman","steam_id":76561199407941086,"connected_time":1472000000000,"state":"active","ping":64},{"user_id":399,"name":"MoistMomMauler","steam_id":76561198069359049,"connected_time":2470000000000,"state":"active","ping":75},{"user_id":457,"name":"Proud Owner of a Sittable Face","steam_id":76561198060735383,"connected_time":88000000000,"state":"active","ping":86},{"user_id":422,"name":"Zweitonegoismus","steam_id":76561198071728831,"connected_time":1290000000000,"state":"active","ping":142},{"user_id":435,"name":"Coac","steam_id":76561198085265740,"connected_time":991000000000,"state":"active","ping":60},{"user_id":448,"name":"Whelchur","steam_id":76561199442895952,"connected_time":498000000000,"state":"active","ping":76},{"user_id":451,"name":"NEZ","steam_id":76561198320935413,"connected_time":288000000000,"state":"active","ping":102},{"user_id":456,"name":"B0redZer0","steam_id":76561198140704359,"connected_time":179000000000,"state":"active","ping":59},{"user_id":439,"name":"please do not the cat","steam_id":76561198089003514,"connected_time":844000000000,"state":"active","ping":45},{"user_id":428,"name":"Miku.Hatsune.2007","steam_id":76561198199687607,"connected_time":1059000000000,"state":"active","ping":80},{"user_id":431,"name":"Topool45","steam_id":76561199161389847,"connected_time":1023000000000,"state":"active","ping":82},{"user_id":432,"name":"Clark","steam_id":76561198120498831,"connected_time":1019000000000,"state":"active","ping":77},{"user_id":433,"name":"Falling Apples","steam_id":76561198122762346,"connected_time":1015000000000,"state":"active","ping":66},{"user_id":458,"name":"b","steam_id":76561198200529559,"connected_time":73000000000,"state":"active","ping":72},{"user_id":446,"name":"carbuzz","steam_id":76561198129361580,"connected_time":554000000000,"state":"active","ping":59},{"user_id":442,"name":"Egor Pomidor","steam_id":76561199175688390,"connected_time":693000000000,"state":"active","ping":80}]},{"server_id":110,"name":"Uncletopia | Frankfurt | 2 | All Maps","name_short":"frk-2","host":"frk-1.de.uncletopia.com","port":27025,"enabled":true,"region":"eu","cc":"de","latitude":50.110924,"longitude":8.682127,"reserved":0,"last_update":"0001-01-01T00:00:00Z","name_a2s":"Uncletopia | Frankfurt | 2 | All Maps","protocol":17,"map":"pl_borneo","folder":"tf","game":"Team Fortress","app_id":440,"player_count":24,"max_players":24,"Bots":0,"server_type":"Dedicated","server_os":"Linux","password":true,"vac":true,"version":"7961495","steam_id":85568392924469990,"keywords":["nocrits","nodmgspread","payload","uncletopia"],"game_id":440,"stv_port":27026,"stv_name":"Uncletopia | Frankfurt | 2 | All Maps | STV","players":[{"user_id":427,"name":"md","steam_id":76561198012687415,"connected_time":1463000000000,"state":"active","ping":50},{"user_id":439,"name":"ok","steam_id":76561198320042443,"connected_time":753000000000,"state":"active","ping":94},{"user_id":416,"name":"bob","steam_id":76561198448135228,"connected_time":2205000000000,"state":"active","ping":80},{"user_id":429,"name":"ItsGertje","steam_id":76561199063680083,"connected_time":1034000000000,"state":"active","ping":59},{"user_id":435,"name":"Vee","steam_id":76561198173065294,"connected_time":964000000000,"state":"active","ping":62},{"user_id":436,"name":"JeffTrash","steam_id":76561198975550775,"connected_time":922000000000,"state":"active","ping":166},{"user_id":344,"name":"julidulen","steam_id":76561199225661729,"connected_time":6348000000000,"state":"active","ping":44},{"user_id":437,"name":"Leviticus Cornwall","steam_id":76561197993702685,"connected_time":921000000000,"state":"active","ping":88},{"user_id":442,"name":"golfmastr","steam_id":76561198993144124,"connected_time":575000000000,"state":"active","ping":227},{"user_id":438,"name":"HumorlessButton","steam_id":76561198170128638,"connected_time":907000000000,"state":"active","ping":69},{"user_id":440,"name":"SirClyan","steam_id":76561199196651938,"connected_time":714000000000,"state":"active","ping":72},{"user_id":382,"name":"Cöffee","steam_id":76561198115131952,"connected_time":4057000000000,"state":"active","ping":107},{"user_id":420,"name":"p!ke","steam_id":76561198416081952,"connected_time":2158000000000,"state":"active","ping":60},{"user_id":410,"name":"mex :3","steam_id":76561198091083324,"connected_time":2599000000000,"state":"active","ping":66},{"user_id":428,"name":"Pestilence","steam_id":76561198140938904,"connected_time":1462000000000,"state":"active","ping":72},{"user_id":345,"name":"Purrplehaze","steam_id":76561198297604298,"connected_time":6342000000000,"state":"active","ping":72},{"user_id":399,"name":"smell_my_cheese","steam_id":76561198008517427,"connected_time":3340000000000,"state":"active","ping":58},{"user_id":418,"name":"The Big J","steam_id":76561198158202901,"connected_time":2168000000000,"state":"active","ping":49},{"user_id":406,"name":"gamerkiddo","steam_id":76561198047380360,"connected_time":2926000000000,"state":"active","ping":59},{"user_id":444,"name":"Abrorius","steam_id":76561198095889014,"connected_time":27000000000,"state":"active","ping":88},{"user_id":432,"name":"Dicartal","steam_id":76561198295793592,"connected_time":1005000000000,"state":"active","ping":137},{"user_id":419,"name":"sinkuchan","steam_id":76561198054012474,"connected_time":2160000000000,"state":"active","ping":79},{"user_id":407,"name":"Ozzie","steam_id":76561197992915315,"connected_time":2905000000000,"state":"active","ping":75},{"user_id":415,"name":"Cet","steam_id":76561198826005248,"connected_time":2232000000000,"state":"active","ping":55}]},{"server_id":308,"name":"Uncletopia | Frankfurt | 3 | All Maps","name_short":"frk-3","host":"frk-1.de.uncletopia.com","port":27035,"enabled":true,"region":"eu","cc":"de","latitude":50.110924,"longitude":8.682127,"reserved":0,"last_update":"0001-01-01T00:00:00Z","name_a2s":"Uncletopia | Frankfurt | 3 | All Maps","protocol":17,"map":"pl_barnblitz","folder":"tf","game":"Team Fortress","app_id":440,"player_count":24,"max_players":24,"Bots":0,"server_type":"Dedicated","server_os":"Linux","password":true,"vac":true,"version":"7961495","steam_id":85568392924504274,"keywords":["nocrits","nodmgspread","payload","uncletopia"],"game_id":440,"stv_port":27036,"stv_name":"Uncletopia | Frankfurt | 3 | All Maps | STV","players":[{"user_id":430,"name":"kana","steam_id":76561198002343512,"connected_time":1262000000000,"state":"active","ping":91},{"user_id":431,"name":"Not A Fake Uncletopia Server","steam_id":76561198152871288,"connected_time":923000000000,"state":"active","ping":64},{"user_id":448,"name":"HeadM0nst3rr","steam_id":76561198099296029,"connected_time":223000000000,"state":"active","ping":158},{"user_id":375,"name":"asmv","steam_id":76561198162108345,"connected_time":3705000000000,"state":"active","ping":49},{"user_id":450,"name":"Grumtsior","steam_id":76561198043563111,"connected_time":64000000000,"state":"active","ping":69},{"user_id":447,"name":"Çodar","steam_id":76561198235518444,"connected_time":322000000000,"state":"active","ping":48},{"user_id":428,"name":"Ignot","steam_id":76561198235896754,"connected_time":1424000000000,"state":"active","ping":85},{"user_id":410,"name":"REN","steam_id":76561198000596385,"connected_time":2287000000000,"state":"active","ping":57},{"user_id":416,"name":"Omni","steam_id":76561197964320557,"connected_time":2103000000000,"state":"active","ping":62},{"user_id":433,"name":"Crims0n","steam_id":76561198110735434,"connected_time":847000000000,"state":"active","ping":46},{"user_id":442,"name":"Silva_mlon","steam_id":76561199310242047,"connected_time":515000000000,"state":"active","ping":70},{"user_id":445,"name":"Col0bok","steam_id":76561197999097117,"connected_time":403000000000,"state":"active","ping":60},{"user_id":444,"name":"Aaron Cahill","steam_id":76561198132831088,"connected_time":460000000000,"state":"active","ping":74},{"user_id":449,"name":"✪ m_br3","steam_id":76561198044981990,"connected_time":78000000000,"state":"active","ping":62},{"user_id":446,"name":"hench frog","steam_id":76561198445120460,"connected_time":353000000000,"state":"active","ping":77},{"user_id":440,"name":"chidory41","steam_id":76561199404844130,"connected_time":560000000000,"state":"active","ping":70},{"user_id":420,"name":"Ardello","steam_id":76561198864484125,"connected_time":2047000000000,"state":"active","ping":82},{"user_id":429,"name":"nhtson","steam_id":76561199113295118,"connected_time":1403000000000,"state":"active","ping":83},{"user_id":385,"name":"radu","steam_id":76561198067346802,"connected_time":3440000000000,"state":"active","ping":74},{"user_id":404,"name":"retzerbil","steam_id":76561198015304794,"connected_time":2737000000000,"state":"active","ping":50},{"user_id":415,"name":"Kamelåså","steam_id":76561198149072785,"connected_time":2172000000000,"state":"active","ping":82},{"user_id":438,"name":"obi","steam_id":76561198040154461,"connected_time":688000000000,"state":"active","ping":60},{"user_id":439,"name":"Krazy Karlo","steam_id":76561198976332318,"connected_time":681000000000,"state":"active","ping":55},{"user_id":451,"name":"N00BCSF","steam_id":76561198035530934,"connected_time":30000000000,"state":"active","ping":71}]},{"server_id":309,"name":"Uncletopia | Frankfurt | 4 | All Maps","name_short":"frk-4","host":"frk-1.de.uncletopia.com","port":27045,"enabled":true,"region":"eu","cc":"de","latitude":50.110924,"longitude":8.682127,"reserved":0,"last_update":"0001-01-01T00:00:00Z","name_a2s":"Uncletopia | Frankfurt | 4 | All Maps","protocol":17,"map":"koth_lakeside_final","folder":"tf","game":"Team Fortress","app_id":440,"player_count":25,"max_players":24,"Bots":0,"server_type":"Dedicated","server_os":"Linux","password":true,"vac":true,"version":"7961495","steam_id":85568392924504275,"keywords":["cp","nocrits","nodmgspread","uncletopia"],"game_id":440,"stv_port":27046,"stv_name":"Uncletopia | Frankfurt | 4 | All Maps | STV","players":[{"user_id":215,"name":"ollyenolivers2","steam_id":76561198373705408,"connected_time":301000000000,"state":"active","ping":54},{"user_id":182,"name":"Skepingawich","steam_id":76561198038736553,"connected_time":2517000000000,"state":"active","ping":49},{"user_id":181,"name":"Green Eyes","steam_id":76561198136156626,"connected_time":2585000000000,"state":"active","ping":72},{"user_id":211,"name":"3L","steam_id":76561198007208996,"connected_time":399000000000,"state":"active","ping":42},{"user_id":212,"name":"brand0n42","steam_id":76561199191493630,"connected_time":392000000000,"state":"active","ping":35},{"user_id":206,"name":"Ziomek","steam_id":76561199131735098,"connected_time":840000000000,"state":"active","ping":72},{"user_id":223,"name":"Jeffrey Harpen","steam_id":76561199073314677,"connected_time":138000000000,"state":"active","ping":62},{"user_id":216,"name":"Cosmetic brain","steam_id":76561198055936410,"connected_time":295000000000,"state":"active","ping":90},{"user_id":143,"name":"sloppy transgirl toppy","steam_id":76561198057092208,"connected_time":5796000000000,"state":"active","ping":60},{"user_id":156,"name":"Artemis","steam_id":76561198199091801,"connected_time":4627000000000,"state":"active","ping":44},{"user_id":157,"name":"Paramedic_101","steam_id":76561198157205078,"connected_time":4619000000000,"state":"active","ping":71},{"user_id":217,"name":"A Red Brick","steam_id":76561198317522580,"connected_time":273000000000,"state":"active","ping":85},{"user_id":192,"name":"grass hater","steam_id":76561198123386541,"connected_time":1936000000000,"state":"active","ping":94},{"user_id":218,"name":"smiley","steam_id":76561198042245117,"connected_time":268000000000,"state":"connecting","ping":0},{"user_id":170,"name":"Daredevil","steam_id":76561198153488940,"connected_time":3655000000000,"state":"active","ping":61},{"user_id":219,"name":"RudiPrico4","steam_id":76561199014381495,"connected_time":267000000000,"state":"spawning","ping":170},{"user_id":193,"name":"You slumber","steam_id":76561198344639692,"connected_time":1936000000000,"state":"active","ping":84},{"user_id":158,"name":"Anet1k","steam_id":76561198137123138,"connected_time":4612000000000,"state":"active","ping":50},{"user_id":220,"name":"☭TheDevilsEye☭","steam_id":76561198017379398,"connected_time":266000000000,"state":"active","ping":76},{"user_id":178,"name":"DozzeD","steam_id":76561198815257504,"connected_time":2913000000000,"state":"active","ping":60},{"user_id":221,"name":"Sok0liar","steam_id":76561198340430186,"connected_time":257000000000,"state":"active","ping":59},{"user_id":222,"name":"Nav1Player1","steam_id":76561199058150847,"connected_time":234000000000,"state":"active","ping":67},{"user_id":224,"name":"lore","steam_id":76561198120984188,"connected_time":50000000000,"state":"active","ping":52},{"user_id":225,"name":"Silver","steam_id":76561198175238807,"connected_time":32000000000,"state":"active","ping":57},{"user_id":102,"name":"SuntanPikachu","steam_id":76561198121242476,"connected_time":7482000000000,"state":"active","ping":74}]},{"server_id":310,"name":"Uncletopia | Frankfurt | 5 | All Maps","name_short":"frk-5","host":"frk-1.de.uncletopia.com","port":27055,"enabled":true,"region":"eu","cc":"de","latitude":50.110924,"longitude":8.682127,"reserved":0,"last_update":"0001-01-01T00:00:00Z","name_a2s":"Uncletopia | Frankfurt | 5 | All Maps","protocol":17,"map":"pl_barnblitz","folder":"tf","game":"Team Fortress","app_id":440,"player_count":24,"max_players":24,"Bots":0,"server_type":"Dedicated","server_os":"Linux","password":true,"vac":true,"version":"7961495","steam_id":85568392924504277,"keywords":["nocrits","nodmgspread","payload","uncletopia"],"game_id":440,"stv_port":27056,"stv_name":"Uncletopia | Frankfurt | 5 | All Maps | STV","players":[{"user_id":552,"name":"FistfulOfKittens","steam_id":76561198323611129,"connected_time":1535000000000,"state":"active","ping":69},{"user_id":540,"name":"NALA","steam_id":76561198039806469,"connected_time":2773000000000,"state":"active","ping":68},{"user_id":553,"name":"TOP G","steam_id":76561198138928548,"connected_time":1516000000000,"state":"active","ping":58},{"user_id":523,"name":"limbicsystem","steam_id":76561198025612680,"connected_time":3464000000000,"state":"active","ping":68},{"user_id":566,"name":"Egg","steam_id":76561198031009278,"connected_time":730000000000,"state":"active","ping":66},{"user_id":569,"name":"Caliban","steam_id":76561197999696839,"connected_time":409000000000,"state":"active","ping":101},{"user_id":560,"name":"CONAH","steam_id":76561198227685876,"connected_time":1160000000000,"state":"active","ping":60},{"user_id":486,"name":"three rats in a trenchcoat","steam_id":76561197983889333,"connected_time":5603000000000,"state":"active","ping":61},{"user_id":551,"name":"GuyWithoutAPie","steam_id":76561198054512149,"connected_time":1569000000000,"state":"active","ping":55},{"user_id":568,"name":"Zembis","steam_id":76561198008017918,"connected_time":491000000000,"state":"active","ping":102},{"user_id":561,"name":"MeSeaBass","steam_id":76561198390822393,"connected_time":1103000000000,"state":"active","ping":97},{"user_id":557,"name":"Menny","steam_id":76561197992054834,"connected_time":1190000000000,"state":"active","ping":46},{"user_id":556,"name":"тукку ирма","steam_id":76561197998715016,"connected_time":1200000000000,"state":"active","ping":59},{"user_id":475,"name":"_Alonso","steam_id":76561198041893314,"connected_time":6002000000000,"state":"active","ping":50},{"user_id":570,"name":"cazador","steam_id":76561198123096922,"connected_time":399000000000,"state":"active","ping":92},{"user_id":567,"name":"Dolcelatte","steam_id":76561198038501770,"connected_time":540000000000,"state":"active","ping":47},{"user_id":536,"name":"Eliazz","steam_id":76561198374651481,"connected_time":3209000000000,"state":"active","ping":75},{"user_id":564,"name":"NerdyEnforcement","steam_id":76561198437710820,"connected_time":1031000000000,"state":"active","ping":172},{"user_id":571,"name":"binkov 3zl","steam_id":76561198198056590,"connected_time":380000000000,"state":"active","ping":64},{"user_id":563,"name":"Elimidaie_White","steam_id":76561198166744324,"connected_time":1078000000000,"state":"active","ping":67},{"user_id":507,"name":"chocy milk addict","steam_id":76561199042178118,"connected_time":4625000000000,"state":"active","ping":69},{"user_id":565,"name":"ERBLIN011","steam_id":76561198302006065,"connected_time":895000000000,"state":"active","ping":84},{"user_id":543,"name":"Drillboy Jenkins","steam_id":76561198160497421,"connected_time":2558000000000,"state":"active","ping":81},{"user_id":509,"name":"Doctor Mobius","steam_id":76561197971281806,"connected_time":4104000000000,"state":"active","ping":67}]},{"server_id":311,"name":"Uncletopia | Frankfurt | 6 | All Maps","name_short":"frk-6","host":"frk-1.de.uncletopia.com","port":27065,"enabled":true,"region":"eu","cc":"de","latitude":50.110924,"longitude":8.682127,"reserved":0,"last_update":"0001-01-01T00:00:00Z","name_a2s":"Uncletopia | Frankfurt | 6 | All Maps","protocol":17,"map":"pl_badwater","folder":"tf","game":"Team Fortress","app_id":440,"player_count":5,"max_players":24,"Bots":0,"server_type":"Dedicated","server_os":"Linux","password":true,"vac":true,"version":"7961495","steam_id":85568392924504278,"keywords":["nocrits","nodmgspread","payload","uncletopia"],"game_id":440,"stv_port":27066,"stv_name":"Uncletopia | Frankfurt | 6 | All Maps | STV","players":[{"user_id":39,"name":"Memphis","steam_id":76561198045039038,"connected_time":145000000000,"state":"active","ping":69},{"user_id":40,"name":"Speed C. Rapper","steam_id":76561198052088053,"connected_time":136000000000,"state":"active","ping":57},{"user_id":31,"name":"PANAANI","steam_id":76561198322322739,"connected_time":1163000000000,"state":"active","ping":86},{"user_id":34,"name":"ran is running","steam_id":76561199443185667,"connected_time":936000000000,"state":"active","ping":128},{"user_id":36,"name":"Gul'dan","steam_id":76561198240466940,"connected_time":761000000000,"state":"active","ping":88}]},{"server_id":23,"name":"Uncletopia | Frankfurt | 7 | Stopwatch","name_short":"frk-7","host":"frk-1.de.uncletopia.com","port":27075,"enabled":true,"region":"eu","cc":"de","latitude":50.110924,"longitude":8.682127,"reserved":0,"last_update":"0001-01-01T00:00:00Z","name_a2s":"Uncletopia | Frankfurt | 7 | Stopwatch","protocol":17,"map":"pl_frontier_final","folder":"tf","game":"Team Fortress","app_id":440,"player_count":0,"max_players":24,"Bots":0,"server_type":"Dedicated","server_os":"Linux","password":true,"vac":true,"version":"7961495","steam_id":85568392924742827,"keywords":["nocrits","nodmgspread","payload","uncletopia"],"game_id":440,"stv_port":27076,"stv_name":"Uncletopia | Frankfurt | 7 | Stopwatch | STV","players":null},{"server_id":24,"name":"Uncletopia | Frankfurt | 8 | Community","name_short":"frk-8","host":"frk-1.de.uncletopia.com","port":27085,"enabled":true,"region":"eu","cc":"de","latitude":50.110924,"longitude":8.682127,"reserved":0,"last_update":"0001-01-01T00:00:00Z","name_a2s":"Uncletopia | Frankfurt | 8 | Community","protocol":17,"map":"workshop/koth_product_final.ugc454272353","folder":"tf","game":"Team Fortress","app_id":440,"player_count":0,"max_players":24,"Bots":0,"server_type":"Dedicated","server_os":"Linux","password":true,"vac":true,"version":"7961495","steam_id":85568392924742828,"keywords":["cp","nocrits","nodmgspread","uncletopia"],"game_id":440,"stv_port":27086,"stv_name":"Uncletopia | Frankfurt | 8 | Community | STV","players":null},{"server_id":202,"name":"Uncletopia | Hong Kong | 1 | All Maps","name_short":"hgk-1","host":"hgk-1.hk.uncletopia.com","port":27015,"enabled":true,"region":"asia","cc":"hk","latitude":22.302711,"longitude":114.177216,"reserved":0,"last_update":"0001-01-01T00:00:00Z","name_a2s":"Uncletopia | Hong Kong | 1 | All Maps","protocol":17,"map":"koth_viaduct","folder":"tf","game":"Team Fortress","app_id":440,"player_count":0,"max_players":24,"Bots":0,"server_type":"Dedicated","server_os":"Linux","password":true,"vac":true,"version":"7961495","steam_id":85568392924494504,"keywords":["cp","nocrits","nodmgspread","uncletopia"],"game_id":440,"stv_port":27016,"stv_name":"Uncletopia | Hong Kong | 1 | All Maps | STV","players":null},{"server_id":1,"name":"Uncletopia | Los Angeles | 1 | All Maps","name_short":"lax-1","host":"lax-1.us.uncletopia.com","port":27015,"enabled":true,"region":"us-west","cc":"us","latitude":33.94279,"longitude":-118.41004,"reserved":0,"last_update":"0001-01-01T00:00:00Z","name_a2s":"Uncletopia | Los Angeles | 1 | All Maps","protocol":17,"map":"pl_snowycoast","folder":"tf","game":"Team Fortress","app_id":440,"player_count":3,"max_players":24,"Bots":0,"server_type":"Dedicated","server_os":"Linux","password":true,"vac":true,"version":"7961495","steam_id":85568392924469991,"keywords":["nocrits","nodmgspread","payload","uncletopia"],"game_id":440,"stv_port":27016,"stv_name":"Uncletopia | Los Angeles | 1 | All Maps | STV","players":[{"user_id":3,"name":"Pizzadude031","steam_id":76561198993666394,"connected_time":941000000000,"state":"active","ping":44},{"user_id":4,"name":"Stimpry","steam_id":76561199055662248,"connected_time":797000000000,"state":"active","ping":61},{"user_id":5,"name":"Bestmaster202","steam_id":76561198235282680,"connected_time":665000000000,"state":"active","ping":56}]},{"server_id":112,"name":"Uncletopia | Los Angeles | 2 | All Maps","name_short":"lax-2","host":"lax-1.us.uncletopia.com","port":27025,"enabled":true,"region":"us-west","cc":"us","latitude":33.94279,"longitude":-118.41004,"reserved":0,"last_update":"0001-01-01T00:00:00Z","name_a2s":"Uncletopia | Los Angeles | 2 | All Maps","protocol":17,"map":"cp_mountainlab","folder":"tf","game":"Team Fortress","app_id":440,"player_count":0,"max_players":24,"Bots":0,"server_type":"Dedicated","server_os":"Linux","password":true,"vac":true,"version":"7961495","steam_id":85568392924469992,"keywords":["cp","nocrits","nodmgspread","uncletopia"],"game_id":440,"stv_port":27026,"stv_name":"Uncletopia | Los Angeles | 2 | All Maps | STV","players":null},{"server_id":324,"name":"Uncletopia | Los Angeles | 3 | All Maps","name_short":"lax-3","host":"lax-1.us.uncletopia.com","port":27035,"enabled":true,"region":"us-west","cc":"us","latitude":33.94279,"longitude":-118.41004,"reserved":0,"last_update":"0001-01-01T00:00:00Z","name_a2s":"Uncletopia | Los Angeles | 3 | All Maps","protocol":17,"map":"pl_frontier_final","folder":"tf","game":"Team Fortress","app_id":440,"player_count":0,"max_players":24,"Bots":0,"server_type":"Dedicated","server_os":"Linux","password":true,"vac":true,"version":"7961495","steam_id":85568392924510198,"keywords":["nocrits","nodmgspread","payload","uncletopia"],"game_id":440,"stv_port":27036,"stv_name":"Uncletopia | Los Angeles | 3 | All Maps | STV","players":null},{"server_id":25,"name":"Uncletopia | Los Angeles | 4 | Stopwatch","name_short":"lax-4","host":"lax-1.us.uncletopia.com","port":27045,"enabled":true,"region":"us-west","cc":"us","latitude":33.94279,"longitude":-118.41004,"reserved":0,"last_update":"0001-01-01T00:00:00Z","name_a2s":"Uncletopia | Los Angeles | 4 | Stopwatch","protocol":17,"map":"pl_barnblitz","folder":"tf","game":"Team Fortress","app_id":440,"player_count":0,"max_players":24,"Bots":0,"server_type":"Dedicated","server_os":"Linux","password":true,"vac":true,"version":"7961495","steam_id":85568392924510199,"keywords":["nocrits","nodmgspread","payload","uncletopia"],"game_id":440,"stv_port":27046,"stv_name":"Uncletopia | Los Angeles | 4 | Stopwatch | STV","players":null},{"server_id":11,"name":"Uncletopia | London | 1 | All Maps","name_short":"lon-1","host":"lon-1.uk.uncletopia.com","port":27015,"enabled":true,"region":"eu","cc":"gb","latitude":51.509865,"longitude":-0.118092,"reserved":0,"last_update":"0001-01-01T00:00:00Z","name_a2s":"Uncletopia | London | 1 | All Maps","protocol":17,"map":"cp_foundry","folder":"tf","game":"Team Fortress","app_id":440,"player_count":24,"max_players":24,"Bots":0,"server_type":"Dedicated","server_os":"Linux","password":true,"vac":true,"version":"7961495","steam_id":85568392924367362,"keywords":["cp","nocrits","nodmgspread","uncletopia"],"game_id":440,"stv_port":27016,"stv_name":"Uncletopia | London | 1 | All Maps | STV","players":[{"user_id":569,"name":"ber","steam_id":76561197993892057,"connected_time":12280000000000,"state":"spawning","ping":174},{"user_id":752,"name":"4:38","steam_id":76561198072892783,"connected_time":1721000000000,"state":"spawning","ping":115},{"user_id":744,"name":"nudjura","steam_id":76561198281986139,"connected_time":2744000000000,"state":"spawning","ping":69},{"user_id":766,"name":"GogsCrunchyNuts","steam_id":76561198150599213,"connected_time":433000000000,"state":"spawning","ping":94},{"user_id":749,"name":"Kahvi","steam_id":76561198723244199,"connected_time":2496000000000,"state":"spawning","ping":135},{"user_id":748,"name":"SENSITIVITY OVERDRIVE!!!!","steam_id":76561198163615254,"connected_time":2723000000000,"state":"spawning","ping":127},{"user_id":726,"name":"Minimi","steam_id":76561198873850443,"connected_time":4392000000000,"state":"spawning","ping":92},{"user_id":759,"name":"Lego Piece 6629","steam_id":76561198330040827,"connected_time":619000000000,"state":"spawning","ping":76},{"user_id":755,"name":"TreatFly","steam_id":76561198069707362,"connected_time":1343000000000,"state":"spawning","ping":59},{"user_id":727,"name":"whimsy. (live)","steam_id":76561198878171763,"connected_time":4389000000000,"state":"spawning","ping":101},{"user_id":757,"name":"Aaron","steam_id":76561197990046953,"connected_time":1140000000000,"state":"spawning","ping":110},{"user_id":747,"name":"⚧aura⚧","steam_id":76561198066258544,"connected_time":2741000000000,"state":"spawning","ping":107},{"user_id":758,"name":"Dark^^","steam_id":76561198036241064,"connected_time":892000000000,"state":"spawning","ping":121},{"user_id":761,"name":"Ninjeg","steam_id":76561197995307947,"connected_time":565000000000,"state":"spawning","ping":94},{"user_id":710,"name":"Slifer the Egyptian God Furry","steam_id":76561198062255803,"connected_time":5888000000000,"state":"spawning","ping":126},{"user_id":738,"name":"KiT","steam_id":76561198043770371,"connected_time":3409000000000,"state":"spawning","ping":134},{"user_id":733,"name":"kelpie","steam_id":76561198128327529,"connected_time":3773000000000,"state":"spawning","ping":92},{"user_id":736,"name":"shooer!","steam_id":76561198110531281,"connected_time":3655000000000,"state":"spawning","ping":102},{"user_id":777,"name":"Keira","steam_id":76561198330870400,"connected_time":15000000000,"state":"spawning","ping":122},{"user_id":778,"name":"bitkomet","steam_id":76561198058232147,"connected_time":14000000000,"state":"spawning","ping":132},{"user_id":743,"name":"Plep","steam_id":76561198840259819,"connected_time":2755000000000,"state":"spawning","ping":107},{"user_id":701,"name":"albert","steam_id":76561198353496134,"connected_time":6914000000000,"state":"spawning","ping":89},{"user_id":712,"name":"lillunya ♡","steam_id":76561198330418866,"connected_time":5807000000000,"state":"spawning","ping":77},{"user_id":662,"name":"bigwish | bmod.tf","steam_id":76561197997859723,"connected_time":9077000000000,"state":"spawning","ping":120}]},{"server_id":114,"name":"Uncletopia | London | 2 | All Maps","name_short":"lon-2","host":"lon-1.uk.uncletopia.com","port":27025,"enabled":true,"region":"eu","cc":"gb","latitude":51.509865,"longitude":-0.118092,"reserved":0,"last_update":"0001-01-01T00:00:00Z","name_a2s":"Uncletopia | London | 2 | All Maps","protocol":17,"map":"cp_mountainlab","folder":"tf","game":"Team Fortress","app_id":440,"player_count":21,"max_players":24,"Bots":0,"server_type":"Dedicated","server_os":"Linux","password":true,"vac":true,"version":"7961495","steam_id":85568392924470941,"keywords":["cp","nocrits","nodmgspread","uncletopia"],"game_id":440,"stv_port":27026,"stv_name":"Uncletopia | London | 2 | All Maps | STV","players":[{"user_id":257,"name":"An Idiot in space","steam_id":76561198011089239,"connected_time":7014000000000,"state":"active","ping":45},{"user_id":332,"name":"Max Andrew","steam_id":76561198158955194,"connected_time":931000000000,"state":"active","ping":90},{"user_id":329,"name":"Circular","steam_id":76561198001536710,"connected_time":958000000000,"state":"active","ping":46},{"user_id":324,"name":"BELADIT","steam_id":76561198011911501,"connected_time":1256000000000,"state":"active","ping":74},{"user_id":348,"name":"Retrogue","steam_id":76561198131776972,"connected_time":194000000000,"state":"active","ping":41},{"user_id":340,"name":"Mich2L","steam_id":76561198015423985,"connected_time":676000000000,"state":"active","ping":77},{"user_id":343,"name":"ChikChak","steam_id":76561198010518376,"connected_time":541000000000,"state":"active","ping":86},{"user_id":345,"name":"Warrior555MainsGanon","steam_id":76561198388627786,"connected_time":465000000000,"state":"active","ping":53},{"user_id":287,"name":"Bim Jeam","steam_id":76561198039417163,"connected_time":4492000000000,"state":"active","ping":39},{"user_id":335,"name":"EngulfedHorizon","steam_id":76561198060056829,"connected_time":872000000000,"state":"active","ping":172},{"user_id":265,"name":"Nick","steam_id":76561198036109469,"connected_time":6510000000000,"state":"active","ping":104},{"user_id":344,"name":"Rummin","steam_id":76561198064739834,"connected_time":472000000000,"state":"active","ping":57},{"user_id":319,"name":"joking jokic","steam_id":76561198076219289,"connected_time":1806000000000,"state":"active","ping":50},{"user_id":346,"name":"dakkafex","steam_id":76561198020254869,"connected_time":437000000000,"state":"active","ping":45},{"user_id":281,"name":"the application of tarmac","steam_id":76561198010662796,"connected_time":4656000000000,"state":"active","ping":43},{"user_id":347,"name":"oskaroku00","steam_id":76561199025360128,"connected_time":406000000000,"state":"active","ping":71},{"user_id":337,"name":"Exoduc","steam_id":76561198121166441,"connected_time":839000000000,"state":"active","ping":60},{"user_id":284,"name":"the filling of potholes","steam_id":76561198046873337,"connected_time":4568000000000,"state":"active","ping":59},{"user_id":338,"name":"The legendery balls","steam_id":76561199139344747,"connected_time":821000000000,"state":"active","ping":102},{"user_id":219,"name":"Ullr","steam_id":76561198140547483,"connected_time":9022000000000,"state":"active","ping":31},{"user_id":306,"name":"im not a femboy i swear","steam_id":76561198441084881,"connected_time":2773000000000,"state":"active","ping":70}]},{"server_id":320,"name":"Uncletopia | London | 3 | All Maps","name_short":"lon-3","host":"lon-1.uk.uncletopia.com","port":27035,"enabled":true,"region":"eu","cc":"gb","latitude":51.509865,"longitude":-0.118092,"reserved":0,"last_update":"0001-01-01T00:00:00Z","name_a2s":"Uncletopia | London | 3 | All Maps","protocol":17,"map":"pl_badwater","folder":"tf","game":"Team Fortress","app_id":440,"player_count":24,"max_players":24,"Bots":0,"server_type":"Dedicated","server_os":"Linux","password":true,"vac":true,"version":"7961495","steam_id":85568392924510192,"keywords":["nocrits","nodmgspread","payload","uncletopia"],"game_id":440,"stv_port":27036,"stv_name":"Uncletopia | London | 3 | All Maps | STV","players":[{"user_id":24,"name":"Tx_madmash \u0026 knuckles","steam_id":76561198924656512,"connected_time":6429000000000,"state":"active","ping":96},{"user_id":113,"name":"dudes who can juggle","steam_id":76561198188642265,"connected_time":2719000000000,"state":"active","ping":85},{"user_id":119,"name":"Mr. Data","steam_id":76561198039083551,"connected_time":1855000000000,"state":"active","ping":53},{"user_id":110,"name":"Francis","steam_id":76561198987134265,"connected_time":2979000000000,"state":"active","ping":77},{"user_id":140,"name":"fish","steam_id":76561199175173199,"connected_time":250000000000,"state":"active","ping":43},{"user_id":142,"name":"asasaBaboon","steam_id":76561198001144642,"connected_time":172000000000,"state":"active","ping":58},{"user_id":34,"name":"Jethro Tull","steam_id":76561199034041634,"connected_time":5153000000000,"state":"active","ping":65},{"user_id":143,"name":"piosjoredeyo","steam_id":76561198878384950,"connected_time":103000000000,"state":"active","ping":77},{"user_id":66,"name":"VolcanicArts","steam_id":76561198063453246,"connected_time":4535000000000,"state":"active","ping":54},{"user_id":37,"name":"you like silly femboys don't yo","steam_id":76561198837586838,"connected_time":5056000000000,"state":"active","ping":69},{"user_id":135,"name":"Chonky dorito","steam_id":76561199076870571,"connected_time":1285000000000,"state":"active","ping":98},{"user_id":122,"name":"★Lily","steam_id":76561198014774371,"connected_time":1807000000000,"state":"active","ping":52},{"user_id":56,"name":"sam_","steam_id":76561198814734120,"connected_time":4780000000000,"state":"active","ping":121},{"user_id":63,"name":"Jombus Quan","steam_id":76561198240560666,"connected_time":4628000000000,"state":"active","ping":49},{"user_id":134,"name":"THE SPIRIT","steam_id":76561198170744597,"connected_time":1353000000000,"state":"active","ping":74},{"user_id":136,"name":"LEGEND FUMO.","steam_id":76561198061033903,"connected_time":781000000000,"state":"active","ping":59},{"user_id":145,"name":"HarmlessCanine2","steam_id":76561198389475312,"connected_time":12000000000,"state":"spawning","ping":44},{"user_id":130,"name":"Hebeflif","steam_id":76561198277329141,"connected_time":1629000000000,"state":"active","ping":62},{"user_id":67,"name":"DOKTOR SEX","steam_id":76561198226378616,"connected_time":4454000000000,"state":"active","ping":95},{"user_id":131,"name":"sprinkle ✧* ༝","steam_id":76561198055871696,"connected_time":1575000000000,"state":"active","ping":44},{"user_id":117,"name":"[SpA]Scatterbrain","steam_id":76561197998639769,"connected_time":2460000000000,"state":"active","ping":52},{"user_id":125,"name":"Lange","steam_id":76561198010790268,"connected_time":1779000000000,"state":"active","ping":56},{"user_id":144,"name":"JohnTraveltime","steam_id":76561199244281754,"connected_time":39000000000,"state":"active","ping":85},{"user_id":70,"name":"r","steam_id":76561198239927434,"connected_time":4008000000000,"state":"active","ping":71}]},{"server_id":321,"name":"Uncletopia | London | 4 | All Maps","name_short":"lon-4","host":"lon-1.uk.uncletopia.com","port":27045,"enabled":true,"region":"eu","cc":"gb","latitude":51.509865,"longitude":-0.118092,"reserved":0,"last_update":"0001-01-01T00:00:00Z","name_a2s":"Uncletopia | London | 4 | All Maps","protocol":17,"map":"pl_frontier_final","folder":"tf","game":"Team Fortress","app_id":440,"player_count":24,"max_players":24,"Bots":0,"server_type":"Dedicated","server_os":"Linux","password":true,"vac":true,"version":"7961495","steam_id":85568392924510193,"keywords":["nocrits","nodmgspread","payload","uncletopia"],"game_id":440,"stv_port":27046,"stv_name":"Uncletopia | London | 4 | All Maps | STV","players":[{"user_id":97,"name":"Repa24","steam_id":76561198033016390,"connected_time":2183000000000,"state":"active","ping":74},{"user_id":114,"name":"kurd","steam_id":76561198116530769,"connected_time":220000000000,"state":"active","ping":98},{"user_id":86,"name":"𐂃","steam_id":76561198874987906,"connected_time":3111000000000,"state":"active","ping":64},{"user_id":110,"name":"tacungus","steam_id":76561198041416682,"connected_time":1335000000000,"state":"active","ping":53},{"user_id":22,"name":"Deez nuts","steam_id":76561199429562693,"connected_time":7581000000000,"state":"active","ping":74},{"user_id":95,"name":"pablo","steam_id":76561199009805208,"connected_time":2490000000000,"state":"active","ping":109},{"user_id":115,"name":"H-say","steam_id":76561198177400362,"connected_time":10000000000,"state":"active","ping":125},{"user_id":112,"name":"pezza","steam_id":76561197995173247,"connected_time":530000000000,"state":"active","ping":61},{"user_id":79,"name":"toomas2018(vote for toomas2018)","steam_id":76561199105796083,"connected_time":3934000000000,"state":"active","ping":79},{"user_id":88,"name":"randompixel","steam_id":76561198003941207,"connected_time":3054000000000,"state":"active","ping":57},{"user_id":46,"name":"Toa LightMakuta","steam_id":76561198212178104,"connected_time":6027000000000,"state":"active","ping":71},{"user_id":108,"name":"Chicken pot pie","steam_id":76561198084997090,"connected_time":1645000000000,"state":"active","ping":65},{"user_id":96,"name":"irritable vowel syndrome","steam_id":76561198117033273,"connected_time":2392000000000,"state":"active","ping":58},{"user_id":82,"name":"British Disapproval","steam_id":76561198001375260,"connected_time":3441000000000,"state":"active","ping":56},{"user_id":113,"name":"2006 Mitsubishi Lancer","steam_id":76561198036632498,"connected_time":390000000000,"state":"active","ping":44},{"user_id":109,"name":"t","steam_id":76561198256619964,"connected_time":1459000000000,"state":"active","ping":86},{"user_id":102,"name":"ilwes","steam_id":76561198438137570,"connected_time":1844000000000,"state":"active","ping":83},{"user_id":73,"name":"Raivop","steam_id":76561197980854307,"connected_time":4824000000000,"state":"active","ping":91},{"user_id":48,"name":"Jarppa!","steam_id":76561197995834786,"connected_time":5809000000000,"state":"active","ping":72},{"user_id":98,"name":"Laru","steam_id":76561197998838438,"connected_time":2124000000000,"state":"active","ping":74},{"user_id":90,"name":"Barry Burtons no. 1 fan","steam_id":76561198101451654,"connected_time":3047000000000,"state":"active","ping":47},{"user_id":104,"name":"пездюк","steam_id":76561198163244605,"connected_time":1773000000000,"state":"active","ping":71},{"user_id":111,"name":"kinimon","steam_id":76561198178453270,"connected_time":1107000000000,"state":"active","ping":75},{"user_id":84,"name":"Medic who doesn't Heal People","steam_id":76561198073239479,"connected_time":3424000000000,"state":"active","ping":55}]},{"server_id":21,"name":"Uncletopia | London | 5 | All Maps","name_short":"lon-5","host":"lon-1.uk.uncletopia.com","port":27055,"enabled":true,"region":"eu","cc":"gb","latitude":51.509865,"longitude":-0.118092,"reserved":0,"last_update":"0001-01-01T00:00:00Z","name_a2s":"Uncletopia | London | 5 | All Maps","protocol":17,"map":"cp_fastlane","folder":"tf","game":"Team Fortress","app_id":440,"player_count":23,"max_players":24,"Bots":0,"server_type":"Dedicated","server_os":"Linux","password":true,"vac":true,"version":"7961495","steam_id":85568392924742829,"keywords":["cp","nocrits","nodmgspread","uncletopia"],"game_id":440,"stv_port":27056,"stv_name":"Uncletopia | London | 5 | All Maps | STV","players":[{"user_id":218,"name":"coolrat","steam_id":76561198392407200,"connected_time":372000000000,"state":"active","ping":109},{"user_id":204,"name":"Pilaarius","steam_id":76561198120273212,"connected_time":2011000000000,"state":"active","ping":105},{"user_id":212,"name":"Endi","steam_id":76561198914938199,"connected_time":1799000000000,"state":"active","ping":101},{"user_id":207,"name":"BearJuice","steam_id":76561198999534523,"connected_time":1971000000000,"state":"active","ping":99},{"user_id":216,"name":"the joy of recycling","steam_id":76561198138509827,"connected_time":699000000000,"state":"active","ping":108},{"user_id":234,"name":"rexer","steam_id":76561199484347514,"connected_time":70000000000,"state":"active","ping":67},{"user_id":221,"name":"sarcasticsatan69","steam_id":76561198407566842,"connected_time":348000000000,"state":"active","ping":62},{"user_id":208,"name":"cof","steam_id":76561199128417805,"connected_time":1956000000000,"state":"active","ping":41},{"user_id":209,"name":"ALARM","steam_id":76561198120686521,"connected_time":1952000000000,"state":"active","ping":76},{"user_id":229,"name":"Young Gun","steam_id":76561197969431858,"connected_time":259000000000,"state":"active","ping":134},{"user_id":222,"name":"Swaggasouruss","steam_id":76561198285607649,"connected_time":335000000000,"state":"active","ping":84},{"user_id":175,"name":"Debch1k","steam_id":76561198144985727,"connected_time":3034000000000,"state":"active","ping":87},{"user_id":223,"name":"[P-roc] BadJacKS","steam_id":76561197972666377,"connected_time":335000000000,"state":"active","ping":59},{"user_id":224,"name":"W*","steam_id":76561197972244657,"connected_time":320000000000,"state":"active","ping":56},{"user_id":231,"name":"Ransu","steam_id":76561198211750823,"connected_time":138000000000,"state":"active","ping":74},{"user_id":179,"name":"Bajas","steam_id":76561198179339326,"connected_time":3003000000000,"state":"active","ping":105},{"user_id":195,"name":"xavier","steam_id":76561198076494034,"connected_time":2488000000000,"state":"active","ping":49},{"user_id":182,"name":"etc","steam_id":76561197998394797,"connected_time":2947000000000,"state":"active","ping":56},{"user_id":199,"name":"Udinese Dion","steam_id":76561198067931573,"connected_time":2268000000000,"state":"active","ping":64},{"user_id":226,"name":"PAX","steam_id":76561198046692146,"connected_time":304000000000,"state":"active","ping":80},{"user_id":213,"name":"Rock..","steam_id":76561198004641963,"connected_time":1754000000000,"state":"active","ping":83},{"user_id":215,"name":"Vershal Smershal","steam_id":76561198116223995,"connected_time":1348000000000,"state":"active","ping":57},{"user_id":228,"name":"Advokat","steam_id":76561198307121174,"connected_time":300000000000,"state":"active","ping":77}]},{"server_id":22,"name":"Uncletopia | London | 6 | All Maps","name_short":"lon-6","host":"lon-1.uk.uncletopia.com","port":27065,"enabled":true,"region":"eu","cc":"gb","latitude":51.509865,"longitude":-0.118092,"reserved":0,"last_update":"0001-01-01T00:00:00Z","name_a2s":"Uncletopia | London | 6 | All Maps","protocol":17,"map":"pl_upward","folder":"tf","game":"Team Fortress","app_id":440,"player_count":23,"max_players":24,"Bots":0,"server_type":"Dedicated","server_os":"Linux","password":true,"vac":true,"version":"7961495","steam_id":85568392924742830,"keywords":["nocrits","nodmgspread","payload","uncletopia"],"game_id":440,"stv_port":27066,"stv_name":"Uncletopia | London | 6 | All Maps | STV","players":[{"user_id":209,"name":"The Bread Bringer","steam_id":76561198264079743,"connected_time":6588000000000,"state":"active","ping":45},{"user_id":326,"name":"FoOzTV","steam_id":76561197998636728,"connected_time":878000000000,"state":"active","ping":55},{"user_id":325,"name":"Aoshi","steam_id":76561198043868358,"connected_time":995000000000,"state":"active","ping":56},{"user_id":257,"name":"Alyx","steam_id":76561198064654326,"connected_time":3783000000000,"state":"active","ping":66},{"user_id":335,"name":"The worst TF2 player(Real)","steam_id":76561199184873889,"connected_time":3000000000,"state":"spawning","ping":45},{"user_id":305,"name":"XxBenShapiro420xX","steam_id":76561199229373972,"connected_time":1677000000000,"state":"active","ping":62},{"user_id":318,"name":"meriones","steam_id":76561198034234373,"connected_time":1412000000000,"state":"active","ping":43},{"user_id":315,"name":"Generic","steam_id":76561198171073018,"connected_time":1497000000000,"state":"active","ping":55},{"user_id":304,"name":"After8","steam_id":76561198090750865,"connected_time":1740000000000,"state":"active","ping":76},{"user_id":303,"name":"Craig Crusade","steam_id":76561199225918086,"connected_time":2008000000000,"state":"active","ping":50},{"user_id":334,"name":"High Fructose Porn Syrup","steam_id":76561197998825323,"connected_time":98000000000,"state":"active","ping":42},{"user_id":289,"name":"Germanium_Ge","steam_id":76561198130561775,"connected_time":2787000000000,"state":"active","ping":54},{"user_id":320,"name":"web e-dog corporate media anima","steam_id":76561198034955422,"connected_time":1311000000000,"state":"active","ping":53},{"user_id":330,"name":"Mafew","steam_id":76561198119993886,"connected_time":383000000000,"state":"active","ping":58},{"user_id":312,"name":"yuno appreciator","steam_id":76561198083286511,"connected_time":1551000000000,"state":"active","ping":43},{"user_id":323,"name":"Klorophyte","steam_id":76561198885112655,"connected_time":1054000000000,"state":"active","ping":100},{"user_id":314,"name":"xarks","steam_id":76561198026236701,"connected_time":1546000000000,"state":"active","ping":79},{"user_id":295,"name":"fischman","steam_id":76561199064142670,"connected_time":2499000000000,"state":"active","ping":73},{"user_id":316,"name":"Villdjack","steam_id":76561197999480096,"connected_time":1491000000000,"state":"active","ping":75},{"user_id":284,"name":"flamingosaurus","steam_id":76561198051455397,"connected_time":3082000000000,"state":"active","ping":45},{"user_id":327,"name":"Krefa12","steam_id":76561198268375393,"connected_time":638000000000,"state":"active","ping":99},{"user_id":285,"name":"gaming gamer","steam_id":76561198212488780,"connected_time":3030000000000,"state":"active","ping":65},{"user_id":332,"name":"Dave The Sloth","steam_id":76561199135831355,"connected_time":366000000000,"state":"active","ping":59}]},{"server_id":40,"name":"Uncletopia | London | 7 | Stopwatch","name_short":"lon-7","host":"lon-1.uk.uncletopia.com","port":27075,"enabled":true,"region":"eu","cc":"gb","latitude":51.509865,"longitude":-0.118092,"reserved":0,"last_update":"0001-01-01T00:00:00Z","name_a2s":"Uncletopia | London | 7 | Stopwatch","protocol":17,"map":"workshop/pl_barnblitz_pro7.ugc582280235","folder":"tf","game":"Team Fortress","app_id":440,"player_count":0,"max_players":24,"Bots":0,"server_type":"Dedicated","server_os":"Linux","password":true,"vac":true,"version":"7961495","steam_id":85568392924964314,"keywords":["nocrits","nodmgspread","payload","uncletopia"],"game_id":440,"stv_port":27076,"stv_name":"Uncletopia | London | 7 | Stopwatch | STV","players":null},{"server_id":41,"name":"Uncletopia | London | 8 | Community","name_short":"lon-8","host":"lon-1.uk.uncletopia.com","port":27085,"enabled":true,"region":"eu","cc":"gb","latitude":51.509865,"longitude":-0.118092,"reserved":0,"last_update":"0001-01-01T00:00:00Z","name_a2s":"Uncletopia | London | 8 | Community","protocol":17,"map":"workshop/pl_badwater_pro_v12.ugc2142942074","folder":"tf","game":"Team Fortress","app_id":440,"player_count":24,"max_players":24,"Bots":0,"server_type":"Dedicated","server_os":"Linux","password":true,"vac":true,"version":"7961495","steam_id":85568392924964315,"keywords":["nocrits","nodmgspread","payload","uncletopia"],"game_id":440,"stv_port":27086,"stv_name":"Uncletopia | London | 8 | Community | STV","players":[{"user_id":122,"name":"mary","steam_id":76561198014828037,"connected_time":1978000000000,"state":"active","ping":58},{"user_id":96,"name":"Team Fortress","steam_id":76561198058722801,"connected_time":3741000000000,"state":"active","ping":47},{"user_id":140,"name":"Purps","steam_id":76561198053886680,"connected_time":343000000000,"state":"active","ping":45},{"user_id":101,"name":"Demicore","steam_id":76561197976922136,"connected_time":3617000000000,"state":"active","ping":69},{"user_id":126,"name":"boxama","steam_id":76561198040721321,"connected_time":1835000000000,"state":"active","ping":63},{"user_id":133,"name":"Caine","steam_id":76561198149927948,"connected_time":651000000000,"state":"active","ping":91},{"user_id":124,"name":"walluu","steam_id":76561198121830870,"connected_time":1951000000000,"state":"active","ping":75},{"user_id":125,"name":"Duke Fishlord","steam_id":76561198079928327,"connected_time":1945000000000,"state":"active","ping":79},{"user_id":127,"name":"Claw","steam_id":76561198060985181,"connected_time":1818000000000,"state":"active","ping":60},{"user_id":134,"name":"-Chemist","steam_id":76561198041456812,"connected_time":646000000000,"state":"active","ping":110},{"user_id":102,"name":"(MAC) [BN] Crazyking","steam_id":76561198001668616,"connected_time":3611000000000,"state":"active","ping":68},{"user_id":131,"name":"Lord King Pie 2","steam_id":76561198136886146,"connected_time":1195000000000,"state":"active","ping":65},{"user_id":135,"name":"Sad Potato","steam_id":76561198239654762,"connected_time":608000000000,"state":"active","ping":75},{"user_id":139,"name":"Yassine","steam_id":76561198140565712,"connected_time":429000000000,"state":"active","ping":51},{"user_id":40,"name":"Rodak","steam_id":76561199135986344,"connected_time":7323000000000,"state":"active","ping":61},{"user_id":141,"name":"greg's mom","steam_id":76561198050525471,"connected_time":335000000000,"state":"active","ping":77},{"user_id":136,"name":"SpicyBoi","steam_id":76561198137845321,"connected_time":605000000000,"state":"active","ping":57},{"user_id":93,"name":"teddy","steam_id":76561198007436837,"connected_time":3905000000000,"state":"active","ping":30},{"user_id":115,"name":"Dr. Funkenstein","steam_id":76561197977816210,"connected_time":3057000000000,"state":"active","ping":64},{"user_id":142,"name":"Nittugai","steam_id":76561198067366462,"connected_time":302000000000,"state":"active","ping":67},{"user_id":130,"name":"akakez","steam_id":76561198095432821,"connected_time":1665000000000,"state":"active","ping":110},{"user_id":143,"name":"gabrielglod928","steam_id":76561199014805744,"connected_time":289000000000,"state":"active","ping":89},{"user_id":74,"name":"Bavarian Blayer","steam_id":76561198504744583,"connected_time":5429000000000,"state":"active","ping":68},{"user_id":121,"name":"ONI","steam_id":76561199038860035,"connected_time":2230000000000,"state":"active","ping":56}]},{"server_id":300,"name":"Uncletopia | Montréal | 1 | One Thousand Uncles","name_short":"mtl-1","host":"mtl-1.ca.uncletopia.com","port":27015,"enabled":true,"region":"us-east","cc":"ca","latitude":45.50889,"longitude":-73.56167,"reserved":0,"last_update":"0001-01-01T00:00:00Z","name_a2s":"","protocol":0,"map":"","folder":"","game":"","app_id":0,"player_count":0,"max_players":0,"Bots":0,"server_type":"","server_os":"","password":false,"vac":false,"version":"","steam_id":0,"keywords":null,"game_id":0,"stv_port":0,"stv_name":"","players":null},{"server_id":301,"name":"Uncletopia | Montréal | 2 | One Thousand Uncles","name_short":"mtl-2","host":"mtl-1.ca.uncletopia.com","port":27025,"enabled":true,"region":"us-east","cc":"ca","latitude":45.50889,"longitude":-73.56167,"reserved":0,"last_update":"0001-01-01T00:00:00Z","name_a2s":"","protocol":0,"map":"","folder":"","game":"","app_id":0,"player_count":0,"max_players":0,"Bots":0,"server_type":"","server_os":"","password":false,"vac":false,"version":"","steam_id":0,"keywords":null,"game_id":0,"stv_port":0,"stv_name":"","players":null},{"server_id":302,"name":"Uncletopia | Montréal | 3 | One Thousand Uncles","name_short":"mtl-3","host":"mtl-1.ca.uncletopia.com","port":27035,"enabled":true,"region":"us-east","cc":"ca","latitude":45.50889,"longitude":-73.56167,"reserved":0,"last_update":"0001-01-01T00:00:00Z","name_a2s":"","protocol":0,"map":"","folder":"","game":"","app_id":0,"player_count":0,"max_players":0,"Bots":0,"server_type":"","server_os":"","password":false,"vac":false,"version":"","steam_id":0,"keywords":null,"game_id":0,"stv_port":0,"stv_name":"","players":null},{"server_id":13,"name":"Uncletopia | New York City | 1 | All Maps","name_short":"nyc-1","host":"nyc-1.us.uncletopia.com","port":27015,"enabled":true,"region":"us-east","cc":"us","latitude":40.73061,"longitude":-73.93524,"reserved":0,"last_update":"0001-01-01T00:00:00Z","name_a2s":"Uncletopia | New York City | 1 | All Maps","protocol":17,"map":"koth_highpass","folder":"tf","game":"Team Fortress","app_id":440,"player_count":11,"max_players":24,"Bots":0,"server_type":"Dedicated","server_os":"Linux","password":true,"vac":true,"version":"7961495","steam_id":85568392924469993,"keywords":["cp","nocrits","nodmgspread","uncletopia"],"game_id":440,"stv_port":27016,"stv_name":"Uncletopia | New York City | 1 | All Maps | STV","players":[{"user_id":11,"name":"wooby","steam_id":76561198004610133,"connected_time":780000000000,"state":"active","ping":48},{"user_id":13,"name":"TungstenDiioxide","steam_id":76561198023733129,"connected_time":699000000000,"state":"active","ping":60},{"user_id":14,"name":"Berb","steam_id":76561198193911899,"connected_time":650000000000,"state":"active","ping":110},{"user_id":15,"name":"The Twice-Gorped Morp","steam_id":76561198052636352,"connected_time":642000000000,"state":"active","ping":116},{"user_id":16,"name":"SofaKingWetoded","steam_id":76561198212762789,"connected_time":611000000000,"state":"active","ping":115},{"user_id":17,"name":"Caleb","steam_id":76561198002641282,"connected_time":479000000000,"state":"active","ping":73},{"user_id":18,"name":"303","steam_id":76561199052840531,"connected_time":326000000000,"state":"active","ping":55},{"user_id":19,"name":"Gnomeineer","steam_id":76561199209559935,"connected_time":287000000000,"state":"active","ping":71},{"user_id":20,"name":"ChocolatteMousse","steam_id":76561198136313455,"connected_time":103000000000,"state":"active","ping":69},{"user_id":21,"name":"Hot Cheese Sundae","steam_id":76561198061189527,"connected_time":69000000000,"state":"active","ping":86},{"user_id":22,"name":"A_dude","steam_id":76561199261495418,"connected_time":33000000000,"state":"active","ping":424}]},{"server_id":14,"name":"Uncletopia | New York City | 2 | All Maps","name_short":"nyc-2","host":"nyc-1.us.uncletopia.com","port":27025,"enabled":true,"region":"us-east","cc":"us","latitude":40.73061,"longitude":-73.93524,"reserved":0,"last_update":"0001-01-01T00:00:00Z","name_a2s":"Uncletopia | New York City | 2 | All Maps","protocol":17,"map":"pl_pier","folder":"tf","game":"Team Fortress","app_id":440,"player_count":24,"max_players":24,"Bots":0,"server_type":"Dedicated","server_os":"Linux","password":true,"vac":true,"version":"7961495","steam_id":85568392924469994,"keywords":["nocrits","nodmgspread","payload","uncletopia"],"game_id":440,"stv_port":27026,"stv_name":"Uncletopia | New York City | 2 | All Maps | STV","players":[{"user_id":91,"name":"The Big","steam_id":76561198078572184,"connected_time":3619000000000,"state":"active","ping":75},{"user_id":133,"name":"loscemo","steam_id":76561197994884609,"connected_time":861000000000,"state":"active","ping":69},{"user_id":126,"name":"W3ster","steam_id":76561198959700858,"connected_time":1791000000000,"state":"active","ping":73},{"user_id":153,"name":"76561198218897541","steam_id":76561198218897541,"connected_time":247000000000,"state":"active","ping":46},{"user_id":92,"name":"MechaSixVII","steam_id":76561198014927379,"connected_time":3530000000000,"state":"active","ping":71},{"user_id":157,"name":"Tlaloc","steam_id":76561198375215983,"connected_time":21000000000,"state":"active","ping":708},{"user_id":154,"name":"booze cruiser","steam_id":76561198203395648,"connected_time":217000000000,"state":"active","ping":59},{"user_id":138,"name":"Markowave","steam_id":76561199262244343,"connected_time":595000000000,"state":"active","ping":47},{"user_id":155,"name":"BabyJesus","steam_id":76561198845403641,"connected_time":211000000000,"state":"active","ping":56},{"user_id":69,"name":"ndvr (femboy (REAL))","steam_id":76561199379200102,"connected_time":4534000000000,"state":"active","ping":54},{"user_id":144,"name":"Nyle","steam_id":76561198045652639,"connected_time":511000000000,"state":"active","ping":133},{"user_id":135,"name":"Pickles","steam_id":76561198010609340,"connected_time":669000000000,"state":"active","ping":76},{"user_id":147,"name":"Elias","steam_id":76561198106431732,"connected_time":363000000000,"state":"active","ping":75},{"user_id":156,"name":"Ballistic","steam_id":76561197992355477,"connected_time":60000000000,"state":"active","ping":62},{"user_id":158,"name":"ExlraSoap","steam_id":76561198263543519,"connected_time":12000000000,"state":"active","ping":93},{"user_id":149,"name":"Eiss","steam_id":76561198343183806,"connected_time":318000000000,"state":"active","ping":65},{"user_id":104,"name":"scrotal recall","steam_id":76561198135945598,"connected_time":3078000000000,"state":"active","ping":74},{"user_id":100,"name":"poppies","steam_id":76561199057269867,"connected_time":3228000000000,"state":"active","ping":117},{"user_id":152,"name":"ZBeth Best","steam_id":76561198101890770,"connected_time":265000000000,"state":"active","ping":56},{"user_id":120,"name":"D","steam_id":76561198292908619,"connected_time":2478000000000,"state":"active","ping":75},{"user_id":118,"name":"Fiendish Frog","steam_id":76561198029478821,"connected_time":2514000000000,"state":"active","ping":55},{"user_id":151,"name":"Jacknerik","steam_id":76561198041365662,"connected_time":296000000000,"state":"active","ping":57},{"user_id":142,"name":"Xbmann | Resurfed","steam_id":76561198041017977,"connected_time":531000000000,"state":"active","ping":89},{"user_id":143,"name":"Lxthality","steam_id":76561198154383071,"connected_time":530000000000,"state":"active","ping":70}]},{"server_id":15,"name":"Uncletopia | New York City | 3 | Stopwatch","name_short":"nyc-3","host":"nyc-1.us.uncletopia.com","port":27035,"enabled":true,"region":"us-east","cc":"us","latitude":40.73061,"longitude":-73.93524,"reserved":0,"last_update":"0001-01-01T00:00:00Z","name_a2s":"Uncletopia | New York City | 3 | Stopwatch","protocol":17,"map":"koth_highpass","folder":"tf","game":"Team Fortress","app_id":440,"player_count":1,"max_players":24,"Bots":0,"server_type":"Dedicated","server_os":"Linux","password":true,"vac":true,"version":"7961495","steam_id":85568392924742820,"keywords":["cp","nocrits","nodmgspread","uncletopia"],"game_id":440,"stv_port":27036,"stv_name":"Uncletopia | New York City | 3 | Stopwatch | STV","players":[{"user_id":15,"name":"The Kansas Crack Addict","steam_id":76561199022178492,"connected_time":1926000000000,"state":"active","ping":58}]},{"server_id":16,"name":"Uncletopia | New York City | 4 | Community","name_short":"nyc-4","host":"nyc-1.us.uncletopia.com","port":27045,"enabled":true,"region":"us-east","cc":"us","latitude":40.73061,"longitude":-73.93524,"reserved":0,"last_update":"0001-01-01T00:00:00Z","name_a2s":"Uncletopia | New York City | 4 | Community","protocol":17,"map":"workshop/koth_slaughter_rc1.ugc1712845210","folder":"tf","game":"Team Fortress","app_id":440,"player_count":1,"max_players":24,"Bots":0,"server_type":"Dedicated","server_os":"Linux","password":true,"vac":true,"version":"7961495","steam_id":85568392924742821,"keywords":["cp","nocrits","nodmgspread","uncletopia"],"game_id":440,"stv_port":27046,"stv_name":"Uncletopia | New York City | 4 | Community | STV","players":[{"user_id":7,"name":"ryan2goofy","steam_id":76561198131488280,"connected_time":106000000000,"state":"active","ping":76}]},{"server_id":142,"name":"Uncletopia | São Paulo | 1 | All Maps","name_short":"sao-1","host":"sao-1.br.uncletopia.com","port":27015,"enabled":true,"region":"sa","cc":"br","latitude":-23.533773,"longitude":-46.62529,"reserved":0,"last_update":"0001-01-01T00:00:00Z","name_a2s":"Uncletopia | São Paulo | 1 | All Maps","protocol":17,"map":"koth_lakeside_final","folder":"tf","game":"Team Fortress","app_id":440,"player_count":0,"max_players":24,"Bots":0,"server_type":"Dedicated","server_os":"Linux","password":true,"vac":true,"version":"7961495","steam_id":85568392924469996,"keywords":["cp","nocrits","nodmgspread","uncletopia"],"game_id":440,"stv_port":27016,"stv_name":"Uncletopia | São Paulo | 1 | All Maps | STV","players":null},{"server_id":143,"name":"Uncletopia | São Paulo | 2 | Community","name_short":"sao-2","host":"sao-2.br.uncletopia.com","port":27015,"enabled":true,"region":"sa","cc":"br","latitude":-23.533773,"longitude":-46.62529,"reserved":0,"last_update":"0001-01-01T00:00:00Z","name_a2s":"Uncletopia | São Paulo | 2 | Community","protocol":17,"map":"workshop/koth_ramjam_rc1.ugc459778887","folder":"tf","game":"Team Fortress","app_id":440,"player_count":0,"max_players":24,"Bots":0,"server_type":"Dedicated","server_os":"Linux","password":true,"vac":true,"version":"7961495","steam_id":85568392924485349,"keywords":["cp","nocrits","nodmgspread","uncletopia"],"game_id":440,"stv_port":27016,"stv_name":"Uncletopia | São Paulo | 2 | Community | STV","players":null},{"server_id":7,"name":"Uncletopia | Seattle | 1 | All Maps","name_short":"sea-1","host":"sea-1.us.uncletopia.com","port":27015,"enabled":true,"region":"us-west","cc":"us","latitude":47.608013,"longitude":-122.33517,"reserved":0,"last_update":"0001-01-01T00:00:00Z","name_a2s":"Uncletopia | Seattle | 1 | All Maps","protocol":17,"map":"pl_borneo","folder":"tf","game":"Team Fortress","app_id":440,"player_count":18,"max_players":24,"Bots":0,"server_type":"Dedicated","server_os":"Linux","password":true,"vac":true,"version":"7961495","steam_id":85568392924469997,"keywords":["nocrits","nodmgspread","payload","uncletopia"],"game_id":440,"stv_port":27016,"stv_name":"Uncletopia | Seattle | 1 | All Maps | STV","players":[{"user_id":130,"name":"BooGotShot","steam_id":76561198039062270,"connected_time":10357000000000,"state":"active","ping":102},{"user_id":279,"name":"theManMan","steam_id":76561199488457138,"connected_time":393000000000,"state":"active","ping":54},{"user_id":275,"name":"zinnk","steam_id":76561198092081825,"connected_time":867000000000,"state":"active","ping":47},{"user_id":287,"name":"Divinitas","steam_id":76561199079034911,"connected_time":91000000000,"state":"active","ping":96},{"user_id":273,"name":"allahsdroptop (Bag/Chaser)","steam_id":76561198133195238,"connected_time":1034000000000,"state":"active","ping":120},{"user_id":288,"name":"Fishandfish","steam_id":76561198298483804,"connected_time":82000000000,"state":"active","ping":51},{"user_id":271,"name":"Kosmonot","steam_id":76561198225342992,"connected_time":1117000000000,"state":"active","ping":119},{"user_id":257,"name":"quadraspazzed on a lifeglug","steam_id":76561198025514255,"connected_time":2071000000000,"state":"active","ping":60},{"user_id":260,"name":"Chocolatez","steam_id":76561198276903409,"connected_time":1949000000000,"state":"active","ping":125},{"user_id":289,"name":"outofstepbaritone","steam_id":76561198430690243,"connected_time":55000000000,"state":"active","ping":105},{"user_id":290,"name":"Doggos994","steam_id":76561198994027898,"connected_time":40000000000,"state":"active","ping":119},{"user_id":291,"name":"Ono","steam_id":76561198024377986,"connected_time":29000000000,"state":"active","ping":77},{"user_id":278,"name":"Tom","steam_id":76561198070630154,"connected_time":690000000000,"state":"active","ping":61},{"user_id":254,"name":"Diesel","steam_id":76561198448815852,"connected_time":2245000000000,"state":"active","ping":56},{"user_id":265,"name":"Sjsparrow","steam_id":76561197995352435,"connected_time":1818000000000,"state":"active","ping":81},{"user_id":281,"name":"you just got dyked on","steam_id":76561198018977723,"connected_time":266000000000,"state":"active","ping":46},{"user_id":268,"name":"chocky","steam_id":76561198057491296,"connected_time":1747000000000,"state":"active","ping":47},{"user_id":248,"name":"Lord Pretty Flocko Jordye","steam_id":76561198962880749,"connected_time":2793000000000,"state":"active","ping":37}]},{"server_id":119,"name":"Uncletopia | Seattle | 2 | All Maps","name_short":"sea-2","host":"sea-1.us.uncletopia.com","port":27025,"enabled":true,"region":"us-west","cc":"us","latitude":47.608013,"longitude":-122.33517,"reserved":0,"last_update":"0001-01-01T00:00:00Z","name_a2s":"Uncletopia | Seattle | 2 | All Maps","protocol":17,"map":"cp_snakewater_final1","folder":"tf","game":"Team Fortress","app_id":440,"player_count":0,"max_players":24,"Bots":0,"server_type":"Dedicated","server_os":"Linux","password":true,"vac":true,"version":"7961495","steam_id":85568392924469998,"keywords":["cp","nocrits","nodmgspread","uncletopia"],"game_id":440,"stv_port":27026,"stv_name":"Uncletopia | Seattle | 2 | All Maps | STV","players":null},{"server_id":406,"name":"Uncletopia | Seattle | 3 | Stopwatch","name_short":"sea-3","host":"sea-1.us.uncletopia.com","port":27035,"enabled":true,"region":"us-west","cc":"us","latitude":47.608013,"longitude":-122.33517,"reserved":0,"last_update":"0001-01-01T00:00:00Z","name_a2s":"Uncletopia | Seattle | 3 | Stopwatch","protocol":17,"map":"pl_pier","folder":"tf","game":"Team Fortress","app_id":440,"player_count":0,"max_players":24,"Bots":0,"server_type":"Dedicated","server_os":"Linux","password":true,"vac":true,"version":"7961495","steam_id":85568392924515217,"keywords":["nocrits","nodmgspread","payload","uncletopia"],"game_id":440,"stv_port":27036,"stv_name":"Uncletopia | Seattle | 3 | Stopwatch | STV","players":null},{"server_id":17,"name":"Uncletopia | San Francisco | 1 | All Maps","name_short":"sfo-1","host":"sfo-1.us.uncletopia.com","port":27015,"enabled":true,"region":"us-west","cc":"us","latitude":37.77397,"longitude":-122.4313,"reserved":0,"last_update":"0001-01-01T00:00:00Z","name_a2s":"Uncletopia | San Francisco | 1 | All Maps","protocol":17,"map":"koth_cascade","folder":"tf","game":"Team Fortress","app_id":440,"player_count":0,"max_players":24,"Bots":0,"server_type":"Dedicated","server_os":"Linux","password":true,"vac":true,"version":"7961495","steam_id":85568392924469999,"keywords":["cp","nocrits","nodmgspread","uncletopia"],"game_id":440,"stv_port":27016,"stv_name":"Uncletopia | San Francisco | 1 | All Maps | STV","players":null},{"server_id":18,"name":"Uncletopia | San Francisco | 2 | All Maps","name_short":"sfo-2","host":"sfo-1.us.uncletopia.com","port":27025,"enabled":true,"region":"us-west","cc":"us","latitude":37.77397,"longitude":-122.4313,"reserved":0,"last_update":"0001-01-01T00:00:00Z","name_a2s":"Uncletopia | San Francisco | 2 | All Maps","protocol":17,"map":"pl_borneo","folder":"tf","game":"Team Fortress","app_id":440,"player_count":24,"max_players":24,"Bots":0,"server_type":"Dedicated","server_os":"Linux","password":true,"vac":true,"version":"7961495","steam_id":85568392924470000,"keywords":["nocrits","nodmgspread","payload","uncletopia"],"game_id":440,"stv_port":27026,"stv_name":"Uncletopia | San Francisco | 2 | All Maps | STV","players":[{"user_id":134,"name":"Billy Mays","steam_id":76561197998876324,"connected_time":2132000000000,"state":"active","ping":58},{"user_id":152,"name":"Wafflemouth","steam_id":76561198086040614,"connected_time":834000000000,"state":"active","ping":102},{"user_id":153,"name":"MrQuack","steam_id":76561198873049714,"connected_time":591000000000,"state":"active","ping":56},{"user_id":139,"name":"kris736","steam_id":76561198038208255,"connected_time":1838000000000,"state":"active","ping":92},{"user_id":140,"name":"Ephemeral-chan","steam_id":76561197996001672,"connected_time":1832000000000,"state":"active","ping":59},{"user_id":132,"name":"Poo","steam_id":76561198265144507,"connected_time":2389000000000,"state":"active","ping":126},{"user_id":144,"name":"Quigi","steam_id":76561198144645874,"connected_time":1532000000000,"state":"active","ping":70},{"user_id":145,"name":"Dragoninventor (He/Him)","steam_id":76561198956224948,"connected_time":1288000000000,"state":"active","ping":85},{"user_id":135,"name":"Satori Komeiji","steam_id":76561198158211423,"connected_time":2069000000000,"state":"active","ping":57},{"user_id":137,"name":"Eden","steam_id":76561198081284664,"connected_time":1992000000000,"state":"active","ping":59},{"user_id":138,"name":"Dongus","steam_id":76561197979056451,"connected_time":1913000000000,"state":"active","ping":67},{"user_id":147,"name":"YOU WHAT?!","steam_id":76561198418679471,"connected_time":1248000000000,"state":"active","ping":95},{"user_id":128,"name":"Kduck","steam_id":76561198092171095,"connected_time":2593000000000,"state":"active","ping":103},{"user_id":156,"name":"Oviraptor Supreme","steam_id":76561198044262534,"connected_time":404000000000,"state":"active","ping":92},{"user_id":154,"name":"Dog","steam_id":76561198450992953,"connected_time":529000000000,"state":"active","ping":66},{"user_id":157,"name":"SunkenSole9132","steam_id":76561198359562446,"connected_time":402000000000,"state":"active","ping":84},{"user_id":108,"name":"Dr. Juvenal","steam_id":76561198114553453,"connected_time":3940000000000,"state":"active","ping":57},{"user_id":160,"name":"Ziddia","steam_id":76561198044734442,"connected_time":109000000000,"state":"active","ping":102},{"user_id":146,"name":"lukamine","steam_id":76561198166827208,"connected_time":1280000000000,"state":"active","ping":64},{"user_id":148,"name":"Dark_Eagle","steam_id":76561198397908108,"connected_time":1244000000000,"state":"active","ping":90},{"user_id":155,"name":"TheSmokingMan","steam_id":76561198032652995,"connected_time":454000000000,"state":"active","ping":105},{"user_id":117,"name":"williwillinui","steam_id":76561198253202693,"connected_time":3618000000000,"state":"active","ping":46},{"user_id":118,"name":"noceof","steam_id":76561198043656816,"connected_time":3616000000000,"state":"active","ping":155},{"user_id":133,"name":"Sad_Kiwi","steam_id":76561198356255997,"connected_time":2370000000000,"state":"active","ping":106}]},{"server_id":19,"name":"Uncletopia | San Francisco | 3 | Stopwatch","name_short":"sfo-3","host":"sfo-1.us.uncletopia.com","port":27035,"enabled":true,"region":"us-west","cc":"us","latitude":37.77397,"longitude":-122.4313,"reserved":0,"last_update":"0001-01-01T00:00:00Z","name_a2s":"Uncletopia | San Francisco | 3 | Stopwatch","protocol":17,"map":"workshop/koth_product_final.ugc454272353","folder":"tf","game":"Team Fortress","app_id":440,"player_count":0,"max_players":24,"Bots":0,"server_type":"Dedicated","server_os":"Linux","password":true,"vac":true,"version":"7961495","steam_id":85568392924742824,"keywords":["cp","nocrits","nodmgspread","uncletopia"],"game_id":440,"stv_port":27036,"stv_name":"Uncletopia | San Francisco | 3 | Stopwatch | STV","players":null},{"server_id":20,"name":"Uncletopia | San Francisco | 4 | Community","name_short":"sfo-4","host":"sfo-1.us.uncletopia.com","port":27045,"enabled":true,"region":"us-west","cc":"us","latitude":37.77397,"longitude":-122.4313,"reserved":0,"last_update":"0001-01-01T00:00:00Z","name_a2s":"Uncletopia | San Francisco | 4 | Community","protocol":17,"map":"pl_pier","folder":"tf","game":"Team Fortress","app_id":440,"player_count":0,"max_players":24,"Bots":0,"server_type":"Dedicated","server_os":"Linux","password":true,"vac":true,"version":"7961495","steam_id":85568392924742826,"keywords":["nocrits","nodmgspread","payload","uncletopia"],"game_id":440,"stv_port":27046,"stv_name":"Uncletopia | San Francisco | 4 | Community | STV","players":null},{"server_id":141,"name":"Uncletopia | Sydney | 1 | All Maps","name_short":"syd-1","host":"syd-1.au.uncletopia.com","port":27015,"enabled":true,"region":"au","cc":"au","latitude":-33.865143,"longitude":151.2099,"reserved":0,"last_update":"0001-01-01T00:00:00Z","name_a2s":"Uncletopia | Sydney | 1 | All Maps","protocol":17,"map":"koth_highpass","folder":"tf","game":"Team Fortress","app_id":440,"player_count":0,"max_players":24,"Bots":0,"server_type":"Dedicated","server_os":"Linux","password":true,"vac":true,"version":"7961495","steam_id":85568392924470001,"keywords":["cp","nocrits","nodmgspread","uncletopia"],"game_id":440,"stv_port":27016,"stv_name":"Uncletopia | Sydney | 1 | All Maps | STV","players":null},{"server_id":123,"name":"Uncletopia | Sydney | 2 | All Maps","name_short":"syd-2","host":"syd-1.au.uncletopia.com","port":27025,"enabled":true,"region":"au","cc":"au","latitude":-33.865143,"longitude":151.2099,"reserved":0,"last_update":"0001-01-01T00:00:00Z","name_a2s":"Uncletopia | Sydney | 2 | All Maps","protocol":17,"map":"koth_cascade","folder":"tf","game":"Team Fortress","app_id":440,"player_count":0,"max_players":24,"Bots":0,"server_type":"Dedicated","server_os":"Linux","password":true,"vac":true,"version":"7961495","steam_id":85568392924470002,"keywords":["cp","nocrits","nodmgspread","uncletopia"],"game_id":440,"stv_port":27026,"stv_name":"Uncletopia | Sydney | 2 | All Maps | STV","players":null},{"server_id":395,"name":"Uncletopia | Sydney | 3 | All Maps","name_short":"syd-3","host":"syd-1.au.uncletopia.com","port":27035,"enabled":true,"region":"au","cc":"au","latitude":-33.865143,"longitude":151.2099,"reserved":0,"last_update":"0001-01-01T00:00:00Z","name_a2s":"Uncletopia | Sydney | 3 | All Maps","protocol":17,"map":"koth_highpass","folder":"tf","game":"Team Fortress","app_id":440,"player_count":0,"max_players":24,"Bots":0,"server_type":"Dedicated","server_os":"Linux","password":true,"vac":true,"version":"7961495","steam_id":85568392925194467,"keywords":["cp","nocrits","nodmgspread","uncletopia"],"game_id":440,"stv_port":27036,"stv_name":"Uncletopia | Sydney | 3 | All Maps | STV","players":null},{"server_id":396,"name":"Uncletopia | Sydney | 4 | All Maps","name_short":"syd-4","host":"syd-1.au.uncletopia.com","port":27045,"enabled":true,"region":"au","cc":"au","latitude":-33.865143,"longitude":151.2099,"reserved":0,"last_update":"0001-01-01T00:00:00Z","name_a2s":"Uncletopia | Sydney | 4 | All Maps","protocol":17,"map":"koth_highpass","folder":"tf","game":"Team Fortress","app_id":440,"player_count":0,"max_players":24,"Bots":0,"server_type":"Dedicated","server_os":"Linux","password":true,"vac":true,"version":"7961495","steam_id":85568392925397958,"keywords":["cp","nocrits","nodmgspread","uncletopia"],"game_id":440,"stv_port":27046,"stv_name":"Uncletopia | Sydney | 4 | All Maps | STV","players":null},{"server_id":58,"name":"Uncletopia | Sydney | 5 | Stopwatch","name_short":"syd-5","host":"syd-1.au.uncletopia.com","port":27055,"enabled":true,"region":"au","cc":"au","latitude":-33.865143,"longitude":151.2099,"reserved":0,"last_update":"0001-01-01T00:00:00Z","name_a2s":"Uncletopia | Sydney | 5 | Stopwatch","protocol":17,"map":"pl_frontier_final","folder":"tf","game":"Team Fortress","app_id":440,"player_count":0,"max_players":24,"Bots":0,"server_type":"Dedicated","server_os":"Linux","password":true,"vac":true,"version":"7961495","steam_id":85568392925397959,"keywords":["nocrits","nodmgspread","payload","uncletopia"],"game_id":440,"stv_port":27056,"stv_name":"Uncletopia | Sydney | 5 | Stopwatch | STV","players":null},{"server_id":59,"name":"Uncletopia | Sydney | 6 | Community","name_short":"syd-6","host":"syd-1.au.uncletopia.com","port":27065,"enabled":true,"region":"au","cc":"au","latitude":-33.865143,"longitude":151.2099,"reserved":0,"last_update":"0001-01-01T00:00:00Z","name_a2s":"Uncletopia | Sydney | 6 | Community","protocol":17,"map":"cp_sunshine","folder":"tf","game":"Team Fortress","app_id":440,"player_count":1,"max_players":24,"Bots":0,"server_type":"Dedicated","server_os":"Linux","password":true,"vac":true,"version":"7961495","steam_id":85568392925397960,"keywords":["cp","nocrits","nodmgspread","uncletopia"],"game_id":440,"stv_port":27066,"stv_name":"Uncletopia | Sydney | 6 | Community | STV","players":[{"user_id":3,"name":"Matt VII (7) (seven)","steam_id":76561198065340795,"connected_time":66000000000,"state":"active","ping":50}]},{"server_id":49,"name":"Uncletopia | Warsaw | 1 | One Thousand Uncles","name_short":"waw-1","host":"waw-1.pl.uncletopia.com","port":27015,"enabled":true,"region":"eu","cc":"pl","latitude":52.2297,"longitude":21.017532,"reserved":0,"last_update":"0001-01-01T00:00:00Z","name_a2s":"Uncletopia | Warsaw | 1 | One Thousand Uncles","protocol":17,"map":"cp_dustbowl","folder":"tf","game":"Team Fortress","app_id":440,"player_count":31,"max_players":32,"Bots":16,"server_type":"Dedicated","server_os":"Linux","password":true,"vac":true,"version":"7961495","steam_id":85568392925397850,"keywords":["alltalk","bots","cp","danepve","increased_maxplayers","nocrits","norespawntime","uncletopia"],"game_id":440,"stv_port":0,"stv_name":"","players":[{"user_id":42,"name":"Zero-Xyfer","steam_id":76561198351621003,"connected_time":2662000000000,"state":"active","ping":172},{"user_id":25,"name":"Rayco","steam_id":76561198048013129,"connected_time":4365000000000,"state":"active","ping":87},{"user_id":20,"name":"0scr_","steam_id":76561198042631352,"connected_time":4767000000000,"state":"active","ping":97},{"user_id":44,"name":"antagonist","steam_id":76561198045125796,"connected_time":2362000000000,"state":"active","ping":115},{"user_id":30,"name":"aaaaaa","steam_id":76561198086304421,"connected_time":3974000000000,"state":"active","ping":86},{"user_id":70,"name":"Polygon","steam_id":76561198062735533,"connected_time":895000000000,"state":"active","ping":59},{"user_id":62,"name":"Benzo Fury","steam_id":76561198025259336,"connected_time":2042000000000,"state":"active","ping":80},{"user_id":65,"name":"ZharMeny","steam_id":76561199086841610,"connected_time":1679000000000,"state":"active","ping":112},{"user_id":41,"name":"Dell \"Vermineer\" LaFontant","steam_id":76561198371872022,"connected_time":2833000000000,"state":"active","ping":96},{"user_id":43,"name":"Madeline","steam_id":76561199029212388,"connected_time":2394000000000,"state":"active","ping":41},{"user_id":77,"name":"Dj_Bear","steam_id":76561198149865187,"connected_time":45000000000,"state":"active","ping":46},{"user_id":63,"name":"Kotlet schabowy","steam_id":76561198048983509,"connected_time":1990000000000,"state":"active","ping":48},{"user_id":75,"name":"monke","steam_id":76561199095477435,"connected_time":239000000000,"state":"active","ping":68},{"user_id":73,"name":"slimcake07","steam_id":76561198826766828,"connected_time":435000000000,"state":"active","ping":70},{"user_id":74,"name":"Critical","steam_id":76561198123744966,"connected_time":347000000000,"state":"active","ping":176}]},{"server_id":50,"name":"Uncletopia | Warsaw | 2 | One Thousand Uncles","name_short":"waw-2","host":"waw-1.pl.uncletopia.com","port":27025,"enabled":true,"region":"eu","cc":"pl","latitude":52.2297,"longitude":21.017532,"reserved":0,"last_update":"0001-01-01T00:00:00Z","name_a2s":"Uncletopia | Warsaw | 2 | One Thousand Uncles","protocol":17,"map":"pl_badwater","folder":"tf","game":"Team Fortress","app_id":440,"player_count":31,"max_players":32,"Bots":16,"server_type":"Dedicated","server_os":"Linux","password":true,"vac":true,"version":"7961495","steam_id":85568392925397851,"keywords":["alltalk","bots","danepve","increased_maxplayers","nocrits","norespawntime","payload","uncletopia"],"game_id":440,"stv_port":0,"stv_name":"","players":[{"user_id":567,"name":"anton","steam_id":76561198817670796,"connected_time":1546000000000,"state":"active","ping":47},{"user_id":519,"name":"Skişehirli","steam_id":76561198421239254,"connected_time":4337000000000,"state":"active","ping":108},{"user_id":549,"name":"FarbrorBarbro","steam_id":76561198044432289,"connected_time":3022000000000,"state":"active","ping":75},{"user_id":591,"name":"ุุุุุุุุุุ","steam_id":76561198999004934,"connected_time":679000000000,"state":"active","ping":67},{"user_id":592,"name":"Kaia Brodbecker","steam_id":76561198294109951,"connected_time":634000000000,"state":"active","ping":98},{"user_id":597,"name":"naidrokyt","steam_id":76561198961373507,"connected_time":99000000000,"state":"active","ping":47},{"user_id":593,"name":"^1MARAMA PALEX","steam_id":76561198311372563,"connected_time":384000000000,"state":"active","ping":95},{"user_id":556,"name":"vurtun","steam_id":76561198857395274,"connected_time":2974000000000,"state":"active","ping":62},{"user_id":594,"name":"白い黒人","steam_id":76561199084680369,"connected_time":339000000000,"state":"active","ping":44},{"user_id":560,"name":"Valoxi","steam_id":76561197995042938,"connected_time":2521000000000,"state":"active","ping":84},{"user_id":561,"name":"Just_Dandy","steam_id":76561199051375257,"connected_time":2478000000000,"state":"active","ping":75},{"user_id":562,"name":"ReeceU01","steam_id":76561198391922588,"connected_time":2474000000000,"state":"active","ping":90},{"user_id":598,"name":"WEEN | :0","steam_id":76561198073607799,"connected_time":71000000000,"state":"active","ping":132},{"user_id":596,"name":"LizardMilk_19","steam_id":76561199435002235,"connected_time":137000000000,"state":"active","ping":276},{"user_id":599,"name":"𝓹𝓱𝓪𝓷𝓽𝓸𝓶","steam_id":76561199095923041,"connected_time":17000000000,"state":"spawning","ping":149}]},{"server_id":51,"name":"Uncletopia | Warsaw | 3 | All Maps","name_short":"waw-3","host":"waw-1.pl.uncletopia.com","port":27035,"enabled":true,"region":"eu","cc":"pl","latitude":52.2297,"longitude":21.017532,"reserved":0,"last_update":"0001-01-01T00:00:00Z","name_a2s":"Uncletopia | Warsaw | 3 | All Maps","protocol":17,"map":"plr_pipeline","folder":"tf","game":"Team Fortress","app_id":440,"player_count":0,"max_players":24,"Bots":0,"server_type":"Dedicated","server_os":"Linux","password":true,"vac":true,"version":"7961495","steam_id":85568392925397852,"keywords":["nocrits","nodmgspread","payload","uncletopia"],"game_id":440,"stv_port":27036,"stv_name":"Uncletopia | Warsaw | 3 | All Maps | STV","players":null},{"server_id":52,"name":"Uncletopia | Warsaw | 4 | All Maps","name_short":"waw-4","host":"waw-1.pl.uncletopia.com","port":27045,"enabled":true,"region":"eu","cc":"pl","latitude":52.2297,"longitude":21.017532,"reserved":0,"last_update":"0001-01-01T00:00:00Z","name_a2s":"Uncletopia | Warsaw | 4 | All Maps","protocol":17,"map":"pl_pier","folder":"tf","game":"Team Fortress","app_id":440,"player_count":8,"max_players":24,"Bots":0,"server_type":"Dedicated","server_os":"Linux","password":true,"vac":true,"version":"7961495","steam_id":85568392925397853,"keywords":["nocrits","nodmgspread","payload","uncletopia"],"game_id":440,"stv_port":27046,"stv_name":"Uncletopia | Warsaw | 4 | All Maps | STV","players":[{"user_id":13,"name":"olsolsols12","steam_id":76561198089444052,"connected_time":993000000000,"state":"active","ping":85},{"user_id":14,"name":"mh","steam_id":76561198442932674,"connected_time":881000000000,"state":"active","ping":90},{"user_id":15,"name":"abipinch","steam_id":76561199104348040,"connected_time":861000000000,"state":"active","ping":96},{"user_id":16,"name":"lollyformolly","steam_id":76561199017868205,"connected_time":826000000000,"state":"active","ping":68},{"user_id":17,"name":"Carrot","steam_id":76561198119340863,"connected_time":788000000000,"state":"active","ping":69},{"user_id":18,"name":"niallmrl","steam_id":76561198324221284,"connected_time":625000000000,"state":"active","ping":73},{"user_id":19,"name":"Assaulter","steam_id":76561199360918034,"connected_time":247000000000,"state":"active","ping":116},{"user_id":20,"name":"random","steam_id":76561198242946582,"connected_time":198000000000,"state":"active","ping":37}]},{"server_id":53,"name":"Uncletopia | Warsaw | 5 | Stopwatch","name_short":"waw-5","host":"waw-1.pl.uncletopia.com","port":27055,"enabled":true,"region":"eu","cc":"pl","latitude":52.2297,"longitude":21.017532,"reserved":0,"last_update":"0001-01-01T00:00:00Z","name_a2s":"Uncletopia | Warsaw | 5 | Stopwatch","protocol":17,"map":"koth_highpass","folder":"tf","game":"Team Fortress","app_id":440,"player_count":0,"max_players":24,"Bots":0,"server_type":"Dedicated","server_os":"Linux","password":true,"vac":true,"version":"7961495","steam_id":85568392925397854,"keywords":["cp","nocrits","nodmgspread","uncletopia"],"game_id":440,"stv_port":27056,"stv_name":"Uncletopia | Warsaw | 5 | Stopwatch | STV","players":null},{"server_id":54,"name":"Uncletopia | Warsaw | 6 | Community","name_short":"waw-6","host":"waw-1.pl.uncletopia.com","port":27065,"enabled":true,"region":"eu","cc":"pl","latitude":52.2297,"longitude":21.017532,"reserved":0,"last_update":"0001-01-01T00:00:00Z","name_a2s":"Uncletopia | Warsaw | 6 | Community","protocol":17,"map":"workshop/cp_villa_b19.ugc2113052569","folder":"tf","game":"Team Fortress","app_id":440,"player_count":0,"max_players":24,"Bots":0,"server_type":"Dedicated","server_os":"Linux","password":true,"vac":true,"version":"7961495","steam_id":85568392925397856,"keywords":["cp","nocrits","nodmgspread","uncletopia"],"game_id":440,"stv_port":27066,"stv_name":"Uncletopia | Warsaw | 6 | Community | STV","players":null}]}