{"status":true,"message":"","result":[{"server_id":9,"name":"Uncletopia | Atlanta | 1 | All Maps","name_short":"atl-1","host":"atl-1.us.uncletopia.com","port":27015,"enabled":true,"region":"us-east","cc":"us","latitude":33.753746,"longitude":-84.38633,"reserved":0,"last_update":"0001-01-01T00:00:00Z","name_a2s":"Uncletopia | Atlanta | 1 | All Maps","protocol":17,"map":"pl_frontier_final","folder":"tf","game":"Team Fortress","app_id":440,"player_count":20,"max_players":24,"Bots":0,"server_type":"Dedicated","server_os":"Linux","password":true,"vac":true,"version":"7961495","steam_id":85568392924469982,"keywords":["nocrits","nodmgspread","payload","uncletopia"],"game_id":440,"stv_port":27016,"stv_name":"Uncletopia | Atlanta | 1 | All Maps | STV","players":null},{"server_id":104,"name":"Uncletopia | Atlanta | 2 | All Maps","name_short":"atl-2","host":"atl-1.us.uncletopia.com","port":27025,"enabled":true,"region":"us-east","cc":"us","latitude":33.753746,"longitude":-84.38633,"reserved":0,"last_update":"0001-01-01T00:00:00Z","name_a2s":"Uncletopia | Atlanta | 2 | All Maps","protocol":17,"map":"cp_sunshine","folder":"tf","game":"Team Fortress","app_id":440,"player_count":20,"max_players":24,"Bots":0,"server_type":"Dedicated","server_os":"Linux","password":true,"vac":true,"version":"7961495","steam_id":85568392924469983,"keywords":["cp","nocrits","nodmgspread","uncletopia"],"game_id":440,"stv_port":27026,"stv_name":"Uncletopia | Atlanta | 2 | All Maps | STV","players":null},{"server_id":400,"name":"Uncletopia | Atlanta | 3 | All Maps","name_short":"atl-3","host":"atl-1.us.uncletopia.com","port":27035,"enabled":true,"region":"us-east","cc":"us","latitude":33.753746,"longitude":-84.38633,"reserved":0,"last_update":"0001-01-01T00:00:00Z","name_a2s":"Uncletopia | Atlanta | 3 | All Maps","protocol":17,"map":"pl_upward","folder":"tf","game":"Team Fortress","app_id":440,"player_count":24,"max_players":24,"Bots":0,"server_type":"Dedicated","server_os":"Linux","password":true,"vac":true,"version":"7961495","steam_id":85568392924515187,"keywords":["nocrits","nodmgspread","payload","uncletopia"],"game_id":440,"stv_port":27036,"stv_name":"Uncletopia | Atlanta | 3 | All Maps | STV","players":null},{"server_id":401,"name":"Uncletopia | Atlanta | 4 | Community","name_short":"atl-4","host":"atl-1.us.uncletopia.com","port":27045,"enabled":true,"region":"us-east","cc":"us","latitude":33.753746,"longitude":-84.38633,"reserved":0,"last_update":"0001-01-01T00:00:00Z","name_a2s":"Uncletopia | Atlanta | 4 | Community","protocol":17,"map":"pl_shoreleave_rc2","folder":"tf","game":"Team Fortress","app_id":440,"player_count":2,"max_players":24,"Bots":0,"server_type":"Dedicated","server_os":"Linux","password":true,"vac":true,"version":"7961495","steam_id":85568392924515188,"keywords":["nocrits","nodmgspread","payload","uncletopia"],"game_id":440,"stv_port":27046,"stv_name":"Uncletopia | Atlanta | 4 | Community | STV","players":null},{"server_id":2,"name":"Uncletopia | Chicago | 1 | All Maps","name_short":"chi-1","host":"chi-1.us.uncletopia.com","port":27015,"enabled":true,"region":"us-central","cc":"us","latitude":41.881832,"longitude":-87.62318,"reserved":0,"last_update":"0001-01-01T00:00:00Z","name_a2s":"Uncletopia | Chicago | 1 | All Maps","protocol":17,"map":"pl_snowycoast","folder":"tf","game":"Team Fortress","app_id":440,"player_count":24,"max_players":24,"Bots":0,"server_type":"Dedicated","server_os":"Linux","password":true,"vac":true,"version":"7961495","steam_id":85568392924469984,"keywords":["nocrits","nodmgspread","payload","uncletopia"],"game_id":440,"stv_port":27016,"stv_name":"Uncletopia | Chicago | 1 | All Maps | STV","players":[{"user_id":596,"name":"Saltail","steam_id":76561198063053039,"connected_time":9951000000000,"state":"active","ping":76},{"user_id":693,"name":"DinkleBerg","steam_id":76561198891626233,"connected_time":476000000000,"state":"active","ping":83},{"user_id":666,"name":"Your Local Queer Librarian","steam_id":76561198013077080,"connected_time":3191000000000,"state":"active","ping":56},{"user_id":667,"name":"Shane Dawson's Cat","steam_id":76561199092109271,"connected_time":3158000000000,"state":"active","ping":73},{"user_id":677,"name":"ducks is the name","steam_id":76561198049372798,"connected_time":2256000000000,"state":"active","ping":93},{"user_id":690,"name":"AlphaD_„ÉÑ","steam_id":76561198798020212,"connected_time":506000000000,"state":"active","ping":72},{"user_id":689,"name":"V","steam_id":76561198057374871,"connected_time":509000000000,"state":"active","ping":60},{"user_id":673,"name":"Thumb Yorke","steam_id":76561198089294060,"connected_time":2937000000000,"state":"active","ping":75},{"user_id":680,"name":"bruiseraaron","steam_id":76561198020092380,"connected_time":1983000000000,"state":"active","ping":72},{"user_id":645,"name":"Astoriae!","steam_id":76561199090168858,"connected_time":6569000000000,"state":"active","ping":129},{"user_id":698,"name":"Kalhoun","steam_id":76561197999648122,"connected_time":271000000000,"state":"active","ping":59},{"user_id":662,"name":"Schlongulous","steam_id":76561198059715531,"connected_time":3938000000000,"state":"active","ping":69},{"user_id":665,"name":"StonedGiant","steam_id":76561197984386932,"connected_time":3206000000000,"state":"active","ping":62},{"user_id":696,"name":"Mango","steam_id":76561198156746320,"connected_time":445000000000,"state":"active","ping":45},{"user_id":591,"name":"LJBLJB‚Ñ¢","steam_id":76561198166782022,"connected_time":10254000000000,"state":"active","ping":62},{"user_id":691,"name":"Milkmur","steam_id":76561198210043821,"connected_time":505000000000,"state":"active","ping":67},{"user_id":695,"name":"A Quiet Fartwell","steam_id":76561198397009880,"connected_time":469000000000,"state":"active","ping":64},{"user_id":697,"name":"gnoll filth","steam_id":76561198066123607,"connected_time":413000000000,"state":"active","ping":47},{"user_id":655,"name":"Zorlovo","steam_id":76561198006443283,"connected_time":4742000000000,"state":"active","ping":86},{"user_id":692,"name":"Trash","steam_id":76561198358471281,"connected_time":502000000000,"state":"active","ping":58},{"user_id":679,"name":"Denzel McFlurry","steam_id":76561199231296521,"connected_time":2009000000000,"state":"active","ping":70},{"user_id":664,"name":"Raccoon Wizard","steam_id":76561198072562591,"connected_time":3211000000000,"state":"active","ping":91},{"user_id":684,"name":"Doctor Emerald(real)","steam_id":76561199123003872,"connected_time":1555000000000,"state":"active","ping":97},{"user_id":687,"name":"crispy","steam_id":76561198971106376,"connected_time":890000000000,"state":"active","ping":45}]},{"server_id":106,"name":"Uncletopia | Chicago | 2 | All Maps","name_short":"chi-2","host":"chi-1.us.uncletopia.com","port":27025,"enabled":true,"region":"us-central","cc":"us","latitude":41.881832,"longitude":-87.62318,"reserved":0,"last_update":"0001-01-01T00:00:00Z","name_a2s":"Uncletopia | Chicago | 2 | All Maps","protocol":17,"map":"koth_viaduct","folder":"tf","game":"Team Fortress","app_id":440,"player_count":24,"max_players":24,"Bots":0,"server_type":"Dedicated","server_os":"Linux","password":true,"vac":true,"version":"7961495","steam_id":85568392924469985,"keywords":["cp","nocrits","nodmgspread","uncletopia"],"game_id":440,"stv_port":27026,"stv_name":"Uncletopia | Chicago | 2 | All Maps | STV","players":[{"user_id":518,"name":"JamJohn","steam_id":76561198812294103,"connected_time":240000000000,"state":"active","ping":59},{"user_id":506,"name":"NovaSc6ut","steam_id":76561198277163301,"connected_time":1664000000000,"state":"active","ping":62},{"user_id":519,"name":"Bottle V2","steam_id":76561199208835578,"connected_time":217000000000,"state":"active","ping":105},{"user_id":500,"name":"wack","steam_id":76561198095697330,"connected_time":2237000000000,"state":"active","ping":85},{"user_id":444,"name":"Extome","steam_id":76561198097801342,"connected_time":6462000000000,"state":"active","ping":52},{"user_id":448,"name":"Akkrillic","steam_id":76561198224891080,"connected_time":6298000000000,"state":"active","ping":61},{"user_id":494,"name":"Whip Jones","steam_id":76561198144853552,"connected_time":2726000000000,"state":"active","ping":87},{"user_id":517,"name":"bogus","steam_id":76561198377555279,"connected_time":299000000000,"state":"active","ping":88},{"user_id":515,"name":"Otis from Back at the Barnyard","steam_id":76561198051059704,"connected_time":550000000000,"state":"active","ping":50},{"user_id":487,"name":"‚ô• Poopy McPoop Face ‚ô•","steam_id":76561198951329603,"connected_time":2846000000000,"state":"active","ping":93},{"user_id":498,"name":"AltersFalter","steam_id":76561199095678212,"connected_time":2542000000000,"state":"active","ping":84},{"user_id":502,"name":"LerN","steam_id":76561198083463877,"connected_time":2014000000000,"state":"active","ping":49},{"user_id":511,"name":"Slashes","steam_id":76561197968573499,"connected_time":1205000000000,"state":"active","ping":57},{"user_id":504,"name":"Castroy","steam_id":76561198108160099,"connected_time":1929000000000,"state":"active","ping":61},{"user_id":509,"name":"wise","steam_id":76561198030066204,"connected_time":1318000000000,"state":"active","ping":60},{"user_id":445,"name":"Lucon","steam_id":76561198067147724,"connected_time":6462000000000,"state":"active","ping":61},{"user_id":507,"name":"Boomerish","steam_id":76561198083946878,"connected_time":1618000000000,"state":"active","ping":73},{"user_id":520,"name":"ip09 i-0;olk;lj9u","steam_id":76561199490115981,"connected_time":2000000000,"state":"spawning","ping":101},{"user_id":508,"name":"Kuddly Kay (She/Her)","steam_id":76561198353432576,"connected_time":1551000000000,"state":"active","ping":64},{"user_id":446,"name":"Richard Nixon","steam_id":76561198212800640,"connected_time":6452000000000,"state":"active","ping":64},{"user_id":513,"name":"Ayylmao","steam_id":76561198104780147,"connected_time":1090000000000,"state":"active","ping":45},{"user_id":473,"name":"Levi","steam_id":76561198089832776,"connected_time":3805000000000,"state":"active","ping":78},{"user_id":514,"name":"Dominic","steam_id":76561198006988361,"connected_time":749000000000,"state":"active","ping":67},{"user_id":512,"name":"Maxxycat","steam_id":76561198194062681,"connected_time":1202000000000,"state":"active","ping":60}]},{"server_id":402,"name":"Uncletopia | Chicago | 3 | All Maps","name_short":"chi-3","host":"chi-1.us.uncletopia.com","port":27035,"enabled":true,"region":"us-central","cc":"us","latitude":41.881832,"longitude":-87.62318,"reserved":0,"last_update":"0001-01-01T00:00:00Z","name_a2s":"Uncletopia | Chicago | 3 | All Maps","protocol":17,"map":"pl_badwater","folder":"tf","game":"Team Fortress","app_id":440,"player_count":24,"max_players":24,"Bots":0,"server_type":"Dedicated","server_os":"Linux","password":true,"vac":true,"version":"7961495","steam_id":85568392924515191,"keywords":["nocrits","nodmgspread","payload","uncletopia"],"game_id":440,"stv_port":27036,"stv_name":"Uncletopia | Chicago | 3 | All Maps | STV","players":[{"user_id":567,"name":"Shoeshocker","steam_id":76561198174302467,"connected_time":10405000000000,"state":"active","ping":67},{"user_id":733,"name":"Mortal Flame","steam_id":76561198130698418,"connected_time":1105000000000,"state":"active","ping":96},{"user_id":744,"name":"But what if theres more then WM","steam_id":76561199122315920,"connected_time":1000000000,"state":"spawning","ping":26},{"user_id":734,"name":"C‚ÇÑH‚ÇàCl‚ÇÇSGamez","steam_id":76561198250471340,"connected_time":912000000000,"state":"active","ping":49},{"user_id":743,"name":"Destmon","steam_id":76561199075175675,"connected_time":17000000000,"state":"spawning","ping":58},{"user_id":735,"name":"Flubby","steam_id":76561198069171252,"connected_time":892000000000,"state":"active","ping":60},{"user_id":737,"name":"Scatman","steam_id":76561198322096569,"connected_time":858000000000,"state":"active","ping":76},{"user_id":738,"name":"type \"bad med\" to kick","steam_id":76561198076402476,"connected_time":850000000000,"state":"active","ping":118},{"user_id":695,"name":"shlommy","steam_id":76561198040767402,"connected_time":2822000000000,"state":"active","ping":77},{"user_id":729,"name":"Chernov","steam_id":76561198014463424,"connected_time":1842000000000,"state":"active","ping":56},{"user_id":731,"name":"SpockASD","steam_id":76561198307516731,"connected_time":1442000000000,"state":"active","ping":77},{"user_id":710,"name":"Dinner","steam_id":76561198067294811,"connected_time":2557000000000,"state":"active","ping":67},{"user_id":704,"name":"Node‚ãÑ","steam_id":76561198219359475,"connected_time":2612000000000,"state":"active","ping":83},{"user_id":732,"name":"[82DK] Ike","steam_id":76561198135256526,"connected_time":1150000000000,"state":"active","ping":79},{"user_id":730,"name":"Milk","steam_id":76561198283314672,"connected_time":1793000000000,"state":"active","ping":59},{"user_id":708,"name":"notdoxed","steam_id":76561197992591404,"connected_time":2584000000000,"state":"active","ping":50},{"user_id":741,"name":"chrischrischris3018@yahoo.com","steam_id":76561198137316053,"connected_time":209000000000,"state":"active","ping":75},{"user_id":717,"name":"myeahhaah the french.. champagn","steam_id":76561198019820563,"connected_time":2389000000000,"state":"active","ping":62},{"user_id":724,"name":"sooty","steam_id":76561198830243167,"connected_time":2154000000000,"state":"active","ping":65},{"user_id":719,"name":"gougar","steam_id":76561198061246566,"connected_time":2326000000000,"state":"active","ping":99},{"user_id":725,"name":"scardthegamer","steam_id":76561199225615142,"connected_time":2005000000000,"state":"active","ping":106},{"user_id":740,"name":"skilaruh","steam_id":76561198413172611,"connected_time":836000000000,"state":"active","ping":56},{"user_id":723,"name":"Desi","steam_id":76561199118376118,"connected_time":2164000000000,"state":"active","ping":80},{"user_id":727,"name":"a dragon","steam_id":76561198026400965,"connected_time":1915000000000,"state":"active","ping":114}]},{"server_id":403,"name":"Uncletopia | Chicago | 4 | All Maps","name_short":"chi-4","host":"chi-1.us.uncletopia.com","port":27045,"enabled":true,"region":"us-central","cc":"us","latitude":41.881832,"longitude":-87.62318,"reserved":0,"last_update":"0001-01-01T00:00:00Z","name_a2s":"Uncletopia | Chicago | 4 | All Maps","protocol":17,"map":"pl_barnblitz","folder":"tf","game":"Team Fortress","app_id":440,"player_count":24,"max_players":24,"Bots":0,"server_type":"Dedicated","server_os":"Linux","password":true,"vac":true,"version":"7961495","steam_id":85568392924515193,"keywords":["nocrits","nodmgspread","payload","uncletopia"],"game_id":440,"stv_port":27046,"stv_name":"Uncletopia | Chicago | 4 | All Maps | STV","players":[{"user_id":563,"name":"Truffles","steam_id":76561198095868800,"connected_time":2136000000000,"state":"active","ping":83},{"user_id":541,"name":"evilclownattack","steam_id":76561198001627114,"connected_time":4540000000000,"state":"active","ping":124},{"user_id":561,"name":"Runny Eggs","steam_id":76561198006785882,"connected_time":3383000000000,"state":"active","ping":73},{"user_id":543,"name":"shitass | troutsupply.net","steam_id":76561198210572481,"connected_time":4499000000000,"state":"active","ping":78},{"user_id":544,"name":"doro","steam_id":76561198099041747,"connected_time":4478000000000,"state":"active","ping":97},{"user_id":545,"name":"only a spoonful","steam_id":76561198113180616,"connected_time":4469000000000,"state":"active","ping":69},{"user_id":572,"name":"Stew Eater","steam_id":76561198978307159,"connected_time":587000000000,"state":"active","ping":63},{"user_id":564,"name":"frolok32","steam_id":76561198882697993,"connected_time":1912000000000,"state":"active","ping":146},{"user_id":574,"name":"Grundle Thunder","steam_id":76561197960790338,"connected_time":455000000000,"state":"active","ping":81},{"user_id":575,"name":"—ïœÖ„Äê ï‚Ä¢·¥•‚Ä¢ î„Äë","steam_id":76561198071233302,"connected_time":343000000000,"state":"active","ping":96},{"user_id":566,"name":"smooth brain","steam_id":76561198049253541,"connected_time":1882000000000,"state":"active","ping":87},{"user_id":577,"name":"Quick-Fix","steam_id":76561198295501978,"connected_time":74000000000,"state":"active","ping":77},{"user_id":549,"name":"DragonHaert","steam_id":76561198132516061,"connected_time":4375000000000,"state":"active","ping":59},{"user_id":559,"name":"femtofarad‚Ñ¢","steam_id":76561198308583053,"connected_time":3817000000000,"state":"active","ping":82},{"user_id":556,"name":"MitcheyHD","steam_id":76561198066489645,"connected_time":4154000000000,"state":"active","ping":84},{"user_id":551,"name":"DSG","steam_id":76561198207574152,"connected_time":4311000000000,"state":"active","ping":57},{"user_id":557,"name":"Urbanzpinapple","steam_id":76561198115426938,"connected_time":4138000000000,"state":"active","ping":66},{"user_id":560,"name":"Lots0","steam_id":76561198043143145,"connected_time":3758000000000,"state":"active","ping":87},{"user_id":490,"name":"Nordie","steam_id":76561198102297774,"connected_time":8532000000000,"state":"active","ping":57},{"user_id":576,"name":"Yarman53","steam_id":76561198099889202,"connected_time":91000000000,"state":"active","ping":45},{"user_id":553,"name":"viagra addict","steam_id":76561198017705248,"connected_time":4283000000000,"state":"active","ping":46},{"user_id":554,"name":"Coolrattlesnake","steam_id":76561198254836888,"connected_time":4273000000000,"state":"active","ping":59},{"user_id":453,"name":"Grand","steam_id":76561198290143399,"connected_time":10745000000000,"state":"active","ping":71},{"user_id":578,"name":"Omochao Plush","steam_id":76561199031860890,"connected_time":61000000000,"state":"active","ping":99}]},{"server_id":36,"name":"Uncletopia | Chicago | 5 | All Maps","name_short":"chi-5","host":"chi-2.us.uncletopia.com","port":27015,"enabled":true,"region":"us-central","cc":"us","latitude":41.881832,"longitude":-87.62318,"reserved":0,"last_update":"0001-01-01T00:00:00Z","name_a2s":"Uncletopia | Chicago | 5 | All Maps","protocol":17,"map":"koth_viaduct","folder":"tf","game":"Team Fortress","app_id":440,"player_count":24,"max_players":24,"Bots":0,"server_type":"Dedicated","server_os":"Linux","password":true,"vac":true,"version":"7961495","steam_id":85568392924866362,"keywords":["cp","nocrits","nodmgspread","uncletopia"],"game_id":440,"stv_port":27016,"stv_name":"Uncletopia | Chicago | 5 | All Maps | STV","players":[{"user_id":588,"name":"Bip","steam_id":76561199022962204,"connected_time":2133000000000,"state":"active","ping":64},{"user_id":589,"name":"CivilWarMike","steam_id":76561198141188839,"connected_time":2112000000000,"state":"active","ping":69},{"user_id":590,"name":"Deathpill","steam_id":76561197994404793,"connected_time":2018000000000,"state":"active","ping":73},{"user_id":626,"name":"...like clockwork","steam_id":76561198904898274,"connected_time":212000000000,"state":"active","ping":87},{"user_id":611,"name":"Dr Oshawott","steam_id":76561198042021629,"connected_time":1075000000000,"state":"active","ping":63},{"user_id":620,"name":"killer fish from san diego","steam_id":76561198800084189,"connected_time":652000000000,"state":"active","ping":82},{"user_id":594,"name":"nut","steam_id":76561198979466940,"connected_time":1844000000000,"state":"active","ping":91},{"user_id":554,"name":"Toxic Ron","steam_id":76561198089302972,"connected_time":4909000000000,"state":"active","ping":62},{"user_id":605,"name":"Space Lizard","steam_id":76561198056798193,"connected_time":1466000000000,"state":"active","ping":73},{"user_id":563,"name":"TangenT","steam_id":76561198211278067,"connected_time":3745000000000,"state":"active","ping":72},{"user_id":564,"name":"Kenbop","steam_id":76561198211761132,"connected_time":3727000000000,"state":"active","ping":114},{"user_id":627,"name":"sentry food","steam_id":76561198042926224,"connected_time":173000000000,"state":"active","ping":88},{"user_id":628,"name":"Shroomish","steam_id":76561199109440924,"connected_time":165000000000,"state":"active","ping":90},{"user_id":597,"name":"Ati","steam_id":76561198381841894,"connected_time":1717000000000,"state":"active","ping":58},{"user_id":618,"name":"totally not a pile of beans","steam_id":76561198119851931,"connected_time":767000000000,"state":"active","ping":81},{"user_id":623,"name":"rudolphtheraindeerlover4562","steam_id":76561198825943127,"connected_time":393000000000,"state":"active","ping":92},{"user_id":619,"name":"Jack Studs (t.tv)","steam_id":76561198803014281,"connected_time":668000000000,"state":"active","ping":43},{"user_id":624,"name":"boe jiden","steam_id":76561198041048289,"connected_time":389000000000,"state":"active","ping":61},{"user_id":615,"name":"FireQuiz","steam_id":76561198107357249,"connected_time":982000000000,"state":"active","ping":106},{"user_id":621,"name":"celery","steam_id":76561199004451589,"connected_time":473000000000,"state":"active","ping":69},{"user_id":629,"name":"cilo","steam_id":76561198046163502,"connected_time":114000000000,"state":"active","ping":67},{"user_id":630,"name":"black ops 2 hank hill trolling","steam_id":76561198095313463,"connected_time":92000000000,"state":"active","ping":60},{"user_id":604,"name":"Seberster","steam_id":76561198136958624,"connected_time":1507000000000,"state":"active","ping":75},{"user_id":631,"name":"Shorts","steam_id":76561198025009692,"connected_time":81000000000,"state":"active","ping":83}]},{"server_id":37,"name":"Uncletopia | Chicago | 6 | All Maps","name_short":"chi-6","host":"chi-2.us.uncletopia.com","port":27025,"enabled":true,"region":"us-central","cc":"us","latitude":41.881832,"longitude":-87.62318,"reserved":0,"last_update":"0001-01-01T00:00:00Z","name_a2s":"Uncletopia | Chicago | 6 | All Maps","protocol":17,"map":"cp_sunshine","folder":"tf","game":"Team Fortress","app_id":440,"player_count":23,"max_players":24,"Bots":0,"server_type":"Dedicated","server_os":"Linux","password":true,"vac":true,"version":"7961495","steam_id":85568392924866363,"keywords":["cp","nocrits","nodmgspread","uncletopia"],"game_id":440,"stv_port":27026,"stv_name":"Uncletopia | Chicago | 6 | All Maps | STV","players":[{"user_id":479,"name":"Your Loyal Familiar","steam_id":76561198106476075,"connected_time":2631000000000,"state":"active","ping":82},{"user_id":494,"name":"kaputon","steam_id":76561198146299782,"connected_time":1896000000000,"state":"active","ping":60},{"user_id":524,"name":"sugoiboi48","steam_id":76561198060056280,"connected_time":403000000000,"state":"active","ping":59},{"user_id":518,"name":"Cordial_Lump","steam_id":76561198027777950,"connected_time":700000000000,"state":"active","ping":84},{"user_id":513,"name":"Jeff","steam_id":76561198050929005,"connected_time":904000000000,"state":"active","ping":57},{"user_id":441,"name":"thatguy_luigi","steam_id":76561198968055462,"connected_time":6640000000000,"state":"active","ping":105},{"user_id":523,"name":"Noiceman","steam_id":76561199016137482,"connected_time":480000000000,"state":"active","ping":73},{"user_id":519,"name":"josh","steam_id":76561198111565081,"connected_time":550000000000,"state":"active","ping":113},{"user_id":514,"name":"Rohi Mig","steam_id":76561198113623627,"connected_time":886000000000,"state":"active","ping":67},{"user_id":487,"name":"rivera","steam_id":76561198051058706,"connected_time":2404000000000,"state":"active","ping":49},{"user_id":497,"name":"DannyGamerXD","steam_id":76561198799224408,"connected_time":1806000000000,"state":"active","ping":65},{"user_id":468,"name":"Always Here for You","steam_id":76561198219252313,"connected_time":3371000000000,"state":"active","ping":68},{"user_id":506,"name":"Crispy Nugget Boy","steam_id":76561198256869589,"connected_time":1284000000000,"state":"active","ping":65},{"user_id":515,"name":"cincoyt LFB","steam_id":76561198041643833,"connected_time":884000000000,"state":"active","ping":85},{"user_id":511,"name":"Large Man","steam_id":76561198880396651,"connected_time":981000000000,"state":"active","ping":85},{"user_id":526,"name":"Phantom Watcher","steam_id":76561197986292563,"connected_time":329000000000,"state":"active","ping":79},{"user_id":522,"name":"stiGGy","steam_id":76561198049311931,"connected_time":514000000000,"state":"active","ping":75},{"user_id":527,"name":"vanta","steam_id":76561198084317504,"connected_time":275000000000,"state":"active","ping":58},{"user_id":517,"name":"Banjo","steam_id":76561198004652853,"connected_time":869000000000,"state":"active","ping":102},{"user_id":508,"name":"TheBlue","steam_id":76561198363412851,"connected_time":1256000000000,"state":"active","ping":46},{"user_id":528,"name":"Zaid","steam_id":76561199142840666,"connected_time":249000000000,"state":"active","ping":147},{"user_id":529,"name":"thorn648","steam_id":76561198012565777,"connected_time":184000000000,"state":"active","ping":59},{"user_id":509,"name":"twix","steam_id":76561198040912048,"connected_time":1254000000000,"state":"active","ping":59}]},{"server_id":38,"name":"Uncletopia | Chicago | 7 | Stopwatch Beta","name_short":"chi-7","host":"chi-2.us.uncletopia.com","port":27035,"enabled":true,"region":"us-central","cc":"us","latitude":41.881832,"longitude":-87.62318,"reserved":0,"last_update":"0001-01-01T00:00:00Z","name_a2s":"Uncletopia | Chicago | 7 | Stopwatch Beta","protocol":17,"map":"workshop/koth_ashville_final.ugc2130459942","folder":"tf","game":"Team Fortress","app_id":440,"player_count":4,"max_players":24,"Bots":0,"server_type":"Dedicated","server_os":"Linux","password":true,"vac":true,"version":"7961495","steam_id":85568392924866364,"keywords":["cp","nocrits","nodmgspread","uncletopia"],"game_id":440,"stv_port":27036,"stv_name":"Uncletopia | Chicago | 7 | Stopwatch Beta | STV","players":[{"user_id":98,"name":"GreatColorGreen","steam_id":76561198284546954,"connected_time":306000000000,"state":"active","ping":54},{"user_id":99,"name":"Vollly","steam_id":76561198073206108,"connected_time":250000000000,"state":"active","ping":53},{"user_id":100,"name":"SwagPunch","steam_id":76561198187711090,"connected_time":249000000000,"state":"active","ping":40},{"user_id":101,"name":"Lava Q","steam_id":76561199147429608,"connected_time":229000000000,"state":"active","ping":65}]},{"server_id":39,"name":"Uncletopia | Chicago | 8 | Community","name_short":"chi-8","host":"chi-2.us.uncletopia.com","port":27045,"enabled":true,"region":"us-central","cc":"us","latitude":41.881832,"longitude":-87.62318,"reserved":0,"last_update":"0001-01-01T00:00:00Z","name_a2s":"Uncletopia | Chicago | 8 | Community","protocol":17,"map":"workshop/pl_vigil_rc9.ugc1266210012","folder":"tf","game":"Team Fortress","app_id":440,"player_count":24,"max_players":24,"Bots":0,"server_type":"Dedicated","server_os":"Linux","password":true,"vac":true,"version":"7961495","steam_id":85568392924866365,"keywords":["nocrits","nodmgspread","payload","uncletopia"],"game_id":440,"stv_port":27046,"stv_name":"Uncletopia | Chicago | 8 | Community | STV","players":[{"user_id":668,"name":"green bean","steam_id":76561198113099204,"connected_time":3735000000000,"state":"active","ping":88},{"user_id":687,"name":"primordialheath","steam_id":76561199386942638,"connected_time":1843000000000,"state":"active","ping":56},{"user_id":693,"name":"GoldtoothFour","steam_id":76561198055529332,"connected_time":912000000000,"state":"active","ping":53},{"user_id":671,"name":"hart","steam_id":76561198094780633,"connected_time":3550000000000,"state":"active","ping":57},{"user_id":594,"name":"frank","steam_id":76561198137777483,"connected_time":9432000000000,"state":"active","ping":63},{"user_id":629,"name":"Griffers","steam_id":76561198040782561,"connected_time":7851000000000,"state":"active","ping":67},{"user_id":637,"name":"marley star7","steam_id":76561198295452087,"connected_time":7082000000000,"state":"active","ping":60},{"user_id":672,"name":"We Go Crazy","steam_id":76561198209641359,"connected_time":3440000000000,"state":"active","ping":56},{"user_id":656,"name":"SuperEnderGuy","steam_id":76561198352732164,"connected_time":4839000000000,"state":"active","ping":115},{"user_id":677,"name":"Courier","steam_id":76561198018184843,"connected_time":2729000000000,"state":"active","ping":45},{"user_id":698,"name":"THIRDPIERCE","steam_id":76561198405366314,"connected_time":252000000000,"state":"active","ping":81},{"user_id":640,"name":"Butters495","steam_id":76561197998689042,"connected_time":6341000000000,"state":"active","ping":79},{"user_id":613,"name":"Skiddy","steam_id":76561198125942665,"connected_time":8339000000000,"state":"active","ping":74},{"user_id":684,"name":"average plane driver","steam_id":76561198061552103,"connected_time":1987000000000,"state":"active","ping":45},{"user_id":683,"name":"Calvin?","steam_id":76561198034069587,"connected_time":2130000000000,"state":"active","ping":76},{"user_id":675,"name":"orangesuit1","steam_id":76561199020443017,"connected_time":3382000000000,"state":"active","ping":123},{"user_id":694,"name":"Rodrick Knee","steam_id":76561198283021062,"connected_time":724000000000,"state":"active","ping":89},{"user_id":695,"name":"Rick Astley's Foot","steam_id":76561198862617917,"connected_time":699000000000,"state":"active","ping":78},{"user_id":674,"name":"Skreed [G*]","steam_id":76561197998086143,"connected_time":3406000000000,"state":"active","ping":59},{"user_id":685,"name":"Propaniac Gaming ‚òë","steam_id":76561198133963270,"connected_time":1978000000000,"state":"active","ping":61},{"user_id":692,"name":"not a good idea","steam_id":76561198032259680,"connected_time":986000000000,"state":"active","ping":75},{"user_id":686,"name":"Kerbal01","steam_id":76561198080296298,"connected_time":1877000000000,"state":"active","ping":60},{"user_id":688,"name":"Mayo Monkey","steam_id":76561198090023039,"connected_time":1374000000000,"state":"active","ping":97},{"user_id":699,"name":"Infinitytacos","steam_id":76561198884260211,"connected_time":65000000000,"state":"active","ping":45}]},{"server_id":8,"name":"Uncletopia | Dallas | 1 | All Maps","name_short":"dal-1","host":"dal-1.us.uncletopia.com","port":27015,"enabled":true,"region":"us-central","cc":"us","latitude":32.779167,"longitude":-96.80889,"reserved":0,"last_update":"0001-01-01T00:00:00Z","name_a2s":"Uncletopia | Dallas | 1 | All Maps","protocol":17,"map":"koth_lakeside_final","folder":"tf","game":"Team Fortress","app_id":440,"player_count":23,"max_players":24,"Bots":0,"server_type":"Dedicated","server_os":"Linux","password":true,"vac":true,"version":"7961495","steam_id":85568392924469986,"keywords":["cp","nocrits","nodmgspread","uncletopia"],"game_id":440,"stv_port":27016,"stv_name":"Uncletopia | Dallas | 1 | All Maps | STV","players":[{"user_id":679,"name":"Nerdslayer","steam_id":76561199479660026,"connected_time":394000000000,"state":"active","ping":190},{"user_id":491,"name":"flippercurve","steam_id":76561199238295034,"connected_time":13353000000000,"state":"active","ping":70},{"user_id":692,"name":"Rafl","steam_id":76561198055222756,"connected_time":65000000000,"state":"active","ping":43},{"user_id":682,"name":"Huh?","steam_id":76561198305380082,"connected_time":373000000000,"state":"active","ping":70},{"user_id":613,"name":"Per My Last Email","steam_id":76561197970096950,"connected_time":3800000000000,"state":"active","ping":38},{"user_id":638,"name":"ThtGyVrThr","steam_id":76561198805852870,"connected_time":2276000000000,"state":"active","ping":71},{"user_id":677,"name":"everettroth63","steam_id":76561199237772642,"connected_time":643000000000,"state":"active","ping":71},{"user_id":676,"name":"Gwando","steam_id":76561198294629124,"connected_time":751000000000,"state":"active","ping":47},{"user_id":680,"name":"FanaticSalt","steam_id":76561199380123059,"connected_time":394000000000,"state":"active","ping":43},{"user_id":689,"name":"xvadan","steam_id":76561198989206670,"connected_time":153000000000,"state":"active","ping":88},{"user_id":622,"name":"Malkinson","steam_id":76561199101631369,"connected_time":3050000000000,"state":"active","ping":72},{"user_id":623,"name":"The Best Bad Idea","steam_id":76561198105931367,"connected_time":3044000000000,"state":"active","ping":45},{"user_id":693,"name":"slinky","steam_id":76561198246183704,"connected_time":25000000000,"state":"active","ping":45},{"user_id":642,"name":"clmatt6","steam_id":76561198027812938,"connected_time":2126000000000,"state":"active","ping":69},{"user_id":644,"name":"constipated samurai","steam_id":76561198827327225,"connected_time":1819000000000,"state":"active","ping":49},{"user_id":645,"name":"booty","steam_id":76561198817452952,"connected_time":1811000000000,"state":"active","ping":114},{"user_id":667,"name":"Dreamzapp","steam_id":76561199084936632,"connected_time":1285000000000,"state":"active","ping":100},{"user_id":691,"name":"Vladimir Puddin","steam_id":76561198139674520,"connected_time":127000000000,"state":"active","ping":82},{"user_id":674,"name":"Evil little man","steam_id":76561198311053471,"connected_time":872000000000,"state":"active","ping":49},{"user_id":675,"name":"adult tim","steam_id":76561198075510786,"connected_time":801000000000,"state":"active","ping":68},{"user_id":660,"name":"Kobicha","steam_id":76561198144970720,"connected_time":1639000000000,"state":"active","ping":91},{"user_id":634,"name":"JtsRes","steam_id":76561197994809241,"connected_time":2515000000000,"state":"active","ping":61},{"user_id":686,"name":"Louie","steam_id":76561198195963114,"connected_time":276000000000,"state":"active","ping":85}]},{"server_id":108,"name":"Uncletopia | Dallas | 2 | All Maps","name_short":"dal-2","host":"dal-1.us.uncletopia.com","port":27025,"enabled":true,"region":"us-central","cc":"us","latitude":32.779167,"longitude":-96.80889,"reserved":0,"last_update":"0001-01-01T00:00:00Z","name_a2s":"Uncletopia | Dallas | 2 | All Maps","protocol":17,"map":"koth_viaduct","folder":"tf","game":"Team Fortress","app_id":440,"player_count":24,"max_players":24,"Bots":0,"server_type":"Dedicated","server_os":"Linux","password":true,"vac":true,"version":"7961495","steam_id":85568392924469988,"keywords":["cp","nocrits","nodmgspread","uncletopia"],"game_id":440,"stv_port":27026,"stv_name":"Uncletopia | Dallas | 2 | All Maps | STV","players":[{"user_id":705,"name":"Squagol","steam_id":76561197987486159,"connected_time":265000000000,"state":"active","ping":61},{"user_id":658,"name":"dobby","steam_id":76561198012274834,"connected_time":4001000000000,"state":"active","ping":57},{"user_id":686,"name":"flatts","steam_id":76561198094127177,"connected_time":1796000000000,"state":"active","ping":60},{"user_id":707,"name":"DoctrZoot","steam_id":76561199171835450,"connected_time":61000000000,"state":"active","ping":76},{"user_id":683,"name":"CrispyChris","steam_id":76561198320704343,"connected_time":1823000000000,"state":"active","ping":70},{"user_id":682,"name":"bendera","steam_id":76561197965486503,"connected_time":2388000000000,"state":"active","ping":86},{"user_id":708,"name":"Aribari (She/Her)","steam_id":76561198117327938,"connected_time":50000000000,"state":"active","ping":86},{"user_id":692,"name":"Fruity","steam_id":76561198999674564,"connected_time":1661000000000,"state":"active","ping":41},{"user_id":709,"name":"brewkey","steam_id":76561198057896324,"connected_time":40000000000,"state":"active","ping":287},{"user_id":647,"name":"IMM0RTAL","steam_id":76561198013747901,"connected_time":4842000000000,"state":"active","ping":61},{"user_id":677,"name":"BlancaLamb","steam_id":76561198025646073,"connected_time":2952000000000,"state":"active","ping":84},{"user_id":706,"name":"Kng","steam_id":76561198993248203,"connected_time":123000000000,"state":"active","ping":103},{"user_id":710,"name":"plink","steam_id":76561198057829889,"connected_time":34000000000,"state":"active","ping":48},{"user_id":689,"name":"Soda","steam_id":76561198219209367,"connected_time":1706000000000,"state":"active","ping":63},{"user_id":691,"name":"sleepy","steam_id":76561198255015060,"connected_time":1681000000000,"state":"active","ping":129},{"user_id":702,"name":"Holp","steam_id":76561199019186848,"connected_time":379000000000,"state":"active","ping":66},{"user_id":693,"name":"J√§ger","steam_id":76561198131110463,"connected_time":1658000000000,"state":"active","ping":67},{"user_id":711,"name":"Stultus","steam_id":76561198115116367,"connected_time":14000000000,"state":"active","ping":98},{"user_id":700,"name":"macironi and chesse","steam_id":76561199098060805,"connected_time":563000000000,"state":"active","ping":72},{"user_id":712,"name":"Manic","steam_id":76561198128149670,"connected_time":8000000000,"state":"spawning","ping":42},{"user_id":696,"name":"shhhppppp","steam_id":76561198883590919,"connected_time":830000000000,"state":"active","ping":60},{"user_id":672,"name":"TOKENLIZARD","steam_id":76561198218765205,"connected_time":3303000000000,"state":"active","ping":59},{"user_id":646,"name":"Hydroxianchaos","steam_id":76561198043786828,"connected_time":4866000000000,"state":"active","ping":78},{"user_id":698,"name":"cc","steam_id":76561199215821942,"connected_time":613000000000,"state":"active","ping":48}]},{"server_id":404,"name":"Uncletopia | Dallas | 3 | All Maps","name_short":"dal-3","host":"dal-1.us.uncletopia.com","port":27035,"enabled":true,"region":"us-central","cc":"us","latitude":32.779167,"longitude":-96.80889,"reserved":0,"last_update":"0001-01-01T00:00:00Z","name_a2s":"Uncletopia | Dallas | 3 | All Maps","protocol":17,"map":"koth_suijin","folder":"tf","game":"Team Fortress","app_id":440,"player_count":11,"max_players":24,"Bots":0,"server_type":"Dedicated","server_os":"Linux","password":true,"vac":true,"version":"7961495","steam_id":85568392924515219,"keywords":["cp","nocrits","nodmgspread","uncletopia"],"game_id":440,"stv_port":27036,"stv_name":"Uncletopia | Dallas | 3 | All Maps | STV","players":[{"user_id":576,"name":"Hexelss","steam_id":76561198439963761,"connected_time":105000000000,"state":"active","ping":77},{"user_id":563,"name":"tewz(s)","steam_id":76561198163264838,"connected_time":2232000000000,"state":"active","ping":54},{"user_id":565,"name":"the gamer","steam_id":76561199175442910,"connected_time":1973000000000,"state":"active","ping":98},{"user_id":458,"name":"Smug","steam_id":76561198448205229,"connected_time":11904000000000,"state":"active","ping":75},{"user_id":577,"name":"The Lord of Bread","steam_id":76561199203901420,"connected_time":101000000000,"state":"active","ping":42},{"user_id":578,"name":"SGT Disoriented","steam_id":76561198058177958,"connected_time":10000000000,"state":"active","ping":107},{"user_id":552,"name":"Hernandez$","steam_id":76561198019324588,"connected_time":2513000000000,"state":"active","ping":63},{"user_id":555,"name":"Octosquid","steam_id":76561198336922072,"connected_time":2452000000000,"state":"active","ping":44},{"user_id":559,"name":"Gking725","steam_id":76561199005216655,"connected_time":2374000000000,"state":"active","ping":58},{"user_id":557,"name":"Domo","steam_id":76561198006738859,"connected_time":2414000000000,"state":"active","ping":87},{"user_id":568,"name":"D r e a d ‚ò¢üíØ","steam_id":76561198059216451,"connected_time":1943000000000,"state":"active","ping":79}]},{"server_id":405,"name":"Uncletopia | Dallas | 4 | Community","name_short":"dal-4","host":"dal-1.us.uncletopia.com","port":27045,"enabled":true,"region":"us-central","cc":"us","latitude":32.779167,"longitude":-96.80889,"reserved":0,"last_update":"0001-01-01T00:00:00Z","name_a2s":"Uncletopia | Dallas | 4 | Community","protocol":17,"map":"workshop/koth_kemptown_rc1.ugc767410655","folder":"tf","game":"Team Fortress","app_id":440,"player_count":0,"max_players":24,"Bots":0,"server_type":"Dedicated","server_os":"Linux","password":true,"vac":true,"version":"7961495","steam_id":85568392924515220,"keywords":["cp","nocrits","nodmgspread","uncletopia"],"game_id":440,"stv_port":27046,"stv_name":"Uncletopia | Dallas | 4 | Community | STV","players":null},{"server_id":5,"name":"Uncletopia | Frankfurt | 1 | All Maps","name_short":"frk-1","host":"frk-1.de.uncletopia.com","port":27015,"enabled":true,"region":"eu","cc":"de","latitude":50.110924,"longitude":8.682127,"reserved":0,"last_update":"0001-01-01T00:00:00Z","name_a2s":"Uncletopia | Frankfurt | 1 | All Maps","protocol":17,"map":"pl_badwater","folder":"tf","game":"Team Fortress","app_id":440,"player_count":2,"max_players":24,"Bots":0,"server_type":"Dedicated","server_os":"Linux","password":true,"vac":true,"version":"7961495","steam_id":85568392924469989,"keywords":["nocrits","nodmgspread","payload","uncletopia"],"game_id":440,"stv_port":27016,"stv_name":"Uncletopia | Frankfurt | 1 | All Maps | STV","players":[{"user_id":3,"name":"Caber Man","steam_id":76561199142318442,"connected_time":604000000000,"state":"active","ping":174},{"user_id":4,"name":"Shark Jaw","steam_id":76561198167339548,"connected_time":574000000000,"state":"active","ping":72}]},{"server_id":110,"name":"Uncletopia | Frankfurt | 2 | All Maps","name_short":"frk-2","host":"frk-1.de.uncletopia.com","port":27025,"enabled":true,"region":"eu","cc":"de","latitude":50.110924,"longitude":8.682127,"reserved":0,"last_update":"0001-01-01T00:00:00Z","name_a2s":"Uncletopia | Frankfurt | 2 | All Maps","protocol":17,"map":"koth_lakeside_final","folder":"tf","game":"Team Fortress","app_id":440,"player_count":0,"max_players":24,"Bots":0,"server_type":"Dedicated","server_os":"Linux","password":true,"vac":true,"version":"7961495","steam_id":85568392924469990,"keywords":["cp","nocrits","nodmgspread","uncletopia"],"game_id":440,"stv_port":27026,"stv_name":"Uncletopia | Frankfurt | 2 | All Maps | STV","players":null},{"server_id":308,"name":"Uncletopia | Frankfurt | 3 | All Maps","name_short":"frk-3","host":"frk-1.de.uncletopia.com","port":27035,"enabled":true,"region":"eu","cc":"de","latitude":50.110924,"longitude":8.682127,"reserved":0,"last_update":"0001-01-01T00:00:00Z","name_a2s":"Uncletopia | Frankfurt | 3 | All Maps","protocol":17,"map":"cp_sunshine","folder":"tf","game":"Team Fortress","app_id":440,"player_count":0,"max_players":24,"Bots":0,"server_type":"Dedicated","server_os":"Linux","password":true,"vac":true,"version":"7961495","steam_id":85568392924504274,"keywords":["cp","nocrits","nodmgspread","uncletopia"],"game_id":440,"stv_port":27036,"stv_name":"Uncletopia | Frankfurt | 3 | All Maps | STV","players":null},{"server_id":309,"name":"Uncletopia | Frankfurt | 4 | All Maps","name_short":"frk-4","host":"frk-1.de.uncletopia.com","port":27045,"enabled":true,"region":"eu","cc":"de","latitude":50.110924,"longitude":8.682127,"reserved":0,"last_update":"0001-01-01T00:00:00Z","name_a2s":"Uncletopia | Frankfurt | 4 | All Maps","protocol":17,"map":"cp_altitude","folder":"tf","game":"Team Fortress","app_id":440,"player_count":0,"max_players":24,"Bots":0,"server_type":"Dedicated","server_os":"Linux","password":true,"vac":true,"version":"7961495","steam_id":85568392924504275,"keywords":["cp","nocrits","nodmgspread","uncletopia"],"game_id":440,"stv_port":27046,"stv_name":"Uncletopia | Frankfurt | 4 | All Maps | STV","players":null},{"server_id":310,"name":"Uncletopia | Frankfurt | 5 | All Maps","name_short":"frk-5","host":"frk-1.de.uncletopia.com","port":27055,"enabled":true,"region":"eu","cc":"de","latitude":50.110924,"longitude":8.682127,"reserved":0,"last_update":"0001-01-01T00:00:00Z","name_a2s":"Uncletopia | Frankfurt | 5 | All Maps","protocol":17,"map":"cp_process_final","folder":"tf","game":"Team Fortress","app_id":440,"player_count":0,"max_players":24,"Bots":0,"server_type":"Dedicated","server_os":"Linux","password":true,"vac":true,"version":"7961495","steam_id":85568392924504277,"keywords":["cp","nocrits","nodmgspread","uncletopia"],"game_id":440,"stv_port":27056,"stv_name":"Uncletopia | Frankfurt | 5 | All Maps | STV","players":null},{"server_id":311,"name":"Uncletopia | Frankfurt | 6 | All Maps","name_short":"frk-6","host":"frk-1.de.uncletopia.com","port":27065,"enabled":true,"region":"eu","cc":"de","latitude":50.110924,"longitude":8.682127,"reserved":0,"last_update":"0001-01-01T00:00:00Z","name_a2s":"Uncletopia | Frankfurt | 6 | All Maps","protocol":17,"map":"pl_barnblitz","folder":"tf","game":"Team Fortress","app_id":440,"player_count":0,"max_players":24,"Bots":0,"server_type":"Dedicated","server_os":"Linux","password":true,"vac":true,"version":"7961495","steam_id":85568392924504278,"keywords":["nocrits","nodmgspread","payload","uncletopia"],"game_id":440,"stv_port":27066,"stv_name":"Uncletopia | Frankfurt | 6 | All Maps | STV","players":null},{"server_id":23,"name":"Uncletopia | Frankfurt | 7 | Stopwatch Beta","name_short":"frk-7","host":"frk-1.de.uncletopia.com","port":27075,"enabled":true,"region":"eu","cc":"de","latitude":50.110924,"longitude":8.682127,"reserved":0,"last_update":"0001-01-01T00:00:00Z","name_a2s":"Uncletopia | Frankfurt | 7 | Stopwatch Beta","protocol":17,"map":"koth_cascade","folder":"tf","game":"Team Fortress","app_id":440,"player_count":0,"max_players":24,"Bots":0,"server_type":"Dedicated","server_os":"Linux","password":true,"vac":true,"version":"7961495","steam_id":85568392924742827,"keywords":["cp","nocrits","nodmgspread","uncletopia"],"game_id":440,"stv_port":27076,"stv_name":"Uncletopia | Frankfurt | 7 | Stopwatch Beta | STV","players":null},{"server_id":24,"name":"Uncletopia | Frankfurt | 8 | Community","name_short":"frk-8","host":"frk-1.de.uncletopia.com","port":27085,"enabled":true,"region":"eu","cc":"de","latitude":50.110924,"longitude":8.682127,"reserved":0,"last_update":"0001-01-01T00:00:00Z","name_a2s":"Uncletopia | Frankfurt | 8 | Community","protocol":17,"map":"cp_dustbowl","folder":"tf","game":"Team Fortress","app_id":440,"player_count":0,"max_players":24,"Bots":0,"server_type":"Dedicated","server_os":"Linux","password":true,"vac":true,"version":"7961495","steam_id":85568392924742828,"keywords":["cp","nocrits","nodmgspread","uncletopia"],"game_id":440,"stv_port":27086,"stv_name":"Uncletopia | Frankfurt | 8 | Community | STV","players":null},{"server_id":202,"name":"Uncletopia | Hong Kong | 1 | All Maps","name_short":"hgk-1","host":"hgk-1.hk.uncletopia.com","port":27015,"enabled":true,"region":"asia","cc":"hk","latitude":22.302711,"longitude":114.177216,"reserved":0,"last_update":"0001-01-01T00:00:00Z","name_a2s":"Uncletopia | Hong Kong | 1 | All Maps","protocol":17,"map":"cp_granary","folder":"tf","game":"Team Fortress","app_id":440,"player_count":17,"max_players":24,"Bots":0,"server_type":"Dedicated","server_os":"Linux","password":true,"vac":true,"version":"7961495","steam_id":85568392924494504,"keywords":["cp","nocrits","nodmgspread","uncletopia"],"game_id":440,"stv_port":27016,"stv_name":"Uncletopia | Hong Kong | 1 | All Maps | STV","players":[{"user_id":128,"name":"spinach (old mouse)","steam_id":76561198042539541,"connected_time":1787000000000,"state":"active","ping":76},{"user_id":144,"name":"hackrman","steam_id":76561198084027826,"connected_time":1102000000000,"state":"active","ping":102},{"user_id":151,"name":"Talkk More","steam_id":76561198305424433,"connected_time":785000000000,"state":"active","ping":70},{"user_id":152,"name":"rear left puncture","steam_id":76561198811532659,"connected_time":722000000000,"state":"active","ping":80},{"user_id":153,"name":"Muerto","steam_id":76561198328718520,"connected_time":658000000000,"state":"active","ping":104},{"user_id":154,"name":"…îu·ó°A …ü∆®u·íê","steam_id":76561199031283970,"connected_time":639000000000,"state":"active","ping":72},{"user_id":141,"name":"ccubes","steam_id":76561198070956426,"connected_time":1317000000000,"state":"active","ping":65},{"user_id":127,"name":"ÍπÄÍ¥ëÎßå","steam_id":76561198295279503,"connected_time":1854000000000,"state":"active","ping":84},{"user_id":164,"name":"meowsh","steam_id":76561198060448954,"connected_time":5000000000,"state":"spawning","ping":69},{"user_id":156,"name":"Him Him Ung","steam_id":76561198204789021,"connected_time":521000000000,"state":"active","ping":57},{"user_id":158,"name":":weed:","steam_id":76561198386626651,"connected_time":204000000000,"state":"active","ping":55},{"user_id":142,"name":"watamelon","steam_id":76561197994194946,"connected_time":1290000000000,"state":"active","ping":97},{"user_id":162,"name":"Lelouch","steam_id":76561198828840546,"connected_time":55000000000,"state":"active","ping":80},{"user_id":148,"name":"AmaiToxic","steam_id":76561199122491157,"connected_time":1019000000000,"state":"active","ping":192},{"user_id":149,"name":"screaming sniper","steam_id":76561199085568674,"connected_time":977000000000,"state":"active","ping":58},{"user_id":163,"name":"Samoyed","steam_id":76561198299150410,"connected_time":29000000000,"state":"active","ping":75},{"user_id":125,"name":"toad","steam_id":76561198082199290,"connected_time":2107000000000,"state":"active","ping":58}]},{"server_id":1,"name":"Uncletopia | Los Angeles | 1 | All Maps","name_short":"lax-1","host":"lax-1.us.uncletopia.com","port":27015,"enabled":true,"region":"us-west","cc":"us","latitude":33.94279,"longitude":-118.41004,"reserved":0,"last_update":"0001-01-01T00:00:00Z","name_a2s":"Uncletopia | Los Angeles | 1 | All Maps","protocol":17,"map":"koth_cascade","folder":"tf","game":"Team Fortress","app_id":440,"player_count":24,"max_players":24,"Bots":0,"server_type":"Dedicated","server_os":"Linux","password":true,"vac":true,"version":"7961495","steam_id":85568392924469991,"keywords":["cp","nocrits","nodmgspread","uncletopia"],"game_id":440,"stv_port":27016,"stv_name":"Uncletopia | Los Angeles | 1 | All Maps | STV","players":[{"user_id":216,"name":"Uprightmoss7528","steam_id":76561199200138486,"connected_time":1471000000000,"state":"active","ping":53},{"user_id":206,"name":"NagitoTheLucky","steam_id":76561198065096327,"connected_time":2167000000000,"state":"active","ping":61},{"user_id":230,"name":"Satan-2","steam_id":76561199231742764,"connected_time":627000000000,"state":"active","ping":116},{"user_id":237,"name":"vozz","steam_id":76561198242065410,"connected_time":354000000000,"state":"active","ping":48},{"user_id":235,"name":"Magical.Puffin","steam_id":76561198129039275,"connected_time":386000000000,"state":"active","ping":66},{"user_id":207,"name":"Veritox","steam_id":76561198075778026,"connected_time":2161000000000,"state":"active","ping":71},{"user_id":200,"name":"Bada Bingus","steam_id":76561198046743307,"connected_time":2625000000000,"state":"active","ping":123},{"user_id":220,"name":"exx","steam_id":76561198090552145,"connected_time":1424000000000,"state":"active","ping":47},{"user_id":229,"name":"deepest wrinkle in your brain","steam_id":76561198042231656,"connected_time":724000000000,"state":"active","ping":102},{"user_id":191,"name":"squid","steam_id":76561198070236972,"connected_time":3327000000000,"state":"active","ping":60},{"user_id":238,"name":"Chiaki Nanami","steam_id":76561198164782653,"connected_time":310000000000,"state":"active","ping":116},{"user_id":218,"name":"lasagnalarry12","steam_id":76561198162688146,"connected_time":1443000000000,"state":"active","ping":53},{"user_id":239,"name":"gerg","steam_id":76561197997127387,"connected_time":306000000000,"state":"active","ping":59},{"user_id":242,"name":"Phillip Jeffries","steam_id":76561198064052174,"connected_time":50000000000,"state":"active","ping":111},{"user_id":240,"name":"ColdRamen","steam_id":76561198128945664,"connected_time":301000000000,"state":"active","ping":67},{"user_id":140,"name":"Squatter1","steam_id":76561198078987734,"connected_time":6164000000000,"state":"active","ping":76},{"user_id":234,"name":"Screwwie","steam_id":76561198006892781,"connected_time":457000000000,"state":"active","ping":78},{"user_id":222,"name":"HAT-WEARING‚Ñ¢ Maggot Gamer Cat","steam_id":76561197973992705,"connected_time":1356000000000,"state":"active","ping":66},{"user_id":241,"name":"social distance warrior","steam_id":76561198128992994,"connected_time":268000000000,"state":"active","ping":74},{"user_id":226,"name":"Amogous Supreme","steam_id":76561198025476774,"connected_time":1081000000000,"state":"active","ping":66},{"user_id":114,"name":"Master Etherium","steam_id":76561198305037146,"connected_time":8031000000000,"state":"active","ping":133},{"user_id":214,"name":"Buswolley","steam_id":76561197995205571,"connected_time":1931000000000,"state":"active","ping":68},{"user_id":211,"name":"fertile moist and well drained","steam_id":76561198031409921,"connected_time":2048000000000,"state":"active","ping":69},{"user_id":212,"name":"Mr. Noodle","steam_id":76561198025280658,"connected_time":1993000000000,"state":"active","ping":52}]},{"server_id":112,"name":"Uncletopia | Los Angeles | 2 | All Maps","name_short":"lax-2","host":"lax-1.us.uncletopia.com","port":27025,"enabled":true,"region":"us-west","cc":"us","latitude":33.94279,"longitude":-118.41004,"reserved":0,"last_update":"0001-01-01T00:00:00Z","name_a2s":"Uncletopia | Los Angeles | 2 | All Maps","protocol":17,"map":"koth_viaduct","folder":"tf","game":"Team Fortress","app_id":440,"player_count":23,"max_players":24,"Bots":0,"server_type":"Dedicated","server_os":"Linux","password":true,"vac":true,"version":"7961495","steam_id":85568392924469992,"keywords":["cp","nocrits","nodmgspread","uncletopia"],"game_id":440,"stv_port":27026,"stv_name":"Uncletopia | Los Angeles | 2 | All Maps | STV","players":[{"user_id":192,"name":"Sol","steam_id":76561198121500201,"connected_time":4468000000000,"state":"active","ping":46},{"user_id":187,"name":"Rorver","steam_id":76561198114030795,"connected_time":4682000000000,"state":"active","ping":74},{"user_id":239,"name":"Jean Deere","steam_id":76561198105101309,"connected_time":1029000000000,"state":"active","ping":120},{"user_id":188,"name":"Stryker1510","steam_id":76561198169268018,"connected_time":4663000000000,"state":"active","ping":88},{"user_id":228,"name":"Archallis","steam_id":76561198310324554,"connected_time":1987000000000,"state":"active","ping":88},{"user_id":257,"name":"MayKaye","steam_id":76561199016092265,"connected_time":47000000000,"state":"active","ping":65},{"user_id":231,"name":"worker","steam_id":76561198039608940,"connected_time":1606000000000,"state":"active","ping":91},{"user_id":242,"name":"Thunder","steam_id":76561198097721532,"connected_time":912000000000,"state":"active","ping":48},{"user_id":232,"name":"TheGhostThatWas","steam_id":76561198055836483,"connected_time":1601000000000,"state":"active","ping":104},{"user_id":233,"name":"Newport1","steam_id":76561198074614044,"connected_time":1559000000000,"state":"active","ping":47},{"user_id":256,"name":"LeadButterTF2","steam_id":76561198260530863,"connected_time":52000000000,"state":"active","ping":43},{"user_id":221,"name":"GLXy","steam_id":76561198207551544,"connected_time":2358000000000,"state":"active","ping":75},{"user_id":234,"name":"XD?","steam_id":76561198061671352,"connected_time":1542000000000,"state":"active","ping":84},{"user_id":258,"name":"HeHedron","steam_id":76561199199667164,"connected_time":34000000000,"state":"active","ping":66},{"user_id":248,"name":"Jezzus","steam_id":76561199289676387,"connected_time":483000000000,"state":"active","ping":89},{"user_id":244,"name":"Odd Life","steam_id":76561198244979998,"connected_time":897000000000,"state":"active","ping":52},{"user_id":249,"name":"Ryle","steam_id":76561198216682264,"connected_time":457000000000,"state":"active","ping":44},{"user_id":238,"name":"Person Man","steam_id":76561198293857963,"connected_time":1052000000000,"state":"active","ping":64},{"user_id":252,"name":"I Use Basher for Medic","steam_id":76561198165834369,"connected_time":287000000000,"state":"active","ping":59},{"user_id":253,"name":"Feral Femboy","steam_id":76561198130714378,"connected_time":278000000000,"state":"active","ping":89},{"user_id":245,"name":"two scoops of a jar of somethin","steam_id":76561199029306384,"connected_time":882000000000,"state":"active","ping":43},{"user_id":223,"name":"Farseer Ulwithy","steam_id":76561197965179245,"connected_time":2341000000000,"state":"active","ping":95},{"user_id":225,"name":"PrivateCoal","steam_id":76561198138431736,"connected_time":2156000000000,"state":"active","ping":94}]},{"server_id":324,"name":"Uncletopia | Los Angeles | 3 | All Maps","name_short":"lax-3","host":"lax-1.us.uncletopia.com","port":27035,"enabled":true,"region":"us-west","cc":"us","latitude":33.94279,"longitude":-118.41004,"reserved":0,"last_update":"0001-01-01T00:00:00Z","name_a2s":"Uncletopia | Los Angeles | 3 | All Maps","protocol":17,"map":"cp_dustbowl","folder":"tf","game":"Team Fortress","app_id":440,"player_count":24,"max_players":24,"Bots":0,"server_type":"Dedicated","server_os":"Linux","password":true,"vac":true,"version":"7961495","steam_id":85568392924510198,"keywords":["cp","nocrits","nodmgspread","uncletopia"],"game_id":440,"stv_port":27036,"stv_name":"Uncletopia | Los Angeles | 3 | All Maps | STV","players":[{"user_id":584,"name":"deep ‚ôÇ dark ‚ôÇ fantasies","steam_id":76561197996354385,"connected_time":2872000000000,"state":"active","ping":54},{"user_id":633,"name":"Komada337","steam_id":76561198153971124,"connected_time":129000000000,"state":"active","ping":102},{"user_id":613,"name":"Cactus‚Ñ¢ ‚ô•","steam_id":76561198036441270,"connected_time":1688000000000,"state":"active","ping":69},{"user_id":623,"name":"shelf","steam_id":76561198260021696,"connected_time":1031000000000,"state":"active","ping":73},{"user_id":574,"name":"Vintage TV","steam_id":76561198800334545,"connected_time":3680000000000,"state":"active","ping":46},{"user_id":614,"name":"Culprit Shy","steam_id":76561198206506481,"connected_time":1660000000000,"state":"active","ping":45},{"user_id":616,"name":"Conclusion E¬≤","steam_id":76561198100017156,"connected_time":1616000000000,"state":"active","ping":105},{"user_id":619,"name":"‚ô¶‚ô£Quadric‚ô•‚ô†","steam_id":76561198061003853,"connected_time":1150000000000,"state":"active","ping":115},{"user_id":626,"name":"subwoofer","steam_id":76561198087200115,"connected_time":235000000000,"state":"active","ping":78},{"user_id":637,"name":"U œâ U","steam_id":76561198118802562,"connected_time":39000000000,"state":"active","ping":58},{"user_id":628,"name":"H2OBourne","steam_id":76561198396293109,"connected_time":191000000000,"state":"active","ping":92},{"user_id":629,"name":"Ja","steam_id":76561198396340174,"connected_time":184000000000,"state":"active","ping":115},{"user_id":604,"name":"coolbust carti","steam_id":76561198065384345,"connected_time":2201000000000,"state":"active","ping":56},{"user_id":624,"name":"Sheev Palpatine","steam_id":76561198252332430,"connected_time":346000000000,"state":"active","ping":91},{"user_id":612,"name":"[El Fail] MR.BadassMCLee","steam_id":76561198043787818,"connected_time":1806000000000,"state":"active","ping":67},{"user_id":630,"name":"ACK","steam_id":76561198130390689,"connected_time":158000000000,"state":"active","ping":69},{"user_id":631,"name":"troubless","steam_id":76561198335431391,"connected_time":157000000000,"state":"active","ping":89},{"user_id":632,"name":"Tony","steam_id":76561198395604099,"connected_time":140000000000,"state":"active","ping":65},{"user_id":634,"name":"nice cheese","steam_id":76561199212189723,"connected_time":85000000000,"state":"active","ping":48},{"user_id":617,"name":"Adam Taurus","steam_id":76561198166968934,"connected_time":1577000000000,"state":"active","ping":80},{"user_id":568,"name":"Seriously Bruh","steam_id":76561198070408485,"connected_time":4097000000000,"state":"active","ping":71},{"user_id":635,"name":"Rix FPV","steam_id":76561198299320893,"connected_time":71000000000,"state":"active","ping":102},{"user_id":565,"name":"evil","steam_id":76561199001918194,"connected_time":4198000000000,"state":"active","ping":59},{"user_id":573,"name":"SAVECASEY","steam_id":76561198857896847,"connected_time":3735000000000,"state":"active","ping":47}]},{"server_id":25,"name":"Uncletopia | Los Angeles | 4 | Stopwatch Beta","name_short":"lax-4","host":"lax-1.us.uncletopia.com","port":27045,"enabled":true,"region":"us-west","cc":"us","latitude":33.94279,"longitude":-118.41004,"reserved":0,"last_update":"0001-01-01T00:00:00Z","name_a2s":"Uncletopia | Los Angeles | 4 | Stopwatch Beta","protocol":17,"map":"pl_upward","folder":"tf","game":"Team Fortress","app_id":440,"player_count":0,"max_players":24,"Bots":0,"server_type":"Dedicated","server_os":"Linux","password":true,"vac":true,"version":"7961495","steam_id":85568392924510199,"keywords":["nocrits","nodmgspread","payload","uncletopia"],"game_id":440,"stv_port":27046,"stv_name":"Uncletopia | Los Angeles | 4 | Stopwatch Beta | STV","players":null},{"server_id":11,"name":"Uncletopia | London | 1 | All Maps","name_short":"lon-1","host":"lon-1.uk.uncletopia.com","port":27015,"enabled":true,"region":"eu","cc":"gb","latitude":51.509865,"longitude":-0.118092,"reserved":0,"last_update":"0001-01-01T00:00:00Z","name_a2s":"Uncletopia | London | 1 | All Maps","protocol":17,"map":"pl_upward","folder":"tf","game":"Team Fortress","app_id":440,"player_count":24,"max_players":24,"Bots":0,"server_type":"Dedicated","server_os":"Linux","password":true,"vac":true,"version":"7961495","steam_id":85568392924367362,"keywords":["nocrits","nodmgspread","payload","uncletopia"],"game_id":440,"stv_port":27016,"stv_name":"Uncletopia | London | 1 | All Maps | STV","players":[{"user_id":901,"name":"perq","steam_id":76561198353183551,"connected_time":212000000000,"state":"active","ping":84},{"user_id":881,"name":"Arthur","steam_id":76561198066109166,"connected_time":2021000000000,"state":"active","ping":75},{"user_id":900,"name":"Fart Goblin","steam_id":76561198072147068,"connected_time":292000000000,"state":"active","ping":65},{"user_id":898,"name":"–ü–æ–ª—ñ–Ω–∞ –í–∞—Å–µ–Ω–∫–æ","steam_id":76561199481725666,"connected_time":389000000000,"state":"active","ping":99},{"user_id":899,"name":"KISMO","steam_id":76561199182029602,"connected_time":385000000000,"state":"active","ping":153},{"user_id":896,"name":"Bob from Taiwan","steam_id":76561198081938876,"connected_time":494000000000,"state":"active","ping":76},{"user_id":854,"name":"Psyche","steam_id":76561198091662001,"connected_time":5230000000000,"state":"active","ping":59},{"user_id":860,"name":"Albert Salavan","steam_id":76561199152398906,"connected_time":3986000000000,"state":"active","ping":92},{"user_id":902,"name":"Simon","steam_id":76561199362109830,"connected_time":192000000000,"state":"active","ping":60},{"user_id":890,"name":"SuperBob103","steam_id":76561199175360012,"connected_time":1099000000000,"state":"active","ping":46},{"user_id":864,"name":"alleopold","steam_id":76561199055478676,"connected_time":3591000000000,"state":"active","ping":152},{"user_id":908,"name":"Menthol Cop","steam_id":76561198179817985,"connected_time":1000000000,"state":"spawning","ping":82},{"user_id":903,"name":"mommyüñ§x_x","steam_id":76561199204257697,"connected_time":188000000000,"state":"active","ping":52},{"user_id":873,"name":"dead and gone wish","steam_id":76561198277943630,"connected_time":2624000000000,"state":"active","ping":73},{"user_id":888,"name":"Xeno","steam_id":76561198074667742,"connected_time":1479000000000,"state":"active","ping":77},{"user_id":875,"name":"êê†teamlined","steam_id":76561198025668265,"connected_time":2457000000000,"state":"active","ping":72},{"user_id":904,"name":"dumbest bitch","steam_id":76561198097712283,"connected_time":186000000000,"state":"active","ping":78},{"user_id":877,"name":"Kekster","steam_id":76561198302448192,"connected_time":2223000000000,"state":"active","ping":32},{"user_id":878,"name":"bird ideas","steam_id":76561199480942903,"connected_time":2176000000000,"state":"active","ping":75},{"user_id":879,"name":"The SuSter","steam_id":76561198344435644,"connected_time":2158000000000,"state":"active","ping":69},{"user_id":905,"name":"Thrackzog","steam_id":76561198183203745,"connected_time":177000000000,"state":"active","ping":137},{"user_id":906,"name":"fortnite2001","steam_id":76561198992914023,"connected_time":121000000000,"state":"active","ping":149},{"user_id":907,"name":"60Hz gaming","steam_id":76561198032698137,"connected_time":117000000000,"state":"active","ping":71},{"user_id":887,"name":"Rob","steam_id":76561198122971317,"connected_time":1626000000000,"state":"active","ping":53}]},{"server_id":114,"name":"Uncletopia | London | 2 | All Maps","name_short":"lon-2","host":"lon-1.uk.uncletopia.com","port":27025,"enabled":true,"region":"eu","cc":"gb","latitude":51.509865,"longitude":-0.118092,"reserved":0,"last_update":"0001-01-01T00:00:00Z","name_a2s":"Uncletopia | London | 2 | All Maps","protocol":17,"map":"koth_lakeside_final","folder":"tf","game":"Team Fortress","app_id":440,"player_count":0,"max_players":24,"Bots":0,"server_type":"Dedicated","server_os":"Linux","password":true,"vac":true,"version":"7961495","steam_id":85568392924470941,"keywords":["cp","nocrits","nodmgspread","uncletopia"],"game_id":440,"stv_port":27026,"stv_name":"Uncletopia | London | 2 | All Maps | STV","players":null},{"server_id":320,"name":"Uncletopia | London | 3 | All Maps","name_short":"lon-3","host":"lon-1.uk.uncletopia.com","port":27035,"enabled":true,"region":"eu","cc":"gb","latitude":51.509865,"longitude":-0.118092,"reserved":0,"last_update":"0001-01-01T00:00:00Z","name_a2s":"Uncletopia | London | 3 | All Maps","protocol":17,"map":"pl_pier","folder":"tf","game":"Team Fortress","app_id":440,"player_count":0,"max_players":24,"Bots":0,"server_type":"Dedicated","server_os":"Linux","password":true,"vac":true,"version":"7961495","steam_id":85568392924510192,"keywords":["nocrits","nodmgspread","payload","uncletopia"],"game_id":440,"stv_port":27036,"stv_name":"Uncletopia | London | 3 | All Maps | STV","players":null},{"server_id":321,"name":"Uncletopia | London | 4 | All Maps","name_short":"lon-4","host":"lon-1.uk.uncletopia.com","port":27045,"enabled":true,"region":"eu","cc":"gb","latitude":51.509865,"longitude":-0.118092,"reserved":0,"last_update":"0001-01-01T00:00:00Z","name_a2s":"Uncletopia | London | 4 | All Maps","protocol":17,"map":"pl_snowycoast","folder":"tf","game":"Team Fortress","app_id":440,"player_count":0,"max_players":24,"Bots":0,"server_type":"Dedicated","server_os":"Linux","password":true,"vac":true,"version":"7961495","steam_id":85568392924510193,"keywords":["nocrits","nodmgspread","payload","uncletopia"],"game_id":440,"stv_port":27046,"stv_name":"Uncletopia | London | 4 | All Maps | STV","players":null},{"server_id":21,"name":"Uncletopia | London | 5 | All Maps","name_short":"lon-5","host":"lon-1.uk.uncletopia.com","port":27055,"enabled":true,"region":"eu","cc":"gb","latitude":51.509865,"longitude":-0.118092,"reserved":0,"last_update":"0001-01-01T00:00:00Z","name_a2s":"Uncletopia | London | 5 | All Maps","protocol":17,"map":"cp_dustbowl","folder":"tf","game":"Team Fortress","app_id":440,"player_count":0,"max_players":24,"Bots":0,"server_type":"Dedicated","server_os":"Linux","password":true,"vac":true,"version":"7961495","steam_id":85568392924742829,"keywords":["cp","nocrits","nodmgspread","uncletopia"],"game_id":440,"stv_port":27056,"stv_name":"Uncletopia | London | 5 | All Maps | STV","players":null},{"server_id":22,"name":"Uncletopia | London | 6 | All Maps","name_short":"lon-6","host":"lon-1.uk.uncletopia.com","port":27065,"enabled":true,"region":"eu","cc":"gb","latitude":51.509865,"longitude":-0.118092,"reserved":0,"last_update":"0001-01-01T00:00:00Z","name_a2s":"Uncletopia | London | 6 | All Maps","protocol":17,"map":"pl_swiftwater_final1","folder":"tf","game":"Team Fortress","app_id":440,"player_count":0,"max_players":24,"Bots":0,"server_type":"Dedicated","server_os":"Linux","password":true,"vac":true,"version":"7961495","steam_id":85568392924742830,"keywords":["nocrits","nodmgspread","payload","uncletopia"],"game_id":440,"stv_port":27066,"stv_name":"Uncletopia | London | 6 | All Maps | STV","players":null},{"server_id":40,"name":"Uncletopia | London | 7 | No Payload","name_short":"lon-7","host":"lon-1.uk.uncletopia.com","port":27075,"enabled":true,"region":"eu","cc":"gb","latitude":51.509865,"longitude":-0.118092,"reserved":0,"last_update":"0001-01-01T00:00:00Z","name_a2s":"Uncletopia | London | 7 | No Payload","protocol":17,"map":"cp_snakewater_final1","folder":"tf","game":"Team Fortress","app_id":440,"player_count":0,"max_players":24,"Bots":0,"server_type":"Dedicated","server_os":"Linux","password":true,"vac":true,"version":"7961495","steam_id":85568392924964314,"keywords":["cp","nocrits","nodmgspread","uncletopia"],"game_id":440,"stv_port":27076,"stv_name":"Uncletopia | London | 7 | No Payload | STV","players":null},{"server_id":41,"name":"Uncletopia | London | 8 | Community","name_short":"lon-8","host":"lon-1.uk.uncletopia.com","port":27085,"enabled":true,"region":"eu","cc":"gb","latitude":51.509865,"longitude":-0.118092,"reserved":0,"last_update":"0001-01-01T00:00:00Z","name_a2s":"Uncletopia | London | 8 | Community","protocol":17,"map":"workshop/koth_slaughter_rc1.ugc1712845210","folder":"tf","game":"Team Fortress","app_id":440,"player_count":0,"max_players":24,"Bots":0,"server_type":"Dedicated","server_os":"Linux","password":true,"vac":true,"version":"7961495","steam_id":85568392924964315,"keywords":["cp","nocrits","nodmgspread","uncletopia"],"game_id":440,"stv_port":27086,"stv_name":"Uncletopia | London | 8 | Community | STV","players":null},{"server_id":300,"name":"Uncletopia | Montr√©al | 1 | All Maps","name_short":"mtl-1","host":"mtl-1.ca.uncletopia.com","port":27015,"enabled":true,"region":"us-east","cc":"ca","latitude":45.50889,"longitude":-73.56167,"reserved":0,"last_update":"0001-01-01T00:00:00Z","name_a2s":"","protocol":0,"map":"","folder":"","game":"","app_id":0,"player_count":0,"max_players":0,"Bots":0,"server_type":"","server_os":"","password":false,"vac":false,"version":"","steam_id":0,"keywords":null,"game_id":0,"stv_port":0,"stv_name":"","players":null},{"server_id":301,"name":"Uncletopia | Montr√©al | 2 | All Maps","name_short":"mtl-2","host":"mtl-1.ca.uncletopia.com","port":27025,"enabled":true,"region":"us-east","cc":"ca","latitude":45.50889,"longitude":-73.56167,"reserved":0,"last_update":"0001-01-01T00:00:00Z","name_a2s":"","protocol":0,"map":"","folder":"","game":"","app_id":0,"player_count":24,"max_players":0,"Bots":0,"server_type":"","server_os":"","password":false,"vac":false,"version":"","steam_id":0,"keywords":null,"game_id":0,"stv_port":0,"stv_name":"","players":[{"user_id":136,"name":"[chef] iron","steam_id":76561197970888616,"connected_time":387000000000,"state":"active","ping":58},{"user_id":127,"name":"Dizbuster","steam_id":76561197971276413,"connected_time":766000000000,"state":"active","ping":108},{"user_id":118,"name":"theconqueror","steam_id":76561199229806456,"connected_time":1306000000000,"state":"active","ping":70},{"user_id":110,"name":"Maokai","steam_id":76561198067176829,"connected_time":2129000000000,"state":"active","ping":124},{"user_id":129,"name":"Croc_Cheese","steam_id":76561199018907423,"connected_time":699000000000,"state":"active","ping":93},{"user_id":107,"name":"froggy","steam_id":76561198079405234,"connected_time":2416000000000,"state":"active","ping":46},{"user_id":48,"name":"supahotkittyz","steam_id":76561198901020874,"connected_time":5402000000000,"state":"active","ping":61},{"user_id":128,"name":"Pizza","steam_id":76561198118748364,"connected_time":725000000000,"state":"active","ping":86},{"user_id":126,"name":"Crystall","steam_id":76561198346607700,"connected_time":781000000000,"state":"active","ping":57},{"user_id":119,"name":"tosm-AA-","steam_id":76561198130032444,"connected_time":1288000000000,"state":"active","ping":105},{"user_id":130,"name":"Discount Uncle Dane","steam_id":76561198104086771,"connected_time":646000000000,"state":"active","ping":119},{"user_id":131,"name":"”®chpochmak","steam_id":76561198434212101,"connected_time":636000000000,"state":"active","ping":69},{"user_id":132,"name":"Calryan","steam_id":76561198060080966,"connected_time":636000000000,"state":"active","ping":87},{"user_id":122,"name":"Devoid","steam_id":76561198254039012,"connected_time":1139000000000,"state":"active","ping":47},{"user_id":123,"name":"TechnoPuff","steam_id":76561198877232084,"connected_time":1137000000000,"state":"active","ping":64},{"user_id":133,"name":"Astolfo Sevici","steam_id":76561198113753492,"connected_time":585000000000,"state":"active","ping":189},{"user_id":69,"name":"foreskin gaming","steam_id":76561198113407992,"connected_time":4311000000000,"state":"active","ping":53},{"user_id":120,"name":"Makina","steam_id":76561198057475567,"connected_time":1176000000000,"state":"active","ping":84},{"user_id":108,"name":"lili of the valley","steam_id":76561198253172399,"connected_time":2367000000000,"state":"active","ping":85},{"user_id":116,"name":"Roz257","steam_id":76561198842844532,"connected_time":1567000000000,"state":"active","ping":53},{"user_id":134,"name":"d4efeb","steam_id":76561198148098761,"connected_time":572000000000,"state":"active","ping":59},{"user_id":135,"name":"mafia goon","steam_id":76561198838807174,"connected_time":554000000000,"state":"active","ping":75},{"user_id":91,"name":"No Chance of Pearly Gates","steam_id":76561198042570322,"connected_time":3456000000000,"state":"active","ping":70},{"user_id":137,"name":"Xii","steam_id":76561198860209947,"connected_time":327000000000,"state":"active","ping":66}]},{"server_id":302,"name":"Uncletopia | Montr√©al | 3 | All Maps","name_short":"mtl-3","host":"mtl-1.ca.uncletopia.com","port":27035,"enabled":true,"region":"us-east","cc":"ca","latitude":45.50889,"longitude":-73.56167,"reserved":0,"last_update":"0001-01-01T00:00:00Z","name_a2s":"","protocol":0,"map":"","folder":"","game":"","app_id":0,"player_count":0,"max_players":0,"Bots":0,"server_type":"","server_os":"","password":false,"vac":false,"version":"","steam_id":0,"keywords":null,"game_id":0,"stv_port":0,"stv_name":"","players":null},{"server_id":303,"name":"Uncletopia | Montr√©al | 4 | No Payload","name_short":"mtl-4","host":"mtl-1.ca.uncletopia.com","port":27045,"enabled":true,"region":"us-east","cc":"ca","latitude":45.50889,"longitude":-73.56167,"reserved":0,"last_update":"0001-01-01T00:00:00Z","name_a2s":"","protocol":0,"map":"","folder":"","game":"","app_id":0,"player_count":3,"max_players":0,"Bots":0,"server_type":"","server_os":"","password":false,"vac":false,"version":"","steam_id":0,"keywords":null,"game_id":0,"stv_port":0,"stv_name":"","players":[{"user_id":277,"name":"Grave Shifter15","steam_id":76561198036381323,"connected_time":472000000000,"state":"active","ping":69},{"user_id":242,"name":"CaptinBrown","steam_id":76561198127709638,"connected_time":4115000000000,"state":"active","ping":64},{"user_id":248,"name":"AbsolutePotato","steam_id":76561198084907848,"connected_time":3916000000000,"state":"active","ping":54}]},{"server_id":13,"name":"Uncletopia | New York City | 1 | All Maps","name_short":"nyc-1","host":"nyc-1.us.uncletopia.com","port":27015,"enabled":true,"region":"us-east","cc":"us","latitude":40.73061,"longitude":-73.93524,"reserved":0,"last_update":"0001-01-01T00:00:00Z","name_a2s":"Uncletopia | New York City | 1 | All Maps","protocol":17,"map":"cp_snakewater_final1","folder":"tf","game":"Team Fortress","app_id":440,"player_count":24,"max_players":24,"Bots":0,"server_type":"Dedicated","server_os":"Linux","password":true,"vac":true,"version":"7961495","steam_id":85568392924469993,"keywords":["cp","nocrits","nodmgspread","uncletopia"],"game_id":440,"stv_port":27016,"stv_name":"Uncletopia | New York City | 1 | All Maps | STV","players":[{"user_id":694,"name":"Arentrir","steam_id":76561198334126785,"connected_time":1550000000000,"state":"active","ping":148},{"user_id":716,"name":"ExoTheFlyingFish","steam_id":76561198034388243,"connected_time":59000000000,"state":"spawning","ping":42},{"user_id":669,"name":"professorman","steam_id":76561198041882328,"connected_time":3593000000000,"state":"active","ping":53},{"user_id":705,"name":"twinkhole sinkhole","steam_id":76561198149775502,"connected_time":983000000000,"state":"active","ping":59},{"user_id":698,"name":"Killertaco69","steam_id":76561199156374835,"connected_time":1509000000000,"state":"active","ping":105},{"user_id":656,"name":"malon milk","steam_id":76561198042558913,"connected_time":4573000000000,"state":"active","ping":71},{"user_id":692,"name":"BB Lorexav","steam_id":76561198207565988,"connected_time":1672000000000,"state":"active","ping":76},{"user_id":675,"name":"Porcupine's Revenge!","steam_id":76561199121615234,"connected_time":3328000000000,"state":"active","ping":49},{"user_id":695,"name":"skosgo -eg","steam_id":76561197996403345,"connected_time":1541000000000,"state":"active","ping":117},{"user_id":710,"name":"Mog","steam_id":76561198025575870,"connected_time":409000000000,"state":"active","ping":62},{"user_id":702,"name":"‚òπ","steam_id":76561198804763186,"connected_time":1335000000000,"state":"active","ping":46},{"user_id":708,"name":"Coach Twig","steam_id":76561198058831591,"connected_time":458000000000,"state":"active","ping":51},{"user_id":709,"name":"Silverkeys","steam_id":76561197986012496,"connected_time":442000000000,"state":"active","ping":54},{"user_id":711,"name":"Lord Scrubling","steam_id":76561198263744445,"connected_time":408000000000,"state":"active","ping":79},{"user_id":689,"name":"SpongedSocks","steam_id":76561198374009086,"connected_time":2163000000000,"state":"active","ping":43},{"user_id":707,"name":"ÂûÉÂúæÂú∞Á≤æ","steam_id":76561198080555859,"connected_time":715000000000,"state":"active","ping":103},{"user_id":715,"name":"ErenJenga54","steam_id":76561199066185761,"connected_time":120000000000,"state":"active","ping":136},{"user_id":706,"name":"the j","steam_id":76561198257263022,"connected_time":955000000000,"state":"active","ping":57},{"user_id":700,"name":"eple","steam_id":76561198017686306,"connected_time":1479000000000,"state":"active","ping":136},{"user_id":607,"name":"XX_gamer2001_XxX","steam_id":76561198105405869,"connected_time":9870000000000,"state":"active","ping":91},{"user_id":701,"name":"Gitt Midgetstien","steam_id":76561198006890639,"connected_time":1477000000000,"state":"active","ping":84},{"user_id":712,"name":"vyx","steam_id":76561198037205391,"connected_time":399000000000,"state":"active","ping":77},{"user_id":551,"name":"space man","steam_id":76561198066333670,"connected_time":14132000000000,"state":"active","ping":57},{"user_id":682,"name":"slime","steam_id":76561198986041100,"connected_time":2677000000000,"state":"active","ping":75}]},{"server_id":14,"name":"Uncletopia | New York City | 2 | All Maps","name_short":"nyc-2","host":"nyc-1.us.uncletopia.com","port":27025,"enabled":true,"region":"us-east","cc":"us","latitude":40.73061,"longitude":-73.93524,"reserved":0,"last_update":"0001-01-01T00:00:00Z","name_a2s":"Uncletopia | New York City | 2 | All Maps","protocol":17,"map":"pl_goldrush","folder":"tf","game":"Team Fortress","app_id":440,"player_count":24,"max_players":24,"Bots":0,"server_type":"Dedicated","server_os":"Linux","password":true,"vac":true,"version":"7961495","steam_id":85568392924469994,"keywords":["nocrits","nodmgspread","payload","uncletopia"],"game_id":440,"stv_port":27026,"stv_name":"Uncletopia | New York City | 2 | All Maps | STV","players":[{"user_id":853,"name":"g√∂t√≥ttir sokkar","steam_id":76561197999657118,"connected_time":560000000000,"state":"active","ping":67},{"user_id":836,"name":"Weeb","steam_id":76561198333568146,"connected_time":1740000000000,"state":"active","ping":64},{"user_id":851,"name":"uheggwhite","steam_id":76561199199795741,"connected_time":839000000000,"state":"active","ping":90},{"user_id":844,"name":"Grand Piano Tuna","steam_id":76561198135137213,"connected_time":923000000000,"state":"active","ping":72},{"user_id":840,"name":"The Wave","steam_id":76561198268225109,"connected_time":1129000000000,"state":"active","ping":73},{"user_id":846,"name":"MelonLikeAFelon","steam_id":76561198060170336,"connected_time":906000000000,"state":"active","ping":87},{"user_id":822,"name":"Moody","steam_id":76561199013442105,"connected_time":2592000000000,"state":"active","ping":100},{"user_id":856,"name":"Herdez Hot Salsa","steam_id":76561197991740906,"connected_time":360000000000,"state":"active","ping":69},{"user_id":855,"name":"just jazz","steam_id":76561198010637797,"connected_time":403000000000,"state":"active","ping":90},{"user_id":829,"name":"Maxyyt","steam_id":76561198062309005,"connected_time":1930000000000,"state":"active","ping":45},{"user_id":831,"name":"Speedy","steam_id":76561198080761661,"connected_time":1916000000000,"state":"active","ping":56},{"user_id":842,"name":"SawyerSaur","steam_id":76561198872835142,"connected_time":929000000000,"state":"active","ping":85},{"user_id":768,"name":"Miner2495","steam_id":76561198445904523,"connected_time":6883000000000,"state":"active","ping":65},{"user_id":858,"name":"M","steam_id":76561198017539604,"connected_time":311000000000,"state":"active","ping":82},{"user_id":813,"name":"Okpar","steam_id":76561199221067945,"connected_time":3327000000000,"state":"active","ping":84},{"user_id":854,"name":"Tots","steam_id":76561198027485007,"connected_time":502000000000,"state":"active","ping":60},{"user_id":862,"name":"Murrdogg","steam_id":76561198210491188,"connected_time":111000000000,"state":"active","ping":83},{"user_id":845,"name":"Ziggy Stardust","steam_id":76561198226531404,"connected_time":916000000000,"state":"active","ping":69},{"user_id":803,"name":"fwaeoij-4","steam_id":76561198057691823,"connected_time":4166000000000,"state":"active","ping":49},{"user_id":834,"name":"The_Tax_Man","steam_id":76561198205246144,"connected_time":1787000000000,"state":"active","ping":99},{"user_id":849,"name":"evnobev","steam_id":76561198038966462,"connected_time":880000000000,"state":"active","ping":44},{"user_id":860,"name":"[TF2Apples] Intense Green Apple","steam_id":76561198803561622,"connected_time":226000000000,"state":"active","ping":78},{"user_id":861,"name":"Wiener Hole Paper Cut","steam_id":76561198000808203,"connected_time":182000000000,"state":"active","ping":62},{"user_id":850,"name":"Soull","steam_id":76561199188088471,"connected_time":874000000000,"state":"active","ping":81}]},{"server_id":15,"name":"Uncletopia | New York City | 3 | Stopwatch Beta","name_short":"nyc-3","host":"nyc-1.us.uncletopia.com","port":27035,"enabled":true,"region":"us-east","cc":"us","latitude":40.73061,"longitude":-73.93524,"reserved":0,"last_update":"0001-01-01T00:00:00Z","name_a2s":"Uncletopia | New York City | 3 | Stopwatch Beta","protocol":17,"map":"koth_lakeside_final","folder":"tf","game":"Team Fortress","app_id":440,"player_count":0,"max_players":24,"Bots":0,"server_type":"Dedicated","server_os":"Linux","password":true,"vac":true,"version":"7961495","steam_id":85568392924742820,"keywords":["cp","nocrits","nodmgspread","uncletopia"],"game_id":440,"stv_port":27036,"stv_name":"Uncletopia | New York City | 3 | Stopwatch Beta | STV","players":null},{"server_id":16,"name":"Uncletopia | New York City | 4 | Community","name_short":"nyc-4","host":"nyc-1.us.uncletopia.com","port":27045,"enabled":true,"region":"us-east","cc":"us","latitude":40.73061,"longitude":-73.93524,"reserved":0,"last_update":"0001-01-01T00:00:00Z","name_a2s":"Uncletopia | New York City | 4 | Community","protocol":17,"map":"workshop/cp_bruhstbowl_b6.ugc2878604990","folder":"tf","game":"Team Fortress","app_id":440,"player_count":0,"max_players":24,"Bots":0,"server_type":"Dedicated","server_os":"Linux","password":true,"vac":true,"version":"7961495","steam_id":85568392924742821,"keywords":["cp","nocrits","nodmgspread","uncletopia"],"game_id":440,"stv_port":27046,"stv_name":"Uncletopia | New York City | 4 | Community | STV","players":null},{"server_id":142,"name":"Uncletopia | S√£o Paulo | 1 | All Maps","name_short":"sao-1","host":"sao-1.br.uncletopia.com","port":27015,"enabled":true,"region":"sa","cc":"br","latitude":-23.533773,"longitude":-46.62529,"reserved":0,"last_update":"0001-01-01T00:00:00Z","name_a2s":"Uncletopia | S√£o Paulo | 1 | All Maps","protocol":17,"map":"pl_swiftwater_final1","folder":"tf","game":"Team Fortress","app_id":440,"player_count":4,"max_players":24,"Bots":0,"server_type":"Dedicated","server_os":"Linux","password":true,"vac":true,"version":"7961495","steam_id":85568392924469996,"keywords":["nocrits","nodmgspread","payload","uncletopia"],"game_id":440,"stv_port":27016,"stv_name":"Uncletopia | S√£o Paulo | 1 | All Maps | STV","players":[{"user_id":108,"name":"Slz.","steam_id":76561199156075097,"connected_time":3115000000000,"state":"active","ping":50},{"user_id":109,"name":"Zezerdison","steam_id":76561198974347652,"connected_time":3073000000000,"state":"active","ping":68},{"user_id":110,"name":"kdhbuilder","steam_id":76561199058095193,"connected_time":2761000000000,"state":"active","ping":203},{"user_id":112,"name":"NotTony69","steam_id":76561199122717140,"connected_time":1371000000000,"state":"active","ping":230}]},{"server_id":143,"name":"Uncletopia | S√£o Paulo | 2 | Community","name_short":"sao-2","host":"sao-2.br.uncletopia.com","port":27015,"enabled":true,"region":"sa","cc":"br","latitude":-23.533773,"longitude":-46.62529,"reserved":0,"last_update":"0001-01-01T00:00:00Z","name_a2s":"Uncletopia | S√£o Paulo | 2 | Community","protocol":17,"map":"workshop/cp_mannbase_rc2a.ugc1900737467","folder":"tf","game":"Team Fortress","app_id":440,"player_count":0,"max_players":24,"Bots":0,"server_type":"Dedicated","server_os":"Linux","password":true,"vac":true,"version":"7961495","steam_id":85568392924485349,"keywords":["cp","nocrits","nodmgspread","uncletopia"],"game_id":440,"stv_port":27016,"stv_name":"Uncletopia | S√£o Paulo | 2 | Community | STV","players":null},{"server_id":7,"name":"Uncletopia | Seattle | 1 | All Maps","name_short":"sea-1","host":"sea-1.us.uncletopia.com","port":27015,"enabled":true,"region":"us-west","cc":"us","latitude":47.608013,"longitude":-122.33517,"reserved":0,"last_update":"0001-01-01T00:00:00Z","name_a2s":"Uncletopia | Seattle | 1 | All Maps","protocol":17,"map":"pl_upward","folder":"tf","game":"Team Fortress","app_id":440,"player_count":24,"max_players":24,"Bots":0,"server_type":"Dedicated","server_os":"Linux","password":true,"vac":true,"version":"7961495","steam_id":85568392924469997,"keywords":["nocrits","nodmgspread","payload","uncletopia"],"game_id":440,"stv_port":27016,"stv_name":"Uncletopia | Seattle | 1 | All Maps | STV","players":[{"user_id":523,"name":"Dealer","steam_id":76561198801450794,"connected_time":1387000000000,"state":"active","ping":94},{"user_id":519,"name":"Skoad","steam_id":76561198104650528,"connected_time":1659000000000,"state":"active","ping":65},{"user_id":528,"name":"Lactose Intolerant Troglodyte","steam_id":76561198142619211,"connected_time":661000000000,"state":"active","ping":65},{"user_id":536,"name":"the archmage","steam_id":76561198380018244,"connected_time":280000000000,"state":"active","ping":68},{"user_id":533,"name":"Five","steam_id":76561198026640473,"connected_time":602000000000,"state":"active","ping":48},{"user_id":512,"name":"William P. Ennis","steam_id":76561198073464877,"connected_time":2306000000000,"state":"active","ping":79},{"user_id":526,"name":"lavender","steam_id":76561199069518286,"connected_time":850000000000,"state":"active","ping":67},{"user_id":510,"name":"Ayayayayayahuasca","steam_id":76561199002906056,"connected_time":2425000000000,"state":"active","ping":51},{"user_id":513,"name":"yolginmo","steam_id":76561198157985901,"connected_time":2240000000000,"state":"active","ping":63},{"user_id":540,"name":"Zee‚úû","steam_id":76561198274550638,"connected_time":9000000000,"state":"spawning","ping":486},{"user_id":506,"name":"=Silver=","steam_id":76561198292307127,"connected_time":2865000000000,"state":"active","ping":70},{"user_id":529,"name":"sleepy","steam_id":76561198288663776,"connected_time":656000000000,"state":"active","ping":57},{"user_id":509,"name":"?","steam_id":76561198209880837,"connected_time":2757000000000,"state":"active","ping":50},{"user_id":524,"name":"ùñãùñëùñéùñïùñâùñîùñå","steam_id":76561197999648153,"connected_time":1181000000000,"state":"active","ping":97},{"user_id":516,"name":"Tripll-L","steam_id":76561197998077437,"connected_time":2152000000000,"state":"active","ping":62},{"user_id":534,"name":"oh god i'm gonna CHUM","steam_id":76561198019210187,"connected_time":506000000000,"state":"active","ping":102},{"user_id":537,"name":"'89","steam_id":76561198020221880,"connected_time":180000000000,"state":"active","ping":60},{"user_id":532,"name":"turtle","steam_id":76561198112673874,"connected_time":624000000000,"state":"active","ping":71},{"user_id":527,"name":"fish fingers","steam_id":76561199078516567,"connected_time":675000000000,"state":"active","ping":138},{"user_id":531,"name":"Henchie!","steam_id":76561198047567464,"connected_time":653000000000,"state":"active","ping":95},{"user_id":438,"name":"Mufalito","steam_id":76561198951889482,"connected_time":8977000000000,"state":"active","ping":170},{"user_id":535,"name":"tincant","steam_id":76561198357137800,"connected_time":472000000000,"state":"active","ping":60},{"user_id":434,"name":"zpalmtree","steam_id":76561198134307620,"connected_time":9053000000000,"state":"active","ping":119},{"user_id":522,"name":"cowboy worm","steam_id":76561198129564488,"connected_time":1422000000000,"state":"active","ping":65}]},{"server_id":119,"name":"Uncletopia | Seattle | 2 | All Maps","name_short":"sea-2","host":"sea-1.us.uncletopia.com","port":27025,"enabled":true,"region":"us-west","cc":"us","latitude":47.608013,"longitude":-122.33517,"reserved":0,"last_update":"0001-01-01T00:00:00Z","name_a2s":"Uncletopia | Seattle | 2 | All Maps","protocol":17,"map":"koth_harvest_final","folder":"tf","game":"Team Fortress","app_id":440,"player_count":23,"max_players":24,"Bots":0,"server_type":"Dedicated","server_os":"Linux","password":true,"vac":true,"version":"7961495","steam_id":85568392924469998,"keywords":["cp","nocrits","nodmgspread","uncletopia"],"game_id":440,"stv_port":27026,"stv_name":"Uncletopia | Seattle | 2 | All Maps | STV","players":[{"user_id":369,"name":"Vibrantword3732","steam_id":76561198916638641,"connected_time":2095000000000,"state":"active","ping":375},{"user_id":399,"name":"Ducks","steam_id":76561198130038345,"connected_time":170000000000,"state":"active","ping":62},{"user_id":370,"name":"NEBULA","steam_id":76561198086878595,"connected_time":2064000000000,"state":"active","ping":66},{"user_id":382,"name":"slushy :))","steam_id":76561198135281802,"connected_time":1336000000000,"state":"active","ping":39},{"user_id":366,"name":"Aesthetix","steam_id":76561197995511642,"connected_time":2370000000000,"state":"active","ping":60},{"user_id":327,"name":"BoyKisser","steam_id":76561199200969139,"connected_time":7501000000000,"state":"active","ping":139},{"user_id":255,"name":"a cat plushie","steam_id":76561198080046542,"connected_time":15063000000000,"state":"active","ping":48},{"user_id":392,"name":"pete davidson","steam_id":76561198073549508,"connected_time":835000000000,"state":"active","ping":61},{"user_id":354,"name":"greens beans","steam_id":76561198153611491,"connected_time":3830000000000,"state":"active","ping":49},{"user_id":341,"name":"rorywashere /·ê† - Àï -„Éû ‚≥ä","steam_id":76561198065825165,"connected_time":5594000000000,"state":"active","ping":109},{"user_id":398,"name":"Mocha Josie","steam_id":76561198066452726,"connected_time":471000000000,"state":"active","ping":80},{"user_id":355,"name":"myunicorn","steam_id":76561199391478575,"connected_time":3803000000000,"state":"active","ping":58},{"user_id":397,"name":"Three(3)SlicesOfBread","steam_id":76561199386210740,"connected_time":603000000000,"state":"active","ping":95},{"user_id":376,"name":"3van","steam_id":76561198217229039,"connected_time":1703000000000,"state":"active","ping":56},{"user_id":238,"name":"ilun","steam_id":76561198042913843,"connected_time":16233000000000,"state":"active","ping":56},{"user_id":367,"name":"fragadelphia","steam_id":76561198066116363,"connected_time":2365000000000,"state":"active","ping":46},{"user_id":401,"name":"havarti gaming","steam_id":76561198069895678,"connected_time":114000000000,"state":"active","ping":100},{"user_id":352,"name":"Mapachito Lindo","steam_id":76561198031359995,"connected_time":3842000000000,"state":"active","ping":46},{"user_id":402,"name":"tzarVOLVER","steam_id":76561198029581713,"connected_time":88000000000,"state":"active","ping":110},{"user_id":333,"name":"rat gets the cheese","steam_id":76561198031234032,"connected_time":7348000000000,"state":"active","ping":104},{"user_id":295,"name":"mine diam","steam_id":76561198119123981,"connected_time":11011000000000,"state":"active","ping":50},{"user_id":387,"name":"lug nut larry","steam_id":76561198170643378,"connected_time":1057000000000,"state":"active","ping":89},{"user_id":388,"name":"fishykid477","steam_id":76561198161403931,"connected_time":1054000000000,"state":"active","ping":113}]},{"server_id":406,"name":"Uncletopia | Seattle | 3 | Stopwatch Beta","name_short":"sea-3","host":"sea-1.us.uncletopia.com","port":27035,"enabled":true,"region":"us-west","cc":"us","latitude":47.608013,"longitude":-122.33517,"reserved":0,"last_update":"0001-01-01T00:00:00Z","name_a2s":"Uncletopia | Seattle | 3 | Stopwatch Beta","protocol":17,"map":"workshop/koth_clearcut_b15.ugc2107050255","folder":"tf","game":"Team Fortress","app_id":440,"player_count":0,"max_players":24,"Bots":0,"server_type":"Dedicated","server_os":"Linux","password":true,"vac":true,"version":"7961495","steam_id":85568392924515217,"keywords":["cp","nocrits","nodmgspread","uncletopia"],"game_id":440,"stv_port":27036,"stv_name":"Uncletopia | Seattle | 3 | Stopwatch Beta | STV","players":null},{"server_id":17,"name":"Uncletopia | San Francisco | 1 | All Maps","name_short":"sfo-1","host":"sfo-1.us.uncletopia.com","port":27015,"enabled":true,"region":"us-west","cc":"us","latitude":37.77397,"longitude":-122.4313,"reserved":0,"last_update":"0001-01-01T00:00:00Z","name_a2s":"Uncletopia | San Francisco | 1 | All Maps","protocol":17,"map":"pl_frontier_final","folder":"tf","game":"Team Fortress","app_id":440,"player_count":19,"max_players":24,"Bots":0,"server_type":"Dedicated","server_os":"Linux","password":true,"vac":true,"version":"7961495","steam_id":85568392924469999,"keywords":["nocrits","nodmgspread","payload","uncletopia"],"game_id":440,"stv_port":27016,"stv_name":"Uncletopia | San Francisco | 1 | All Maps | STV","players":[{"user_id":323,"name":"crowe","steam_id":76561198142185527,"connected_time":81000000000,"state":"active","ping":62},{"user_id":265,"name":"St. Bobson Q Dugnutt III Esq Sr","steam_id":76561197993459985,"connected_time":3652000000000,"state":"active","ping":127},{"user_id":324,"name":"ExpertScabPicker","steam_id":76561198081961642,"connected_time":54000000000,"state":"active","ping":68},{"user_id":313,"name":"090-nsalih","steam_id":76561199467467873,"connected_time":1011000000000,"state":"active","ping":273},{"user_id":288,"name":"Mr Twitchy","steam_id":76561197995985499,"connected_time":1929000000000,"state":"active","ping":68},{"user_id":275,"name":"juliet","steam_id":76561198239588280,"connected_time":2980000000000,"state":"active","ping":117},{"user_id":314,"name":"CheesyPoofs","steam_id":76561197998650617,"connected_time":960000000000,"state":"active","ping":73},{"user_id":317,"name":"captain red","steam_id":76561198191587983,"connected_time":841000000000,"state":"active","ping":67},{"user_id":284,"name":"rad killl raccoon","steam_id":76561198980975595,"connected_time":2513000000000,"state":"active","ping":86},{"user_id":277,"name":"tum","steam_id":76561198084712019,"connected_time":2915000000000,"state":"active","ping":54},{"user_id":291,"name":"Zizen","steam_id":76561199011832069,"connected_time":1807000000000,"state":"active","ping":61},{"user_id":257,"name":"1 Great Wooden Dad","steam_id":76561198377126974,"connected_time":3847000000000,"state":"active","ping":115},{"user_id":294,"name":"Caspian","steam_id":76561199041466962,"connected_time":1773000000000,"state":"active","ping":39},{"user_id":295,"name":"Stanlins_ketchup","steam_id":76561199122176339,"connected_time":1759000000000,"state":"active","ping":68},{"user_id":316,"name":"Nick Gurr","steam_id":76561198988499660,"connected_time":873000000000,"state":"active","ping":75},{"user_id":305,"name":"smegma male","steam_id":76561197970450546,"connected_time":1369000000000,"state":"active","ping":82},{"user_id":303,"name":"JACK BRUNO","steam_id":76561198027957690,"connected_time":1421000000000,"state":"active","ping":65},{"user_id":297,"name":"Luna_Blossom","steam_id":76561198816384987,"connected_time":1647000000000,"state":"active","ping":66},{"user_id":322,"name":"‚ú™ Jam","steam_id":76561198101672564,"connected_time":242000000000,"state":"active","ping":54}]},{"server_id":18,"name":"Uncletopia | San Francisco | 2 | All Maps","name_short":"sfo-2","host":"sfo-1.us.uncletopia.com","port":27025,"enabled":true,"region":"us-west","cc":"us","latitude":37.77397,"longitude":-122.4313,"reserved":0,"last_update":"0001-01-01T00:00:00Z","name_a2s":"Uncletopia | San Francisco | 2 | All Maps","protocol":17,"map":"pl_barnblitz","folder":"tf","game":"Team Fortress","app_id":440,"player_count":24,"max_players":24,"Bots":0,"server_type":"Dedicated","server_os":"Linux","password":true,"vac":true,"version":"7961495","steam_id":85568392924470000,"keywords":["nocrits","nodmgspread","payload","uncletopia"],"game_id":440,"stv_port":27026,"stv_name":"Uncletopia | San Francisco | 2 | All Maps | STV","players":[{"user_id":733,"name":"Windfall","steam_id":76561198046500859,"connected_time":1406000000000,"state":"active","ping":59},{"user_id":758,"name":"Mr Happy","steam_id":76561198067689328,"connected_time":179000000000,"state":"active","ping":92},{"user_id":735,"name":"Papes","steam_id":76561198174593497,"connected_time":1262000000000,"state":"active","ping":75},{"user_id":736,"name":"asm_ghost","steam_id":76561199205363547,"connected_time":1146000000000,"state":"active","ping":71},{"user_id":737,"name":"mrthugpug1732","steam_id":76561198881200768,"connected_time":1100000000000,"state":"active","ping":70},{"user_id":729,"name":"YouAreReadingThis","steam_id":76561198367831600,"connected_time":2294000000000,"state":"active","ping":70},{"user_id":748,"name":"krcwettg3","steam_id":76561198811015090,"connected_time":756000000000,"state":"active","ping":121},{"user_id":760,"name":"fart thief","steam_id":76561198046073848,"connected_time":168000000000,"state":"active","ping":62},{"user_id":754,"name":"Ice cream sandwich","steam_id":76561198172748357,"connected_time":530000000000,"state":"active","ping":48},{"user_id":741,"name":"[Industrial] A_HUMBLEBUMBLED","steam_id":76561198064771878,"connected_time":962000000000,"state":"active","ping":50},{"user_id":693,"name":"your mom calls me princess too","steam_id":76561198020400899,"connected_time":5092000000000,"state":"active","ping":62},{"user_id":694,"name":"Poopie Babie","steam_id":76561198047500494,"connected_time":5084000000000,"state":"active","ping":65},{"user_id":742,"name":"Jpxfred","steam_id":76561199414783749,"connected_time":897000000000,"state":"active","ping":68},{"user_id":731,"name":"Boomboombop","steam_id":76561198267531538,"connected_time":1900000000000,"state":"active","ping":113},{"user_id":743,"name":"elemental dragon","steam_id":76561199053290319,"connected_time":869000000000,"state":"active","ping":83},{"user_id":744,"name":"Linkal_","steam_id":76561199122836553,"connected_time":859000000000,"state":"active","ping":79},{"user_id":745,"name":"Harperlovesminecraft","steam_id":76561199166529239,"connected_time":855000000000,"state":"active","ping":83},{"user_id":746,"name":"JaM724","steam_id":76561199077582671,"connected_time":775000000000,"state":"active","ping":119},{"user_id":756,"name":"Red Orbama","steam_id":76561198047002366,"connected_time":368000000000,"state":"active","ping":64},{"user_id":749,"name":"Nick","steam_id":76561198043703129,"connected_time":746000000000,"state":"active","ping":62},{"user_id":759,"name":"ronald","steam_id":76561197960691622,"connected_time":175000000000,"state":"active","ping":105},{"user_id":751,"name":"Medic Bag","steam_id":76561198403209900,"connected_time":691000000000,"state":"active","ping":102},{"user_id":752,"name":"Sharkysaurus","steam_id":76561198285533174,"connected_time":677000000000,"state":"active","ping":86},{"user_id":757,"name":"Ezab513","steam_id":76561199123803087,"connected_time":339000000000,"state":"active","ping":141}]},{"server_id":19,"name":"Uncletopia | San Francisco | 3 | Stopwatch Beta","name_short":"sfo-3","host":"sfo-1.us.uncletopia.com","port":27035,"enabled":true,"region":"us-west","cc":"us","latitude":37.77397,"longitude":-122.4313,"reserved":0,"last_update":"0001-01-01T00:00:00Z","name_a2s":"Uncletopia | San Francisco | 3 | Stopwatch Beta","protocol":17,"map":"workshop/koth_bagel_rc6.ugc2514036946","folder":"tf","game":"Team Fortress","app_id":440,"player_count":0,"max_players":24,"Bots":0,"server_type":"Dedicated","server_os":"Linux","password":true,"vac":true,"version":"7961495","steam_id":85568392924742824,"keywords":["cp","nocrits","nodmgspread","uncletopia"],"game_id":440,"stv_port":27036,"stv_name":"Uncletopia | San Francisco | 3 | Stopwatch Beta | STV","players":null},{"server_id":20,"name":"Uncletopia | San Francisco | 4 | Community","name_short":"sfo-4","host":"sfo-1.us.uncletopia.com","port":27045,"enabled":true,"region":"us-west","cc":"us","latitude":37.77397,"longitude":-122.4313,"reserved":0,"last_update":"0001-01-01T00:00:00Z","name_a2s":"Uncletopia | San Francisco | 4 | Community","protocol":17,"map":"koth_viaduct","folder":"tf","game":"Team Fortress","app_id":440,"player_count":0,"max_players":24,"Bots":0,"server_type":"Dedicated","server_os":"Linux","password":true,"vac":true,"version":"7961495","steam_id":85568392924742826,"keywords":["cp","nocrits","nodmgspread","uncletopia"],"game_id":440,"stv_port":27046,"stv_name":"Uncletopia | San Francisco | 4 | Community | STV","players":null},{"server_id":141,"name":"Uncletopia | Sydney | 1 | All Maps","name_short":"syd-1","host":"syd-1.au.uncletopia.com","port":27015,"enabled":true,"region":"au","cc":"au","latitude":-33.865143,"longitude":151.2099,"reserved":0,"last_update":"0001-01-01T00:00:00Z","name_a2s":"Uncletopia | Sydney | 1 | All Maps","protocol":17,"map":"pl_borneo","folder":"tf","game":"Team Fortress","app_id":440,"player_count":24,"max_players":24,"Bots":0,"server_type":"Dedicated","server_os":"Linux","password":true,"vac":true,"version":"7961495","steam_id":85568392924470001,"keywords":["nocrits","nodmgspread","payload","uncletopia"],"game_id":440,"stv_port":27016,"stv_name":"Uncletopia | Sydney | 1 | All Maps | STV","players":[{"user_id":141,"name":"Speedicle","steam_id":76561199081060553,"connected_time":2015000000000,"state":"active","ping":62},{"user_id":175,"name":"xiuh","steam_id":76561198117053421,"connected_time":181000000000,"state":"active","ping":61},{"user_id":134,"name":"burfdae boi","steam_id":76561199000827969,"connected_time":2360000000000,"state":"active","ping":40},{"user_id":157,"name":"lavanderpumpernickle(Del Davis)","steam_id":76561199093611800,"connected_time":1175000000000,"state":"active","ping":49},{"user_id":156,"name":"Vulnerable Goth Girl","steam_id":76561198075411902,"connected_time":1230000000000,"state":"active","ping":61},{"user_id":142,"name":"‚±£êåÑ≈§êåÑ“∞","steam_id":76561199140764838,"connected_time":2000000000000,"state":"active","ping":65},{"user_id":143,"name":"Plastic_Wrapp","steam_id":76561198817560659,"connected_time":1970000000000,"state":"active","ping":77},{"user_id":160,"name":"Rashid Of The Dank Memes","steam_id":76561198281398078,"connected_time":1007000000000,"state":"active","ping":67},{"user_id":165,"name":"Evil Dragons 11","steam_id":76561199010001803,"connected_time":897000000000,"state":"active","ping":50},{"user_id":171,"name":"Finger Bun Fun","steam_id":76561198118383219,"connected_time":652000000000,"state":"active","ping":55},{"user_id":177,"name":"Sircrow22","steam_id":76561198211213113,"connected_time":58000000000,"state":"active","ping":74},{"user_id":146,"name":"FlashyChips","steam_id":76561198071342589,"connected_time":1924000000000,"state":"active","ping":59},{"user_id":147,"name":"Dr Barry Mundy PhD","steam_id":76561198034512686,"connected_time":1784000000000,"state":"active","ping":45},{"user_id":158,"name":"Medieval Serf With An SMG","steam_id":76561198963815687,"connected_time":1111000000000,"state":"active","ping":56},{"user_id":174,"name":"Halla875","steam_id":76561198371206561,"connected_time":264000000000,"state":"active","ping":66},{"user_id":173,"name":"BigLadBoyga","steam_id":76561198985263763,"connected_time":274000000000,"state":"active","ping":74},{"user_id":162,"name":"perturb (feed/seed)","steam_id":76561198085124297,"connected_time":974000000000,"state":"active","ping":59},{"user_id":178,"name":"tren","steam_id":76561199184547017,"connected_time":45000000000,"state":"active","ping":37},{"user_id":179,"name":"Das Ist Scheisse","steam_id":76561198886094239,"connected_time":28000000000,"state":"active","ping":284},{"user_id":166,"name":"Nagapus","steam_id":76561198139578717,"connected_time":893000000000,"state":"active","ping":70},{"user_id":167,"name":"tenten","steam_id":76561198402822072,"connected_time":871000000000,"state":"active","ping":109},{"user_id":169,"name":"Nonexistent","steam_id":76561198980563251,"connected_time":844000000000,"state":"active","ping":138},{"user_id":170,"name":"trinhvs","steam_id":76561198986510078,"connected_time":802000000000,"state":"active","ping":62},{"user_id":180,"name":"Chops","steam_id":76561198071178936,"connected_time":27000000000,"state":"spawning","ping":89}]},{"server_id":123,"name":"Uncletopia | Sydney | 2 | All Maps","name_short":"syd-2","host":"syd-1.au.uncletopia.com","port":27025,"enabled":true,"region":"au","cc":"au","latitude":-33.865143,"longitude":151.2099,"reserved":0,"last_update":"0001-01-01T00:00:00Z","name_a2s":"Uncletopia | Sydney | 2 | All Maps","protocol":17,"map":"pl_pier","folder":"tf","game":"Team Fortress","app_id":440,"player_count":0,"max_players":24,"Bots":0,"server_type":"Dedicated","server_os":"Linux","password":true,"vac":true,"version":"7961495","steam_id":85568392924470002,"keywords":["nocrits","nodmgspread","payload","uncletopia"],"game_id":440,"stv_port":27026,"stv_name":"Uncletopia | Sydney | 2 | All Maps | STV","players":null},{"server_id":395,"name":"Uncletopia | Sydney | 3 | All Maps","name_short":"syd-3","host":"syd-1.au.uncletopia.com","port":27035,"enabled":true,"region":"au","cc":"au","latitude":-33.865143,"longitude":151.2099,"reserved":0,"last_update":"0001-01-01T00:00:00Z","name_a2s":"Uncletopia | Sydney | 3 | All Maps","protocol":17,"map":"koth_highpass","folder":"tf","game":"Team Fortress","app_id":440,"player_count":0,"max_players":24,"Bots":0,"server_type":"Dedicated","server_os":"Linux","password":true,"vac":true,"version":"7961495","steam_id":85568392925194467,"keywords":["cp","nocrits","nodmgspread","uncletopia"],"game_id":440,"stv_port":27036,"stv_name":"Uncletopia | Sydney | 3 | All Maps | STV","players":null},{"server_id":396,"name":"Uncletopia | Sydney | 4 | All Maps","name_short":"syd-4","host":"syd-1.au.uncletopia.com","port":27045,"enabled":true,"region":"au","cc":"au","latitude":-33.865143,"longitude":151.2099,"reserved":0,"last_update":"0001-01-01T00:00:00Z","name_a2s":"Uncletopia | Sydney | 4 | All Maps","protocol":17,"map":"cp_dustbowl","folder":"tf","game":"Team Fortress","app_id":440,"player_count":1,"max_players":24,"Bots":0,"server_type":"Dedicated","server_os":"Linux","password":true,"vac":true,"version":"7961495","steam_id":85568392925397958,"keywords":["cp","nocrits","nodmgspread","uncletopia"],"game_id":440,"stv_port":27046,"stv_name":"Uncletopia | Sydney | 4 | All Maps | STV","players":[{"user_id":18,"name":"Tasty Gravy","steam_id":76561198163964588,"connected_time":8000000000,"state":"spawning","ping":44}]},{"server_id":58,"name":"Uncletopia | Sydney | 5 | Stopwatch Beta","name_short":"syd-5","host":"syd-1.au.uncletopia.com","port":27055,"enabled":true,"region":"au","cc":"au","latitude":-33.865143,"longitude":151.2099,"reserved":0,"last_update":"0001-01-01T00:00:00Z","name_a2s":"Uncletopia | Sydney | 5 | Stopwatch Beta","protocol":17,"map":"koth_viaduct","folder":"tf","game":"Team Fortress","app_id":440,"player_count":0,"max_players":24,"Bots":0,"server_type":"Dedicated","server_os":"Linux","password":true,"vac":true,"version":"7961495","steam_id":85568392925397959,"keywords":["cp","nocrits","nodmgspread","uncletopia"],"game_id":440,"stv_port":27056,"stv_name":"Uncletopia | Sydney | 5 | Stopwatch Beta | STV","players":null},{"server_id":59,"name":"Uncletopia | Sydney | 6 | Community","name_short":"syd-6","host":"syd-1.au.uncletopia.com","port":27065,"enabled":true,"region":"au","cc":"au","latitude":-33.865143,"longitude":151.2099,"reserved":0,"last_update":"0001-01-01T00:00:00Z","name_a2s":"Uncletopia | Sydney | 6 | Community","protocol":17,"map":"koth_cascade","folder":"tf","game":"Team Fortress","app_id":440,"player_count":0,"max_players":24,"Bots":0,"server_type":"Dedicated","server_os":"Linux","password":true,"vac":true,"version":"7961495","steam_id":85568392925397960,"keywords":["cp","nocrits","nodmgspread","uncletopia"],"game_id":440,"stv_port":27066,"stv_name":"Uncletopia | Sydney | 6 | Community | STV","players":null},{"server_id":49,"name":"Uncletopia | Warsaw | 1 | All Maps","name_short":"waw-1","host":"waw-1.pl.uncletopia.com","port":27015,"enabled":true,"region":"eu","cc":"pl","latitude":52.2297,"longitude":21.017532,"reserved":0,"last_update":"0001-01-01T00:00:00Z","name_a2s":"Uncletopia | Warsaw | 1 | All Maps","protocol":17,"map":"pl_swiftwater_final1","folder":"tf","game":"Team Fortress","app_id":440,"player_count":0,"max_players":24,"Bots":0,"server_type":"Dedicated","server_os":"Linux","password":true,"vac":true,"version":"7961495","steam_id":85568392925397850,"keywords":["nocrits","nodmgspread","payload","uncletopia"],"game_id":440,"stv_port":27016,"stv_name":"Uncletopia | Warsaw | 1 | All Maps | STV","players":null},{"server_id":50,"name":"Uncletopia | Warsaw | 2 | All Maps","name_short":"waw-2","host":"waw-1.pl.uncletopia.com","port":27025,"enabled":true,"region":"eu","cc":"pl","latitude":52.2297,"longitude":21.017532,"reserved":0,"last_update":"0001-01-01T00:00:00Z","name_a2s":"Uncletopia | Warsaw | 2 | All Maps","protocol":17,"map":"cp_dustbowl","folder":"tf","game":"Team Fortress","app_id":440,"player_count":0,"max_players":24,"Bots":0,"server_type":"Dedicated","server_os":"Linux","password":true,"vac":true,"version":"7961495","steam_id":85568392925397851,"keywords":["cp","nocrits","nodmgspread","uncletopia"],"game_id":440,"stv_port":27026,"stv_name":"Uncletopia | Warsaw | 2 | All Maps | STV","players":null},{"server_id":51,"name":"Uncletopia | Warsaw | 3 | All Maps","name_short":"waw-3","host":"waw-1.pl.uncletopia.com","port":27035,"enabled":true,"region":"eu","cc":"pl","latitude":52.2297,"longitude":21.017532,"reserved":0,"last_update":"0001-01-01T00:00:00Z","name_a2s":"Uncletopia | Warsaw | 3 | All Maps","protocol":17,"map":"pl_upward","folder":"tf","game":"Team Fortress","app_id":440,"player_count":0,"max_players":24,"Bots":0,"server_type":"Dedicated","server_os":"Linux","password":true,"vac":true,"version":"7961495","steam_id":85568392925397852,"keywords":["nocrits","nodmgspread","payload","uncletopia"],"game_id":440,"stv_port":27036,"stv_name":"Uncletopia | Warsaw | 3 | All Maps | STV","players":null},{"server_id":52,"name":"Uncletopia | Warsaw | 4 | All Maps","name_short":"waw-4","host":"waw-1.pl.uncletopia.com","port":27045,"enabled":true,"region":"eu","cc":"pl","latitude":52.2297,"longitude":21.017532,"reserved":0,"last_update":"0001-01-01T00:00:00Z","name_a2s":"Uncletopia | Warsaw | 4 | All Maps","protocol":17,"map":"koth_viaduct","folder":"tf","game":"Team Fortress","app_id":440,"player_count":0,"max_players":24,"Bots":0,"server_type":"Dedicated","server_os":"Linux","password":true,"vac":true,"version":"7961495","steam_id":85568392925397853,"keywords":["cp","nocrits","nodmgspread","uncletopia"],"game_id":440,"stv_port":27046,"stv_name":"Uncletopia | Warsaw | 4 | All Maps | STV","players":null},{"server_id":53,"name":"Uncletopia | Warsaw | 5 | Stopwatch Beta","name_short":"waw-5","host":"waw-1.pl.uncletopia.com","port":27055,"enabled":true,"region":"eu","cc":"pl","latitude":52.2297,"longitude":21.017532,"reserved":0,"last_update":"0001-01-01T00:00:00Z","name_a2s":"Uncletopia | Warsaw | 5 | Stopwatch Beta","protocol":17,"map":"cp_snakewater_final1","folder":"tf","game":"Team Fortress","app_id":440,"player_count":0,"max_players":24,"Bots":0,"server_type":"Dedicated","server_os":"Linux","password":true,"vac":true,"version":"7961495","steam_id":85568392925397854,"keywords":["cp","nocrits","nodmgspread","uncletopia"],"game_id":440,"stv_port":27056,"stv_name":"Uncletopia | Warsaw | 5 | Stopwatch Beta | STV","players":null},{"server_id":54,"name":"Uncletopia | Warsaw | 6 | Community","name_short":"waw-6","host":"waw-1.pl.uncletopia.com","port":27065,"enabled":true,"region":"eu","cc":"pl","latitude":52.2297,"longitude":21.017532,"reserved":0,"last_update":"0001-01-01T00:00:00Z","name_a2s":"Uncletopia | Warsaw | 6 | Community","protocol":17,"map":"cp_mountainlab","folder":"tf","game":"Team Fortress","app_id":440,"player_count":0,"max_players":24,"Bots":0,"server_type":"Dedicated","server_os":"Linux","password":true,"vac":true,"version":"7961495","steam_id":85568392925397856,"keywords":["cp","nocrits","nodmgspread","uncletopia"],"game_id":440,"stv_port":27066,"stv_name":"Uncletopia | Warsaw | 6 | Community | STV","players":null}]}