{"status":true,"message":"","result":[{"server_id":9,"name":"Uncletopia | Atlanta | 1 | All Maps","name_short":"atl-1","host":"atl-1.us.uncletopia.com","port":27015,"enabled":true,"region":"us-east","cc":"us","latitude":33.753746,"longitude":-84.38633,"reserved":0,"last_update":"0001-01-01T00:00:00Z","name_a2s":"Uncletopia | Atlanta | 1 | All Maps","protocol":17,"map":"pl_badwater","folder":"tf","game":"Team Fortress","app_id":440,"player_count":24,"max_players":24,"Bots":0,"server_type":"Dedicated","server_os":"Linux","password":true,"vac":true,"version":"7757534","steam_id":85568392924469982,"keywords":["nocrits","nodmgspread","payload","uncletopia"],"game_id":440,"stv_port":27016,"stv_name":"Uncletopia | Atlanta | 1 | All Maps | STV","players":[{"user_id":20,"name":"Actually retarded","steam_id":76561198276513608,"connected_time":674000000000,"state":"active","ping":164},{"user_id":6,"name":"urethratard","steam_id":76561198026875278,"connected_time":1656000000000,"state":"active","ping":44},{"user_id":7,"name":"1TheExterminator","steam_id":76561198972879727,"connected_time":1599000000000,"state":"active","ping":67},{"user_id":12,"name":"Bleem","steam_id":76561199013619130,"connected_time":989000000000,"state":"active","ping":98},{"user_id":31,"name":"Dr. Enforcicle (real)","steam_id":76561198964471859,"connected_time":367000000000,"state":"active","ping":75},{"user_id":11,"name":"BudTuggly","steam_id":76561198026873580,"connected_time":1047000000000,"state":"active","ping":60},{"user_id":36,"name":"SCARY MONSTERS","steam_id":76561198042034176,"connected_time":133000000000,"state":"active","ping":57},{"user_id":17,"name":"iNGNORX","steam_id":76561198807649258,"connected_time":737000000000,"state":"active","ping":125},{"user_id":15,"name":"CatBerryLemonade","steam_id":76561198120932314,"connected_time":790000000000,"state":"active","ping":70},{"user_id":16,"name":"thats me in the corner","steam_id":76561199416694935,"connected_time":759000000000,"state":"active","ping":70},{"user_id":37,"name":"Sbwfuf","steam_id":76561199032923830,"connected_time":103000000000,"state":"active","ping":85},{"user_id":19,"name":"Wizowd","steam_id":76561198167702261,"connected_time":689000000000,"state":"active","ping":112},{"user_id":21,"name":"crunchy and spicy wasp snack","steam_id":76561199322728703,"connected_time":647000000000,"state":"active","ping":59},{"user_id":22,"name":"jzplr üé∑üêõ","steam_id":76561198091901520,"connected_time":604000000000,"state":"active","ping":60},{"user_id":24,"name":"grrrrrrr","steam_id":76561199079513908,"connected_time":525000000000,"state":"active","ping":153},{"user_id":39,"name":"GPLv2","steam_id":76561198113096772,"connected_time":97000000000,"state":"active","ping":103},{"user_id":40,"name":"Torip","steam_id":76561198251665862,"connected_time":96000000000,"state":"active","ping":87},{"user_id":27,"name":"‡∏∏","steam_id":76561199064820765,"connected_time":472000000000,"state":"active","ping":67},{"user_id":29,"name":"TransWomanGaming","steam_id":76561198809645656,"connected_time":407000000000,"state":"active","ping":84},{"user_id":30,"name":"Mikael_01","steam_id":76561199080253129,"connected_time":401000000000,"state":"active","ping":182},{"user_id":32,"name":"carrot cake","steam_id":76561198055174915,"connected_time":351000000000,"state":"active","ping":76},{"user_id":33,"name":"floppy muppet","steam_id":76561198003076261,"connected_time":301000000000,"state":"active","ping":74},{"user_id":34,"name":"bear","steam_id":76561198313696546,"connected_time":298000000000,"state":"active","ping":111},{"user_id":42,"name":"kaleb","steam_id":76561198997126286,"connected_time":41000000000,"state":"active","ping":72}]},{"server_id":400,"name":"Uncletopia | Atlanta | 3 | Community","name_short":"atl-3","host":"atl-1.us.uncletopia.com","port":27035,"enabled":true,"region":"us-east","cc":"us","latitude":33.753746,"longitude":-84.38633,"reserved":0,"last_update":"0001-01-01T00:00:00Z","name_a2s":"Uncletopia | Atlanta | 3 | Community","protocol":17,"map":"cp_mountainlab","folder":"tf","game":"Team Fortress","app_id":440,"player_count":0,"max_players":24,"Bots":0,"server_type":"Dedicated","server_os":"Linux","password":true,"vac":true,"version":"7757534","steam_id":85568392924515187,"keywords":["cp","nocrits","nodmgspread","uncletopia"],"game_id":440,"stv_port":27036,"stv_name":"Uncletopia | Atlanta | 3 | Community | STV","players":null},{"server_id":401,"name":"Uncletopia | Atlanta | 4 | No Payload","name_short":"atl-4","host":"atl-1.us.uncletopia.com","port":27045,"enabled":true,"region":"us-east","cc":"us","latitude":33.753746,"longitude":-84.38633,"reserved":0,"last_update":"0001-01-01T00:00:00Z","name_a2s":"","protocol":0,"map":"","folder":"","game":"","app_id":0,"player_count":0,"max_players":0,"Bots":0,"server_type":"","server_os":"","password":false,"vac":false,"version":"","steam_id":0,"keywords":null,"game_id":0,"stv_port":0,"stv_name":"","players":null},{"server_id":2,"name":"Uncletopia | Chicago | 1 | All Maps","name_short":"chi-1","host":"chi-1.us.uncletopia.com","port":27015,"enabled":true,"region":"us-central","cc":"us","latitude":41.881832,"longitude":-87.62318,"reserved":0,"last_update":"0001-01-01T00:00:00Z","name_a2s":"Uncletopia | Chicago | 1 | All Maps","protocol":17,"map":"pl_borneo","folder":"tf","game":"Team Fortress","app_id":440,"player_count":23,"max_players":24,"Bots":0,"server_type":"Dedicated","server_os":"Linux","password":true,"vac":true,"version":"7757534","steam_id":85568392924469984,"keywords":["nocrits","nodmgspread","payload","uncletopia"],"game_id":440,"stv_port":27016,"stv_name":"Uncletopia | Chicago | 1 | All Maps | STV","players":[{"user_id":109,"name":"Toxic Medic Main (he/they)","steam_id":76561198009314845,"connected_time":49000000000,"state":"active","ping":102},{"user_id":77,"name":"FunGi","steam_id":76561198881418662,"connected_time":3032000000000,"state":"active","ping":82},{"user_id":113,"name":"banana man","steam_id":76561199385170644,"connected_time":30000000000,"state":"spawning","ping":44},{"user_id":114,"name":"Dr. Bobo","steam_id":76561198271696761,"connected_time":30000000000,"state":"active","ping":83},{"user_id":108,"name":"alcohol","steam_id":76561198328109873,"connected_time":52000000000,"state":"active","ping":75},{"user_id":85,"name":"Rat","steam_id":76561199102985277,"connected_time":2296000000000,"state":"active","ping":87},{"user_id":55,"name":"Habber The Quesomancer","steam_id":76561198049642751,"connected_time":4821000000000,"state":"active","ping":60},{"user_id":97,"name":"TimeCalm","steam_id":76561197991345488,"connected_time":1505000000000,"state":"active","ping":72},{"user_id":21,"name":"feenman","steam_id":76561199383834799,"connected_time":5579000000000,"state":"active","ping":124},{"user_id":110,"name":"huntswoman 2 electric boogaloo","steam_id":76561198348965524,"connected_time":46000000000,"state":"spawning","ping":64},{"user_id":24,"name":"Luca!","steam_id":76561198137880777,"connected_time":5477000000000,"state":"active","ping":82},{"user_id":106,"name":"JacripspyVulcano","steam_id":76561198966980576,"connected_time":176000000000,"state":"active","ping":60},{"user_id":105,"name":"TrustworthyStranger","steam_id":76561198154105678,"connected_time":416000000000,"state":"active","ping":73},{"user_id":88,"name":"jan kili","steam_id":76561198289894834,"connected_time":1984000000000,"state":"active","ping":62},{"user_id":111,"name":"Nemcat.Jr","steam_id":76561198079821706,"connected_time":44000000000,"state":"active","ping":59},{"user_id":96,"name":"Fredrick","steam_id":76561197981419964,"connected_time":1537000000000,"state":"active","ping":66},{"user_id":99,"name":"Monster","steam_id":76561198189429665,"connected_time":1333000000000,"state":"active","ping":71},{"user_id":79,"name":"Humble Leader","steam_id":76561198169966346,"connected_time":2607000000000,"state":"active","ping":85},{"user_id":112,"name":"MyamE","steam_id":76561198133278462,"connected_time":44000000000,"state":"active","ping":90},{"user_id":34,"name":"Cunny Warrior 77","steam_id":76561198811760680,"connected_time":5336000000000,"state":"active","ping":114},{"user_id":107,"name":"Resistance","steam_id":76561198146782074,"connected_time":66000000000,"state":"active","ping":53},{"user_id":101,"name":"Andallfor","steam_id":76561198350143349,"connected_time":1321000000000,"state":"active","ping":75},{"user_id":82,"name":"coolguy782","steam_id":76561198165212575,"connected_time":2584000000000,"state":"active","ping":64}]},{"server_id":106,"name":"Uncletopia | Chicago | 2 | All Maps","name_short":"chi-2","host":"chi-1.us.uncletopia.com","port":27025,"enabled":true,"region":"us-central","cc":"us","latitude":41.881832,"longitude":-87.62318,"reserved":0,"last_update":"0001-01-01T00:00:00Z","name_a2s":"Uncletopia | Chicago | 2 | All Maps","protocol":17,"map":"koth_cascade","folder":"tf","game":"Team Fortress","app_id":440,"player_count":0,"max_players":24,"Bots":0,"server_type":"Dedicated","server_os":"Linux","password":true,"vac":true,"version":"7757534","steam_id":85568392924469985,"keywords":["cp","nocrits","nodmgspread","uncletopia"],"game_id":440,"stv_port":27026,"stv_name":"Uncletopia | Chicago | 2 | All Maps | STV","players":null},{"server_id":402,"name":"Uncletopia | Chicago | 3 | All Maps","name_short":"chi-3","host":"chi-1.us.uncletopia.com","port":27035,"enabled":true,"region":"us-central","cc":"us","latitude":41.881832,"longitude":-87.62318,"reserved":0,"last_update":"0001-01-01T00:00:00Z","name_a2s":"Uncletopia | Chicago | 3 | All Maps","protocol":17,"map":"koth_cascade","folder":"tf","game":"Team Fortress","app_id":440,"player_count":0,"max_players":24,"Bots":0,"server_type":"Dedicated","server_os":"Linux","password":true,"vac":true,"version":"7757534","steam_id":85568392924515191,"keywords":["cp","nocrits","nodmgspread","uncletopia"],"game_id":440,"stv_port":27036,"stv_name":"Uncletopia | Chicago | 3 | All Maps | STV","players":null},{"server_id":403,"name":"Uncletopia | Chicago | 4 | All Maps","name_short":"chi-4","host":"chi-1.us.uncletopia.com","port":27045,"enabled":true,"region":"us-central","cc":"us","latitude":41.881832,"longitude":-87.62318,"reserved":0,"last_update":"0001-01-01T00:00:00Z","name_a2s":"Uncletopia | Chicago | 4 | All Maps","protocol":17,"map":"koth_cascade","folder":"tf","game":"Team Fortress","app_id":440,"player_count":0,"max_players":24,"Bots":0,"server_type":"Dedicated","server_os":"Linux","password":true,"vac":true,"version":"7757534","steam_id":85568392924515193,"keywords":["cp","nocrits","nodmgspread","uncletopia"],"game_id":440,"stv_port":27046,"stv_name":"Uncletopia | Chicago | 4 | All Maps | STV","players":null},{"server_id":36,"name":"Uncletopia | Chicago | 5 | All Maps","name_short":"chi-5","host":"chi-2.us.uncletopia.com","port":27015,"enabled":true,"region":"us-central","cc":"us","latitude":41.881832,"longitude":-87.62318,"reserved":0,"last_update":"0001-01-01T00:00:00Z","name_a2s":"Uncletopia | Chicago | 5 | All Maps","protocol":17,"map":"koth_lakeside_final","folder":"tf","game":"Team Fortress","app_id":440,"player_count":0,"max_players":24,"Bots":0,"server_type":"Dedicated","server_os":"Linux","password":true,"vac":true,"version":"7757534","steam_id":85568392924866362,"keywords":["cp","nocrits","nodmgspread","uncletopia"],"game_id":440,"stv_port":27016,"stv_name":"Uncletopia | Chicago | 5 | All Maps | STV","players":null},{"server_id":37,"name":"Uncletopia | Chicago | 6 | All Maps","name_short":"chi-6","host":"chi-2.us.uncletopia.com","port":27025,"enabled":true,"region":"us-central","cc":"us","latitude":41.881832,"longitude":-87.62318,"reserved":0,"last_update":"0001-01-01T00:00:00Z","name_a2s":"Uncletopia | Chicago | 6 | All Maps","protocol":17,"map":"cp_mountainlab","folder":"tf","game":"Team Fortress","app_id":440,"player_count":0,"max_players":24,"Bots":0,"server_type":"Dedicated","server_os":"Linux","password":true,"vac":true,"version":"7757534","steam_id":85568392924866363,"keywords":["cp","nocrits","nodmgspread","uncletopia"],"game_id":440,"stv_port":27026,"stv_name":"Uncletopia | Chicago | 6 | All Maps | STV","players":null},{"server_id":38,"name":"Uncletopia | Chicago | 7 | Stopwatch Beta","name_short":"chi-7","host":"chi-2.us.uncletopia.com","port":27035,"enabled":true,"region":"us-central","cc":"us","latitude":41.881832,"longitude":-87.62318,"reserved":0,"last_update":"0001-01-01T00:00:00Z","name_a2s":"Uncletopia | Chicago | 7 | Stopwatch Beta","protocol":17,"map":"koth_viaduct","folder":"tf","game":"Team Fortress","app_id":440,"player_count":0,"max_players":24,"Bots":0,"server_type":"Dedicated","server_os":"Linux","password":true,"vac":true,"version":"7757534","steam_id":85568392924866364,"keywords":["cp","nocrits","nodmgspread","uncletopia"],"game_id":440,"stv_port":27036,"stv_name":"Uncletopia | Chicago | 7 | Stopwatch Beta | STV","players":null},{"server_id":39,"name":"Uncletopia | Chicago | 8 | Community","name_short":"chi-8","host":"chi-2.us.uncletopia.com","port":27045,"enabled":true,"region":"us-central","cc":"us","latitude":41.881832,"longitude":-87.62318,"reserved":0,"last_update":"0001-01-01T00:00:00Z","name_a2s":"Uncletopia | Chicago | 8 | Community","protocol":17,"map":"koth_lakeside_final","folder":"tf","game":"Team Fortress","app_id":440,"player_count":0,"max_players":24,"Bots":0,"server_type":"Dedicated","server_os":"Linux","password":true,"vac":true,"version":"7757534","steam_id":85568392924866365,"keywords":["cp","nocrits","nodmgspread","uncletopia"],"game_id":440,"stv_port":27046,"stv_name":"Uncletopia | Chicago | 8 | Community | STV","players":null},{"server_id":8,"name":"Uncletopia | Dallas | 1 | All Maps","name_short":"dal-1","host":"dal-1.us.uncletopia.com","port":27015,"enabled":true,"region":"us-central","cc":"us","latitude":32.779167,"longitude":-96.80889,"reserved":0,"last_update":"0001-01-01T00:00:00Z","name_a2s":"Uncletopia | Dallas | 1 | All Maps","protocol":17,"map":"cp_sunshine","folder":"tf","game":"Team Fortress","app_id":440,"player_count":0,"max_players":24,"Bots":0,"server_type":"Dedicated","server_os":"Linux","password":true,"vac":true,"version":"7757534","steam_id":85568392924469986,"keywords":["cp","nocrits","nodmgspread","uncletopia"],"game_id":440,"stv_port":27016,"stv_name":"Uncletopia | Dallas | 1 | All Maps | STV","players":null},{"server_id":108,"name":"Uncletopia | Dallas | 2 | All Maps","name_short":"dal-2","host":"dal-1.us.uncletopia.com","port":27025,"enabled":true,"region":"us-central","cc":"us","latitude":32.779167,"longitude":-96.80889,"reserved":0,"last_update":"0001-01-01T00:00:00Z","name_a2s":"Uncletopia | Dallas | 2 | All Maps","protocol":17,"map":"pl_badwater","folder":"tf","game":"Team Fortress","app_id":440,"player_count":2,"max_players":24,"Bots":0,"server_type":"Dedicated","server_os":"Linux","password":true,"vac":true,"version":"7757534","steam_id":85568392924469988,"keywords":["nocrits","nodmgspread","payload","uncletopia"],"game_id":440,"stv_port":27026,"stv_name":"Uncletopia | Dallas | 2 | All Maps | STV","players":[{"user_id":7,"name":"VirusGamingEXE #SaveTF2","steam_id":76561199012537997,"connected_time":381000000000,"state":"active","ping":181},{"user_id":8,"name":"DrO.No.01","steam_id":76561198000663682,"connected_time":338000000000,"state":"active","ping":190}]},{"server_id":5,"name":"Uncletopia | Frankfurt | 1 | All Maps","name_short":"frk-1","host":"frk-1.de.uncletopia.com","port":27015,"enabled":true,"region":"eu","cc":"de","latitude":50.110924,"longitude":8.682127,"reserved":0,"last_update":"0001-01-01T00:00:00Z","name_a2s":"Uncletopia | Frankfurt | 1 | All Maps","protocol":17,"map":"pl_swiftwater_final1","folder":"tf","game":"Team Fortress","app_id":440,"player_count":24,"max_players":24,"Bots":0,"server_type":"Dedicated","server_os":"Linux","password":true,"vac":true,"version":"7757534","steam_id":85568392924469989,"keywords":["nocrits","nodmgspread","payload","uncletopia"],"game_id":440,"stv_port":27016,"stv_name":"Uncletopia | Frankfurt | 1 | All Maps | STV","players":[{"user_id":222,"name":"FatalRyhme","steam_id":76561198018713483,"connected_time":490000000000,"state":"active","ping":82},{"user_id":225,"name":"Mikeshowsha","steam_id":76561199114014127,"connected_time":229000000000,"state":"active","ping":65},{"user_id":143,"name":"Kepucz","steam_id":76561197977634244,"connected_time":5605000000000,"state":"active","ping":60},{"user_id":167,"name":"pizza time","steam_id":76561199015899793,"connected_time":3648000000000,"state":"active","ping":65},{"user_id":200,"name":"Dorich","steam_id":76561198287126217,"connected_time":1742000000000,"state":"active","ping":58},{"user_id":212,"name":"leonardini.w","steam_id":76561199097963071,"connected_time":1085000000000,"state":"active","ping":85},{"user_id":221,"name":"jt7","steam_id":76561198073655162,"connected_time":741000000000,"state":"active","ping":70},{"user_id":224,"name":"Swaggot329","steam_id":76561198828503940,"connected_time":245000000000,"state":"active","ping":79},{"user_id":220,"name":"TryX","steam_id":76561199356781475,"connected_time":844000000000,"state":"active","ping":65},{"user_id":197,"name":"Radegast the Brown","steam_id":76561198075489505,"connected_time":2118000000000,"state":"active","ping":63},{"user_id":215,"name":"babel","steam_id":76561198118412910,"connected_time":981000000000,"state":"active","ping":72},{"user_id":216,"name":"Xydran","steam_id":76561198042397402,"connected_time":976000000000,"state":"active","ping":76},{"user_id":207,"name":"Raivop","steam_id":76561197980854307,"connected_time":1314000000000,"state":"active","ping":92},{"user_id":206,"name":"I am piss man","steam_id":76561198039209685,"connected_time":1371000000000,"state":"active","ping":51},{"user_id":208,"name":"stoppen","steam_id":76561197960281482,"connected_time":1313000000000,"state":"active","ping":73},{"user_id":226,"name":"next_","steam_id":76561198074862350,"connected_time":167000000000,"state":"active","ping":53},{"user_id":227,"name":"Use The Finger","steam_id":76561198050203563,"connected_time":153000000000,"state":"active","ping":73},{"user_id":209,"name":"GardenFungus","steam_id":76561198054894337,"connected_time":1223000000000,"state":"active","ping":53},{"user_id":228,"name":"*cough*","steam_id":76561198179908677,"connected_time":149000000000,"state":"active","ping":171},{"user_id":182,"name":"robbie","steam_id":76561198798195287,"connected_time":3350000000000,"state":"active","ping":65},{"user_id":223,"name":"I use Arsch Linux BTW","steam_id":76561197988247747,"connected_time":307000000000,"state":"active","ping":44},{"user_id":219,"name":"Baba Sraka","steam_id":76561198128292318,"connected_time":887000000000,"state":"active","ping":124},{"user_id":192,"name":"Taskyy","steam_id":76561198134901175,"connected_time":2859000000000,"state":"active","ping":84},{"user_id":193,"name":"pineappleguy05","steam_id":76561199144546264,"connected_time":2310000000000,"state":"active","ping":87}]},{"server_id":110,"name":"Uncletopia | Frankfurt | 2 | All Maps","name_short":"frk-2","host":"frk-1.de.uncletopia.com","port":27025,"enabled":true,"region":"eu","cc":"de","latitude":50.110924,"longitude":8.682127,"reserved":0,"last_update":"0001-01-01T00:00:00Z","name_a2s":"Uncletopia | Frankfurt | 2 | All Maps","protocol":17,"map":"koth_cascade","folder":"tf","game":"Team Fortress","app_id":440,"player_count":3,"max_players":24,"Bots":0,"server_type":"Dedicated","server_os":"Linux","password":true,"vac":true,"version":"7757534","steam_id":85568392924469990,"keywords":["cp","nocrits","nodmgspread","uncletopia"],"game_id":440,"stv_port":27026,"stv_name":"Uncletopia | Frankfurt | 2 | All Maps | STV","players":[{"user_id":5,"name":"asgamer333","steam_id":76561199071616018,"connected_time":244000000000,"state":"active","ping":166},{"user_id":6,"name":"Socks","steam_id":76561198255241161,"connected_time":240000000000,"state":"active","ping":159},{"user_id":7,"name":"The Mind Goblin But Festive","steam_id":76561199258468520,"connected_time":155000000000,"state":"active","ping":77}]},{"server_id":308,"name":"Uncletopia | Frankfurt | 3 | All Maps","name_short":"frk-3","host":"frk-1.de.uncletopia.com","port":27035,"enabled":true,"region":"eu","cc":"de","latitude":50.110924,"longitude":8.682127,"reserved":0,"last_update":"0001-01-01T00:00:00Z","name_a2s":"Uncletopia | Frankfurt | 3 | All Maps","protocol":17,"map":"koth_sawmill","folder":"tf","game":"Team Fortress","app_id":440,"player_count":0,"max_players":24,"Bots":0,"server_type":"Dedicated","server_os":"Linux","password":true,"vac":true,"version":"7757534","steam_id":85568392924504274,"keywords":["cp","nocrits","nodmgspread","uncletopia"],"game_id":440,"stv_port":27036,"stv_name":"Uncletopia | Frankfurt | 3 | All Maps | STV","players":null},{"server_id":309,"name":"Uncletopia | Frankfurt | 4 | All Maps","name_short":"frk-4","host":"frk-1.de.uncletopia.com","port":27045,"enabled":true,"region":"eu","cc":"de","latitude":50.110924,"longitude":8.682127,"reserved":0,"last_update":"0001-01-01T00:00:00Z","name_a2s":"Uncletopia | Frankfurt | 4 | All Maps","protocol":17,"map":"koth_cascade","folder":"tf","game":"Team Fortress","app_id":440,"player_count":0,"max_players":24,"Bots":0,"server_type":"Dedicated","server_os":"Linux","password":true,"vac":true,"version":"7757534","steam_id":85568392924504275,"keywords":["cp","nocrits","nodmgspread","uncletopia"],"game_id":440,"stv_port":27046,"stv_name":"Uncletopia | Frankfurt | 4 | All Maps | STV","players":null},{"server_id":310,"name":"Uncletopia | Frankfurt | 5 | All Maps","name_short":"frk-5","host":"frk-1.de.uncletopia.com","port":27055,"enabled":true,"region":"eu","cc":"de","latitude":50.110924,"longitude":8.682127,"reserved":0,"last_update":"0001-01-01T00:00:00Z","name_a2s":"Uncletopia | Frankfurt | 5 | All Maps","protocol":17,"map":"pl_pier","folder":"tf","game":"Team Fortress","app_id":440,"player_count":24,"max_players":24,"Bots":0,"server_type":"Dedicated","server_os":"Linux","password":true,"vac":true,"version":"7757534","steam_id":85568392924504277,"keywords":["nocrits","nodmgspread","payload","uncletopia"],"game_id":440,"stv_port":27056,"stv_name":"Uncletopia | Frankfurt | 5 | All Maps | STV","players":[{"user_id":83,"name":"Pizza man","steam_id":76561198120042043,"connected_time":1369000000000,"state":"active","ping":79},{"user_id":109,"name":"Titar Industries","steam_id":76561198143078476,"connected_time":212000000000,"state":"active","ping":149},{"user_id":112,"name":"Condigium","steam_id":76561198838929185,"connected_time":158000000000,"state":"active","ping":54},{"user_id":94,"name":"medium rare chicken enjoyer","steam_id":76561198050214002,"connected_time":1107000000000,"state":"active","ping":59},{"user_id":79,"name":"duck with sandals","steam_id":76561199154410024,"connected_time":1913000000000,"state":"active","ping":70},{"user_id":107,"name":"Ane≈•√°k","steam_id":76561198159294906,"connected_time":245000000000,"state":"active","ping":60},{"user_id":85,"name":"The Spah","steam_id":76561198292845505,"connected_time":1338000000000,"state":"active","ping":90},{"user_id":102,"name":"Synth","steam_id":76561198155450360,"connected_time":638000000000,"state":"active","ping":52},{"user_id":82,"name":"i sat on my balls","steam_id":76561198273042780,"connected_time":1573000000000,"state":"active","ping":60},{"user_id":113,"name":"Sylbar","steam_id":76561198065379590,"connected_time":155000000000,"state":"active","ping":60},{"user_id":93,"name":"jona3838","steam_id":76561199097658195,"connected_time":1182000000000,"state":"active","ping":104},{"user_id":72,"name":"FryFish","steam_id":76561198064183241,"connected_time":2792000000000,"state":"active","ping":72},{"user_id":108,"name":"holykyckling","steam_id":76561198040661615,"connected_time":239000000000,"state":"active","ping":75},{"user_id":114,"name":"jovi_","steam_id":76561198449280552,"connected_time":91000000000,"state":"active","ping":63},{"user_id":48,"name":"r0nja_ | tfdb.tf","steam_id":76561197963298322,"connected_time":3844000000000,"state":"active","ping":70},{"user_id":80,"name":"Jovy Kujoh","steam_id":76561198410598772,"connected_time":1706000000000,"state":"active","ping":57},{"user_id":36,"name":"Lmao Zedong","steam_id":76561198075887712,"connected_time":4648000000000,"state":"active","ping":68},{"user_id":47,"name":"benifis163","steam_id":76561198420973492,"connected_time":4081000000000,"state":"active","ping":101},{"user_id":70,"name":"Average Sniper Enjoyer","steam_id":76561197965556042,"connected_time":2882000000000,"state":"active","ping":79},{"user_id":115,"name":"Komputer1310","steam_id":76561198870066614,"connected_time":84000000000,"state":"active","ping":72},{"user_id":116,"name":"hichem","steam_id":76561198056197307,"connected_time":71000000000,"state":"active","ping":63},{"user_id":105,"name":"murderwow","steam_id":76561198024566944,"connected_time":478000000000,"state":"active","ping":98},{"user_id":117,"name":"Chrikin","steam_id":76561198416301532,"connected_time":49000000000,"state":"active","ping":191},{"user_id":119,"name":"Michael","steam_id":76561198003146906,"connected_time":9000000000,"state":"active","ping":262}]},{"server_id":311,"name":"Uncletopia | Frankfurt | 6 | All Maps","name_short":"frk-6","host":"frk-1.de.uncletopia.com","port":27065,"enabled":true,"region":"eu","cc":"de","latitude":50.110924,"longitude":8.682127,"reserved":0,"last_update":"0001-01-01T00:00:00Z","name_a2s":"Uncletopia | Frankfurt | 6 | All Maps","protocol":17,"map":"pl_snowycoast","folder":"tf","game":"Team Fortress","app_id":440,"player_count":0,"max_players":24,"Bots":0,"server_type":"Dedicated","server_os":"Linux","password":true,"vac":true,"version":"7757534","steam_id":85568392924504278,"keywords":["nocrits","nodmgspread","payload","uncletopia"],"game_id":440,"stv_port":27066,"stv_name":"Uncletopia | Frankfurt | 6 | All Maps | STV","players":null},{"server_id":23,"name":"Uncletopia | Frankfurt | 7 | Stopwatch Beta","name_short":"frk-7","host":"frk-1.de.uncletopia.com","port":27075,"enabled":true,"region":"eu","cc":"de","latitude":50.110924,"longitude":8.682127,"reserved":0,"last_update":"0001-01-01T00:00:00Z","name_a2s":"Uncletopia | Frankfurt | 7 | Stopwatch Beta","protocol":17,"map":"pl_borneo","folder":"tf","game":"Team Fortress","app_id":440,"player_count":0,"max_players":24,"Bots":0,"server_type":"Dedicated","server_os":"Linux","password":true,"vac":true,"version":"7757534","steam_id":85568392924742827,"keywords":["nocrits","nodmgspread","payload","uncletopia"],"game_id":440,"stv_port":27076,"stv_name":"Uncletopia | Frankfurt | 7 | Stopwatch Beta | STV","players":null},{"server_id":24,"name":"Uncletopia | Frankfurt | 8 | Community","name_short":"frk-8","host":"frk-1.de.uncletopia.com","port":27085,"enabled":true,"region":"eu","cc":"de","latitude":50.110924,"longitude":8.682127,"reserved":0,"last_update":"0001-01-01T00:00:00Z","name_a2s":"Uncletopia | Frankfurt | 8 | Community","protocol":17,"map":"workshop/cp_croissant_final.ugc458840209","folder":"tf","game":"Team Fortress","app_id":440,"player_count":22,"max_players":24,"Bots":0,"server_type":"Dedicated","server_os":"Linux","password":true,"vac":true,"version":"7757534","steam_id":85568392924742828,"keywords":["cp","nocrits","nodmgspread","uncletopia"],"game_id":440,"stv_port":27086,"stv_name":"Uncletopia | Frankfurt | 8 | Community | STV","players":[{"user_id":151,"name":"player","steam_id":76561198054474684,"connected_time":7769000000000,"state":"active","ping":73},{"user_id":298,"name":"=^_^=","steam_id":76561198076494034,"connected_time":115000000000,"state":"active","ping":56},{"user_id":287,"name":"Catsanddogs123","steam_id":76561198030868386,"connected_time":653000000000,"state":"active","ping":100},{"user_id":269,"name":"Fus in Boots","steam_id":76561198053897722,"connected_time":1356000000000,"state":"active","ping":67},{"user_id":283,"name":"cislastar","steam_id":76561198027202375,"connected_time":720000000000,"state":"active","ping":73},{"user_id":274,"name":"Pingu","steam_id":76561198207966532,"connected_time":1171000000000,"state":"active","ping":71},{"user_id":293,"name":"midlpsyzl47","steam_id":76561199475972637,"connected_time":311000000000,"state":"active","ping":70},{"user_id":297,"name":"joakimp09","steam_id":76561199122753127,"connected_time":171000000000,"state":"active","ping":58},{"user_id":261,"name":"ansandr2005","steam_id":76561199004251723,"connected_time":1705000000000,"state":"active","ping":93},{"user_id":284,"name":"Aregularhuman","steam_id":76561198343319848,"connected_time":690000000000,"state":"active","ping":58},{"user_id":266,"name":"Mi Manchi","steam_id":76561198171573129,"connected_time":1479000000000,"state":"active","ping":51},{"user_id":275,"name":"‚ô• Cirno ‚ô•","steam_id":76561198834982738,"connected_time":1111000000000,"state":"active","ping":70},{"user_id":239,"name":"i must b line to drop pod","steam_id":76561199042470246,"connected_time":2761000000000,"state":"active","ping":47},{"user_id":292,"name":"JC","steam_id":76561198029213352,"connected_time":337000000000,"state":"active","ping":58},{"user_id":66,"name":"Fat Pigeon","steam_id":76561198817940142,"connected_time":12175000000000,"state":"active","ping":52},{"user_id":285,"name":"bruh","steam_id":76561198109262927,"connected_time":679000000000,"state":"active","ping":73},{"user_id":244,"name":"yyny","steam_id":76561198066287297,"connected_time":2536000000000,"state":"active","ping":46},{"user_id":246,"name":"lord-carlos","steam_id":76561198025150761,"connected_time":2380000000000,"state":"active","ping":58},{"user_id":295,"name":"alex00","steam_id":76561198802616102,"connected_time":218000000000,"state":"active","ping":99},{"user_id":251,"name":"Charrky","steam_id":76561198054398642,"connected_time":2093000000000,"state":"active","ping":59},{"user_id":280,"name":"hud_saytext_time 0","steam_id":76561198010327228,"connected_time":902000000000,"state":"active","ping":63},{"user_id":296,"name":"„É†GeRmAn |√óUA√ó„É†","steam_id":76561199044754898,"connected_time":216000000000,"state":"active","ping":63}]},{"server_id":202,"name":"Uncletopia | Hong Kong | 1 | All Maps","name_short":"hgk-1","host":"hgk-1.hk.uncletopia.com","port":27015,"enabled":true,"region":"asia","cc":"hk","latitude":22.302711,"longitude":114.177216,"reserved":0,"last_update":"0001-01-01T00:00:00Z","name_a2s":"Uncletopia | Hong Kong | 1 | All Maps","protocol":17,"map":"pl_borneo","folder":"tf","game":"Team Fortress","app_id":440,"player_count":22,"max_players":24,"Bots":0,"server_type":"Dedicated","server_os":"Linux","password":true,"vac":true,"version":"7757534","steam_id":85568392924494504,"keywords":["nocrits","nodmgspread","payload","uncletopia"],"game_id":440,"stv_port":27016,"stv_name":"Uncletopia | Hong Kong | 1 | All Maps | STV","players":[{"user_id":590,"name":"Buttman","steam_id":76561198044693388,"connected_time":4254000000000,"state":"active","ping":50},{"user_id":681,"name":"you best not miss","steam_id":76561197999891358,"connected_time":1158000000000,"state":"active","ping":153},{"user_id":651,"name":"JE","steam_id":76561198264819554,"connected_time":1845000000000,"state":"active","ping":42},{"user_id":675,"name":"Waltuh (CEO of Chicanery)","steam_id":76561199257300024,"connected_time":1267000000000,"state":"active","ping":74},{"user_id":629,"name":"Big M","steam_id":76561199052493829,"connected_time":2775000000000,"state":"active","ping":56},{"user_id":628,"name":"Engineer Gaming","steam_id":76561199015521820,"connected_time":2842000000000,"state":"active","ping":84},{"user_id":652,"name":"TheRobot_140","steam_id":76561199107847802,"connected_time":1802000000000,"state":"active","ping":127},{"user_id":718,"name":"Puddin","steam_id":76561198140052918,"connected_time":118000000000,"state":"active","ping":88},{"user_id":603,"name":"ZRwilson","steam_id":76561198263372398,"connected_time":3433000000000,"state":"active","ping":53},{"user_id":647,"name":"i poop standing up","steam_id":76561199107098137,"connected_time":1876000000000,"state":"active","ping":113},{"user_id":717,"name":"screaming sniper","steam_id":76561199085568674,"connected_time":152000000000,"state":"active","ping":78},{"user_id":692,"name":"edward","steam_id":76561198303255912,"connected_time":756000000000,"state":"active","ping":62},{"user_id":581,"name":"ÊØç„ÅÆËÇâÂõ£Â≠ê@hao123.com","steam_id":76561198069561896,"connected_time":5072000000000,"state":"active","ping":37},{"user_id":719,"name":"Leo Chung","steam_id":76561198044007777,"connected_time":82000000000,"state":"active","ping":66},{"user_id":621,"name":"muhi(JP) #SAVE TF2","steam_id":76561198167528797,"connected_time":3074000000000,"state":"active","ping":171},{"user_id":494,"name":"Ïø†ÌÇ§","steam_id":76561197997220367,"connected_time":12572000000000,"state":"active","ping":56},{"user_id":622,"name":"Bertengkar","steam_id":76561198213031155,"connected_time":3034000000000,"state":"active","ping":98},{"user_id":579,"name":"SunShine","steam_id":76561198323642446,"connected_time":5205000000000,"state":"active","ping":118},{"user_id":616,"name":"Azi","steam_id":76561198147872523,"connected_time":3194000000000,"state":"active","ping":62},{"user_id":587,"name":"TomCat","steam_id":76561198133744053,"connected_time":4787000000000,"state":"active","ping":115},{"user_id":684,"name":"Redegade","steam_id":76561198335619751,"connected_time":1006000000000,"state":"active","ping":122},{"user_id":716,"name":"cheese5451212","steam_id":76561199146131556,"connected_time":209000000000,"state":"active","ping":133}]},{"server_id":1,"name":"Uncletopia | Los Angeles | 1 | All Maps","name_short":"lax-1","host":"lax-1.us.uncletopia.com","port":27015,"enabled":true,"region":"us-west","cc":"us","latitude":33.94279,"longitude":-118.41004,"reserved":0,"last_update":"0001-01-01T00:00:00Z","name_a2s":"Uncletopia | Los Angeles | 1 | All Maps","protocol":17,"map":"cp_altitude","folder":"tf","game":"Team Fortress","app_id":440,"player_count":0,"max_players":24,"Bots":0,"server_type":"Dedicated","server_os":"Linux","password":true,"vac":true,"version":"7757534","steam_id":85568392924469991,"keywords":["cp","nocrits","nodmgspread","uncletopia"],"game_id":440,"stv_port":27016,"stv_name":"Uncletopia | Los Angeles | 1 | All Maps | STV","players":null},{"server_id":112,"name":"Uncletopia | Los Angeles | 2 | All Maps","name_short":"lax-2","host":"lax-1.us.uncletopia.com","port":27025,"enabled":true,"region":"us-west","cc":"us","latitude":33.94279,"longitude":-118.41004,"reserved":0,"last_update":"0001-01-01T00:00:00Z","name_a2s":"Uncletopia | Los Angeles | 2 | All Maps","protocol":17,"map":"koth_sawmill","folder":"tf","game":"Team Fortress","app_id":440,"player_count":0,"max_players":24,"Bots":0,"server_type":"Dedicated","server_os":"Linux","password":true,"vac":true,"version":"7757534","steam_id":85568392924469992,"keywords":["cp","nocrits","nodmgspread","uncletopia"],"game_id":440,"stv_port":27026,"stv_name":"Uncletopia | Los Angeles | 2 | All Maps | STV","players":null},{"server_id":324,"name":"Uncletopia | Los Angeles | 3 | All Maps","name_short":"lax-3","host":"lax-1.us.uncletopia.com","port":27035,"enabled":true,"region":"us-west","cc":"us","latitude":33.94279,"longitude":-118.41004,"reserved":0,"last_update":"0001-01-01T00:00:00Z","name_a2s":"Uncletopia | Los Angeles | 3 | All Maps","protocol":17,"map":"cp_snakewater_final1","folder":"tf","game":"Team Fortress","app_id":440,"player_count":0,"max_players":24,"Bots":0,"server_type":"Dedicated","server_os":"Linux","password":true,"vac":true,"version":"7757534","steam_id":85568392924510198,"keywords":["cp","nocrits","nodmgspread","uncletopia"],"game_id":440,"stv_port":27036,"stv_name":"Uncletopia | Los Angeles | 3 | All Maps | STV","players":null},{"server_id":25,"name":"Uncletopia | Los Angeles | 4 | Stopwatch Beta","name_short":"lax-4","host":"lax-1.us.uncletopia.com","port":27045,"enabled":true,"region":"us-west","cc":"us","latitude":33.94279,"longitude":-118.41004,"reserved":0,"last_update":"0001-01-01T00:00:00Z","name_a2s":"Uncletopia | Los Angeles | 4 | Stopwatch Beta","protocol":17,"map":"pl_swiftwater_final1","folder":"tf","game":"Team Fortress","app_id":440,"player_count":0,"max_players":24,"Bots":0,"server_type":"Dedicated","server_os":"Linux","password":true,"vac":true,"version":"7757534","steam_id":85568392924510199,"keywords":["nocrits","nodmgspread","payload","uncletopia"],"game_id":440,"stv_port":27046,"stv_name":"Uncletopia | Los Angeles | 4 | Stopwatch Beta | STV","players":null},{"server_id":11,"name":"Uncletopia | London | 1 | All Maps","name_short":"lon-1","host":"lon-1.uk.uncletopia.com","port":27015,"enabled":true,"region":"eu","cc":"gb","latitude":51.509865,"longitude":-0.118092,"reserved":0,"last_update":"0001-01-01T00:00:00Z","name_a2s":"Uncletopia | London | 1 | All Maps","protocol":17,"map":"cp_dustbowl","folder":"tf","game":"Team Fortress","app_id":440,"player_count":24,"max_players":24,"Bots":0,"server_type":"Dedicated","server_os":"Linux","password":true,"vac":true,"version":"7757534","steam_id":85568392924367362,"keywords":["cp","nocrits","nodmgspread","uncletopia"],"game_id":440,"stv_port":27016,"stv_name":"Uncletopia | London | 1 | All Maps | STV","players":[{"user_id":157,"name":"DeadpoolDealsDamage","steam_id":76561198399472908,"connected_time":795000000000,"state":"active","ping":56},{"user_id":150,"name":"kikyeredin","steam_id":76561199058651968,"connected_time":1287000000000,"state":"active","ping":53},{"user_id":166,"name":"Kestrel","steam_id":76561198144033005,"connected_time":234000000000,"state":"active","ping":49},{"user_id":105,"name":"jimbob","steam_id":76561198089322416,"connected_time":3643000000000,"state":"active","ping":85},{"user_id":94,"name":"ldshwt","steam_id":76561198090364357,"connected_time":4368000000000,"state":"active","ping":59},{"user_id":133,"name":"Dlaf'rferg (she/her)","steam_id":76561198284744735,"connected_time":2683000000000,"state":"active","ping":54},{"user_id":155,"name":"Gimli","steam_id":76561198004149706,"connected_time":963000000000,"state":"active","ping":62},{"user_id":154,"name":"Boki","steam_id":76561198044553351,"connected_time":1070000000000,"state":"active","ping":78},{"user_id":159,"name":"Gaster846","steam_id":76561199082584295,"connected_time":736000000000,"state":"active","ping":81},{"user_id":62,"name":"Caerot","steam_id":76561198839000676,"connected_time":6654000000000,"state":"active","ping":72},{"user_id":160,"name":"999 r√©d√© Balloon√©s","steam_id":76561197973151692,"connected_time":706000000000,"state":"active","ping":118},{"user_id":37,"name":"Space","steam_id":76561198021572167,"connected_time":8342000000000,"state":"active","ping":45},{"user_id":165,"name":"fume.","steam_id":76561197960476801,"connected_time":298000000000,"state":"active","ping":56},{"user_id":146,"name":"Dithmarschen","steam_id":76561198068917140,"connected_time":1646000000000,"state":"active","ping":97},{"user_id":135,"name":"sork","steam_id":76561198082446459,"connected_time":2646000000000,"state":"active","ping":73},{"user_id":148,"name":"Ghost11","steam_id":76561198068892992,"connected_time":1605000000000,"state":"active","ping":112},{"user_id":164,"name":"RiX","steam_id":76561197969053733,"connected_time":481000000000,"state":"active","ping":54},{"user_id":143,"name":"dopamine enjoyer","steam_id":76561198140591983,"connected_time":2228000000000,"state":"active","ping":85},{"user_id":101,"name":"Itai","steam_id":76561198804555329,"connected_time":3728000000000,"state":"active","ping":102},{"user_id":29,"name":"Birdseye","steam_id":76561198025852216,"connected_time":8982000000000,"state":"active","ping":46},{"user_id":167,"name":"Yelowchy","steam_id":76561198199416121,"connected_time":226000000000,"state":"active","ping":68},{"user_id":131,"name":"Nokah","steam_id":76561198973184361,"connected_time":2806000000000,"state":"active","ping":75},{"user_id":129,"name":"Igames","steam_id":76561198414062544,"connected_time":2915000000000,"state":"active","ping":49},{"user_id":145,"name":"Hu Yuu Hai Ding","steam_id":76561198254210743,"connected_time":1875000000000,"state":"active","ping":53}]},{"server_id":114,"name":"Uncletopia | London | 2 | All Maps","name_short":"lon-2","host":"lon-1.uk.uncletopia.com","port":27025,"enabled":true,"region":"eu","cc":"gb","latitude":51.509865,"longitude":-0.118092,"reserved":0,"last_update":"0001-01-01T00:00:00Z","name_a2s":"Uncletopia | London | 2 | All Maps","protocol":17,"map":"pl_badwater","folder":"tf","game":"Team Fortress","app_id":440,"player_count":24,"max_players":24,"Bots":0,"server_type":"Dedicated","server_os":"Linux","password":true,"vac":true,"version":"7757534","steam_id":85568392924470941,"keywords":["nocrits","nodmgspread","payload","uncletopia"],"game_id":440,"stv_port":27026,"stv_name":"Uncletopia | London | 2 | All Maps | STV","players":[{"user_id":407,"name":"Prison Mike","steam_id":76561198014221596,"connected_time":2420000000000,"state":"active","ping":59},{"user_id":359,"name":"nyanezt","steam_id":76561198253734265,"connected_time":5292000000000,"state":"active","ping":102},{"user_id":429,"name":"Fluffy","steam_id":76561198079404910,"connected_time":260000000000,"state":"active","ping":71},{"user_id":385,"name":"Dehydrated lft","steam_id":76561198970587989,"connected_time":3561000000000,"state":"active","ping":84},{"user_id":397,"name":"Wrath","steam_id":76561198054368494,"connected_time":2886000000000,"state":"active","ping":74},{"user_id":416,"name":"Qwertuss","steam_id":76561198026305366,"connected_time":2093000000000,"state":"active","ping":55},{"user_id":399,"name":"Gideon","steam_id":76561198045132575,"connected_time":2821000000000,"state":"active","ping":43},{"user_id":402,"name":":)","steam_id":76561198977420882,"connected_time":2538000000000,"state":"active","ping":37},{"user_id":414,"name":"r06u3","steam_id":76561198254099253,"connected_time":2286000000000,"state":"active","ping":219},{"user_id":425,"name":"Fish Bait","steam_id":76561198196406966,"connected_time":641000000000,"state":"active","ping":82},{"user_id":393,"name":"scope","steam_id":76561198281647082,"connected_time":3286000000000,"state":"active","ping":104},{"user_id":408,"name":"wide appreciator","steam_id":76561198083286511,"connected_time":2413000000000,"state":"active","ping":51},{"user_id":428,"name":"Bod Dog","steam_id":76561198080631634,"connected_time":313000000000,"state":"active","ping":60},{"user_id":426,"name":"Saken","steam_id":76561198049075295,"connected_time":330000000000,"state":"active","ping":59},{"user_id":430,"name":"[OwO] shadow wolf","steam_id":76561198031573426,"connected_time":249000000000,"state":"active","ping":74},{"user_id":400,"name":"Squeaky","steam_id":76561198177338045,"connected_time":2664000000000,"state":"active","ping":46},{"user_id":334,"name":"hourglass","steam_id":76561198166613799,"connected_time":6877000000000,"state":"active","ping":79},{"user_id":427,"name":"Dolcelatte","steam_id":76561198038501770,"connected_time":321000000000,"state":"active","ping":68},{"user_id":421,"name":"addicted","steam_id":76561199129801006,"connected_time":852000000000,"state":"active","ping":53},{"user_id":420,"name":"cantsniff","steam_id":76561198259668029,"connected_time":1059000000000,"state":"active","ping":48},{"user_id":272,"name":"john fortress","steam_id":76561198013237629,"connected_time":9337000000000,"state":"active","ping":91},{"user_id":306,"name":"jar","steam_id":76561198156384007,"connected_time":8176000000000,"state":"active","ping":46},{"user_id":413,"name":"Carreidas","steam_id":76561198056957730,"connected_time":2355000000000,"state":"active","ping":51},{"user_id":381,"name":"Shynii","steam_id":76561198194682105,"connected_time":3910000000000,"state":"active","ping":65}]},{"server_id":320,"name":"Uncletopia | London | 3 | All Maps","name_short":"lon-3","host":"lon-1.uk.uncletopia.com","port":27035,"enabled":true,"region":"eu","cc":"gb","latitude":51.509865,"longitude":-0.118092,"reserved":0,"last_update":"0001-01-01T00:00:00Z","name_a2s":"Uncletopia | London | 3 | All Maps","protocol":17,"map":"koth_sawmill","folder":"tf","game":"Team Fortress","app_id":440,"player_count":19,"max_players":24,"Bots":0,"server_type":"Dedicated","server_os":"Linux","password":true,"vac":true,"version":"7757534","steam_id":85568392924510192,"keywords":["cp","nocrits","nodmgspread","uncletopia"],"game_id":440,"stv_port":27036,"stv_name":"Uncletopia | London | 3 | All Maps | STV","players":[{"user_id":143,"name":"Simon","steam_id":76561198055703974,"connected_time":253000000000,"state":"active","ping":72},{"user_id":87,"name":"Sonix42","steam_id":76561198071408458,"connected_time":3975000000000,"state":"active","ping":51},{"user_id":31,"name":"Zonts","steam_id":76561198850176432,"connected_time":6032000000000,"state":"active","ping":80},{"user_id":129,"name":"HorizonPear","steam_id":76561198179808389,"connected_time":1066000000000,"state":"active","ping":142},{"user_id":109,"name":"microwavedelights","steam_id":76561199260959455,"connected_time":2492000000000,"state":"active","ping":118},{"user_id":135,"name":"–ª–∏–º–æ–Ω–Ω–∞—è –¥—ã–º–∫–∞ –∫\ufffd","steam_id":76561199042139117,"connected_time":811000000000,"state":"active","ping":60},{"user_id":95,"name":"lumper","steam_id":76561198862113388,"connected_time":3374000000000,"state":"active","ping":75},{"user_id":100,"name":"Ansari","steam_id":76561198074982971,"connected_time":2984000000000,"state":"active","ping":54},{"user_id":136,"name":"spiegelsberge","steam_id":76561199469797619,"connected_time":803000000000,"state":"active","ping":65},{"user_id":62,"name":"Pinkchup","steam_id":76561198106802803,"connected_time":4990000000000,"state":"active","ping":74},{"user_id":40,"name":"Mayor Wank from Wanker Town","steam_id":76561197998253588,"connected_time":5747000000000,"state":"active","ping":59},{"user_id":131,"name":"M1","steam_id":76561198080363232,"connected_time":1011000000000,"state":"active","ping":173},{"user_id":137,"name":"Xoukz","steam_id":76561198356014540,"connected_time":782000000000,"state":"active","ping":91},{"user_id":144,"name":"AwterSix","steam_id":76561198042561678,"connected_time":242000000000,"state":"active","ping":56},{"user_id":42,"name":"NABER","steam_id":76561198831465151,"connected_time":5711000000000,"state":"active","ping":89},{"user_id":111,"name":"avewszystkim","steam_id":76561199382492530,"connected_time":2254000000000,"state":"active","ping":63},{"user_id":105,"name":"Dr. Uberschwein","steam_id":76561198111367431,"connected_time":2898000000000,"state":"active","ping":62},{"user_id":138,"name":"Big Knoxy","steam_id":76561198291107227,"connected_time":756000000000,"state":"active","ping":59},{"user_id":139,"name":"Pooryoungfrog","steam_id":76561199174779667,"connected_time":756000000000,"state":"active","ping":158}]},{"server_id":321,"name":"Uncletopia | London | 4 | All Maps","name_short":"lon-4","host":"lon-1.uk.uncletopia.com","port":27045,"enabled":true,"region":"eu","cc":"gb","latitude":51.509865,"longitude":-0.118092,"reserved":0,"last_update":"0001-01-01T00:00:00Z","name_a2s":"Uncletopia | London | 4 | All Maps","protocol":17,"map":"pl_barnblitz","folder":"tf","game":"Team Fortress","app_id":440,"player_count":24,"max_players":24,"Bots":0,"server_type":"Dedicated","server_os":"Linux","password":true,"vac":true,"version":"7757534","steam_id":85568392924510193,"keywords":["nocrits","nodmgspread","payload","uncletopia"],"game_id":440,"stv_port":27046,"stv_name":"Uncletopia | London | 4 | All Maps | STV","players":[{"user_id":270,"name":"busgrabb","steam_id":76561198055768465,"connected_time":3245000000000,"state":"active","ping":74},{"user_id":296,"name":"LOBZIK","steam_id":76561198114830120,"connected_time":1557000000000,"state":"active","ping":76},{"user_id":228,"name":"TehMooN","steam_id":76561199124793751,"connected_time":6004000000000,"state":"active","ping":143},{"user_id":301,"name":"Zerfesh","steam_id":76561198117534358,"connected_time":919000000000,"state":"active","ping":102},{"user_id":316,"name":"Cosmonaut","steam_id":76561198239514504,"connected_time":182000000000,"state":"active","ping":63},{"user_id":271,"name":"XPullaHiiri","steam_id":76561198031652375,"connected_time":3230000000000,"state":"active","ping":100},{"user_id":294,"name":"Breadcrab","steam_id":76561198015924039,"connected_time":1657000000000,"state":"active","ping":56},{"user_id":302,"name":"Wattseyy","steam_id":76561198248567360,"connected_time":869000000000,"state":"active","ping":40},{"user_id":287,"name":"Owl","steam_id":76561198248266580,"connected_time":2300000000000,"state":"active","ping":66},{"user_id":237,"name":"competitively suicidal","steam_id":76561198193357946,"connected_time":4855000000000,"state":"active","ping":113},{"user_id":317,"name":"Noob_with_source","steam_id":76561198870362103,"connected_time":166000000000,"state":"active","ping":59},{"user_id":292,"name":"Hod","steam_id":76561198057707396,"connected_time":2100000000000,"state":"active","ping":181},{"user_id":309,"name":"yawnn","steam_id":76561198088624259,"connected_time":665000000000,"state":"active","ping":60},{"user_id":299,"name":"Mr. Hunts","steam_id":76561197981910397,"connected_time":994000000000,"state":"active","ping":60},{"user_id":278,"name":"tam","steam_id":76561199472600621,"connected_time":2775000000000,"state":"active","ping":135},{"user_id":298,"name":"MAKENTAKEN","steam_id":76561199127359587,"connected_time":1342000000000,"state":"active","ping":101},{"user_id":304,"name":"Lilliputt","steam_id":76561198090146457,"connected_time":816000000000,"state":"active","ping":39},{"user_id":291,"name":"isha","steam_id":76561199041566425,"connected_time":2276000000000,"state":"active","ping":58},{"user_id":199,"name":"Mr.Fosty","steam_id":76561198045212783,"connected_time":7799000000000,"state":"active","ping":74},{"user_id":286,"name":"ed","steam_id":76561198047840396,"connected_time":2316000000000,"state":"active","ping":106},{"user_id":306,"name":"VolcanicArts","steam_id":76561198063453246,"connected_time":771000000000,"state":"active","ping":46},{"user_id":277,"name":"walluu","steam_id":76561198121830870,"connected_time":3005000000000,"state":"active","ping":81},{"user_id":267,"name":"GuSkand","steam_id":76561198043775605,"connected_time":3489000000000,"state":"active","ping":89},{"user_id":307,"name":"Xx_„Åà„Å™„Å™„ÇìxX69","steam_id":76561199427679148,"connected_time":770000000000,"state":"active","ping":75}]},{"server_id":21,"name":"Uncletopia | London | 5 | All Maps","name_short":"lon-5","host":"lon-1.uk.uncletopia.com","port":27055,"enabled":true,"region":"eu","cc":"gb","latitude":51.509865,"longitude":-0.118092,"reserved":0,"last_update":"0001-01-01T00:00:00Z","name_a2s":"Uncletopia | London | 5 | All Maps","protocol":17,"map":"cp_dustbowl","folder":"tf","game":"Team Fortress","app_id":440,"player_count":0,"max_players":24,"Bots":0,"server_type":"Dedicated","server_os":"Linux","password":true,"vac":true,"version":"7757534","steam_id":85568392924742829,"keywords":["cp","nocrits","nodmgspread","uncletopia"],"game_id":440,"stv_port":27056,"stv_name":"Uncletopia | London | 5 | All Maps | STV","players":null},{"server_id":22,"name":"Uncletopia | London | 6 | All Maps","name_short":"lon-6","host":"lon-1.uk.uncletopia.com","port":27065,"enabled":true,"region":"eu","cc":"gb","latitude":51.509865,"longitude":-0.118092,"reserved":0,"last_update":"0001-01-01T00:00:00Z","name_a2s":"Uncletopia | London | 6 | All Maps","protocol":17,"map":"pl_hoodoo_final","folder":"tf","game":"Team Fortress","app_id":440,"player_count":24,"max_players":24,"Bots":0,"server_type":"Dedicated","server_os":"Linux","password":true,"vac":true,"version":"7757534","steam_id":85568392924742830,"keywords":["nocrits","nodmgspread","payload","uncletopia"],"game_id":440,"stv_port":27066,"stv_name":"Uncletopia | London | 6 | All Maps | STV","players":[{"user_id":187,"name":"Flare","steam_id":76561198039098320,"connected_time":2913000000000,"state":"active","ping":45},{"user_id":224,"name":"I am the one who donks","steam_id":76561198419583460,"connected_time":1737000000000,"state":"active","ping":63},{"user_id":243,"name":"Wir suchen dich!","steam_id":76561198307613521,"connected_time":68000000000,"state":"active","ping":60},{"user_id":239,"name":"Oz","steam_id":76561198082977363,"connected_time":426000000000,"state":"active","ping":54},{"user_id":234,"name":"If I top 3 my team sucks","steam_id":76561198147668373,"connected_time":1113000000000,"state":"active","ping":66},{"user_id":233,"name":"Bentley","steam_id":76561197978252169,"connected_time":1196000000000,"state":"active","ping":67},{"user_id":241,"name":"scroted sigma freud","steam_id":76561198162462063,"connected_time":255000000000,"state":"active","ping":52},{"user_id":235,"name":"TheBeardedM1G","steam_id":76561198040208946,"connected_time":1058000000000,"state":"active","ping":49},{"user_id":237,"name":"Proud Jojo Fan #TF2SP","steam_id":76561198847327216,"connected_time":601000000000,"state":"active","ping":59},{"user_id":190,"name":"Boneless Ham","steam_id":76561198359038813,"connected_time":2767000000000,"state":"active","ping":70},{"user_id":240,"name":"Marley","steam_id":76561198045380078,"connected_time":387000000000,"state":"active","ping":74},{"user_id":209,"name":"GhostJuice","steam_id":76561198164087698,"connected_time":2096000000000,"state":"active","ping":96},{"user_id":223,"name":"that fat croc from donkey kong","steam_id":76561198159172495,"connected_time":1774000000000,"state":"active","ping":74},{"user_id":222,"name":"gGABEsz","steam_id":76561198117199068,"connected_time":1815000000000,"state":"active","ping":79},{"user_id":220,"name":"oepidus","steam_id":76561198963841479,"connected_time":1848000000000,"state":"active","ping":91},{"user_id":244,"name":"meow","steam_id":76561199216923710,"connected_time":59000000000,"state":"active","ping":151},{"user_id":225,"name":"dorak","steam_id":76561198818037965,"connected_time":1702000000000,"state":"active","ping":108},{"user_id":217,"name":"glyph","steam_id":76561197980736364,"connected_time":1963000000000,"state":"active","ping":85},{"user_id":228,"name":"R0mulone","steam_id":76561198352513792,"connected_time":1564000000000,"state":"active","ping":62},{"user_id":143,"name":"Spajro","steam_id":76561198257383813,"connected_time":6127000000000,"state":"active","ping":58},{"user_id":231,"name":"porridge","steam_id":76561198044585737,"connected_time":1501000000000,"state":"active","ping":42},{"user_id":232,"name":"Largo","steam_id":76561198844368927,"connected_time":1429000000000,"state":"active","ping":74},{"user_id":124,"name":"Wardruna96","steam_id":76561199057083828,"connected_time":8672000000000,"state":"active","ping":87},{"user_id":238,"name":"DrExplosive","steam_id":76561198063678579,"connected_time":486000000000,"state":"active","ping":51}]},{"server_id":40,"name":"Uncletopia | London | 7 | No Payload","name_short":"lon-7","host":"lon-1.uk.uncletopia.com","port":27075,"enabled":true,"region":"eu","cc":"gb","latitude":51.509865,"longitude":-0.118092,"reserved":0,"last_update":"0001-01-01T00:00:00Z","name_a2s":"Uncletopia | London | 7 | No Payload","protocol":17,"map":"cp_foundry","folder":"tf","game":"Team Fortress","app_id":440,"player_count":0,"max_players":24,"Bots":0,"server_type":"Dedicated","server_os":"Linux","password":true,"vac":true,"version":"7757534","steam_id":85568392924964314,"keywords":["cp","nocrits","nodmgspread","uncletopia"],"game_id":440,"stv_port":27076,"stv_name":"Uncletopia | London | 7 | No Payload | STV","players":null},{"server_id":41,"name":"Uncletopia | London | 8 | Community","name_short":"lon-8","host":"lon-1.uk.uncletopia.com","port":27085,"enabled":true,"region":"eu","cc":"gb","latitude":51.509865,"longitude":-0.118092,"reserved":0,"last_update":"0001-01-01T00:00:00Z","name_a2s":"Uncletopia | London | 8 | Community","protocol":17,"map":"workshop/koth_kemptown_rc1.ugc767410655","folder":"tf","game":"Team Fortress","app_id":440,"player_count":0,"max_players":24,"Bots":0,"server_type":"Dedicated","server_os":"Linux","password":true,"vac":true,"version":"7757534","steam_id":85568392924964315,"keywords":["cp","nocrits","nodmgspread","uncletopia"],"game_id":440,"stv_port":27086,"stv_name":"Uncletopia | London | 8 | Community | STV","players":null},{"server_id":300,"name":"Uncletopia | Montr√©al | 1 | All Maps","name_short":"mtl-1","host":"mtl-1.ca.uncletopia.com","port":27015,"enabled":true,"region":"us-east","cc":"ca","latitude":45.50889,"longitude":-73.56167,"reserved":0,"last_update":"0001-01-01T00:00:00Z","name_a2s":"Uncletopia | Montr√©al | 1 | All Maps","protocol":17,"map":"pl_pier","folder":"tf","game":"Team Fortress","app_id":440,"player_count":0,"max_players":24,"Bots":0,"server_type":"Dedicated","server_os":"Linux","password":true,"vac":true,"version":"7757534","steam_id":85568392924500087,"keywords":["nocrits","nodmgspread","payload","uncletopia"],"game_id":440,"stv_port":27016,"stv_name":"Uncletopia | Montr√©al | 1 | All Maps | STV","players":null},{"server_id":301,"name":"Uncletopia | Montr√©al | 2 | All Maps","name_short":"mtl-2","host":"mtl-1.ca.uncletopia.com","port":27025,"enabled":true,"region":"us-east","cc":"ca","latitude":45.50889,"longitude":-73.56167,"reserved":0,"last_update":"0001-01-01T00:00:00Z","name_a2s":"Uncletopia | Montr√©al | 2 | All Maps","protocol":17,"map":"cp_sunshine","folder":"tf","game":"Team Fortress","app_id":440,"player_count":0,"max_players":24,"Bots":0,"server_type":"Dedicated","server_os":"Linux","password":true,"vac":true,"version":"7757534","steam_id":85568392924500088,"keywords":["cp","nocrits","nodmgspread","uncletopia"],"game_id":440,"stv_port":27026,"stv_name":"Uncletopia | Montr√©al | 2 | All Maps | STV","players":null},{"server_id":302,"name":"Uncletopia | Montr√©al | 3 | All Maps","name_short":"mtl-3","host":"mtl-1.ca.uncletopia.com","port":27035,"enabled":true,"region":"us-east","cc":"ca","latitude":45.50889,"longitude":-73.56167,"reserved":0,"last_update":"0001-01-01T00:00:00Z","name_a2s":"Uncletopia | Montr√©al | 3 | All Maps","protocol":17,"map":"pl_frontier_final","folder":"tf","game":"Team Fortress","app_id":440,"player_count":0,"max_players":24,"Bots":0,"server_type":"Dedicated","server_os":"Linux","password":true,"vac":true,"version":"7757534","steam_id":85568392924500089,"keywords":["nocrits","nodmgspread","payload","uncletopia"],"game_id":440,"stv_port":27036,"stv_name":"Uncletopia | Montr√©al | 3 | All Maps | STV","players":null},{"server_id":303,"name":"Uncletopia | Montr√©al | 4 | No Payload","name_short":"mtl-4","host":"mtl-1.ca.uncletopia.com","port":27045,"enabled":true,"region":"us-east","cc":"ca","latitude":45.50889,"longitude":-73.56167,"reserved":0,"last_update":"0001-01-01T00:00:00Z","name_a2s":"Uncletopia | Montr√©al | 4 | No Payload","protocol":17,"map":"pl_pier","folder":"tf","game":"Team Fortress","app_id":440,"player_count":0,"max_players":24,"Bots":0,"server_type":"Dedicated","server_os":"Linux","password":true,"vac":true,"version":"7757534","steam_id":85568392924500090,"keywords":["nocrits","nodmgspread","payload","uncletopia"],"game_id":440,"stv_port":27046,"stv_name":"Uncletopia | Montr√©al | 4 | No Payload | STV","players":null},{"server_id":13,"name":"Uncletopia | New York City | 1 | All Maps","name_short":"nyc-1","host":"nyc-1.us.uncletopia.com","port":27015,"enabled":true,"region":"us-east","cc":"us","latitude":40.73061,"longitude":-73.93524,"reserved":0,"last_update":"0001-01-01T00:00:00Z","name_a2s":"Uncletopia | New York City | 1 | All Maps","protocol":17,"map":"pl_pier","folder":"tf","game":"Team Fortress","app_id":440,"player_count":0,"max_players":24,"Bots":0,"server_type":"Dedicated","server_os":"Linux","password":true,"vac":true,"version":"7757534","steam_id":85568392924469993,"keywords":["nocrits","nodmgspread","payload","uncletopia"],"game_id":440,"stv_port":27016,"stv_name":"Uncletopia | New York City | 1 | All Maps | STV","players":null},{"server_id":14,"name":"Uncletopia | New York City | 2 | All Maps","name_short":"nyc-2","host":"nyc-1.us.uncletopia.com","port":27025,"enabled":true,"region":"us-east","cc":"us","latitude":40.73061,"longitude":-73.93524,"reserved":0,"last_update":"0001-01-01T00:00:00Z","name_a2s":"Uncletopia | New York City | 2 | All Maps","protocol":17,"map":"cp_dustbowl","folder":"tf","game":"Team Fortress","app_id":440,"player_count":0,"max_players":24,"Bots":0,"server_type":"Dedicated","server_os":"Linux","password":true,"vac":true,"version":"7757534","steam_id":85568392924469994,"keywords":["cp","nocrits","nodmgspread","uncletopia"],"game_id":440,"stv_port":27026,"stv_name":"Uncletopia | New York City | 2 | All Maps | STV","players":null},{"server_id":15,"name":"Uncletopia | New York City | 3 | Stopwatch Beta","name_short":"nyc-3","host":"nyc-1.us.uncletopia.com","port":27035,"enabled":true,"region":"us-east","cc":"us","latitude":40.73061,"longitude":-73.93524,"reserved":0,"last_update":"0001-01-01T00:00:00Z","name_a2s":"Uncletopia | New York City | 3 | Stopwatch Beta","protocol":17,"map":"koth_cascade","folder":"tf","game":"Team Fortress","app_id":440,"player_count":0,"max_players":24,"Bots":0,"server_type":"Dedicated","server_os":"Linux","password":true,"vac":true,"version":"7757534","steam_id":85568392924742820,"keywords":["cp","nocrits","nodmgspread","uncletopia"],"game_id":440,"stv_port":27036,"stv_name":"Uncletopia | New York City | 3 | Stopwatch Beta | STV","players":null},{"server_id":16,"name":"Uncletopia | New York City | 4 | Community","name_short":"nyc-4","host":"nyc-1.us.uncletopia.com","port":27045,"enabled":true,"region":"us-east","cc":"us","latitude":40.73061,"longitude":-73.93524,"reserved":0,"last_update":"0001-01-01T00:00:00Z","name_a2s":"Uncletopia | New York City | 4 | Community","protocol":17,"map":"pl_frontier_final","folder":"tf","game":"Team Fortress","app_id":440,"player_count":0,"max_players":24,"Bots":0,"server_type":"Dedicated","server_os":"Linux","password":true,"vac":true,"version":"7757534","steam_id":85568392924742821,"keywords":["nocrits","nodmgspread","payload","uncletopia"],"game_id":440,"stv_port":27046,"stv_name":"Uncletopia | New York City | 4 | Community | STV","players":null},{"server_id":142,"name":"Uncletopia | S√£o Paulo | 1 | All Maps","name_short":"sao-1","host":"sao-1.br.uncletopia.com","port":27015,"enabled":true,"region":"sa","cc":"br","latitude":-23.533773,"longitude":-46.62529,"reserved":0,"last_update":"0001-01-01T00:00:00Z","name_a2s":"Uncletopia | S√£o Paulo | 1 | All Maps","protocol":17,"map":"cp_altitude","folder":"tf","game":"Team Fortress","app_id":440,"player_count":0,"max_players":24,"Bots":0,"server_type":"Dedicated","server_os":"Linux","password":true,"vac":true,"version":"7757534","steam_id":85568392924469996,"keywords":["cp","nocrits","nodmgspread","uncletopia"],"game_id":440,"stv_port":27016,"stv_name":"Uncletopia | S√£o Paulo | 1 | All Maps | STV","players":null},{"server_id":143,"name":"Uncletopia | S√£o Paulo | 2 | All Maps","name_short":"sao-2","host":"sao-2.br.uncletopia.com","port":27015,"enabled":true,"region":"sa","cc":"br","latitude":-23.533773,"longitude":-46.62529,"reserved":0,"last_update":"0001-01-01T00:00:00Z","name_a2s":"Uncletopia | S√£o Paulo | 2 | All Maps","protocol":17,"map":"koth_viaduct","folder":"tf","game":"Team Fortress","app_id":440,"player_count":0,"max_players":24,"Bots":0,"server_type":"Dedicated","server_os":"Linux","password":true,"vac":true,"version":"7757534","steam_id":85568392924485349,"keywords":["cp","nocrits","nodmgspread","uncletopia"],"game_id":440,"stv_port":27016,"stv_name":"Uncletopia | S√£o Paulo | 2 | All Maps | STV","players":null},{"server_id":7,"name":"Uncletopia | Seattle | 1 | All Maps","name_short":"sea-1","host":"sea-1.us.uncletopia.com","port":27015,"enabled":true,"region":"us-west","cc":"us","latitude":47.608013,"longitude":-122.33517,"reserved":0,"last_update":"0001-01-01T00:00:00Z","name_a2s":"Uncletopia | Seattle | 1 | All Maps","protocol":17,"map":"pl_frontier_final","folder":"tf","game":"Team Fortress","app_id":440,"player_count":24,"max_players":24,"Bots":0,"server_type":"Dedicated","server_os":"Linux","password":true,"vac":true,"version":"7757534","steam_id":85568392924469997,"keywords":["nocrits","nodmgspread","payload","uncletopia"],"game_id":440,"stv_port":27016,"stv_name":"Uncletopia | Seattle | 1 | All Maps | STV","players":[{"user_id":1067,"name":"meatBALL sub lova 38 (meatball)","steam_id":76561198965781031,"connected_time":1035000000000,"state":"active","ping":140},{"user_id":1057,"name":"MoonlightDragon","steam_id":76561198124808865,"connected_time":1515000000000,"state":"active","ping":141},{"user_id":1015,"name":"[TrC] Dackstrus","steam_id":76561197973518509,"connected_time":3859000000000,"state":"active","ping":55},{"user_id":989,"name":"mtn.dewdrinker1999","steam_id":76561198021308963,"connected_time":7621000000000,"state":"active","ping":65},{"user_id":1063,"name":"jake","steam_id":76561199406261605,"connected_time":1265000000000,"state":"active","ping":107},{"user_id":990,"name":"Vespen","steam_id":76561198259984019,"connected_time":7580000000000,"state":"active","ping":74},{"user_id":1033,"name":"spimtmot733","steam_id":76561199029189825,"connected_time":2772000000000,"state":"active","ping":153},{"user_id":1049,"name":"Winter","steam_id":76561198312741335,"connected_time":1994000000000,"state":"active","ping":118},{"user_id":1072,"name":"fancyfreak","steam_id":76561198326466375,"connected_time":557000000000,"state":"active","ping":77},{"user_id":1076,"name":"god approaches","steam_id":76561198081617990,"connected_time":410000000000,"state":"active","ping":114},{"user_id":1068,"name":"cesarleonfuentes","steam_id":76561198248461754,"connected_time":782000000000,"state":"active","ping":75},{"user_id":1050,"name":"The Great Eagle Scourge of 1822","steam_id":76561198325086209,"connected_time":1972000000000,"state":"active","ping":83},{"user_id":1053,"name":"RoyaltyFreeRat","steam_id":76561198238186628,"connected_time":1715000000000,"state":"active","ping":87},{"user_id":1058,"name":"Callahan","steam_id":76561197976928457,"connected_time":1511000000000,"state":"active","ping":53},{"user_id":1064,"name":"Nullman","steam_id":76561199069169835,"connected_time":1247000000000,"state":"active","ping":120},{"user_id":1042,"name":"xavimustdie","steam_id":76561198135261488,"connected_time":2423000000000,"state":"active","ping":84},{"user_id":1055,"name":"Person","steam_id":76561198021731433,"connected_time":1681000000000,"state":"active","ping":142},{"user_id":1005,"name":"Also UbeR","steam_id":76561198166926843,"connected_time":6621000000000,"state":"active","ping":75},{"user_id":991,"name":"Noodle","steam_id":76561199156137868,"connected_time":7561000000000,"state":"active","ping":124},{"user_id":1006,"name":"Neo Kojiro","steam_id":76561198000967076,"connected_time":6588000000000,"state":"active","ping":151},{"user_id":935,"name":"Irate Gamer Official","steam_id":76561198162688146,"connected_time":11339000000000,"state":"active","ping":81},{"user_id":1056,"name":"Ena","steam_id":76561198066986108,"connected_time":1673000000000,"state":"active","ping":44},{"user_id":1066,"name":"Futa Lover","steam_id":76561198056775795,"connected_time":1208000000000,"state":"active","ping":146},{"user_id":1071,"name":"Smiles","steam_id":76561198107197973,"connected_time":643000000000,"state":"active","ping":69}]},{"server_id":119,"name":"Uncletopia | Seattle | 2 | All Maps","name_short":"sea-2","host":"sea-1.us.uncletopia.com","port":27025,"enabled":true,"region":"us-west","cc":"us","latitude":47.608013,"longitude":-122.33517,"reserved":0,"last_update":"0001-01-01T00:00:00Z","name_a2s":"Uncletopia | Seattle | 2 | All Maps","protocol":17,"map":"pl_frontier_final","folder":"tf","game":"Team Fortress","app_id":440,"player_count":0,"max_players":24,"Bots":0,"server_type":"Dedicated","server_os":"Linux","password":true,"vac":true,"version":"7757534","steam_id":85568392924469998,"keywords":["nocrits","nodmgspread","payload","uncletopia"],"game_id":440,"stv_port":27026,"stv_name":"Uncletopia | Seattle | 2 | All Maps | STV","players":null},{"server_id":406,"name":"Uncletopia | Seattle | 3 | Stopwatch Beta","name_short":"sea-3","host":"sea-1.us.uncletopia.com","port":27035,"enabled":true,"region":"us-west","cc":"us","latitude":47.608013,"longitude":-122.33517,"reserved":0,"last_update":"0001-01-01T00:00:00Z","name_a2s":"Uncletopia | Seattle | 3 | Stopwatch Beta","protocol":17,"map":"workshop/koth_ashville_final.ugc2130459942","folder":"tf","game":"Team Fortress","app_id":440,"player_count":0,"max_players":24,"Bots":0,"server_type":"Dedicated","server_os":"Linux","password":true,"vac":true,"version":"7757534","steam_id":85568392924515217,"keywords":["cp","nocrits","nodmgspread","uncletopia"],"game_id":440,"stv_port":27036,"stv_name":"Uncletopia | Seattle | 3 | Stopwatch Beta | STV","players":null},{"server_id":17,"name":"Uncletopia | San Francisco | 1 | All Maps","name_short":"sfo-1","host":"sfo-1.us.uncletopia.com","port":27015,"enabled":true,"region":"us-west","cc":"us","latitude":37.77397,"longitude":-122.4313,"reserved":0,"last_update":"0001-01-01T00:00:00Z","name_a2s":"Uncletopia | San Francisco | 1 | All Maps","protocol":17,"map":"pl_pier","folder":"tf","game":"Team Fortress","app_id":440,"player_count":8,"max_players":24,"Bots":0,"server_type":"Dedicated","server_os":"Linux","password":true,"vac":true,"version":"7757534","steam_id":85568392924469999,"keywords":["nocrits","nodmgspread","payload","uncletopia"],"game_id":440,"stv_port":27016,"stv_name":"Uncletopia | San Francisco | 1 | All Maps | STV","players":[{"user_id":546,"name":"unrealapex","steam_id":76561199024467448,"connected_time":1625000000000,"state":"active","ping":36},{"user_id":543,"name":"pathetic ham sniper","steam_id":76561199143951435,"connected_time":2579000000000,"state":"active","ping":109},{"user_id":547,"name":"Doivan Ivan","steam_id":76561199096260479,"connected_time":1576000000000,"state":"active","ping":146},{"user_id":548,"name":"Salih","steam_id":76561198287934839,"connected_time":1228000000000,"state":"active","ping":194},{"user_id":520,"name":"The Unknown","steam_id":76561198270013890,"connected_time":8611000000000,"state":"active","ping":114},{"user_id":549,"name":"Chris","steam_id":76561198180625579,"connected_time":527000000000,"state":"active","ping":80},{"user_id":550,"name":"Schnitz","steam_id":76561198265484253,"connected_time":342000000000,"state":"active","ping":63},{"user_id":551,"name":"Little Linguine","steam_id":76561198816986370,"connected_time":337000000000,"state":"active","ping":69}]},{"server_id":18,"name":"Uncletopia | San Francisco | 2 | All Maps","name_short":"sfo-2","host":"sfo-1.us.uncletopia.com","port":27025,"enabled":true,"region":"us-west","cc":"us","latitude":37.77397,"longitude":-122.4313,"reserved":0,"last_update":"0001-01-01T00:00:00Z","name_a2s":"Uncletopia | San Francisco | 2 | All Maps","protocol":17,"map":"koth_cascade","folder":"tf","game":"Team Fortress","app_id":440,"player_count":0,"max_players":24,"Bots":0,"server_type":"Dedicated","server_os":"Linux","password":true,"vac":true,"version":"7757534","steam_id":85568392924470000,"keywords":["cp","nocrits","nodmgspread","uncletopia"],"game_id":440,"stv_port":27026,"stv_name":"Uncletopia | San Francisco | 2 | All Maps | STV","players":null},{"server_id":19,"name":"Uncletopia | San Francisco | 3 | Stopwatch Beta","name_short":"sfo-3","host":"sfo-1.us.uncletopia.com","port":27035,"enabled":true,"region":"us-west","cc":"us","latitude":37.77397,"longitude":-122.4313,"reserved":0,"last_update":"0001-01-01T00:00:00Z","name_a2s":"Uncletopia | San Francisco | 3 | Stopwatch Beta","protocol":17,"map":"pl_borneo","folder":"tf","game":"Team Fortress","app_id":440,"player_count":0,"max_players":24,"Bots":0,"server_type":"Dedicated","server_os":"Linux","password":true,"vac":true,"version":"7757534","steam_id":85568392924742824,"keywords":["nocrits","nodmgspread","payload","uncletopia"],"game_id":440,"stv_port":27036,"stv_name":"Uncletopia | San Francisco | 3 | Stopwatch Beta | STV","players":null},{"server_id":20,"name":"Uncletopia | San Francisco | 4 | Community","name_short":"sfo-4","host":"sfo-1.us.uncletopia.com","port":27045,"enabled":true,"region":"us-west","cc":"us","latitude":37.77397,"longitude":-122.4313,"reserved":0,"last_update":"0001-01-01T00:00:00Z","name_a2s":"Uncletopia | San Francisco | 4 | Community","protocol":17,"map":"workshop/koth_synthetic_rc6a.ugc1549817316","folder":"tf","game":"Team Fortress","app_id":440,"player_count":0,"max_players":24,"Bots":0,"server_type":"Dedicated","server_os":"Linux","password":true,"vac":true,"version":"7757534","steam_id":85568392924742826,"keywords":["cp","nocrits","nodmgspread","uncletopia"],"game_id":440,"stv_port":27046,"stv_name":"Uncletopia | San Francisco | 4 | Community | STV","players":null},{"server_id":141,"name":"Uncletopia | Sydney | 1 | All Maps","name_short":"syd-1","host":"syd-1.au.uncletopia.com","port":27015,"enabled":true,"region":"au","cc":"au","latitude":-33.865143,"longitude":151.2099,"reserved":0,"last_update":"0001-01-01T00:00:00Z","name_a2s":"Uncletopia | Sydney | 1 | All Maps","protocol":17,"map":"cp_steel","folder":"tf","game":"Team Fortress","app_id":440,"player_count":13,"max_players":24,"Bots":0,"server_type":"Dedicated","server_os":"Linux","password":true,"vac":true,"version":"7757534","steam_id":85568392924470001,"keywords":["cp","nocrits","nodmgspread","uncletopia"],"game_id":440,"stv_port":27016,"stv_name":"Uncletopia | Sydney | 1 | All Maps | STV","players":[{"user_id":727,"name":"Jauntyweb","steam_id":76561198814458512,"connected_time":259000000000,"state":"active","ping":85},{"user_id":728,"name":"Oraj√©ed","steam_id":76561199389156980,"connected_time":111000000000,"state":"active","ping":285},{"user_id":729,"name":"amongus","steam_id":76561199096799858,"connected_time":106000000000,"state":"active","ping":259},{"user_id":698,"name":"noobar","steam_id":76561198042991153,"connected_time":2021000000000,"state":"active","ping":58},{"user_id":699,"name":"Swate","steam_id":76561198042991670,"connected_time":2008000000000,"state":"active","ping":57},{"user_id":714,"name":"Araxamas","steam_id":76561198014474886,"connected_time":1224000000000,"state":"active","ping":95},{"user_id":702,"name":"Traveller","steam_id":76561199161637215,"connected_time":1661000000000,"state":"active","ping":100},{"user_id":730,"name":"Mr.Sir.Bread","steam_id":76561198964893691,"connected_time":22000000000,"state":"active","ping":326},{"user_id":726,"name":"DT-Se80","steam_id":76561198074001241,"connected_time":414000000000,"state":"active","ping":321},{"user_id":704,"name":"Tux","steam_id":76561198039000791,"connected_time":1620000000000,"state":"active","ping":60},{"user_id":711,"name":"doctor morbin' (real)","steam_id":76561199365241695,"connected_time":1299000000000,"state":"active","ping":125},{"user_id":715,"name":"Roaring Forties","steam_id":76561199015985235,"connected_time":1135000000000,"state":"active","ping":102},{"user_id":716,"name":"little raw meat boy","steam_id":76561199248254676,"connected_time":1118000000000,"state":"active","ping":49}]},{"server_id":123,"name":"Uncletopia | Sydney | 2 | All Maps","name_short":"syd-2","host":"syd-1.au.uncletopia.com","port":27025,"enabled":true,"region":"au","cc":"au","latitude":-33.865143,"longitude":151.2099,"reserved":0,"last_update":"0001-01-01T00:00:00Z","name_a2s":"Uncletopia | Sydney | 2 | All Maps","protocol":17,"map":"pl_borneo","folder":"tf","game":"Team Fortress","app_id":440,"player_count":0,"max_players":24,"Bots":0,"server_type":"Dedicated","server_os":"Linux","password":true,"vac":true,"version":"7757534","steam_id":85568392924470002,"keywords":["nocrits","nodmgspread","payload","uncletopia"],"game_id":440,"stv_port":27026,"stv_name":"Uncletopia | Sydney | 2 | All Maps | STV","players":null},{"server_id":395,"name":"Uncletopia | Sydney | 3 | All Maps","name_short":"syd-3","host":"syd-1.au.uncletopia.com","port":27035,"enabled":true,"region":"au","cc":"au","latitude":-33.865143,"longitude":151.2099,"reserved":0,"last_update":"0001-01-01T00:00:00Z","name_a2s":"Uncletopia | Sydney | 3 | All Maps","protocol":17,"map":"cp_process_final","folder":"tf","game":"Team Fortress","app_id":440,"player_count":0,"max_players":24,"Bots":0,"server_type":"Dedicated","server_os":"Linux","password":true,"vac":true,"version":"7757534","steam_id":85568392925194467,"keywords":["cp","nocrits","nodmgspread","uncletopia"],"game_id":440,"stv_port":27036,"stv_name":"Uncletopia | Sydney | 3 | All Maps | STV","players":null},{"server_id":396,"name":"Uncletopia | Sydney | 4 | All Maps","name_short":"syd-4","host":"syd-1.au.uncletopia.com","port":27045,"enabled":true,"region":"au","cc":"au","latitude":-33.865143,"longitude":151.2099,"reserved":0,"last_update":"0001-01-01T00:00:00Z","name_a2s":"Uncletopia | Sydney | 4 | All Maps","protocol":17,"map":"pl_swiftwater_final1","folder":"tf","game":"Team Fortress","app_id":440,"player_count":0,"max_players":24,"Bots":0,"server_type":"Dedicated","server_os":"Linux","password":true,"vac":true,"version":"7757534","steam_id":85568392925397958,"keywords":["nocrits","nodmgspread","payload","uncletopia"],"game_id":440,"stv_port":27046,"stv_name":"Uncletopia | Sydney | 4 | All Maps | STV","players":null},{"server_id":58,"name":"Uncletopia | Sydney | 5 | Stopwatch Beta","name_short":"syd-5","host":"syd-1.au.uncletopia.com","port":27055,"enabled":true,"region":"au","cc":"au","latitude":-33.865143,"longitude":151.2099,"reserved":0,"last_update":"0001-01-01T00:00:00Z","name_a2s":"Uncletopia | Sydney | 5 | Stopwatch Beta","protocol":17,"map":"workshop/koth_bagel_rc6.ugc2514036946","folder":"tf","game":"Team Fortress","app_id":440,"player_count":0,"max_players":24,"Bots":0,"server_type":"Dedicated","server_os":"Linux","password":true,"vac":true,"version":"7757534","steam_id":85568392925397959,"keywords":["cp","nocrits","nodmgspread","uncletopia"],"game_id":440,"stv_port":27056,"stv_name":"Uncletopia | Sydney | 5 | Stopwatch Beta | STV","players":null},{"server_id":59,"name":"Uncletopia | Sydney | 6 | Community","name_short":"syd-6","host":"syd-1.au.uncletopia.com","port":27065,"enabled":true,"region":"au","cc":"au","latitude":-33.865143,"longitude":151.2099,"reserved":0,"last_update":"0001-01-01T00:00:00Z","name_a2s":"Uncletopia | Sydney | 6 | Community","protocol":17,"map":"workshop/pl_divulgence_b4b.ugc2884808746","folder":"tf","game":"Team Fortress","app_id":440,"player_count":0,"max_players":24,"Bots":0,"server_type":"Dedicated","server_os":"Linux","password":true,"vac":true,"version":"7757534","steam_id":85568392925397960,"keywords":["nocrits","nodmgspread","payload","uncletopia"],"game_id":440,"stv_port":27066,"stv_name":"Uncletopia | Sydney | 6 | Community | STV","players":null},{"server_id":49,"name":"Uncletopia | Warsaw | 1 | All Maps","name_short":"waw-1","host":"waw-1.pl.uncletopia.com","port":27015,"enabled":true,"region":"eu","cc":"pl","latitude":52.2297,"longitude":21.017532,"reserved":0,"last_update":"0001-01-01T00:00:00Z","name_a2s":"","protocol":0,"map":"","folder":"","game":"","app_id":0,"player_count":0,"max_players":0,"Bots":0,"server_type":"","server_os":"","password":false,"vac":false,"version":"","steam_id":0,"keywords":null,"game_id":0,"stv_port":0,"stv_name":"","players":null},{"server_id":50,"name":"Uncletopia | Warsaw | 2 | All Maps","name_short":"waw-2","host":"waw-1.pl.uncletopia.com","port":27025,"enabled":true,"region":"eu","cc":"pl","latitude":52.2297,"longitude":21.017532,"reserved":0,"last_update":"0001-01-01T00:00:00Z","name_a2s":"Uncletopia | Warsaw | 2 | All Maps","protocol":17,"map":"koth_highpass","folder":"tf","game":"Team Fortress","app_id":440,"player_count":0,"max_players":24,"Bots":0,"server_type":"Dedicated","server_os":"Linux","password":true,"vac":true,"version":"7757534","steam_id":85568392925397851,"keywords":["cp","nocrits","nodmgspread","uncletopia"],"game_id":440,"stv_port":27026,"stv_name":"Uncletopia | Warsaw | 2 | All Maps | STV","players":null},{"server_id":51,"name":"Uncletopia | Warsaw | 3 | All Maps","name_short":"waw-3","host":"waw-1.pl.uncletopia.com","port":27035,"enabled":true,"region":"eu","cc":"pl","latitude":52.2297,"longitude":21.017532,"reserved":0,"last_update":"0001-01-01T00:00:00Z","name_a2s":"Uncletopia | Warsaw | 3 | All Maps","protocol":17,"map":"cp_mountainlab","folder":"tf","game":"Team Fortress","app_id":440,"player_count":0,"max_players":24,"Bots":0,"server_type":"Dedicated","server_os":"Linux","password":true,"vac":true,"version":"7757534","steam_id":85568392925397852,"keywords":["cp","nocrits","nodmgspread","uncletopia"],"game_id":440,"stv_port":27036,"stv_name":"Uncletopia | Warsaw | 3 | All Maps | STV","players":null},{"server_id":52,"name":"Uncletopia | Warsaw | 4 | All Maps","name_short":"waw-4","host":"waw-1.pl.uncletopia.com","port":27045,"enabled":true,"region":"eu","cc":"pl","latitude":52.2297,"longitude":21.017532,"reserved":0,"last_update":"0001-01-01T00:00:00Z","name_a2s":"Uncletopia | Warsaw | 4 | All Maps","protocol":17,"map":"koth_viaduct","folder":"tf","game":"Team Fortress","app_id":440,"player_count":0,"max_players":24,"Bots":0,"server_type":"Dedicated","server_os":"Linux","password":true,"vac":true,"version":"7757534","steam_id":85568392925397853,"keywords":["cp","nocrits","nodmgspread","uncletopia"],"game_id":440,"stv_port":27046,"stv_name":"Uncletopia | Warsaw | 4 | All Maps | STV","players":null},{"server_id":53,"name":"Uncletopia | Warsaw | 5 | Stopwatch Beta","name_short":"waw-5","host":"waw-1.pl.uncletopia.com","port":27055,"enabled":true,"region":"eu","cc":"pl","latitude":52.2297,"longitude":21.017532,"reserved":0,"last_update":"0001-01-01T00:00:00Z","name_a2s":"Uncletopia | Warsaw | 5 | Stopwatch Beta","protocol":17,"map":"pl_pier","folder":"tf","game":"Team Fortress","app_id":440,"player_count":0,"max_players":24,"Bots":0,"server_type":"Dedicated","server_os":"Linux","password":true,"vac":true,"version":"7757534","steam_id":85568392925397854,"keywords":["nocrits","nodmgspread","payload","uncletopia"],"game_id":440,"stv_port":27056,"stv_name":"Uncletopia | Warsaw | 5 | Stopwatch Beta | STV","players":null},{"server_id":54,"name":"Uncletopia | Warsaw | 6 | Community","name_short":"waw-6","host":"waw-1.pl.uncletopia.com","port":27065,"enabled":true,"region":"eu","cc":"pl","latitude":52.2297,"longitude":21.017532,"reserved":0,"last_update":"0001-01-01T00:00:00Z","name_a2s":"Uncletopia | Warsaw | 6 | Community","protocol":17,"map":"koth_highpass","folder":"tf","game":"Team Fortress","app_id":440,"player_count":0,"max_players":24,"Bots":0,"server_type":"Dedicated","server_os":"Linux","password":true,"vac":true,"version":"7757534","steam_id":85568392925397856,"keywords":["cp","nocrits","nodmgspread","uncletopia"],"game_id":440,"stv_port":27066,"stv_name":"Uncletopia | Warsaw | 6 | Community | STV","players":null}]}