{"status":true,"message":"","result":[{"server_id":9,"name":"Uncletopia | Atlanta | 1 | All Maps","name_short":"atl-1","host":"atl-1.us.uncletopia.com","port":27015,"enabled":true,"region":"us-east","cc":"us","latitude":33.753746,"longitude":-84.38633,"reserved":0,"last_update":"0001-01-01T00:00:00Z","name_a2s":"Uncletopia | Atlanta | 1 | All Maps","protocol":17,"map":"pl_borneo","folder":"tf","game":"Team Fortress","app_id":440,"player_count":24,"max_players":24,"Bots":0,"server_type":"Dedicated","server_os":"Linux","password":true,"vac":true,"version":"7757534","steam_id":85568392924469982,"keywords":["nocrits","nodmgspread","payload","uncletopia"],"game_id":440,"stv_port":27016,"stv_name":"Uncletopia | Atlanta | 1 | All Maps | STV","players":[{"user_id":125,"name":"--_Cook_--","steam_id":76561198080855748,"connected_time":1100000000000,"state":"active","ping":47},{"user_id":109,"name":"{ᴄᴇʀᴘ} mtc","steam_id":76561199433123171,"connected_time":2265000000000,"state":"active","ping":75},{"user_id":120,"name":"deokemi","steam_id":76561199480055194,"connected_time":1618000000000,"state":"active","ping":104},{"user_id":9,"name":"cultmechanicus4","steam_id":76561199472574539,"connected_time":11624000000000,"state":"active","ping":74},{"user_id":20,"name":"Parker","steam_id":76561198046044893,"connected_time":10204000000000,"state":"active","ping":69},{"user_id":134,"name":"Kiso 火","steam_id":76561198141026844,"connected_time":421000000000,"state":"active","ping":115},{"user_id":53,"name":"The Foolish Samurai","steam_id":76561198094494945,"connected_time":8711000000000,"state":"active","ping":106},{"user_id":105,"name":"Monster","steam_id":76561198189429665,"connected_time":2318000000000,"state":"active","ping":59},{"user_id":123,"name":"M4 SOPMOD II Enjoyer","steam_id":76561198155176802,"connected_time":1344000000000,"state":"active","ping":73},{"user_id":117,"name":"Vivianistic","steam_id":76561198069166347,"connected_time":1869000000000,"state":"active","ping":83},{"user_id":131,"name":"Apple Juice","steam_id":76561198430746446,"connected_time":906000000000,"state":"active","ping":82},{"user_id":99,"name":"4 Itchy Tasty","steam_id":76561198009869383,"connected_time":4133000000000,"state":"active","ping":75},{"user_id":121,"name":"TV","steam_id":76561198177326926,"connected_time":1596000000000,"state":"active","ping":80},{"user_id":132,"name":"creeeeeee","steam_id":76561198392539722,"connected_time":896000000000,"state":"active","ping":76},{"user_id":135,"name":"they took my balls","steam_id":76561198393150085,"connected_time":410000000000,"state":"active","ping":65},{"user_id":101,"name":"SeaBass","steam_id":76561198278914206,"connected_time":3312000000000,"state":"active","ping":60},{"user_id":133,"name":"SC|Formuoli","steam_id":76561198254354595,"connected_time":858000000000,"state":"active","ping":59},{"user_id":124,"name":"JelloMotion","steam_id":76561198045892038,"connected_time":1117000000000,"state":"active","ping":64},{"user_id":78,"name":"dustbowl","steam_id":76561198050220225,"connected_time":6220000000000,"state":"active","ping":62},{"user_id":111,"name":"chocolate flavoured femboy","steam_id":76561198819353867,"connected_time":2227000000000,"state":"active","ping":126},{"user_id":122,"name":"Milkman™","steam_id":76561198061638747,"connected_time":1372000000000,"state":"active","ping":70},{"user_id":136,"name":"whisper","steam_id":76561198116741891,"connected_time":224000000000,"state":"active","ping":61},{"user_id":127,"name":"Wengatang","steam_id":76561198021747059,"connected_time":1080000000000,"state":"active","ping":63},{"user_id":116,"name":"Squiliam","steam_id":76561198025278006,"connected_time":2107000000000,"state":"active","ping":67}]},{"server_id":104,"name":"Uncletopia | Atlanta | 2 | All Maps","name_short":"atl-2","host":"atl-1.us.uncletopia.com","port":27025,"enabled":true,"region":"us-east","cc":"us","latitude":33.753746,"longitude":-84.38633,"reserved":0,"last_update":"0001-01-01T00:00:00Z","name_a2s":"Uncletopia | Atlanta | 2 | All Maps","protocol":17,"map":"koth_badlands","folder":"tf","game":"Team Fortress","app_id":440,"player_count":0,"max_players":24,"Bots":0,"server_type":"Dedicated","server_os":"Linux","password":true,"vac":true,"version":"7757534","steam_id":85568392924469983,"keywords":["cp","nocrits","nodmgspread","uncletopia"],"game_id":440,"stv_port":27026,"stv_name":"Uncletopia | Atlanta | 2 | All Maps | STV","players":null},{"server_id":400,"name":"Uncletopia | Atlanta | 3 | Community","name_short":"atl-3","host":"atl-1.us.uncletopia.com","port":27035,"enabled":true,"region":"us-east","cc":"us","latitude":33.753746,"longitude":-84.38633,"reserved":0,"last_update":"0001-01-01T00:00:00Z","name_a2s":"Uncletopia | Atlanta | 3 | Community","protocol":17,"map":"cp_snakewater_final1","folder":"tf","game":"Team Fortress","app_id":440,"player_count":0,"max_players":24,"Bots":0,"server_type":"Dedicated","server_os":"Linux","password":true,"vac":true,"version":"7757534","steam_id":85568392924515187,"keywords":["cp","nocrits","nodmgspread","uncletopia"],"game_id":440,"stv_port":27036,"stv_name":"Uncletopia | Atlanta | 3 | Community | STV","players":null},{"server_id":401,"name":"Uncletopia | Atlanta | 4 | No Payload","name_short":"atl-4","host":"atl-1.us.uncletopia.com","port":27045,"enabled":true,"region":"us-east","cc":"us","latitude":33.753746,"longitude":-84.38633,"reserved":0,"last_update":"0001-01-01T00:00:00Z","name_a2s":"","protocol":0,"map":"","folder":"","game":"","app_id":0,"player_count":0,"max_players":0,"Bots":0,"server_type":"","server_os":"","password":false,"vac":false,"version":"","steam_id":0,"keywords":null,"game_id":0,"stv_port":0,"stv_name":"","players":null},{"server_id":2,"name":"Uncletopia | Chicago | 1 | All Maps","name_short":"chi-1","host":"chi-1.us.uncletopia.com","port":27015,"enabled":true,"region":"us-central","cc":"us","latitude":41.881832,"longitude":-87.62318,"reserved":0,"last_update":"0001-01-01T00:00:00Z","name_a2s":"Uncletopia | Chicago | 1 | All Maps","protocol":17,"map":"cp_mountainlab","folder":"tf","game":"Team Fortress","app_id":440,"player_count":24,"max_players":24,"Bots":0,"server_type":"Dedicated","server_os":"Linux","password":true,"vac":true,"version":"7757534","steam_id":85568392924469984,"keywords":["cp","nocrits","nodmgspread","uncletopia"],"game_id":440,"stv_port":27016,"stv_name":"Uncletopia | Chicago | 1 | All Maps | STV","players":[{"user_id":5,"name":"Mister Frank","steam_id":76561198161473385,"connected_time":4750000000000,"state":"active","ping":59},{"user_id":54,"name":"jema","steam_id":76561198276513608,"connected_time":503000000000,"state":"active","ping":166},{"user_id":47,"name":"ThePigCollector","steam_id":76561198271953770,"connected_time":1041000000000,"state":"active","ping":85},{"user_id":46,"name":"Doctor Ichor","steam_id":76561198123815761,"connected_time":1061000000000,"state":"active","ping":84},{"user_id":56,"name":"TheLABS","steam_id":76561198376106093,"connected_time":357000000000,"state":"active","ping":64},{"user_id":13,"name":"McSnapperDapple","steam_id":76561199163296508,"connected_time":3698000000000,"state":"active","ping":79},{"user_id":51,"name":"IGotTheLettuce","steam_id":76561198062473897,"connected_time":731000000000,"state":"active","ping":66},{"user_id":55,"name":"TheMoneyMaker","steam_id":76561198313007819,"connected_time":461000000000,"state":"active","ping":83},{"user_id":49,"name":"Pinder","steam_id":76561198176708643,"connected_time":995000000000,"state":"active","ping":86},{"user_id":43,"name":"MamamiaTF2","steam_id":76561199070885213,"connected_time":1301000000000,"state":"active","ping":78},{"user_id":39,"name":"vanilla linguine","steam_id":76561198155661890,"connected_time":2299000000000,"state":"active","ping":68},{"user_id":45,"name":"that one","steam_id":76561199088969462,"connected_time":1118000000000,"state":"active","ping":73},{"user_id":23,"name":"grimp gromp","steam_id":76561199267535506,"connected_time":3140000000000,"state":"active","ping":71},{"user_id":52,"name":"theTheSuzan | trade.tf","steam_id":76561198044181453,"connected_time":551000000000,"state":"active","ping":47},{"user_id":25,"name":"FrogInShorts","steam_id":76561198081903213,"connected_time":3100000000000,"state":"active","ping":81},{"user_id":29,"name":"177013","steam_id":76561198072303290,"connected_time":2933000000000,"state":"active","ping":61},{"user_id":27,"name":"mari_","steam_id":76561198137855741,"connected_time":3018000000000,"state":"active","ping":50},{"user_id":28,"name":"SWmg","steam_id":76561199196956898,"connected_time":2964000000000,"state":"active","ping":181},{"user_id":30,"name":"snart fiffer","steam_id":76561198106917662,"connected_time":2920000000000,"state":"active","ping":87},{"user_id":53,"name":"M1C4A3L","steam_id":76561198009980085,"connected_time":539000000000,"state":"active","ping":85},{"user_id":32,"name":"tyg","steam_id":76561198056246867,"connected_time":2758000000000,"state":"active","ping":65},{"user_id":42,"name":"Pluto","steam_id":76561198338593690,"connected_time":1511000000000,"state":"active","ping":75},{"user_id":58,"name":"Demoman With One Joke","steam_id":76561197993467034,"connected_time":344000000000,"state":"active","ping":45},{"user_id":60,"name":"Chaotic Rushu","steam_id":76561198170054407,"connected_time":40000000000,"state":"active","ping":85}]},{"server_id":106,"name":"Uncletopia | Chicago | 2 | All Maps","name_short":"chi-2","host":"chi-1.us.uncletopia.com","port":27025,"enabled":true,"region":"us-central","cc":"us","latitude":41.881832,"longitude":-87.62318,"reserved":0,"last_update":"0001-01-01T00:00:00Z","name_a2s":"Uncletopia | Chicago | 2 | All Maps","protocol":17,"map":"koth_highpass","folder":"tf","game":"Team Fortress","app_id":440,"player_count":24,"max_players":24,"Bots":0,"server_type":"Dedicated","server_os":"Linux","password":true,"vac":true,"version":"7757534","steam_id":85568392924469985,"keywords":["cp","nocrits","nodmgspread","uncletopia"],"game_id":440,"stv_port":27026,"stv_name":"Uncletopia | Chicago | 2 | All Maps | STV","players":[{"user_id":77,"name":"Jon Snuh","steam_id":76561198075298635,"connected_time":285000000000,"state":"active","ping":53},{"user_id":62,"name":"Gummie","steam_id":76561198807069433,"connected_time":1963000000000,"state":"active","ping":88},{"user_id":78,"name":"THEDINKY","steam_id":76561198190077399,"connected_time":276000000000,"state":"active","ping":60},{"user_id":79,"name":"Gibby","steam_id":76561199336569123,"connected_time":270000000000,"state":"active","ping":114},{"user_id":80,"name":"nnobi","steam_id":76561198878729277,"connected_time":256000000000,"state":"active","ping":76},{"user_id":11,"name":"Hyper","steam_id":76561198976760150,"connected_time":4217000000000,"state":"active","ping":63},{"user_id":74,"name":"Cliff Uppercut","steam_id":76561197999439391,"connected_time":518000000000,"state":"active","ping":78},{"user_id":82,"name":"Chompy115","steam_id":76561199094920380,"connected_time":212000000000,"state":"active","ping":174},{"user_id":71,"name":"Dr.BendyBones","steam_id":76561198048846641,"connected_time":901000000000,"state":"active","ping":67},{"user_id":83,"name":"(_!_) Guinea Pirate .j2","steam_id":76561197993863967,"connected_time":173000000000,"state":"active","ping":141},{"user_id":57,"name":"rabscootle","steam_id":76561198045619076,"connected_time":2100000000000,"state":"active","ping":49},{"user_id":84,"name":"Ltn. What's-his-Nuts","steam_id":76561198133834262,"connected_time":158000000000,"state":"active","ping":58},{"user_id":19,"name":"shake","steam_id":76561199064204750,"connected_time":3975000000000,"state":"active","ping":78},{"user_id":85,"name":"Highground","steam_id":76561199197544789,"connected_time":134000000000,"state":"active","ping":143},{"user_id":75,"name":"Challenger Charles","steam_id":76561198005576553,"connected_time":476000000000,"state":"active","ping":81},{"user_id":64,"name":"TheFestiveDeliveryBoy","steam_id":76561198113246267,"connected_time":1953000000000,"state":"active","ping":54},{"user_id":86,"name":"name420","steam_id":76561198129374525,"connected_time":94000000000,"state":"active","ping":73},{"user_id":87,"name":"CyMeryy","steam_id":76561197984986540,"connected_time":83000000000,"state":"active","ping":61},{"user_id":89,"name":"Snow☆","steam_id":76561198031290573,"connected_time":67000000000,"state":"active","ping":51},{"user_id":26,"name":"Gene Takavic","steam_id":76561198849718710,"connected_time":3778000000000,"state":"active","ping":72},{"user_id":76,"name":"brea?","steam_id":76561198025130409,"connected_time":374000000000,"state":"active","ping":79},{"user_id":50,"name":"pipeline","steam_id":76561198212263380,"connected_time":2665000000000,"state":"active","ping":70},{"user_id":51,"name":"chiswola","steam_id":76561198046920142,"connected_time":2506000000000,"state":"active","ping":73},{"user_id":55,"name":"KFC Rat","steam_id":76561198135128086,"connected_time":2304000000000,"state":"active","ping":115}]},{"server_id":402,"name":"Uncletopia | Chicago | 3 | All Maps","name_short":"chi-3","host":"chi-1.us.uncletopia.com","port":27035,"enabled":true,"region":"us-central","cc":"us","latitude":41.881832,"longitude":-87.62318,"reserved":0,"last_update":"0001-01-01T00:00:00Z","name_a2s":"Uncletopia | Chicago | 3 | All Maps","protocol":17,"map":"cp_sunshine","folder":"tf","game":"Team Fortress","app_id":440,"player_count":0,"max_players":24,"Bots":0,"server_type":"Dedicated","server_os":"Linux","password":true,"vac":true,"version":"7757534","steam_id":85568392924515191,"keywords":["cp","nocrits","nodmgspread","uncletopia"],"game_id":440,"stv_port":27036,"stv_name":"Uncletopia | Chicago | 3 | All Maps | STV","players":null},{"server_id":403,"name":"Uncletopia | Chicago | 4 | All Maps","name_short":"chi-4","host":"chi-1.us.uncletopia.com","port":27045,"enabled":true,"region":"us-central","cc":"us","latitude":41.881832,"longitude":-87.62318,"reserved":0,"last_update":"0001-01-01T00:00:00Z","name_a2s":"Uncletopia | Chicago | 4 | All Maps","protocol":17,"map":"koth_lakeside_final","folder":"tf","game":"Team Fortress","app_id":440,"player_count":0,"max_players":24,"Bots":0,"server_type":"Dedicated","server_os":"Linux","password":true,"vac":true,"version":"7757534","steam_id":85568392924515193,"keywords":["cp","nocrits","nodmgspread","uncletopia"],"game_id":440,"stv_port":27046,"stv_name":"Uncletopia | Chicago | 4 | All Maps | STV","players":null},{"server_id":36,"name":"Uncletopia | Chicago | 5 | All Maps","name_short":"chi-5","host":"chi-2.us.uncletopia.com","port":27015,"enabled":true,"region":"us-central","cc":"us","latitude":41.881832,"longitude":-87.62318,"reserved":0,"last_update":"0001-01-01T00:00:00Z","name_a2s":"Uncletopia | Chicago | 5 | All Maps","protocol":17,"map":"koth_cascade","folder":"tf","game":"Team Fortress","app_id":440,"player_count":0,"max_players":24,"Bots":0,"server_type":"Dedicated","server_os":"Linux","password":true,"vac":true,"version":"7757534","steam_id":85568392924866362,"keywords":["cp","nocrits","nodmgspread","uncletopia"],"game_id":440,"stv_port":27016,"stv_name":"Uncletopia | Chicago | 5 | All Maps | STV","players":null},{"server_id":37,"name":"Uncletopia | Chicago | 6 | All Maps","name_short":"chi-6","host":"chi-2.us.uncletopia.com","port":27025,"enabled":true,"region":"us-central","cc":"us","latitude":41.881832,"longitude":-87.62318,"reserved":0,"last_update":"0001-01-01T00:00:00Z","name_a2s":"Uncletopia | Chicago | 6 | All Maps","protocol":17,"map":"pl_borneo","folder":"tf","game":"Team Fortress","app_id":440,"player_count":0,"max_players":24,"Bots":0,"server_type":"Dedicated","server_os":"Linux","password":true,"vac":true,"version":"7757534","steam_id":85568392924866363,"keywords":["nocrits","nodmgspread","payload","uncletopia"],"game_id":440,"stv_port":27026,"stv_name":"Uncletopia | Chicago | 6 | All Maps | STV","players":null},{"server_id":38,"name":"Uncletopia | Chicago | 7 | Stopwatch Beta","name_short":"chi-7","host":"chi-2.us.uncletopia.com","port":27035,"enabled":true,"region":"us-central","cc":"us","latitude":41.881832,"longitude":-87.62318,"reserved":0,"last_update":"0001-01-01T00:00:00Z","name_a2s":"Uncletopia | Chicago | 7 | Stopwatch Beta","protocol":17,"map":"pl_barnblitz","folder":"tf","game":"Team Fortress","app_id":440,"player_count":0,"max_players":24,"Bots":0,"server_type":"Dedicated","server_os":"Linux","password":true,"vac":true,"version":"7757534","steam_id":85568392924866364,"keywords":["nocrits","nodmgspread","payload","uncletopia"],"game_id":440,"stv_port":27036,"stv_name":"Uncletopia | Chicago | 7 | Stopwatch Beta | STV","players":null},{"server_id":39,"name":"Uncletopia | Chicago | 8 | Community","name_short":"chi-8","host":"chi-2.us.uncletopia.com","port":27045,"enabled":true,"region":"us-central","cc":"us","latitude":41.881832,"longitude":-87.62318,"reserved":0,"last_update":"0001-01-01T00:00:00Z","name_a2s":"Uncletopia | Chicago | 8 | Community","protocol":17,"map":"koth_cascade","folder":"tf","game":"Team Fortress","app_id":440,"player_count":0,"max_players":24,"Bots":0,"server_type":"Dedicated","server_os":"Linux","password":true,"vac":true,"version":"7757534","steam_id":85568392924866365,"keywords":["cp","nocrits","nodmgspread","uncletopia"],"game_id":440,"stv_port":27046,"stv_name":"Uncletopia | Chicago | 8 | Community | STV","players":null},{"server_id":8,"name":"Uncletopia | Dallas | 1 | All Maps","name_short":"dal-1","host":"dal-1.us.uncletopia.com","port":27015,"enabled":true,"region":"us-central","cc":"us","latitude":32.779167,"longitude":-96.80889,"reserved":0,"last_update":"0001-01-01T00:00:00Z","name_a2s":"Uncletopia | Dallas | 1 | All Maps","protocol":17,"map":"koth_cascade","folder":"tf","game":"Team Fortress","app_id":440,"player_count":0,"max_players":24,"Bots":0,"server_type":"Dedicated","server_os":"Linux","password":true,"vac":true,"version":"7757534","steam_id":85568392924469986,"keywords":["cp","nocrits","nodmgspread","uncletopia"],"game_id":440,"stv_port":27016,"stv_name":"Uncletopia | Dallas | 1 | All Maps | STV","players":null},{"server_id":108,"name":"Uncletopia | Dallas | 2 | All Maps","name_short":"dal-2","host":"dal-1.us.uncletopia.com","port":27025,"enabled":true,"region":"us-central","cc":"us","latitude":32.779167,"longitude":-96.80889,"reserved":0,"last_update":"0001-01-01T00:00:00Z","name_a2s":"Uncletopia | Dallas | 2 | All Maps","protocol":17,"map":"cp_mountainlab","folder":"tf","game":"Team Fortress","app_id":440,"player_count":0,"max_players":24,"Bots":0,"server_type":"Dedicated","server_os":"Linux","password":true,"vac":true,"version":"7757534","steam_id":85568392924469988,"keywords":["cp","nocrits","nodmgspread","uncletopia"],"game_id":440,"stv_port":27026,"stv_name":"Uncletopia | Dallas | 2 | All Maps | STV","players":null},{"server_id":5,"name":"Uncletopia | Frankfurt | 1 | All Maps","name_short":"frk-1","host":"frk-1.de.uncletopia.com","port":27015,"enabled":true,"region":"eu","cc":"de","latitude":50.110924,"longitude":8.682127,"reserved":0,"last_update":"0001-01-01T00:00:00Z","name_a2s":"Uncletopia | Frankfurt | 1 | All Maps","protocol":17,"map":"pl_badwater","folder":"tf","game":"Team Fortress","app_id":440,"player_count":3,"max_players":24,"Bots":0,"server_type":"Dedicated","server_os":"Linux","password":true,"vac":true,"version":"7757534","steam_id":85568392924469989,"keywords":["nocrits","nodmgspread","payload","uncletopia"],"game_id":440,"stv_port":27016,"stv_name":"Uncletopia | Frankfurt | 1 | All Maps | STV","players":[{"user_id":7,"name":"kurtdeli60tr","steam_id":76561199077016760,"connected_time":250000000000,"state":"active","ping":115},{"user_id":8,"name":"Bad To Bone","steam_id":76561199445614767,"connected_time":234000000000,"state":"active","ping":125},{"user_id":10,"name":"Обсидиан","steam_id":76561198410978891,"connected_time":129000000000,"state":"active","ping":93}]},{"server_id":110,"name":"Uncletopia | Frankfurt | 2 | All Maps","name_short":"frk-2","host":"frk-1.de.uncletopia.com","port":27025,"enabled":true,"region":"eu","cc":"de","latitude":50.110924,"longitude":8.682127,"reserved":0,"last_update":"0001-01-01T00:00:00Z","name_a2s":"Uncletopia | Frankfurt | 2 | All Maps","protocol":17,"map":"koth_lakeside_final","folder":"tf","game":"Team Fortress","app_id":440,"player_count":0,"max_players":24,"Bots":0,"server_type":"Dedicated","server_os":"Linux","password":true,"vac":true,"version":"7757534","steam_id":85568392924469990,"keywords":["cp","nocrits","nodmgspread","uncletopia"],"game_id":440,"stv_port":27026,"stv_name":"Uncletopia | Frankfurt | 2 | All Maps | STV","players":null},{"server_id":308,"name":"Uncletopia | Frankfurt | 3 | All Maps","name_short":"frk-3","host":"frk-1.de.uncletopia.com","port":27035,"enabled":true,"region":"eu","cc":"de","latitude":50.110924,"longitude":8.682127,"reserved":0,"last_update":"0001-01-01T00:00:00Z","name_a2s":"Uncletopia | Frankfurt | 3 | All Maps","protocol":17,"map":"pl_frontier_final","folder":"tf","game":"Team Fortress","app_id":440,"player_count":24,"max_players":24,"Bots":0,"server_type":"Dedicated","server_os":"Linux","password":true,"vac":true,"version":"7757534","steam_id":85568392924504274,"keywords":["nocrits","nodmgspread","payload","uncletopia"],"game_id":440,"stv_port":27036,"stv_name":"Uncletopia | Frankfurt | 3 | All Maps | STV","players":[{"user_id":269,"name":"cheezball1997","steam_id":76561198059782462,"connected_time":113000000000,"state":"active","ping":47},{"user_id":266,"name":"Jebecky","steam_id":76561198093727162,"connected_time":192000000000,"state":"active","ping":159},{"user_id":265,"name":"Firevell","steam_id":76561198154813359,"connected_time":243000000000,"state":"active","ping":57},{"user_id":234,"name":"faqing POG BOG","steam_id":76561198042749479,"connected_time":2951000000000,"state":"active","ping":57},{"user_id":251,"name":"pen is","steam_id":76561198095560087,"connected_time":2256000000000,"state":"active","ping":72},{"user_id":199,"name":"Merc","steam_id":76561198044864067,"connected_time":6149000000000,"state":"active","ping":99},{"user_id":255,"name":"Fluffy","steam_id":76561198084447725,"connected_time":1539000000000,"state":"active","ping":45},{"user_id":262,"name":"on1on (fried)","steam_id":76561197995304137,"connected_time":595000000000,"state":"active","ping":62},{"user_id":267,"name":"luckyastroman","steam_id":76561199027500574,"connected_time":164000000000,"state":"active","ping":68},{"user_id":244,"name":"bachusa1657","steam_id":76561198202175911,"connected_time":2667000000000,"state":"active","ping":70},{"user_id":224,"name":"baro.ricky","steam_id":76561198172204039,"connected_time":3510000000000,"state":"active","ping":71},{"user_id":217,"name":"Bulyto","steam_id":76561198043205202,"connected_time":3820000000000,"state":"active","ping":67},{"user_id":260,"name":"Piox","steam_id":76561198125689157,"connected_time":746000000000,"state":"active","ping":78},{"user_id":246,"name":"Grillem Dafoe","steam_id":76561198306874574,"connected_time":2440000000000,"state":"active","ping":80},{"user_id":253,"name":"Ironsiren","steam_id":76561198098075733,"connected_time":1752000000000,"state":"active","ping":100},{"user_id":93,"name":"bird (trans rights)","steam_id":76561198393596975,"connected_time":14005000000000,"state":"active","ping":49},{"user_id":258,"name":"spajro","steam_id":76561198257383813,"connected_time":1422000000000,"state":"active","ping":55},{"user_id":240,"name":"pure guava","steam_id":76561198218036561,"connected_time":2893000000000,"state":"active","ping":63},{"user_id":254,"name":"Devil","steam_id":76561198129721935,"connected_time":1584000000000,"state":"active","ping":102},{"user_id":263,"name":"MEGA KNIGHT","steam_id":76561198380483412,"connected_time":534000000000,"state":"active","ping":104},{"user_id":256,"name":"tallen","steam_id":76561198061708595,"connected_time":1519000000000,"state":"active","ping":82},{"user_id":259,"name":"Jyghc","steam_id":76561198405980575,"connected_time":755000000000,"state":"active","ping":64},{"user_id":268,"name":"ztrs6","steam_id":76561198314853803,"connected_time":163000000000,"state":"active","ping":88},{"user_id":261,"name":"def","steam_id":76561198857396812,"connected_time":745000000000,"state":"active","ping":49}]},{"server_id":309,"name":"Uncletopia | Frankfurt | 4 | All Maps","name_short":"frk-4","host":"frk-1.de.uncletopia.com","port":27045,"enabled":true,"region":"eu","cc":"de","latitude":50.110924,"longitude":8.682127,"reserved":0,"last_update":"0001-01-01T00:00:00Z","name_a2s":"Uncletopia | Frankfurt | 4 | All Maps","protocol":17,"map":"koth_viaduct","folder":"tf","game":"Team Fortress","app_id":440,"player_count":0,"max_players":24,"Bots":0,"server_type":"Dedicated","server_os":"Linux","password":true,"vac":true,"version":"7757534","steam_id":85568392924504275,"keywords":["cp","nocrits","nodmgspread","uncletopia"],"game_id":440,"stv_port":27046,"stv_name":"Uncletopia | Frankfurt | 4 | All Maps | STV","players":null},{"server_id":310,"name":"Uncletopia | Frankfurt | 5 | All Maps","name_short":"frk-5","host":"frk-1.de.uncletopia.com","port":27055,"enabled":true,"region":"eu","cc":"de","latitude":50.110924,"longitude":8.682127,"reserved":0,"last_update":"0001-01-01T00:00:00Z","name_a2s":"Uncletopia | Frankfurt | 5 | All Maps","protocol":17,"map":"pl_upward","folder":"tf","game":"Team Fortress","app_id":440,"player_count":24,"max_players":24,"Bots":0,"server_type":"Dedicated","server_os":"Linux","password":true,"vac":true,"version":"7757534","steam_id":85568392924504277,"keywords":["nocrits","nodmgspread","payload","uncletopia"],"game_id":440,"stv_port":27056,"stv_name":"Uncletopia | Frankfurt | 5 | All Maps | STV","players":[{"user_id":133,"name":"Flint","steam_id":76561197995920776,"connected_time":417000000000,"state":"active","ping":40},{"user_id":120,"name":"KAZAM | Tervez","steam_id":76561198045459068,"connected_time":1086000000000,"state":"active","ping":80},{"user_id":94,"name":"GamerPanda","steam_id":76561198061454277,"connected_time":2328000000000,"state":"active","ping":56},{"user_id":106,"name":"prophits","steam_id":76561198011854314,"connected_time":2207000000000,"state":"active","ping":64},{"user_id":128,"name":"LoLo","steam_id":76561199403387863,"connected_time":754000000000,"state":"active","ping":63},{"user_id":121,"name":"Daza_3s","steam_id":76561198796443584,"connected_time":1047000000000,"state":"active","ping":44},{"user_id":131,"name":"coffee","steam_id":76561198382387303,"connected_time":497000000000,"state":"active","ping":83},{"user_id":93,"name":"Tre3","steam_id":76561198054795379,"connected_time":2357000000000,"state":"active","ping":59},{"user_id":122,"name":"I-I","steam_id":76561198267969436,"connected_time":997000000000,"state":"active","ping":68},{"user_id":109,"name":"Umbro","steam_id":76561198087930438,"connected_time":2167000000000,"state":"active","ping":70},{"user_id":123,"name":"epic party rat","steam_id":76561199100632053,"connected_time":986000000000,"state":"active","ping":65},{"user_id":124,"name":"Gamlader","steam_id":76561198306177608,"connected_time":972000000000,"state":"active","ping":71},{"user_id":134,"name":"Rambi","steam_id":76561199058078505,"connected_time":414000000000,"state":"active","ping":152},{"user_id":135,"name":"He could be any one of us","steam_id":76561198320506848,"connected_time":378000000000,"state":"active","ping":59},{"user_id":125,"name":"Clovis","steam_id":76561198076881381,"connected_time":893000000000,"state":"active","ping":66},{"user_id":126,"name":"Brinier","steam_id":76561199012604288,"connected_time":782000000000,"state":"active","ping":55},{"user_id":89,"name":"Vezage","steam_id":76561198064916164,"connected_time":3040000000000,"state":"active","ping":75},{"user_id":127,"name":"gaming for jesus","steam_id":76561199236428794,"connected_time":772000000000,"state":"active","ping":84},{"user_id":104,"name":"VanillaWoof","steam_id":76561198158343951,"connected_time":2275000000000,"state":"active","ping":53},{"user_id":136,"name":"Mar","steam_id":76561198127633424,"connected_time":202000000000,"state":"active","ping":97},{"user_id":129,"name":"TryX","steam_id":76561199356781475,"connected_time":709000000000,"state":"active","ping":66},{"user_id":103,"name":"Pancakes","steam_id":76561198196259989,"connected_time":2282000000000,"state":"active","ping":60},{"user_id":130,"name":"piping hot","steam_id":76561198011692496,"connected_time":693000000000,"state":"active","ping":60},{"user_id":132,"name":"Francisco","steam_id":76561198074614581,"connected_time":493000000000,"state":"active","ping":62}]},{"server_id":311,"name":"Uncletopia | Frankfurt | 6 | All Maps","name_short":"frk-6","host":"frk-1.de.uncletopia.com","port":27065,"enabled":true,"region":"eu","cc":"de","latitude":50.110924,"longitude":8.682127,"reserved":0,"last_update":"0001-01-01T00:00:00Z","name_a2s":"Uncletopia | Frankfurt | 6 | All Maps","protocol":17,"map":"pl_goldrush","folder":"tf","game":"Team Fortress","app_id":440,"player_count":24,"max_players":24,"Bots":0,"server_type":"Dedicated","server_os":"Linux","password":true,"vac":true,"version":"7757534","steam_id":85568392924504278,"keywords":["nocrits","nodmgspread","payload","uncletopia"],"game_id":440,"stv_port":27066,"stv_name":"Uncletopia | Frankfurt | 6 | All Maps | STV","players":[{"user_id":348,"name":"Sweetcheesus","steam_id":76561198022299033,"connected_time":343000000000,"state":"active","ping":46},{"user_id":336,"name":"Morutomo","steam_id":76561198100640441,"connected_time":1158000000000,"state":"active","ping":109},{"user_id":343,"name":"SaltyCupcakes","steam_id":76561198256386417,"connected_time":841000000000,"state":"active","ping":59},{"user_id":262,"name":"Wululu","steam_id":76561198180657331,"connected_time":4404000000000,"state":"active","ping":62},{"user_id":352,"name":"САНЯ ВОДІЛА","steam_id":76561198343380238,"connected_time":65000000000,"state":"active","ping":78},{"user_id":349,"name":"Polech","steam_id":76561199187916824,"connected_time":246000000000,"state":"active","ping":88},{"user_id":250,"name":"After8","steam_id":76561198090750865,"connected_time":5269000000000,"state":"active","ping":60},{"user_id":351,"name":"koji","steam_id":76561198051636999,"connected_time":69000000000,"state":"active","ping":49},{"user_id":309,"name":"Kamikrazy","steam_id":76561198044254918,"connected_time":2545000000000,"state":"active","ping":72},{"user_id":344,"name":"My left foot itches","steam_id":76561198078411001,"connected_time":779000000000,"state":"active","ping":80},{"user_id":350,"name":"Szynuu","steam_id":76561198053147343,"connected_time":83000000000,"state":"active","ping":53},{"user_id":337,"name":"Cosmetic brain","steam_id":76561198055936410,"connected_time":1140000000000,"state":"active","ping":90},{"user_id":313,"name":"Farmercy","steam_id":76561198000038039,"connected_time":2448000000000,"state":"active","ping":60},{"user_id":332,"name":"ronz","steam_id":76561198202166884,"connected_time":1254000000000,"state":"active","ping":62},{"user_id":300,"name":"fmdi","steam_id":76561199433879329,"connected_time":2997000000000,"state":"active","ping":69},{"user_id":338,"name":"Packet","steam_id":76561199173195875,"connected_time":1136000000000,"state":"active","ping":97},{"user_id":228,"name":"[P-roc] Cmm Bert","steam_id":76561198016658674,"connected_time":6722000000000,"state":"active","ping":72},{"user_id":324,"name":"Lordware","steam_id":76561198022011299,"connected_time":1526000000000,"state":"active","ping":98},{"user_id":263,"name":"ereh","steam_id":76561198061239823,"connected_time":4392000000000,"state":"active","ping":73},{"user_id":290,"name":"Doctor Pootis","steam_id":76561198158039598,"connected_time":3155000000000,"state":"active","ping":70},{"user_id":346,"name":"Combat Wombat","steam_id":76561197994720068,"connected_time":545000000000,"state":"active","ping":79},{"user_id":316,"name":"jill valentine","steam_id":76561198075068529,"connected_time":2284000000000,"state":"active","ping":57},{"user_id":326,"name":"Kestrel","steam_id":76561198144033005,"connected_time":1507000000000,"state":"active","ping":66},{"user_id":347,"name":"Andrew_ryazan","steam_id":76561198004080116,"connected_time":535000000000,"state":"active","ping":91}]},{"server_id":23,"name":"Uncletopia | Frankfurt | 7 | Stopwatch Beta","name_short":"frk-7","host":"frk-1.de.uncletopia.com","port":27075,"enabled":true,"region":"eu","cc":"de","latitude":50.110924,"longitude":8.682127,"reserved":0,"last_update":"0001-01-01T00:00:00Z","name_a2s":"Uncletopia | Frankfurt | 7 | Stopwatch Beta","protocol":17,"map":"workshop/koth_clearcut_b15.ugc2107050255","folder":"tf","game":"Team Fortress","app_id":440,"player_count":0,"max_players":24,"Bots":0,"server_type":"Dedicated","server_os":"Linux","password":true,"vac":true,"version":"7757534","steam_id":85568392924742827,"keywords":["cp","nocrits","nodmgspread","uncletopia"],"game_id":440,"stv_port":27076,"stv_name":"Uncletopia | Frankfurt | 7 | Stopwatch Beta | STV","players":null},{"server_id":24,"name":"Uncletopia | Frankfurt | 8 | Community","name_short":"frk-8","host":"frk-1.de.uncletopia.com","port":27085,"enabled":true,"region":"eu","cc":"de","latitude":50.110924,"longitude":8.682127,"reserved":0,"last_update":"0001-01-01T00:00:00Z","name_a2s":"Uncletopia | Frankfurt | 8 | Community","protocol":17,"map":"koth_lakeside_final","folder":"tf","game":"Team Fortress","app_id":440,"player_count":0,"max_players":24,"Bots":0,"server_type":"Dedicated","server_os":"Linux","password":true,"vac":true,"version":"7757534","steam_id":85568392924742828,"keywords":["cp","nocrits","nodmgspread","uncletopia"],"game_id":440,"stv_port":27086,"stv_name":"Uncletopia | Frankfurt | 8 | Community | STV","players":null},{"server_id":202,"name":"Uncletopia | Hong Kong | 1 | All Maps","name_short":"hgk-1","host":"hgk-1.hk.uncletopia.com","port":27015,"enabled":true,"region":"asia","cc":"hk","latitude":22.302711,"longitude":114.177216,"reserved":0,"last_update":"0001-01-01T00:00:00Z","name_a2s":"Uncletopia | Hong Kong | 1 | All Maps","protocol":17,"map":"pl_swiftwater_final1","folder":"tf","game":"Team Fortress","app_id":440,"player_count":24,"max_players":24,"Bots":0,"server_type":"Dedicated","server_os":"Linux","password":true,"vac":true,"version":"7757534","steam_id":85568392924494504,"keywords":["nocrits","nodmgspread","payload","uncletopia"],"game_id":440,"stv_port":27016,"stv_name":"Uncletopia | Hong Kong | 1 | All Maps | STV","players":[{"user_id":210,"name":"nyakky","steam_id":76561198927779787,"connected_time":8791000000000,"state":"active","ping":91},{"user_id":393,"name":"Wx","steam_id":76561199217780897,"connected_time":928000000000,"state":"active","ping":115},{"user_id":405,"name":"Kairos","steam_id":76561198079927520,"connected_time":427000000000,"state":"active","ping":39},{"user_id":399,"name":"Red Cross Society","steam_id":76561199106456445,"connected_time":680000000000,"state":"active","ping":79},{"user_id":46,"name":"silverhouse7","steam_id":76561198349634906,"connected_time":24473000000000,"state":"active","ping":64},{"user_id":388,"name":"TheChainsaw","steam_id":76561198312001455,"connected_time":1236000000000,"state":"active","ping":113},{"user_id":408,"name":"Arpazha","steam_id":76561199072257230,"connected_time":243000000000,"state":"active","ping":108},{"user_id":299,"name":"쿠키","steam_id":76561197997220367,"connected_time":7382000000000,"state":"active","ping":55},{"user_id":328,"name":"Wizzkill","steam_id":76561199131526926,"connected_time":5560000000000,"state":"active","ping":83},{"user_id":349,"name":"Beef Wellington","steam_id":76561197995635241,"connected_time":3198000000000,"state":"active","ping":118},{"user_id":371,"name":"sinyeon","steam_id":76561198125363469,"connected_time":2163000000000,"state":"active","ping":82},{"user_id":350,"name":"Azi","steam_id":76561198147872523,"connected_time":3127000000000,"state":"active","ping":63},{"user_id":346,"name":"母の肉団子@hao123.com","steam_id":76561198069561896,"connected_time":3258000000000,"state":"active","ping":42},{"user_id":368,"name":"TomProPlayer","steam_id":76561199223292521,"connected_time":2474000000000,"state":"active","ping":74},{"user_id":374,"name":"part 9 fan","steam_id":76561198092969425,"connected_time":1893000000000,"state":"active","ping":120},{"user_id":375,"name":"Xh4dow","steam_id":76561199171823881,"connected_time":1879000000000,"state":"active","ping":135},{"user_id":353,"name":"Cloud-Verse","steam_id":76561198194370973,"connected_time":3045000000000,"state":"active","ping":139},{"user_id":326,"name":"P","steam_id":76561198304514505,"connected_time":6027000000000,"state":"active","ping":75},{"user_id":403,"name":"mohamadparadox","steam_id":76561198346156085,"connected_time":527000000000,"state":"active","ping":151},{"user_id":338,"name":"brizzard","steam_id":76561198048438653,"connected_time":3930000000000,"state":"active","ping":55},{"user_id":351,"name":"AmaiToxic","steam_id":76561199122491157,"connected_time":3109000000000,"state":"active","ping":118},{"user_id":396,"name":"caramelCase","steam_id":76561198871689972,"connected_time":855000000000,"state":"active","ping":145},{"user_id":391,"name":"Michael Scott","steam_id":76561198023082794,"connected_time":1128000000000,"state":"active","ping":56},{"user_id":397,"name":"Leo Chung","steam_id":76561198044007777,"connected_time":833000000000,"state":"active","ping":96}]},{"server_id":1,"name":"Uncletopia | Los Angeles | 1 | All Maps","name_short":"lax-1","host":"lax-1.us.uncletopia.com","port":27015,"enabled":true,"region":"us-west","cc":"us","latitude":33.94279,"longitude":-118.41004,"reserved":0,"last_update":"0001-01-01T00:00:00Z","name_a2s":"Uncletopia | Los Angeles | 1 | All Maps","protocol":17,"map":"koth_lakeside_final","folder":"tf","game":"Team Fortress","app_id":440,"player_count":0,"max_players":24,"Bots":0,"server_type":"Dedicated","server_os":"Linux","password":true,"vac":true,"version":"7757534","steam_id":85568392924469991,"keywords":["cp","nocrits","nodmgspread","uncletopia"],"game_id":440,"stv_port":27016,"stv_name":"Uncletopia | Los Angeles | 1 | All Maps | STV","players":null},{"server_id":112,"name":"Uncletopia | Los Angeles | 2 | All Maps","name_short":"lax-2","host":"lax-1.us.uncletopia.com","port":27025,"enabled":true,"region":"us-west","cc":"us","latitude":33.94279,"longitude":-118.41004,"reserved":0,"last_update":"0001-01-01T00:00:00Z","name_a2s":"Uncletopia | Los Angeles | 2 | All Maps","protocol":17,"map":"pl_badwater","folder":"tf","game":"Team Fortress","app_id":440,"player_count":0,"max_players":24,"Bots":0,"server_type":"Dedicated","server_os":"Linux","password":true,"vac":true,"version":"7757534","steam_id":85568392924469992,"keywords":["nocrits","nodmgspread","payload","uncletopia"],"game_id":440,"stv_port":27026,"stv_name":"Uncletopia | Los Angeles | 2 | All Maps | STV","players":null},{"server_id":324,"name":"Uncletopia | Los Angeles | 3 | All Maps","name_short":"lax-3","host":"lax-1.us.uncletopia.com","port":27035,"enabled":true,"region":"us-west","cc":"us","latitude":33.94279,"longitude":-118.41004,"reserved":0,"last_update":"0001-01-01T00:00:00Z","name_a2s":"Uncletopia | Los Angeles | 3 | All Maps","protocol":17,"map":"pl_barnblitz","folder":"tf","game":"Team Fortress","app_id":440,"player_count":0,"max_players":24,"Bots":0,"server_type":"Dedicated","server_os":"Linux","password":true,"vac":true,"version":"7757534","steam_id":85568392924510198,"keywords":["nocrits","nodmgspread","payload","uncletopia"],"game_id":440,"stv_port":27036,"stv_name":"Uncletopia | Los Angeles | 3 | All Maps | STV","players":null},{"server_id":25,"name":"Uncletopia | Los Angeles | 4 | Stopwatch Beta","name_short":"lax-4","host":"lax-1.us.uncletopia.com","port":27045,"enabled":true,"region":"us-west","cc":"us","latitude":33.94279,"longitude":-118.41004,"reserved":0,"last_update":"0001-01-01T00:00:00Z","name_a2s":"Uncletopia | Los Angeles | 4 | Stopwatch Beta","protocol":17,"map":"pl_swiftwater_final1","folder":"tf","game":"Team Fortress","app_id":440,"player_count":0,"max_players":24,"Bots":0,"server_type":"Dedicated","server_os":"Linux","password":true,"vac":true,"version":"7757534","steam_id":85568392924510199,"keywords":["nocrits","nodmgspread","payload","uncletopia"],"game_id":440,"stv_port":27046,"stv_name":"Uncletopia | Los Angeles | 4 | Stopwatch Beta | STV","players":null},{"server_id":11,"name":"Uncletopia | London | 1 | All Maps","name_short":"lon-1","host":"lon-1.uk.uncletopia.com","port":27015,"enabled":true,"region":"eu","cc":"gb","latitude":51.509865,"longitude":-0.118092,"reserved":0,"last_update":"0001-01-01T00:00:00Z","name_a2s":"Uncletopia | London | 1 | All Maps","protocol":17,"map":"cp_gullywash_final1","folder":"tf","game":"Team Fortress","app_id":440,"player_count":24,"max_players":24,"Bots":0,"server_type":"Dedicated","server_os":"Linux","password":true,"vac":true,"version":"7757534","steam_id":85568392924367362,"keywords":["cp","nocrits","nodmgspread","uncletopia"],"game_id":440,"stv_port":27016,"stv_name":"Uncletopia | London | 1 | All Maps | STV","players":[{"user_id":435,"name":"lark","steam_id":76561198091724522,"connected_time":4000000000,"state":"spawning","ping":51},{"user_id":428,"name":"♥ aura ♥","steam_id":76561198066258544,"connected_time":139000000000,"state":"active","ping":60},{"user_id":407,"name":"Mango-Man","steam_id":76561198840558687,"connected_time":2603000000000,"state":"active","ping":69},{"user_id":408,"name":"Fat Pigeon","steam_id":76561198817940142,"connected_time":2569000000000,"state":"active","ping":55},{"user_id":421,"name":"lol","steam_id":76561198322087870,"connected_time":772000000000,"state":"active","ping":105},{"user_id":429,"name":"Ohad","steam_id":76561198067989324,"connected_time":136000000000,"state":"active","ping":104},{"user_id":427,"name":"SARCASMISH","steam_id":76561198370404546,"connected_time":145000000000,"state":"active","ping":161},{"user_id":417,"name":"NitPig","steam_id":76561198212991935,"connected_time":1205000000000,"state":"active","ping":93},{"user_id":413,"name":"player","steam_id":76561198054474684,"connected_time":1597000000000,"state":"active","ping":88},{"user_id":395,"name":"ciliorkun18","steam_id":76561198228942500,"connected_time":2930000000000,"state":"active","ping":92},{"user_id":424,"name":"scrumpy","steam_id":76561198218787232,"connected_time":419000000000,"state":"active","ping":49},{"user_id":415,"name":"(1) XCheatLmaoX123","steam_id":76561199041640689,"connected_time":1339000000000,"state":"active","ping":102},{"user_id":432,"name":"Alfred Schroom","steam_id":76561198117990411,"connected_time":83000000000,"state":"active","ping":124},{"user_id":422,"name":"Haircut Police","steam_id":76561198084197772,"connected_time":714000000000,"state":"active","ping":111},{"user_id":431,"name":"kris the deer (lagging)","steam_id":76561198170928310,"connected_time":85000000000,"state":"active","ping":126},{"user_id":433,"name":"ScarredPixel123","steam_id":76561199165112703,"connected_time":79000000000,"state":"active","ping":87},{"user_id":369,"name":"the_Qcumber","steam_id":76561199152515819,"connected_time":5654000000000,"state":"active","ping":72},{"user_id":423,"name":"Zaxx","steam_id":76561197974385221,"connected_time":666000000000,"state":"active","ping":47},{"user_id":406,"name":"Fozux","steam_id":76561198338204384,"connected_time":2686000000000,"state":"active","ping":94},{"user_id":434,"name":"Ablativus","steam_id":76561198025698470,"connected_time":77000000000,"state":"active","ping":76},{"user_id":347,"name":"MasterAmongRust","steam_id":76561198010160233,"connected_time":6899000000000,"state":"active","ping":169},{"user_id":426,"name":"bread","steam_id":76561198111097313,"connected_time":259000000000,"state":"active","ping":72},{"user_id":401,"name":"DjinnKinn","steam_id":76561198029913860,"connected_time":2738000000000,"state":"active","ping":65}]},{"server_id":114,"name":"Uncletopia | London | 2 | All Maps","name_short":"lon-2","host":"lon-1.uk.uncletopia.com","port":27025,"enabled":true,"region":"eu","cc":"gb","latitude":51.509865,"longitude":-0.118092,"reserved":0,"last_update":"0001-01-01T00:00:00Z","name_a2s":"Uncletopia | London | 2 | All Maps","protocol":17,"map":"pl_goldrush","folder":"tf","game":"Team Fortress","app_id":440,"player_count":24,"max_players":24,"Bots":0,"server_type":"Dedicated","server_os":"Linux","password":true,"vac":true,"version":"7757534","steam_id":85568392924470941,"keywords":["nocrits","nodmgspread","payload","uncletopia"],"game_id":440,"stv_port":27026,"stv_name":"Uncletopia | London | 2 | All Maps | STV","players":[{"user_id":27,"name":"Striker","steam_id":76561198100173021,"connected_time":2790000000000,"state":"active","ping":60},{"user_id":69,"name":"Nutz On Yo Chin","steam_id":76561197962978554,"connected_time":680000000000,"state":"active","ping":131},{"user_id":71,"name":"RiX","steam_id":76561197969053733,"connected_time":500000000000,"state":"active","ping":65},{"user_id":48,"name":"Seneron4","steam_id":76561198107658391,"connected_time":2032000000000,"state":"active","ping":82},{"user_id":26,"name":"Mircoxi","steam_id":76561199407632710,"connected_time":2806000000000,"state":"active","ping":68},{"user_id":73,"name":"homeinvasion$","steam_id":76561199111905021,"connected_time":415000000000,"state":"active","ping":116},{"user_id":74,"name":"midlpsyzl47","steam_id":76561199475972637,"connected_time":412000000000,"state":"active","ping":65},{"user_id":38,"name":"swayze","steam_id":76561198141744030,"connected_time":2362000000000,"state":"active","ping":59},{"user_id":72,"name":"glow","steam_id":76561198086654069,"connected_time":485000000000,"state":"active","ping":74},{"user_id":32,"name":"a straight white male","steam_id":76561198381120660,"connected_time":2550000000000,"state":"active","ping":91},{"user_id":75,"name":"Jesus Enjoyer","steam_id":76561198840259819,"connected_time":386000000000,"state":"active","ping":60},{"user_id":62,"name":"Oceanic | tuesday maybe","steam_id":76561197979741827,"connected_time":1246000000000,"state":"active","ping":76},{"user_id":76,"name":"♥ Cirno ♥","steam_id":76561198834982738,"connected_time":323000000000,"state":"active","ping":71},{"user_id":63,"name":"lofimonkeyjazz","steam_id":76561198117059662,"connected_time":1219000000000,"state":"active","ping":81},{"user_id":49,"name":"Pixie","steam_id":76561198044038797,"connected_time":2025000000000,"state":"active","ping":86},{"user_id":59,"name":"1312589","steam_id":76561198079293782,"connected_time":1485000000000,"state":"active","ping":60},{"user_id":45,"name":"Glitch","steam_id":76561198309789756,"connected_time":2106000000000,"state":"active","ping":75},{"user_id":47,"name":"dr. coom","steam_id":76561198172193711,"connected_time":2088000000000,"state":"active","ping":41},{"user_id":50,"name":"Mr. House (Real)","steam_id":76561198162554213,"connected_time":2019000000000,"state":"active","ping":89},{"user_id":52,"name":"troglodyke","steam_id":76561199400809482,"connected_time":1969000000000,"state":"active","ping":56},{"user_id":53,"name":"Brezak","steam_id":76561198967550414,"connected_time":1958000000000,"state":"active","ping":66},{"user_id":56,"name":"Tom Foolery","steam_id":76561198358895809,"connected_time":1771000000000,"state":"active","ping":54},{"user_id":64,"name":"howabe","steam_id":76561197996486818,"connected_time":960000000000,"state":"active","ping":64},{"user_id":67,"name":"skull_is_dull","steam_id":76561198894586673,"connected_time":890000000000,"state":"active","ping":40}]},{"server_id":320,"name":"Uncletopia | London | 3 | All Maps","name_short":"lon-3","host":"lon-1.uk.uncletopia.com","port":27035,"enabled":true,"region":"eu","cc":"gb","latitude":51.509865,"longitude":-0.118092,"reserved":0,"last_update":"0001-01-01T00:00:00Z","name_a2s":"Uncletopia | London | 3 | All Maps","protocol":17,"map":"koth_highpass","folder":"tf","game":"Team Fortress","app_id":440,"player_count":0,"max_players":24,"Bots":0,"server_type":"Dedicated","server_os":"Linux","password":true,"vac":true,"version":"7757534","steam_id":85568392924510192,"keywords":["cp","nocrits","nodmgspread","uncletopia"],"game_id":440,"stv_port":27036,"stv_name":"Uncletopia | London | 3 | All Maps | STV","players":null},{"server_id":321,"name":"Uncletopia | London | 4 | All Maps","name_short":"lon-4","host":"lon-1.uk.uncletopia.com","port":27045,"enabled":true,"region":"eu","cc":"gb","latitude":51.509865,"longitude":-0.118092,"reserved":0,"last_update":"0001-01-01T00:00:00Z","name_a2s":"Uncletopia | London | 4 | All Maps","protocol":17,"map":"pl_badwater","folder":"tf","game":"Team Fortress","app_id":440,"player_count":24,"max_players":24,"Bots":0,"server_type":"Dedicated","server_os":"Linux","password":true,"vac":true,"version":"7757534","steam_id":85568392924510193,"keywords":["nocrits","nodmgspread","payload","uncletopia"],"game_id":440,"stv_port":27046,"stv_name":"Uncletopia | London | 4 | All Maps | STV","players":[{"user_id":256,"name":"Chinese censorship Bureau","steam_id":76561198397898616,"connected_time":1050000000000,"state":"active","ping":60},{"user_id":260,"name":"Chocofrolik","steam_id":76561198454779847,"connected_time":832000000000,"state":"active","ping":57},{"user_id":267,"name":"Kvicha Kvaratskhelia","steam_id":76561198179339326,"connected_time":454000000000,"state":"active","ping":88},{"user_id":244,"name":"Naps","steam_id":76561198059427484,"connected_time":1883000000000,"state":"active","ping":70},{"user_id":271,"name":"ムGeRmAn |×UA×ム","steam_id":76561199044754898,"connected_time":185000000000,"state":"active","ping":75},{"user_id":148,"name":"Spetse","steam_id":76561197990649972,"connected_time":6281000000000,"state":"active","ping":91},{"user_id":235,"name":"Ghost11","steam_id":76561198068892992,"connected_time":2668000000000,"state":"active","ping":115},{"user_id":218,"name":"Anonymous47007","steam_id":76561199005211417,"connected_time":3583000000000,"state":"active","ping":84},{"user_id":249,"name":"dieguitopro69","steam_id":76561199197550010,"connected_time":1533000000000,"state":"active","ping":181},{"user_id":269,"name":"Toaster The Whaler","steam_id":76561198018826007,"connected_time":392000000000,"state":"active","ping":59},{"user_id":254,"name":"GoatLord1","steam_id":76561198157964544,"connected_time":1115000000000,"state":"active","ping":52},{"user_id":266,"name":"magiluli","steam_id":76561199126600639,"connected_time":501000000000,"state":"active","ping":111},{"user_id":265,"name":"quickfast","steam_id":76561199438900919,"connected_time":561000000000,"state":"active","ping":41},{"user_id":264,"name":"Nugget","steam_id":76561198338916407,"connected_time":655000000000,"state":"active","ping":77},{"user_id":213,"name":"NOM","steam_id":76561198062033234,"connected_time":3734000000000,"state":"active","ping":65},{"user_id":270,"name":"dar","steam_id":76561198371657696,"connected_time":350000000000,"state":"active","ping":62},{"user_id":261,"name":"[BGS] One-Punch Retard","steam_id":76561198029932939,"connected_time":796000000000,"state":"active","ping":93},{"user_id":216,"name":"Der Herr Doktor","steam_id":76561198119476089,"connected_time":3635000000000,"state":"active","ping":62},{"user_id":268,"name":"Weeb exterminator","steam_id":76561198078964973,"connected_time":437000000000,"state":"active","ping":72},{"user_id":255,"name":"Eggcracker","steam_id":76561199274850641,"connected_time":1101000000000,"state":"active","ping":85},{"user_id":232,"name":"Dithmarschen","steam_id":76561198068917140,"connected_time":2900000000000,"state":"active","ping":99},{"user_id":241,"name":"Mr.Happy","steam_id":76561198009646650,"connected_time":2008000000000,"state":"active","ping":106},{"user_id":258,"name":"ToniGAM3S","steam_id":76561198128605351,"connected_time":991000000000,"state":"active","ping":73},{"user_id":179,"name":"KingStrikeShot","steam_id":76561198274505674,"connected_time":5367000000000,"state":"active","ping":75}]},{"server_id":21,"name":"Uncletopia | London | 5 | All Maps","name_short":"lon-5","host":"lon-1.uk.uncletopia.com","port":27055,"enabled":true,"region":"eu","cc":"gb","latitude":51.509865,"longitude":-0.118092,"reserved":0,"last_update":"0001-01-01T00:00:00Z","name_a2s":"Uncletopia | London | 5 | All Maps","protocol":17,"map":"pl_pier","folder":"tf","game":"Team Fortress","app_id":440,"player_count":0,"max_players":24,"Bots":0,"server_type":"Dedicated","server_os":"Linux","password":true,"vac":true,"version":"7757534","steam_id":85568392924742829,"keywords":["nocrits","nodmgspread","payload","uncletopia"],"game_id":440,"stv_port":27056,"stv_name":"Uncletopia | London | 5 | All Maps | STV","players":null},{"server_id":22,"name":"Uncletopia | London | 6 | All Maps","name_short":"lon-6","host":"lon-1.uk.uncletopia.com","port":27065,"enabled":true,"region":"eu","cc":"gb","latitude":51.509865,"longitude":-0.118092,"reserved":0,"last_update":"0001-01-01T00:00:00Z","name_a2s":"Uncletopia | London | 6 | All Maps","protocol":17,"map":"pl_snowycoast","folder":"tf","game":"Team Fortress","app_id":440,"player_count":0,"max_players":24,"Bots":0,"server_type":"Dedicated","server_os":"Linux","password":true,"vac":true,"version":"7757534","steam_id":85568392924742830,"keywords":["nocrits","nodmgspread","payload","uncletopia"],"game_id":440,"stv_port":27066,"stv_name":"Uncletopia | London | 6 | All Maps | STV","players":null},{"server_id":40,"name":"Uncletopia | London | 7 | No Payload","name_short":"lon-7","host":"lon-1.uk.uncletopia.com","port":27075,"enabled":true,"region":"eu","cc":"gb","latitude":51.509865,"longitude":-0.118092,"reserved":0,"last_update":"0001-01-01T00:00:00Z","name_a2s":"Uncletopia | London | 7 | No Payload","protocol":17,"map":"koth_brazil","folder":"tf","game":"Team Fortress","app_id":440,"player_count":0,"max_players":24,"Bots":0,"server_type":"Dedicated","server_os":"Linux","password":true,"vac":true,"version":"7757534","steam_id":85568392924964314,"keywords":["cp","nocrits","nodmgspread","uncletopia"],"game_id":440,"stv_port":27076,"stv_name":"Uncletopia | London | 7 | No Payload | STV","players":null},{"server_id":41,"name":"Uncletopia | London | 8 | Community","name_short":"lon-8","host":"lon-1.uk.uncletopia.com","port":27085,"enabled":true,"region":"eu","cc":"gb","latitude":51.509865,"longitude":-0.118092,"reserved":0,"last_update":"0001-01-01T00:00:00Z","name_a2s":"Uncletopia | London | 8 | Community","protocol":17,"map":"workshop/koth_trenchfoot_b1a.ugc731436616","folder":"tf","game":"Team Fortress","app_id":440,"player_count":5,"max_players":24,"Bots":0,"server_type":"Dedicated","server_os":"Linux","password":true,"vac":true,"version":"7757534","steam_id":85568392924964315,"keywords":["cp","nocrits","nodmgspread","uncletopia"],"game_id":440,"stv_port":27086,"stv_name":"Uncletopia | London | 8 | Community | STV","players":[{"user_id":17,"name":"SaSSolino","steam_id":76561198011308018,"connected_time":2083000000000,"state":"active","ping":61},{"user_id":24,"name":"CringeIsaac","steam_id":76561199082217398,"connected_time":326000000000,"state":"active","ping":99},{"user_id":19,"name":"Number 6","steam_id":76561198427754179,"connected_time":1591000000000,"state":"active","ping":110},{"user_id":25,"name":"wide appreciator","steam_id":76561198083286511,"connected_time":23000000000,"state":"active","ping":38},{"user_id":13,"name":"Ergas","steam_id":76561198860861032,"connected_time":2879000000000,"state":"active","ping":66}]},{"server_id":300,"name":"Uncletopia | Montréal | 1 | All Maps","name_short":"mtl-1","host":"mtl-1.ca.uncletopia.com","port":27015,"enabled":true,"region":"us-east","cc":"ca","latitude":45.50889,"longitude":-73.56167,"reserved":0,"last_update":"0001-01-01T00:00:00Z","name_a2s":"Uncletopia | Montréal | 1 | All Maps","protocol":17,"map":"pl_upward","folder":"tf","game":"Team Fortress","app_id":440,"player_count":0,"max_players":24,"Bots":0,"server_type":"Dedicated","server_os":"Linux","password":true,"vac":true,"version":"7757534","steam_id":85568392924500087,"keywords":["nocrits","nodmgspread","payload","uncletopia"],"game_id":440,"stv_port":27016,"stv_name":"Uncletopia | Montréal | 1 | All Maps | STV","players":null},{"server_id":301,"name":"Uncletopia | Montréal | 2 | All Maps","name_short":"mtl-2","host":"mtl-1.ca.uncletopia.com","port":27025,"enabled":true,"region":"us-east","cc":"ca","latitude":45.50889,"longitude":-73.56167,"reserved":0,"last_update":"0001-01-01T00:00:00Z","name_a2s":"Uncletopia | Montréal | 2 | All Maps","protocol":17,"map":"pl_snowycoast","folder":"tf","game":"Team Fortress","app_id":440,"player_count":0,"max_players":24,"Bots":0,"server_type":"Dedicated","server_os":"Linux","password":true,"vac":true,"version":"7757534","steam_id":85568392924500088,"keywords":["nocrits","nodmgspread","payload","uncletopia"],"game_id":440,"stv_port":27026,"stv_name":"Uncletopia | Montréal | 2 | All Maps | STV","players":null},{"server_id":302,"name":"Uncletopia | Montréal | 3 | All Maps","name_short":"mtl-3","host":"mtl-1.ca.uncletopia.com","port":27035,"enabled":true,"region":"us-east","cc":"ca","latitude":45.50889,"longitude":-73.56167,"reserved":0,"last_update":"0001-01-01T00:00:00Z","name_a2s":"Uncletopia | Montréal | 3 | All Maps","protocol":17,"map":"pl_swiftwater_final1","folder":"tf","game":"Team Fortress","app_id":440,"player_count":0,"max_players":24,"Bots":0,"server_type":"Dedicated","server_os":"Linux","password":true,"vac":true,"version":"7757534","steam_id":85568392924500089,"keywords":["nocrits","nodmgspread","payload","uncletopia"],"game_id":440,"stv_port":27036,"stv_name":"Uncletopia | Montréal | 3 | All Maps | STV","players":null},{"server_id":303,"name":"Uncletopia | Montréal | 4 | No Payload","name_short":"mtl-4","host":"mtl-1.ca.uncletopia.com","port":27045,"enabled":true,"region":"us-east","cc":"ca","latitude":45.50889,"longitude":-73.56167,"reserved":0,"last_update":"0001-01-01T00:00:00Z","name_a2s":"Uncletopia | Montréal | 4 | No Payload","protocol":17,"map":"pl_pier","folder":"tf","game":"Team Fortress","app_id":440,"player_count":0,"max_players":24,"Bots":0,"server_type":"Dedicated","server_os":"Linux","password":true,"vac":true,"version":"7757534","steam_id":85568392924500090,"keywords":["nocrits","nodmgspread","payload","uncletopia"],"game_id":440,"stv_port":27046,"stv_name":"Uncletopia | Montréal | 4 | No Payload | STV","players":null},{"server_id":13,"name":"Uncletopia | New York City | 1 | All Maps","name_short":"nyc-1","host":"nyc-1.us.uncletopia.com","port":27015,"enabled":true,"region":"us-east","cc":"us","latitude":40.73061,"longitude":-73.93524,"reserved":0,"last_update":"0001-01-01T00:00:00Z","name_a2s":"Uncletopia | New York City | 1 | All Maps","protocol":17,"map":"koth_viaduct","folder":"tf","game":"Team Fortress","app_id":440,"player_count":0,"max_players":24,"Bots":0,"server_type":"Dedicated","server_os":"Linux","password":true,"vac":true,"version":"7757534","steam_id":85568392924469993,"keywords":["cp","nocrits","nodmgspread","uncletopia"],"game_id":440,"stv_port":27016,"stv_name":"Uncletopia | New York City | 1 | All Maps | STV","players":null},{"server_id":14,"name":"Uncletopia | New York City | 2 | All Maps","name_short":"nyc-2","host":"nyc-1.us.uncletopia.com","port":27025,"enabled":true,"region":"us-east","cc":"us","latitude":40.73061,"longitude":-73.93524,"reserved":0,"last_update":"0001-01-01T00:00:00Z","name_a2s":"Uncletopia | New York City | 2 | All Maps","protocol":17,"map":"pl_badwater","folder":"tf","game":"Team Fortress","app_id":440,"player_count":0,"max_players":24,"Bots":0,"server_type":"Dedicated","server_os":"Linux","password":true,"vac":true,"version":"7757534","steam_id":85568392924469994,"keywords":["nocrits","nodmgspread","payload","uncletopia"],"game_id":440,"stv_port":27026,"stv_name":"Uncletopia | New York City | 2 | All Maps | STV","players":null},{"server_id":15,"name":"Uncletopia | New York City | 3 | Stopwatch Beta","name_short":"nyc-3","host":"nyc-1.us.uncletopia.com","port":27035,"enabled":true,"region":"us-east","cc":"us","latitude":40.73061,"longitude":-73.93524,"reserved":0,"last_update":"0001-01-01T00:00:00Z","name_a2s":"Uncletopia | New York City | 3 | Stopwatch Beta","protocol":17,"map":"pl_upward","folder":"tf","game":"Team Fortress","app_id":440,"player_count":0,"max_players":24,"Bots":0,"server_type":"Dedicated","server_os":"Linux","password":true,"vac":true,"version":"7757534","steam_id":85568392924742820,"keywords":["nocrits","nodmgspread","payload","uncletopia"],"game_id":440,"stv_port":27036,"stv_name":"Uncletopia | New York City | 3 | Stopwatch Beta | STV","players":null},{"server_id":16,"name":"Uncletopia | New York City | 4 | Community","name_short":"nyc-4","host":"nyc-1.us.uncletopia.com","port":27045,"enabled":true,"region":"us-east","cc":"us","latitude":40.73061,"longitude":-73.93524,"reserved":0,"last_update":"0001-01-01T00:00:00Z","name_a2s":"Uncletopia | New York City | 4 | Community","protocol":17,"map":"workshop/cp_reckoner_rc6.ugc674719999","folder":"tf","game":"Team Fortress","app_id":440,"player_count":0,"max_players":24,"Bots":0,"server_type":"Dedicated","server_os":"Linux","password":true,"vac":true,"version":"7757534","steam_id":85568392924742821,"keywords":["cp","nocrits","nodmgspread","uncletopia"],"game_id":440,"stv_port":27046,"stv_name":"Uncletopia | New York City | 4 | Community | STV","players":null},{"server_id":142,"name":"Uncletopia | São Paulo | 1 | All Maps","name_short":"sao-1","host":"sao-1.br.uncletopia.com","port":27015,"enabled":true,"region":"sa","cc":"br","latitude":-23.533773,"longitude":-46.62529,"reserved":0,"last_update":"0001-01-01T00:00:00Z","name_a2s":"Uncletopia | São Paulo | 1 | All Maps","protocol":17,"map":"koth_lakeside_final","folder":"tf","game":"Team Fortress","app_id":440,"player_count":0,"max_players":24,"Bots":0,"server_type":"Dedicated","server_os":"Linux","password":true,"vac":true,"version":"7757534","steam_id":85568392924469996,"keywords":["cp","nocrits","nodmgspread","uncletopia"],"game_id":440,"stv_port":27016,"stv_name":"Uncletopia | São Paulo | 1 | All Maps | STV","players":null},{"server_id":143,"name":"Uncletopia | São Paulo | 2 | All Maps","name_short":"sao-2","host":"sao-2.br.uncletopia.com","port":27015,"enabled":true,"region":"sa","cc":"br","latitude":-23.533773,"longitude":-46.62529,"reserved":0,"last_update":"0001-01-01T00:00:00Z","name_a2s":"Uncletopia | São Paulo | 2 | All Maps","protocol":17,"map":"koth_highpass","folder":"tf","game":"Team Fortress","app_id":440,"player_count":0,"max_players":24,"Bots":0,"server_type":"Dedicated","server_os":"Linux","password":true,"vac":true,"version":"7757534","steam_id":85568392924485349,"keywords":["cp","nocrits","nodmgspread","uncletopia"],"game_id":440,"stv_port":27016,"stv_name":"Uncletopia | São Paulo | 2 | All Maps | STV","players":null},{"server_id":7,"name":"Uncletopia | Seattle | 1 | All Maps","name_short":"sea-1","host":"sea-1.us.uncletopia.com","port":27015,"enabled":true,"region":"us-west","cc":"us","latitude":47.608013,"longitude":-122.33517,"reserved":0,"last_update":"0001-01-01T00:00:00Z","name_a2s":"Uncletopia | Seattle | 1 | All Maps","protocol":17,"map":"cp_sunshine","folder":"tf","game":"Team Fortress","app_id":440,"player_count":23,"max_players":24,"Bots":0,"server_type":"Dedicated","server_os":"Linux","password":true,"vac":true,"version":"7757534","steam_id":85568392924469997,"keywords":["cp","nocrits","nodmgspread","uncletopia"],"game_id":440,"stv_port":27016,"stv_name":"Uncletopia | Seattle | 1 | All Maps | STV","players":[{"user_id":57,"name":"Slim_Jxmmy","steam_id":76561198150164344,"connected_time":1510000000000,"state":"active","ping":62},{"user_id":68,"name":"dazlimey","steam_id":76561198206922028,"connected_time":348000000000,"state":"active","ping":70},{"user_id":67,"name":"BasedUser22","steam_id":76561199429505155,"connected_time":710000000000,"state":"active","ping":94},{"user_id":74,"name":"the trollining","steam_id":76561199160884713,"connected_time":67000000000,"state":"spawning","ping":62},{"user_id":69,"name":"hollowedfox_","steam_id":76561197998958193,"connected_time":335000000000,"state":"active","ping":86},{"user_id":61,"name":"Honey Boo Boo","steam_id":76561198119340886,"connected_time":1222000000000,"state":"active","ping":76},{"user_id":75,"name":"my melody!!!!!","steam_id":76561198982584470,"connected_time":17000000000,"state":"active","ping":139},{"user_id":51,"name":"Rain","steam_id":76561198065612273,"connected_time":2443000000000,"state":"active","ping":46},{"user_id":76,"name":"Mono","steam_id":76561198108284925,"connected_time":9000000000,"state":"spawning","ping":77},{"user_id":26,"name":"FiveOhForPlan","steam_id":76561198333012915,"connected_time":4111000000000,"state":"active","ping":147},{"user_id":15,"name":"DualiTea","steam_id":76561198081733870,"connected_time":4358000000000,"state":"active","ping":103},{"user_id":16,"name":"Monarch of Glass","steam_id":76561198165638237,"connected_time":4341000000000,"state":"active","ping":30},{"user_id":62,"name":"ark","steam_id":76561198041066271,"connected_time":1191000000000,"state":"active","ping":84},{"user_id":63,"name":"kingding","steam_id":76561198148059714,"connected_time":1045000000000,"state":"active","ping":105},{"user_id":71,"name":"Team Fortress 2","steam_id":76561198936412406,"connected_time":253000000000,"state":"active","ping":134},{"user_id":64,"name":"SadFapping","steam_id":76561198076651049,"connected_time":953000000000,"state":"active","ping":56},{"user_id":21,"name":"ROFLMAOLOLXD!","steam_id":76561199472748548,"connected_time":4312000000000,"state":"active","ping":76},{"user_id":48,"name":"Fluffy \u003c3 [HUGS]","steam_id":76561198119444962,"connected_time":2616000000000,"state":"active","ping":56},{"user_id":49,"name":"Neo Kojiro","steam_id":76561198000967076,"connected_time":2528000000000,"state":"active","ping":130},{"user_id":28,"name":"Little Linguine","steam_id":76561198816986370,"connected_time":4081000000000,"state":"active","ping":56},{"user_id":72,"name":"nous","steam_id":76561198046278452,"connected_time":243000000000,"state":"active","ping":47},{"user_id":59,"name":"sagekiss","steam_id":76561198038831240,"connected_time":1379000000000,"state":"active","ping":56},{"user_id":65,"name":"Maho","steam_id":76561199076491805,"connected_time":920000000000,"state":"active","ping":135}]},{"server_id":119,"name":"Uncletopia | Seattle | 2 | All Maps","name_short":"sea-2","host":"sea-1.us.uncletopia.com","port":27025,"enabled":true,"region":"us-west","cc":"us","latitude":47.608013,"longitude":-122.33517,"reserved":0,"last_update":"0001-01-01T00:00:00Z","name_a2s":"Uncletopia | Seattle | 2 | All Maps","protocol":17,"map":"pl_badwater","folder":"tf","game":"Team Fortress","app_id":440,"player_count":0,"max_players":24,"Bots":0,"server_type":"Dedicated","server_os":"Linux","password":true,"vac":true,"version":"7757534","steam_id":85568392924469998,"keywords":["nocrits","nodmgspread","payload","uncletopia"],"game_id":440,"stv_port":27026,"stv_name":"Uncletopia | Seattle | 2 | All Maps | STV","players":null},{"server_id":406,"name":"Uncletopia | Seattle | 3 | Stopwatch Beta","name_short":"sea-3","host":"sea-1.us.uncletopia.com","port":27035,"enabled":true,"region":"us-west","cc":"us","latitude":47.608013,"longitude":-122.33517,"reserved":0,"last_update":"0001-01-01T00:00:00Z","name_a2s":"Uncletopia | Seattle | 3 | Stopwatch Beta","protocol":17,"map":"cp_dustbowl","folder":"tf","game":"Team Fortress","app_id":440,"player_count":0,"max_players":24,"Bots":0,"server_type":"Dedicated","server_os":"Linux","password":true,"vac":true,"version":"7757534","steam_id":85568392924515217,"keywords":["cp","nocrits","nodmgspread","uncletopia"],"game_id":440,"stv_port":27036,"stv_name":"Uncletopia | Seattle | 3 | Stopwatch Beta | STV","players":null},{"server_id":17,"name":"Uncletopia | San Francisco | 1 | All Maps","name_short":"sfo-1","host":"sfo-1.us.uncletopia.com","port":27015,"enabled":true,"region":"us-west","cc":"us","latitude":37.77397,"longitude":-122.4313,"reserved":0,"last_update":"0001-01-01T00:00:00Z","name_a2s":"Uncletopia | San Francisco | 1 | All Maps","protocol":17,"map":"pl_frontier_final","folder":"tf","game":"Team Fortress","app_id":440,"player_count":0,"max_players":24,"Bots":0,"server_type":"Dedicated","server_os":"Linux","password":true,"vac":true,"version":"7757534","steam_id":85568392924469999,"keywords":["nocrits","nodmgspread","payload","uncletopia"],"game_id":440,"stv_port":27016,"stv_name":"Uncletopia | San Francisco | 1 | All Maps | STV","players":null},{"server_id":18,"name":"Uncletopia | San Francisco | 2 | All Maps","name_short":"sfo-2","host":"sfo-1.us.uncletopia.com","port":27025,"enabled":true,"region":"us-west","cc":"us","latitude":37.77397,"longitude":-122.4313,"reserved":0,"last_update":"0001-01-01T00:00:00Z","name_a2s":"Uncletopia | San Francisco | 2 | All Maps","protocol":17,"map":"koth_highpass","folder":"tf","game":"Team Fortress","app_id":440,"player_count":0,"max_players":24,"Bots":0,"server_type":"Dedicated","server_os":"Linux","password":true,"vac":true,"version":"7757534","steam_id":85568392924470000,"keywords":["cp","nocrits","nodmgspread","uncletopia"],"game_id":440,"stv_port":27026,"stv_name":"Uncletopia | San Francisco | 2 | All Maps | STV","players":null},{"server_id":19,"name":"Uncletopia | San Francisco | 3 | Stopwatch Beta","name_short":"sfo-3","host":"sfo-1.us.uncletopia.com","port":27035,"enabled":true,"region":"us-west","cc":"us","latitude":37.77397,"longitude":-122.4313,"reserved":0,"last_update":"0001-01-01T00:00:00Z","name_a2s":"Uncletopia | San Francisco | 3 | Stopwatch Beta","protocol":17,"map":"koth_lakeside_final","folder":"tf","game":"Team Fortress","app_id":440,"player_count":0,"max_players":24,"Bots":0,"server_type":"Dedicated","server_os":"Linux","password":true,"vac":true,"version":"7757534","steam_id":85568392924742824,"keywords":["cp","nocrits","nodmgspread","uncletopia"],"game_id":440,"stv_port":27036,"stv_name":"Uncletopia | San Francisco | 3 | Stopwatch Beta | STV","players":null},{"server_id":20,"name":"Uncletopia | San Francisco | 4 | Community","name_short":"sfo-4","host":"sfo-1.us.uncletopia.com","port":27045,"enabled":true,"region":"us-west","cc":"us","latitude":37.77397,"longitude":-122.4313,"reserved":0,"last_update":"0001-01-01T00:00:00Z","name_a2s":"Uncletopia | San Francisco | 4 | Community","protocol":17,"map":"cp_altitude","folder":"tf","game":"Team Fortress","app_id":440,"player_count":0,"max_players":24,"Bots":0,"server_type":"Dedicated","server_os":"Linux","password":true,"vac":true,"version":"7757534","steam_id":85568392924742826,"keywords":["cp","nocrits","nodmgspread","uncletopia"],"game_id":440,"stv_port":27046,"stv_name":"Uncletopia | San Francisco | 4 | Community | STV","players":null},{"server_id":141,"name":"Uncletopia | Sydney | 1 | All Maps","name_short":"syd-1","host":"syd-1.au.uncletopia.com","port":27015,"enabled":true,"region":"au","cc":"au","latitude":-33.865143,"longitude":151.2099,"reserved":0,"last_update":"0001-01-01T00:00:00Z","name_a2s":"Uncletopia | Sydney | 1 | All Maps","protocol":17,"map":"cp_snakewater_final1","folder":"tf","game":"Team Fortress","app_id":440,"player_count":0,"max_players":24,"Bots":0,"server_type":"Dedicated","server_os":"Linux","password":true,"vac":true,"version":"7757534","steam_id":85568392924470001,"keywords":["cp","nocrits","nodmgspread","uncletopia"],"game_id":440,"stv_port":27016,"stv_name":"Uncletopia | Sydney | 1 | All Maps | STV","players":null},{"server_id":123,"name":"Uncletopia | Sydney | 2 | All Maps","name_short":"syd-2","host":"syd-1.au.uncletopia.com","port":27025,"enabled":true,"region":"au","cc":"au","latitude":-33.865143,"longitude":151.2099,"reserved":0,"last_update":"0001-01-01T00:00:00Z","name_a2s":"Uncletopia | Sydney | 2 | All Maps","protocol":17,"map":"cp_snakewater_final1","folder":"tf","game":"Team Fortress","app_id":440,"player_count":0,"max_players":24,"Bots":0,"server_type":"Dedicated","server_os":"Linux","password":true,"vac":true,"version":"7757534","steam_id":85568392924470002,"keywords":["cp","nocrits","nodmgspread","uncletopia"],"game_id":440,"stv_port":27026,"stv_name":"Uncletopia | Sydney | 2 | All Maps | STV","players":null},{"server_id":395,"name":"Uncletopia | Sydney | 3 | All Maps","name_short":"syd-3","host":"syd-1.au.uncletopia.com","port":27035,"enabled":true,"region":"au","cc":"au","latitude":-33.865143,"longitude":151.2099,"reserved":0,"last_update":"0001-01-01T00:00:00Z","name_a2s":"Uncletopia | Sydney | 3 | All Maps","protocol":17,"map":"cp_dustbowl","folder":"tf","game":"Team Fortress","app_id":440,"player_count":0,"max_players":24,"Bots":0,"server_type":"Dedicated","server_os":"Linux","password":true,"vac":true,"version":"7757534","steam_id":85568392925194467,"keywords":["cp","nocrits","nodmgspread","uncletopia"],"game_id":440,"stv_port":27036,"stv_name":"Uncletopia | Sydney | 3 | All Maps | STV","players":null},{"server_id":396,"name":"Uncletopia | Sydney | 4 | All Maps","name_short":"syd-4","host":"syd-1.au.uncletopia.com","port":27045,"enabled":true,"region":"au","cc":"au","latitude":-33.865143,"longitude":151.2099,"reserved":0,"last_update":"0001-01-01T00:00:00Z","name_a2s":"Uncletopia | Sydney | 4 | All Maps","protocol":17,"map":"koth_lakeside_final","folder":"tf","game":"Team Fortress","app_id":440,"player_count":0,"max_players":24,"Bots":0,"server_type":"Dedicated","server_os":"Linux","password":true,"vac":true,"version":"7757534","steam_id":85568392925397958,"keywords":["cp","nocrits","nodmgspread","uncletopia"],"game_id":440,"stv_port":27046,"stv_name":"Uncletopia | Sydney | 4 | All Maps | STV","players":null},{"server_id":58,"name":"Uncletopia | Sydney | 5 | Stopwatch Beta","name_short":"syd-5","host":"syd-1.au.uncletopia.com","port":27055,"enabled":true,"region":"au","cc":"au","latitude":-33.865143,"longitude":151.2099,"reserved":0,"last_update":"0001-01-01T00:00:00Z","name_a2s":"Uncletopia | Sydney | 5 | Stopwatch Beta","protocol":17,"map":"workshop/pl_badwater_pro_v12.ugc2142942074","folder":"tf","game":"Team Fortress","app_id":440,"player_count":0,"max_players":24,"Bots":0,"server_type":"Dedicated","server_os":"Linux","password":true,"vac":true,"version":"7757534","steam_id":85568392925397959,"keywords":["nocrits","nodmgspread","payload","uncletopia"],"game_id":440,"stv_port":27056,"stv_name":"Uncletopia | Sydney | 5 | Stopwatch Beta | STV","players":null},{"server_id":59,"name":"Uncletopia | Sydney | 6 | Community","name_short":"syd-6","host":"syd-1.au.uncletopia.com","port":27065,"enabled":true,"region":"au","cc":"au","latitude":-33.865143,"longitude":151.2099,"reserved":0,"last_update":"0001-01-01T00:00:00Z","name_a2s":"Uncletopia | Sydney | 6 | Community","protocol":17,"map":"workshop/koth_slaughter_rc1.ugc1712845210","folder":"tf","game":"Team Fortress","app_id":440,"player_count":0,"max_players":24,"Bots":0,"server_type":"Dedicated","server_os":"Linux","password":true,"vac":true,"version":"7757534","steam_id":85568392925397960,"keywords":["cp","nocrits","nodmgspread","uncletopia"],"game_id":440,"stv_port":27066,"stv_name":"Uncletopia | Sydney | 6 | Community | STV","players":null},{"server_id":49,"name":"Uncletopia | Warsaw | 1 | All Maps","name_short":"waw-1","host":"waw-1.pl.uncletopia.com","port":27015,"enabled":true,"region":"eu","cc":"pl","latitude":52.2297,"longitude":21.017532,"reserved":0,"last_update":"0001-01-01T00:00:00Z","name_a2s":"","protocol":0,"map":"","folder":"","game":"","app_id":0,"player_count":0,"max_players":0,"Bots":0,"server_type":"","server_os":"","password":false,"vac":false,"version":"","steam_id":0,"keywords":null,"game_id":0,"stv_port":0,"stv_name":"","players":null},{"server_id":50,"name":"Uncletopia | Warsaw | 2 | All Maps","name_short":"waw-2","host":"waw-1.pl.uncletopia.com","port":27025,"enabled":true,"region":"eu","cc":"pl","latitude":52.2297,"longitude":21.017532,"reserved":0,"last_update":"0001-01-01T00:00:00Z","name_a2s":"Uncletopia | Warsaw | 2 | All Maps","protocol":17,"map":"koth_viaduct","folder":"tf","game":"Team Fortress","app_id":440,"player_count":0,"max_players":24,"Bots":0,"server_type":"Dedicated","server_os":"Linux","password":true,"vac":true,"version":"7757534","steam_id":85568392925397851,"keywords":["cp","nocrits","nodmgspread","uncletopia"],"game_id":440,"stv_port":27026,"stv_name":"Uncletopia | Warsaw | 2 | All Maps | STV","players":null},{"server_id":51,"name":"Uncletopia | Warsaw | 3 | All Maps","name_short":"waw-3","host":"waw-1.pl.uncletopia.com","port":27035,"enabled":true,"region":"eu","cc":"pl","latitude":52.2297,"longitude":21.017532,"reserved":0,"last_update":"0001-01-01T00:00:00Z","name_a2s":"Uncletopia | Warsaw | 3 | All Maps","protocol":17,"map":"pl_badwater","folder":"tf","game":"Team Fortress","app_id":440,"player_count":0,"max_players":24,"Bots":0,"server_type":"Dedicated","server_os":"Linux","password":true,"vac":true,"version":"7757534","steam_id":85568392925397852,"keywords":["nocrits","nodmgspread","payload","uncletopia"],"game_id":440,"stv_port":27036,"stv_name":"Uncletopia | Warsaw | 3 | All Maps | STV","players":null},{"server_id":52,"name":"Uncletopia | Warsaw | 4 | All Maps","name_short":"waw-4","host":"waw-1.pl.uncletopia.com","port":27045,"enabled":true,"region":"eu","cc":"pl","latitude":52.2297,"longitude":21.017532,"reserved":0,"last_update":"0001-01-01T00:00:00Z","name_a2s":"Uncletopia | Warsaw | 4 | All Maps","protocol":17,"map":"koth_lakeside_final","folder":"tf","game":"Team Fortress","app_id":440,"player_count":0,"max_players":24,"Bots":0,"server_type":"Dedicated","server_os":"Linux","password":true,"vac":true,"version":"7757534","steam_id":85568392925397853,"keywords":["cp","nocrits","nodmgspread","uncletopia"],"game_id":440,"stv_port":27046,"stv_name":"Uncletopia | Warsaw | 4 | All Maps | STV","players":null},{"server_id":53,"name":"Uncletopia | Warsaw | 5 | Stopwatch Beta","name_short":"waw-5","host":"waw-1.pl.uncletopia.com","port":27055,"enabled":true,"region":"eu","cc":"pl","latitude":52.2297,"longitude":21.017532,"reserved":0,"last_update":"0001-01-01T00:00:00Z","name_a2s":"Uncletopia | Warsaw | 5 | Stopwatch Beta","protocol":17,"map":"pl_borneo","folder":"tf","game":"Team Fortress","app_id":440,"player_count":0,"max_players":24,"Bots":0,"server_type":"Dedicated","server_os":"Linux","password":true,"vac":true,"version":"7757534","steam_id":85568392925397854,"keywords":["nocrits","nodmgspread","payload","uncletopia"],"game_id":440,"stv_port":27056,"stv_name":"Uncletopia | Warsaw | 5 | Stopwatch Beta | STV","players":null},{"server_id":54,"name":"Uncletopia | Warsaw | 6 | Community","name_short":"waw-6","host":"waw-1.pl.uncletopia.com","port":27065,"enabled":true,"region":"eu","cc":"pl","latitude":52.2297,"longitude":21.017532,"reserved":0,"last_update":"0001-01-01T00:00:00Z","name_a2s":"Uncletopia | Warsaw | 6 | Community","protocol":17,"map":"workshop/koth_synthetic_rc6a.ugc1549817316","folder":"tf","game":"Team Fortress","app_id":440,"player_count":2,"max_players":24,"Bots":0,"server_type":"Dedicated","server_os":"Linux","password":true,"vac":true,"version":"7757534","steam_id":85568392925397856,"keywords":["cp","nocrits","nodmgspread","uncletopia"],"game_id":440,"stv_port":27066,"stv_name":"Uncletopia | Warsaw | 6 | Community | STV","players":[{"user_id":8,"name":"Rafazz","steam_id":76561199472763674,"connected_time":1447000000000,"state":"active","ping":63},{"user_id":9,"name":"ewgenix1439","steam_id":76561199477712693,"connected_time":1194000000000,"state":"active","ping":56}]}]}