{"status":true,"message":"","result":[{"server_id":9,"name":"Uncletopia | Atlanta | 1 | All Maps","name_short":"atl-1","host":"atl-1.us.uncletopia.com","port":27015,"enabled":true,"region":"us-east","cc":"us","latitude":33.753746,"longitude":-84.38633,"reserved":0,"last_update":"0001-01-01T00:00:00Z","name_a2s":"Uncletopia | Atlanta | 1 | All Maps","protocol":17,"map":"pl_upward","folder":"tf","game":"Team Fortress","app_id":440,"player_count":24,"max_players":24,"Bots":0,"server_type":"Dedicated","server_os":"Linux","password":true,"vac":true,"version":"7757534","steam_id":85568392924469982,"keywords":["nocrits","nodmgspread","payload","uncletopia"],"game_id":440,"stv_port":27016,"stv_name":"Uncletopia | Atlanta | 1 | All Maps | STV","players":[{"user_id":456,"name":"Red1 | Pharaxer‚Ñ¢","steam_id":76561198051236069,"connected_time":4616000000000,"state":"active","ping":161},{"user_id":492,"name":"RED1 | Avo","steam_id":76561197993340494,"connected_time":1038000000000,"state":"active","ping":59},{"user_id":447,"name":"WillieMakit","steam_id":76561197985391684,"connected_time":5264000000000,"state":"active","ping":112},{"user_id":382,"name":"Mage","steam_id":76561198285026879,"connected_time":12819000000000,"state":"active","ping":82},{"user_id":483,"name":"--_Cook_--","steam_id":76561198080855748,"connected_time":1799000000000,"state":"active","ping":49},{"user_id":453,"name":"Sol","steam_id":76561199008085020,"connected_time":4916000000000,"state":"active","ping":58},{"user_id":454,"name":"VnZ","steam_id":76561198123675820,"connected_time":4788000000000,"state":"active","ping":59},{"user_id":497,"name":"Bigstu","steam_id":76561197974497071,"connected_time":792000000000,"state":"active","ping":96},{"user_id":475,"name":"ATLS1 | SparkStorm","steam_id":76561198095817025,"connected_time":2918000000000,"state":"active","ping":37},{"user_id":496,"name":"lil hog","steam_id":76561199230929836,"connected_time":834000000000,"state":"active","ping":82},{"user_id":485,"name":"BLU1 Save your wifi","steam_id":76561198286147372,"connected_time":1640000000000,"state":"active","ping":55},{"user_id":480,"name":"Spy_Is_Pye","steam_id":76561199439622967,"connected_time":2097000000000,"state":"active","ping":70},{"user_id":490,"name":"BLU1 | cola","steam_id":76561198374390458,"connected_time":1378000000000,"state":"active","ping":53},{"user_id":452,"name":"bogginwater","steam_id":76561198155547142,"connected_time":4969000000000,"state":"active","ping":68},{"user_id":470,"name":"Spoonful","steam_id":76561198927517471,"connected_time":3372000000000,"state":"active","ping":70},{"user_id":477,"name":"root beer enthusiast","steam_id":76561198124791670,"connected_time":2426000000000,"state":"active","ping":57},{"user_id":494,"name":"RED1 | Lylith!!!","steam_id":76561198386687546,"connected_time":959000000000,"state":"active","ping":45},{"user_id":461,"name":"YASAI JUICE","steam_id":76561198131971992,"connected_time":4546000000000,"state":"active","ping":59},{"user_id":389,"name":"floofy","steam_id":76561198389769098,"connected_time":11380000000000,"state":"active","ping":89},{"user_id":487,"name":"ATL1 | Bandi","steam_id":76561198432036026,"connected_time":1443000000000,"state":"active","ping":69},{"user_id":378,"name":"Anna","steam_id":76561197999657118,"connected_time":12909000000000,"state":"active","ping":90},{"user_id":491,"name":"BLU1 | Psionic Box","steam_id":76561198151019322,"connected_time":1302000000000,"state":"active","ping":75},{"user_id":493,"name":"shaderoses","steam_id":76561198070800500,"connected_time":1036000000000,"state":"active","ping":64},{"user_id":474,"name":"stink","steam_id":76561198099318923,"connected_time":3207000000000,"state":"active","ping":75}]},{"server_id":400,"name":"Uncletopia | Atlanta | 3 | Community","name_short":"atl-3","host":"atl-1.us.uncletopia.com","port":27035,"enabled":true,"region":"us-east","cc":"us","latitude":33.753746,"longitude":-84.38633,"reserved":0,"last_update":"0001-01-01T00:00:00Z","name_a2s":"Uncletopia | Atlanta | 3 | Community","protocol":17,"map":"workshop/pl_eruption_b9a.ugc2807898013","folder":"tf","game":"Team Fortress","app_id":440,"player_count":0,"max_players":32,"Bots":0,"server_type":"Dedicated","server_os":"Linux","password":true,"vac":true,"version":"7757534","steam_id":85568392924515187,"keywords":["increased_maxplayers","nocrits","nodmgspread","payload","uncletopia"],"game_id":440,"stv_port":27036,"stv_name":"Uncletopia | Atlanta | 3 | Community | STV","players":null},{"server_id":401,"name":"Uncletopia | Atlanta | 4 | No Payload","name_short":"atl-4","host":"atl-1.us.uncletopia.com","port":27045,"enabled":true,"region":"us-east","cc":"us","latitude":33.753746,"longitude":-84.38633,"reserved":0,"last_update":"0001-01-01T00:00:00Z","name_a2s":"","protocol":0,"map":"","folder":"","game":"","app_id":0,"player_count":0,"max_players":0,"Bots":0,"server_type":"","server_os":"","password":false,"vac":false,"version":"","steam_id":0,"keywords":null,"game_id":0,"stv_port":0,"stv_name":"","players":null},{"server_id":2,"name":"Uncletopia | Chicago | 1 | All Maps","name_short":"chi-1","host":"chi-1.us.uncletopia.com","port":27015,"enabled":true,"region":"us-central","cc":"us","latitude":41.881832,"longitude":-87.62318,"reserved":0,"last_update":"0001-01-01T00:00:00Z","name_a2s":"Uncletopia | Chicago | 1 | All Maps","protocol":17,"map":"cp_dustbowl","folder":"tf","game":"Team Fortress","app_id":440,"player_count":24,"max_players":24,"Bots":0,"server_type":"Dedicated","server_os":"Linux","password":true,"vac":true,"version":"7757534","steam_id":85568392924469984,"keywords":["cp","nocrits","nodmgspread","uncletopia"],"game_id":440,"stv_port":27016,"stv_name":"Uncletopia | Chicago | 1 | All Maps | STV","players":[{"user_id":417,"name":"Shystie","steam_id":76561198025371440,"connected_time":182000000000,"state":"active","ping":72},{"user_id":399,"name":"Nano Nova","steam_id":76561198238064992,"connected_time":820000000000,"state":"active","ping":74},{"user_id":408,"name":"OneFestiveCorvid","steam_id":76561199012953221,"connected_time":599000000000,"state":"active","ping":155},{"user_id":406,"name":"Malachi [NGC|ST]","steam_id":76561197995129935,"connected_time":662000000000,"state":"active","ping":61},{"user_id":411,"name":"Mawile‚Ñ¢ (HOMELESS MILLIONAIRE","steam_id":76561198913572581,"connected_time":471000000000,"state":"active","ping":61},{"user_id":369,"name":"blob","steam_id":76561198122375328,"connected_time":2835000000000,"state":"active","ping":69},{"user_id":420,"name":"majorbobfunction","steam_id":76561198042464632,"connected_time":94000000000,"state":"active","ping":60},{"user_id":410,"name":"Arthropod Enjoyer","steam_id":76561198980062131,"connected_time":558000000000,"state":"active","ping":68},{"user_id":413,"name":"MinusSoup918","steam_id":76561198060902773,"connected_time":354000000000,"state":"active","ping":119},{"user_id":401,"name":"Cap'n Sallad","steam_id":76561198029964610,"connected_time":809000000000,"state":"active","ping":85},{"user_id":370,"name":"[UHS] K24A4 2.4","steam_id":76561199072970627,"connected_time":2811000000000,"state":"active","ping":47},{"user_id":402,"name":"Nimin626","steam_id":76561198036714484,"connected_time":809000000000,"state":"active","ping":84},{"user_id":404,"name":"Mr. Soupman","steam_id":76561198021649598,"connected_time":699000000000,"state":"active","ping":62},{"user_id":409,"name":"Boogie","steam_id":76561198043626626,"connected_time":575000000000,"state":"active","ping":58},{"user_id":378,"name":"9:02","steam_id":76561198795862574,"connected_time":2204000000000,"state":"active","ping":71},{"user_id":371,"name":"Voids","steam_id":76561198128386726,"connected_time":2741000000000,"state":"active","ping":75},{"user_id":414,"name":"holyblade12","steam_id":76561198090842572,"connected_time":300000000000,"state":"active","ping":55},{"user_id":415,"name":"Kurg","steam_id":76561198143381218,"connected_time":298000000000,"state":"active","ping":47},{"user_id":416,"name":"Godfinger","steam_id":76561198426346549,"connected_time":228000000000,"state":"active","ping":63},{"user_id":418,"name":"Creyon","steam_id":76561198812104058,"connected_time":147000000000,"state":"active","ping":60},{"user_id":419,"name":"LazyRat","steam_id":76561198014066794,"connected_time":141000000000,"state":"active","ping":113},{"user_id":421,"name":"Dennis Tight Pants (Hypertight)","steam_id":76561198023306720,"connected_time":88000000000,"state":"active","ping":75},{"user_id":422,"name":"rage","steam_id":76561198208213491,"connected_time":72000000000,"state":"active","ping":60},{"user_id":423,"name":"Stapler","steam_id":76561198099295077,"connected_time":58000000000,"state":"active","ping":90}]},{"server_id":106,"name":"Uncletopia | Chicago | 2 | All Maps","name_short":"chi-2","host":"chi-1.us.uncletopia.com","port":27025,"enabled":true,"region":"us-central","cc":"us","latitude":41.881832,"longitude":-87.62318,"reserved":0,"last_update":"0001-01-01T00:00:00Z","name_a2s":"Uncletopia | Chicago | 2 | All Maps","protocol":17,"map":"pl_snowycoast","folder":"tf","game":"Team Fortress","app_id":440,"player_count":24,"max_players":24,"Bots":0,"server_type":"Dedicated","server_os":"Linux","password":true,"vac":true,"version":"7757534","steam_id":85568392924469985,"keywords":["nocrits","nodmgspread","payload","uncletopia"],"game_id":440,"stv_port":27026,"stv_name":"Uncletopia | Chicago | 2 | All Maps | STV","players":[{"user_id":305,"name":"TheConchinator","steam_id":76561199388149092,"connected_time":1343000000000,"state":"active","ping":63},{"user_id":302,"name":"Pongallow","steam_id":76561198146876078,"connected_time":1400000000000,"state":"active","ping":45},{"user_id":303,"name":"SquirrelAway‚Ñ¢","steam_id":76561197998828619,"connected_time":1347000000000,"state":"active","ping":75},{"user_id":285,"name":"Devoid","steam_id":76561198254039012,"connected_time":2408000000000,"state":"active","ping":45},{"user_id":308,"name":"mepng","steam_id":76561199018758598,"connected_time":677000000000,"state":"active","ping":101},{"user_id":269,"name":"üéÉBunnyüéÉ","steam_id":76561198074872531,"connected_time":4384000000000,"state":"active","ping":68},{"user_id":240,"name":"Shaquille Oatmeal","steam_id":76561198283213819,"connected_time":5537000000000,"state":"active","ping":76},{"user_id":241,"name":"Tatermytots","steam_id":76561198309634514,"connected_time":5505000000000,"state":"active","ping":144},{"user_id":273,"name":"TheFallenFox","steam_id":76561199074190919,"connected_time":3797000000000,"state":"active","ping":137},{"user_id":312,"name":"Baby gaming","steam_id":76561198867319323,"connected_time":113000000000,"state":"active","ping":65},{"user_id":283,"name":"‚ù§ Ivy ‚ù§","steam_id":76561198077796736,"connected_time":2425000000000,"state":"active","ping":67},{"user_id":309,"name":"turnip","steam_id":76561197999375941,"connected_time":320000000000,"state":"active","ping":78},{"user_id":310,"name":"Lemon Pine-Sol","steam_id":76561198068326695,"connected_time":299000000000,"state":"active","ping":67},{"user_id":297,"name":"Moonshine Man","steam_id":76561198088010073,"connected_time":2207000000000,"state":"active","ping":107},{"user_id":304,"name":"Fiendish Frog","steam_id":76561198029478821,"connected_time":1345000000000,"state":"active","ping":68},{"user_id":311,"name":"Icy","steam_id":76561198125015366,"connected_time":227000000000,"state":"active","ping":95},{"user_id":278,"name":"Huge","steam_id":76561199030987614,"connected_time":3753000000000,"state":"active","ping":86},{"user_id":257,"name":"Space‚≠êTaffy","steam_id":76561198002271720,"connected_time":5079000000000,"state":"active","ping":69},{"user_id":306,"name":"nickname 123","steam_id":76561198080234033,"connected_time":956000000000,"state":"active","ping":61},{"user_id":270,"name":"brake pipe","steam_id":76561198056330171,"connected_time":4377000000000,"state":"active","ping":71},{"user_id":279,"name":"THE CAPN","steam_id":76561198170210979,"connected_time":3019000000000,"state":"active","ping":110},{"user_id":307,"name":"Zicky Nee","steam_id":76561198042601111,"connected_time":763000000000,"state":"active","ping":70},{"user_id":251,"name":"Purplest","steam_id":76561198093523277,"connected_time":5279000000000,"state":"active","ping":47},{"user_id":292,"name":"tree","steam_id":76561198116885731,"connected_time":2356000000000,"state":"active","ping":60}]},{"server_id":402,"name":"Uncletopia | Chicago | 3 | All Maps","name_short":"chi-3","host":"chi-1.us.uncletopia.com","port":27035,"enabled":true,"region":"us-central","cc":"us","latitude":41.881832,"longitude":-87.62318,"reserved":0,"last_update":"0001-01-01T00:00:00Z","name_a2s":"Uncletopia | Chicago | 3 | All Maps","protocol":17,"map":"pl_borneo","folder":"tf","game":"Team Fortress","app_id":440,"player_count":24,"max_players":24,"Bots":0,"server_type":"Dedicated","server_os":"Linux","password":true,"vac":true,"version":"7757534","steam_id":85568392924515191,"keywords":["nocrits","nodmgspread","payload","uncletopia"],"game_id":440,"stv_port":27036,"stv_name":"Uncletopia | Chicago | 3 | All Maps | STV","players":[{"user_id":663,"name":"dicksnip","steam_id":76561198356515396,"connected_time":2437000000000,"state":"active","ping":83},{"user_id":633,"name":"Toottoot","steam_id":76561197992404836,"connected_time":3889000000000,"state":"active","ping":45},{"user_id":692,"name":"Psychosis","steam_id":76561198078659070,"connected_time":356000000000,"state":"active","ping":77},{"user_id":661,"name":"Pusieeeeeee!!!!!!!!!!!!!!!!!","steam_id":76561198083175190,"connected_time":2456000000000,"state":"active","ping":60},{"user_id":662,"name":"wildbryar","steam_id":76561198196408974,"connected_time":2454000000000,"state":"active","ping":86},{"user_id":668,"name":"Ubuntu Phone","steam_id":76561198008110407,"connected_time":2263000000000,"state":"active","ping":65},{"user_id":664,"name":"ProfessorCagan","steam_id":76561198141372356,"connected_time":2397000000000,"state":"active","ping":47},{"user_id":671,"name":"Varia Maius","steam_id":76561198249997376,"connected_time":2152000000000,"state":"active","ping":74},{"user_id":679,"name":"wiiblob","steam_id":76561198109106242,"connected_time":1779000000000,"state":"active","ping":140},{"user_id":666,"name":"oinkpig234","steam_id":76561198883733811,"connected_time":2340000000000,"state":"active","ping":75},{"user_id":640,"name":"adil (victim)","steam_id":76561198197047443,"connected_time":3634000000000,"state":"active","ping":81},{"user_id":639,"name":"Calypso","steam_id":76561198082939544,"connected_time":3656000000000,"state":"active","ping":84},{"user_id":693,"name":"Whirblewind","steam_id":76561197964722449,"connected_time":53000000000,"state":"active","ping":204},{"user_id":680,"name":"Bolty","steam_id":76561198084199165,"connected_time":1675000000000,"state":"active","ping":85},{"user_id":686,"name":"Dispenser (Twan)","steam_id":76561197991064908,"connected_time":968000000000,"state":"active","ping":60},{"user_id":687,"name":"GUINNESS ANYONE?","steam_id":76561197985970131,"connected_time":718000000000,"state":"active","ping":73},{"user_id":683,"name":"hashmap","steam_id":76561198043794014,"connected_time":1474000000000,"state":"active","ping":58},{"user_id":675,"name":"stew","steam_id":76561198090998026,"connected_time":1915000000000,"state":"active","ping":75},{"user_id":676,"name":"REM","steam_id":76561198132784450,"connected_time":1909000000000,"state":"active","ping":66},{"user_id":642,"name":"illegal (victim)","steam_id":76561198871530383,"connected_time":3613000000000,"state":"active","ping":50},{"user_id":677,"name":"gps","steam_id":76561198067492304,"connected_time":1908000000000,"state":"active","ping":88},{"user_id":682,"name":"Super3D","steam_id":76561199297779078,"connected_time":1618000000000,"state":"active","ping":61},{"user_id":630,"name":"Joseph Stalin","steam_id":76561198126234142,"connected_time":4250000000000,"state":"active","ping":83},{"user_id":690,"name":"G6 1920","steam_id":76561198111669774,"connected_time":452000000000,"state":"active","ping":52}]},{"server_id":403,"name":"Uncletopia | Chicago | 4 | All Maps","name_short":"chi-4","host":"chi-1.us.uncletopia.com","port":27045,"enabled":true,"region":"us-central","cc":"us","latitude":41.881832,"longitude":-87.62318,"reserved":0,"last_update":"0001-01-01T00:00:00Z","name_a2s":"Uncletopia | Chicago | 4 | All Maps","protocol":17,"map":"pl_rumford_event","folder":"tf","game":"Team Fortress","app_id":440,"player_count":24,"max_players":24,"Bots":0,"server_type":"Dedicated","server_os":"Linux","password":true,"vac":true,"version":"7757534","steam_id":85568392924515193,"keywords":["nocrits","nodmgspread","payload","uncletopia"],"game_id":440,"stv_port":27046,"stv_name":"Uncletopia | Chicago | 4 | All Maps | STV","players":[{"user_id":799,"name":"dicksouls26","steam_id":76561198838196266,"connected_time":271000000000,"state":"active","ping":72},{"user_id":795,"name":"Stock Medic","steam_id":76561198065479730,"connected_time":809000000000,"state":"active","ping":44},{"user_id":798,"name":"Tusk","steam_id":76561199066977033,"connected_time":370000000000,"state":"active","ping":76},{"user_id":783,"name":"marvxpensiv3","steam_id":76561199020502894,"connected_time":1402000000000,"state":"active","ping":115},{"user_id":784,"name":"wongo","steam_id":76561198064420072,"connected_time":1388000000000,"state":"active","ping":59},{"user_id":756,"name":"natman_22","steam_id":76561198203353284,"connected_time":3281000000000,"state":"active","ping":64},{"user_id":757,"name":"YungChefMingus","steam_id":76561198087122048,"connected_time":3279000000000,"state":"active","ping":45},{"user_id":692,"name":"‚ù§‚ô°ÔΩ•ÔæüBubblesÔΩ•Ôæü‚ô°‚ù§","steam_id":76561198041057042,"connected_time":4755000000000,"state":"active","ping":64},{"user_id":785,"name":"saucy jack","steam_id":76561198307012859,"connected_time":1328000000000,"state":"active","ping":68},{"user_id":771,"name":"$200 Shirt","steam_id":76561197977329534,"connected_time":2464000000000,"state":"active","ping":59},{"user_id":693,"name":"bash -lc ./asshat.sh","steam_id":76561198004584315,"connected_time":4738000000000,"state":"active","ping":70},{"user_id":786,"name":"thebestman982","steam_id":76561199001698710,"connected_time":1298000000000,"state":"active","ping":89},{"user_id":761,"name":"Why is there a","steam_id":76561198201986323,"connected_time":3205000000000,"state":"active","ping":58},{"user_id":632,"name":"Piyono","steam_id":76561197962188504,"connected_time":6471000000000,"state":"active","ping":70},{"user_id":787,"name":"Mr.Lean","steam_id":76561197972774535,"connected_time":1292000000000,"state":"active","ping":83},{"user_id":778,"name":"N√©oGothiqueüïØ","steam_id":76561198003467269,"connected_time":1803000000000,"state":"active","ping":73},{"user_id":763,"name":"Weasel Smack","steam_id":76561198023116430,"connected_time":3186000000000,"state":"active","ping":91},{"user_id":797,"name":"Soto101","steam_id":76561198141538280,"connected_time":555000000000,"state":"active","ping":52},{"user_id":794,"name":"Pizzaturtle","steam_id":76561198092073902,"connected_time":1008000000000,"state":"active","ping":74},{"user_id":678,"name":"jibby","steam_id":76561198046872382,"connected_time":5080000000000,"state":"active","ping":55},{"user_id":765,"name":"grflk","steam_id":76561198403483744,"connected_time":3148000000000,"state":"active","ping":78},{"user_id":766,"name":"(V)(A)c","steam_id":76561199211753062,"connected_time":3136000000000,"state":"active","ping":80},{"user_id":790,"name":"Peasuper Plant","steam_id":76561199367860917,"connected_time":1205000000000,"state":"active","ping":110},{"user_id":791,"name":"Dingus Dongus","steam_id":76561198085777743,"connected_time":1201000000000,"state":"active","ping":83}]},{"server_id":36,"name":"Uncletopia | Chicago | 5 | All Maps","name_short":"chi-5","host":"chi-2.us.uncletopia.com","port":27015,"enabled":true,"region":"us-central","cc":"us","latitude":41.881832,"longitude":-87.62318,"reserved":0,"last_update":"0001-01-01T00:00:00Z","name_a2s":"Uncletopia | Chicago | 5 | All Maps","protocol":17,"map":"cp_mountainlab","folder":"tf","game":"Team Fortress","app_id":440,"player_count":24,"max_players":24,"Bots":0,"server_type":"Dedicated","server_os":"Linux","password":true,"vac":true,"version":"7757534","steam_id":85568392924866362,"keywords":["cp","nocrits","nodmgspread","uncletopia"],"game_id":440,"stv_port":27016,"stv_name":"Uncletopia | Chicago | 5 | All Maps | STV","players":[{"user_id":183,"name":"Monkey","steam_id":76561198031015186,"connected_time":4719000000000,"state":"active","ping":78},{"user_id":225,"name":"George","steam_id":76561198020046873,"connected_time":2165000000000,"state":"active","ping":58},{"user_id":152,"name":"Sychke","steam_id":76561198067144055,"connected_time":6869000000000,"state":"active","ping":43},{"user_id":241,"name":"R33se","steam_id":76561198296531992,"connected_time":928000000000,"state":"active","ping":61},{"user_id":218,"name":"MrhobbitRequiem","steam_id":76561198976215013,"connected_time":2453000000000,"state":"active","ping":72},{"user_id":253,"name":"THRILLHO","steam_id":76561198371663047,"connected_time":104000000000,"state":"active","ping":65},{"user_id":208,"name":"the","steam_id":76561198311446636,"connected_time":3387000000000,"state":"active","ping":57},{"user_id":247,"name":"white ray","steam_id":76561198026664629,"connected_time":551000000000,"state":"active","ping":53},{"user_id":248,"name":"MasterGeek.MX","steam_id":76561198063355220,"connected_time":476000000000,"state":"active","ping":133},{"user_id":243,"name":"Wiccaa","steam_id":76561199209580985,"connected_time":792000000000,"state":"active","ping":77},{"user_id":235,"name":"Foxtrot Uniform‚Ñ¢","steam_id":76561199236576844,"connected_time":1580000000000,"state":"active","ping":78},{"user_id":238,"name":"North","steam_id":76561199173696836,"connected_time":1447000000000,"state":"active","ping":85},{"user_id":214,"name":"X_Sniper7","steam_id":76561198081097640,"connected_time":2854000000000,"state":"active","ping":73},{"user_id":195,"name":"totally not a pile of beans","steam_id":76561198119851931,"connected_time":3942000000000,"state":"active","ping":84},{"user_id":244,"name":"OddAwter","steam_id":76561198073186405,"connected_time":768000000000,"state":"active","ping":102},{"user_id":252,"name":"Skuntle Bingoid","steam_id":76561198046942778,"connected_time":279000000000,"state":"active","ping":77},{"user_id":231,"name":"dmdr1969","steam_id":76561198080469611,"connected_time":1759000000000,"state":"active","ping":74},{"user_id":205,"name":"Venk","steam_id":76561198251131422,"connected_time":3525000000000,"state":"active","ping":70},{"user_id":250,"name":"OldRavensFan","steam_id":76561198043919562,"connected_time":463000000000,"state":"active","ping":71},{"user_id":236,"name":"Fraglin","steam_id":76561198124964000,"connected_time":1541000000000,"state":"active","ping":85},{"user_id":237,"name":"a crazy hobo","steam_id":76561198289650060,"connected_time":1494000000000,"state":"active","ping":91},{"user_id":245,"name":"NBA Youngboy","steam_id":76561199118797200,"connected_time":760000000000,"state":"active","ping":77},{"user_id":251,"name":"Banook","steam_id":76561198050852823,"connected_time":326000000000,"state":"active","ping":60},{"user_id":240,"name":"Mr. Evil's racist Orc","steam_id":76561199145173282,"connected_time":1338000000000,"state":"active","ping":51}]},{"server_id":37,"name":"Uncletopia | Chicago | 6 | All Maps","name_short":"chi-6","host":"chi-2.us.uncletopia.com","port":27025,"enabled":true,"region":"us-central","cc":"us","latitude":41.881832,"longitude":-87.62318,"reserved":0,"last_update":"0001-01-01T00:00:00Z","name_a2s":"Uncletopia | Chicago | 6 | All Maps","protocol":17,"map":"cp_dustbowl","folder":"tf","game":"Team Fortress","app_id":440,"player_count":24,"max_players":24,"Bots":0,"server_type":"Dedicated","server_os":"Linux","password":true,"vac":true,"version":"7757534","steam_id":85568392924866363,"keywords":["cp","nocrits","nodmgspread","uncletopia"],"game_id":440,"stv_port":27026,"stv_name":"Uncletopia | Chicago | 6 | All Maps | STV","players":[{"user_id":405,"name":"Fargo","steam_id":76561198044703931,"connected_time":1894000000000,"state":"active","ping":67},{"user_id":399,"name":"Reed.Dook","steam_id":76561198046625664,"connected_time":2069000000000,"state":"active","ping":67},{"user_id":411,"name":"Discipline","steam_id":76561198019206178,"connected_time":1683000000000,"state":"active","ping":77},{"user_id":343,"name":"warewarewa","steam_id":76561197965022076,"connected_time":3443000000000,"state":"active","ping":50},{"user_id":418,"name":"Asolator0","steam_id":76561198095809798,"connected_time":755000000000,"state":"active","ping":65},{"user_id":406,"name":"IceKirby512","steam_id":76561198043617388,"connected_time":1882000000000,"state":"active","ping":64},{"user_id":407,"name":"Ëß£ÊîæÈ¶ôÊ∏ØÊó∂‰ª£ÁöÑÈù©ÂëΩ","steam_id":76561198003230524,"connected_time":1854000000000,"state":"active","ping":45},{"user_id":408,"name":"ZenkoZSprite","steam_id":76561198190132250,"connected_time":1827000000000,"state":"active","ping":54},{"user_id":409,"name":"Leviathan","steam_id":76561197997528907,"connected_time":1811000000000,"state":"active","ping":71},{"user_id":416,"name":"Loogey03","steam_id":76561198155483586,"connected_time":1486000000000,"state":"active","ping":59},{"user_id":421,"name":"CJDGuy","steam_id":76561198213009545,"connected_time":428000000000,"state":"active","ping":77},{"user_id":314,"name":"SSBM Pelican","steam_id":76561198040697907,"connected_time":5250000000000,"state":"active","ping":76},{"user_id":313,"name":"Soap Man","steam_id":76561198000490235,"connected_time":5267000000000,"state":"active","ping":120},{"user_id":397,"name":"None of that $9.99 bullshit","steam_id":76561198116169903,"connected_time":2168000000000,"state":"active","ping":49},{"user_id":373,"name":"wjnger","steam_id":76561198120498226,"connected_time":3063000000000,"state":"active","ping":95},{"user_id":401,"name":"Squire","steam_id":76561198081586031,"connected_time":2038000000000,"state":"active","ping":70},{"user_id":400,"name":"Tuchpi","steam_id":76561197967581205,"connected_time":2052000000000,"state":"active","ping":59},{"user_id":425,"name":"Astro","steam_id":76561198035676106,"connected_time":228000000000,"state":"active","ping":93},{"user_id":414,"name":"theghazinator","steam_id":76561198188027695,"connected_time":1540000000000,"state":"active","ping":56},{"user_id":426,"name":"loyaldandan0764","steam_id":76561199231020424,"connected_time":178000000000,"state":"active","ping":125},{"user_id":377,"name":"Bernaners","steam_id":76561198142665643,"connected_time":3031000000000,"state":"active","ping":87},{"user_id":420,"name":"gargantuan","steam_id":76561199243281799,"connected_time":631000000000,"state":"active","ping":69},{"user_id":424,"name":"Cliff Uppercut","steam_id":76561197999439391,"connected_time":305000000000,"state":"active","ping":83},{"user_id":378,"name":"Pot8to","steam_id":76561198247598000,"connected_time":3004000000000,"state":"active","ping":79}]},{"server_id":38,"name":"Uncletopia | Chicago | 7 | Stopwatch Beta","name_short":"chi-7","host":"chi-2.us.uncletopia.com","port":27035,"enabled":true,"region":"us-central","cc":"us","latitude":41.881832,"longitude":-87.62318,"reserved":0,"last_update":"0001-01-01T00:00:00Z","name_a2s":"Uncletopia | Chicago | 7 | Stopwatch Beta","protocol":17,"map":"workshop/koth_product_final.ugc454272353","folder":"tf","game":"Team Fortress","app_id":440,"player_count":0,"max_players":24,"Bots":0,"server_type":"Dedicated","server_os":"Linux","password":true,"vac":true,"version":"7757534","steam_id":85568392924866364,"keywords":["cp","nocrits","nodmgspread","uncletopia"],"game_id":440,"stv_port":27036,"stv_name":"Uncletopia | Chicago | 7 | Stopwatch Beta | STV","players":null},{"server_id":39,"name":"Uncletopia | Chicago | 8 | Community","name_short":"chi-8","host":"chi-2.us.uncletopia.com","port":27045,"enabled":true,"region":"us-central","cc":"us","latitude":41.881832,"longitude":-87.62318,"reserved":0,"last_update":"0001-01-01T00:00:00Z","name_a2s":"Uncletopia | Chicago | 8 | Community","protocol":17,"map":"workshop/cp_sulfur_rc2.ugc619869471","folder":"tf","game":"Team Fortress","app_id":440,"player_count":0,"max_players":24,"Bots":0,"server_type":"Dedicated","server_os":"Linux","password":true,"vac":true,"version":"7757534","steam_id":85568392924866365,"keywords":["cp","nocrits","nodmgspread","uncletopia"],"game_id":440,"stv_port":27046,"stv_name":"Uncletopia | Chicago | 8 | Community | STV","players":null},{"server_id":8,"name":"Uncletopia | Dallas | 1 | All Maps","name_short":"dal-1","host":"dal-1.us.uncletopia.com","port":27015,"enabled":true,"region":"us-central","cc":"us","latitude":32.779167,"longitude":-96.80889,"reserved":0,"last_update":"0001-01-01T00:00:00Z","name_a2s":"Uncletopia | Dallas | 1 | All Maps","protocol":17,"map":"cp_egypt_final","folder":"tf","game":"Team Fortress","app_id":440,"player_count":24,"max_players":24,"Bots":0,"server_type":"Dedicated","server_os":"Linux","password":true,"vac":true,"version":"7757534","steam_id":85568392924469986,"keywords":["cp","nocrits","nodmgspread","uncletopia"],"game_id":440,"stv_port":27016,"stv_name":"Uncletopia | Dallas | 1 | All Maps | STV","players":[{"user_id":788,"name":"·ö£·ö≥·õä·ö∏","steam_id":76561198103507176,"connected_time":3496000000000,"state":"active","ping":81},{"user_id":820,"name":"EvilPigglet","steam_id":76561197987243470,"connected_time":1884000000000,"state":"active","ping":75},{"user_id":744,"name":"Hulkworm","steam_id":76561198263964808,"connected_time":7554000000000,"state":"active","ping":48},{"user_id":784,"name":"Justy","steam_id":76561198044014069,"connected_time":3635000000000,"state":"active","ping":64},{"user_id":789,"name":"firestabber","steam_id":76561198057055577,"connected_time":3406000000000,"state":"active","ping":94},{"user_id":838,"name":"jturner1nm","steam_id":76561198344493652,"connected_time":411000000000,"state":"active","ping":113},{"user_id":723,"name":"ya boi","steam_id":76561198420218460,"connected_time":9023000000000,"state":"active","ping":54},{"user_id":837,"name":"iluvtoust","steam_id":76561198869269207,"connected_time":466000000000,"state":"active","ping":57},{"user_id":792,"name":"Darentmotion","steam_id":76561198161628971,"connected_time":3216000000000,"state":"active","ping":75},{"user_id":832,"name":"Lore","steam_id":76561198098407538,"connected_time":891000000000,"state":"active","ping":74},{"user_id":794,"name":"intek","steam_id":76561198052705291,"connected_time":3122000000000,"state":"active","ping":68},{"user_id":813,"name":"zonemaster95","steam_id":76561198072572032,"connected_time":1990000000000,"state":"active","ping":95},{"user_id":830,"name":"viscodolante","steam_id":76561198013650292,"connected_time":972000000000,"state":"active","ping":105},{"user_id":833,"name":"crs22","steam_id":76561198120149196,"connected_time":794000000000,"state":"active","ping":60},{"user_id":798,"name":"Nicko","steam_id":76561198328490503,"connected_time":2944000000000,"state":"active","ping":144},{"user_id":840,"name":"Triforce141","steam_id":76561198063896776,"connected_time":375000000000,"state":"active","ping":45},{"user_id":800,"name":"Su1tCas3","steam_id":76561198035989471,"connected_time":2854000000000,"state":"active","ping":111},{"user_id":822,"name":"Elongated Muskrat","steam_id":76561198314501346,"connected_time":1824000000000,"state":"active","ping":111},{"user_id":770,"name":"cup","steam_id":76561198121245586,"connected_time":5045000000000,"state":"active","ping":81},{"user_id":817,"name":"An00bis","steam_id":76561198044084508,"connected_time":1912000000000,"state":"active","ping":79},{"user_id":807,"name":"Shmebulock","steam_id":76561198046941925,"connected_time":2683000000000,"state":"active","ping":76},{"user_id":841,"name":"Haula","steam_id":76561198076586592,"connected_time":342000000000,"state":"active","ping":60},{"user_id":821,"name":"the real babytron","steam_id":76561197989627918,"connected_time":1874000000000,"state":"active","ping":99},{"user_id":823,"name":"Not A Rapper","steam_id":76561198077523537,"connected_time":1818000000000,"state":"active","ping":97}]},{"server_id":108,"name":"Uncletopia | Dallas | 2 | All Maps","name_short":"dal-2","host":"dal-1.us.uncletopia.com","port":27025,"enabled":true,"region":"us-central","cc":"us","latitude":32.779167,"longitude":-96.80889,"reserved":0,"last_update":"0001-01-01T00:00:00Z","name_a2s":"Uncletopia | Dallas | 2 | All Maps","protocol":17,"map":"ctf_2fort","folder":"tf","game":"Team Fortress","app_id":440,"player_count":9,"max_players":24,"Bots":0,"server_type":"Dedicated","server_os":"Linux","password":true,"vac":true,"version":"7757534","steam_id":85568392924469988,"keywords":["ctf","nocrits","nodmgspread","uncletopia"],"game_id":440,"stv_port":27026,"stv_name":"Uncletopia | Dallas | 2 | All Maps | STV","players":[{"user_id":515,"name":"xvphoenix101","steam_id":76561199390343086,"connected_time":93000000000,"state":"active","ping":70},{"user_id":461,"name":"Burny Sanders","steam_id":76561197961879048,"connected_time":4777000000000,"state":"active","ping":42},{"user_id":514,"name":"david201314","steam_id":76561199304644842,"connected_time":541000000000,"state":"active","ping":85},{"user_id":375,"name":"Dragons\u003eEverything","steam_id":76561199140784635,"connected_time":11029000000000,"state":"active","ping":55},{"user_id":511,"name":"purply-ghost","steam_id":76561199204779865,"connected_time":798000000000,"state":"active","ping":39},{"user_id":460,"name":"inzang","steam_id":76561198088318074,"connected_time":4799000000000,"state":"active","ping":53},{"user_id":498,"name":"John Dungus (the real one)","steam_id":76561198049191027,"connected_time":1619000000000,"state":"active","ping":58},{"user_id":510,"name":"Dojoloachfr","steam_id":76561198826298849,"connected_time":802000000000,"state":"active","ping":95},{"user_id":502,"name":"Trans Bumblebee","steam_id":76561198119393205,"connected_time":1450000000000,"state":"active","ping":48}]},{"server_id":5,"name":"Uncletopia | Frankfurt | 1 | All Maps","name_short":"frk-1","host":"frk-1.de.uncletopia.com","port":27015,"enabled":true,"region":"eu","cc":"de","latitude":50.110924,"longitude":8.682127,"reserved":0,"last_update":"0001-01-01T00:00:00Z","name_a2s":"Uncletopia | Frankfurt | 1 | All Maps","protocol":17,"map":"cp_mountainlab","folder":"tf","game":"Team Fortress","app_id":440,"player_count":0,"max_players":24,"Bots":0,"server_type":"Dedicated","server_os":"Linux","password":true,"vac":true,"version":"7757534","steam_id":85568392924469989,"keywords":["cp","nocrits","nodmgspread","uncletopia"],"game_id":440,"stv_port":27016,"stv_name":"Uncletopia | Frankfurt | 1 | All Maps | STV","players":null},{"server_id":110,"name":"Uncletopia | Frankfurt | 2 | All Maps","name_short":"frk-2","host":"frk-1.de.uncletopia.com","port":27025,"enabled":true,"region":"eu","cc":"de","latitude":50.110924,"longitude":8.682127,"reserved":0,"last_update":"0001-01-01T00:00:00Z","name_a2s":"Uncletopia | Frankfurt | 2 | All Maps","protocol":17,"map":"koth_suijin","folder":"tf","game":"Team Fortress","app_id":440,"player_count":5,"max_players":24,"Bots":0,"server_type":"Dedicated","server_os":"Linux","password":true,"vac":true,"version":"7757534","steam_id":85568392924469990,"keywords":["cp","nocrits","nodmgspread","uncletopia"],"game_id":440,"stv_port":27026,"stv_name":"Uncletopia | Frankfurt | 2 | All Maps | STV","players":[{"user_id":487,"name":"spotted richard","steam_id":76561197988802856,"connected_time":5690000000000,"state":"active","ping":46},{"user_id":502,"name":"Drdarlekzzz","steam_id":76561198160141785,"connected_time":111000000000,"state":"active","ping":45},{"user_id":504,"name":"upisfree","steam_id":76561198064037857,"connected_time":44000000000,"state":"active","ping":122},{"user_id":491,"name":"bonus ducks","steam_id":76561199133093829,"connected_time":4448000000000,"state":"active","ping":132},{"user_id":501,"name":"MarkBV","steam_id":76561198427014506,"connected_time":398000000000,"state":"active","ping":133}]},{"server_id":308,"name":"Uncletopia | Frankfurt | 3 | All Maps","name_short":"frk-3","host":"frk-1.de.uncletopia.com","port":27035,"enabled":true,"region":"eu","cc":"de","latitude":50.110924,"longitude":8.682127,"reserved":0,"last_update":"0001-01-01T00:00:00Z","name_a2s":"Uncletopia | Frankfurt | 3 | All Maps","protocol":17,"map":"cp_mountainlab","folder":"tf","game":"Team Fortress","app_id":440,"player_count":0,"max_players":24,"Bots":0,"server_type":"Dedicated","server_os":"Linux","password":true,"vac":true,"version":"7757534","steam_id":85568392924504274,"keywords":["cp","nocrits","nodmgspread","uncletopia"],"game_id":440,"stv_port":27036,"stv_name":"Uncletopia | Frankfurt | 3 | All Maps | STV","players":null},{"server_id":309,"name":"Uncletopia | Frankfurt | 4 | All Maps","name_short":"frk-4","host":"frk-1.de.uncletopia.com","port":27045,"enabled":true,"region":"eu","cc":"de","latitude":50.110924,"longitude":8.682127,"reserved":0,"last_update":"0001-01-01T00:00:00Z","name_a2s":"Uncletopia | Frankfurt | 4 | All Maps","protocol":17,"map":"koth_highpass","folder":"tf","game":"Team Fortress","app_id":440,"player_count":0,"max_players":24,"Bots":0,"server_type":"Dedicated","server_os":"Linux","password":true,"vac":true,"version":"7757534","steam_id":85568392924504275,"keywords":["cp","nocrits","nodmgspread","uncletopia"],"game_id":440,"stv_port":27046,"stv_name":"Uncletopia | Frankfurt | 4 | All Maps | STV","players":null},{"server_id":310,"name":"Uncletopia | Frankfurt | 5 | All Maps","name_short":"frk-5","host":"frk-1.de.uncletopia.com","port":27055,"enabled":true,"region":"eu","cc":"de","latitude":50.110924,"longitude":8.682127,"reserved":0,"last_update":"0001-01-01T00:00:00Z","name_a2s":"Uncletopia | Frankfurt | 5 | All Maps","protocol":17,"map":"koth_viaduct","folder":"tf","game":"Team Fortress","app_id":440,"player_count":0,"max_players":24,"Bots":0,"server_type":"Dedicated","server_os":"Linux","password":true,"vac":true,"version":"7757534","steam_id":85568392924504277,"keywords":["cp","nocrits","nodmgspread","uncletopia"],"game_id":440,"stv_port":27056,"stv_name":"Uncletopia | Frankfurt | 5 | All Maps | STV","players":null},{"server_id":311,"name":"Uncletopia | Frankfurt | 6 | All Maps","name_short":"frk-6","host":"frk-1.de.uncletopia.com","port":27065,"enabled":true,"region":"eu","cc":"de","latitude":50.110924,"longitude":8.682127,"reserved":0,"last_update":"0001-01-01T00:00:00Z","name_a2s":"Uncletopia | Frankfurt | 6 | All Maps","protocol":17,"map":"koth_viaduct","folder":"tf","game":"Team Fortress","app_id":440,"player_count":0,"max_players":24,"Bots":0,"server_type":"Dedicated","server_os":"Linux","password":true,"vac":true,"version":"7757534","steam_id":85568392924504278,"keywords":["cp","nocrits","nodmgspread","uncletopia"],"game_id":440,"stv_port":27066,"stv_name":"Uncletopia | Frankfurt | 6 | All Maps | STV","players":null},{"server_id":23,"name":"Uncletopia | Frankfurt | 7 | Stopwatch Beta","name_short":"frk-7","host":"frk-1.de.uncletopia.com","port":27075,"enabled":true,"region":"eu","cc":"de","latitude":50.110924,"longitude":8.682127,"reserved":0,"last_update":"0001-01-01T00:00:00Z","name_a2s":"Uncletopia | Frankfurt | 7 | Stopwatch Beta","protocol":17,"map":"workshop/koth_ramjam_rc1.ugc459778887","folder":"tf","game":"Team Fortress","app_id":440,"player_count":0,"max_players":24,"Bots":0,"server_type":"Dedicated","server_os":"Linux","password":true,"vac":true,"version":"7757534","steam_id":85568392924742827,"keywords":["cp","nocrits","nodmgspread","uncletopia"],"game_id":440,"stv_port":27076,"stv_name":"Uncletopia | Frankfurt | 7 | Stopwatch Beta | STV","players":null},{"server_id":24,"name":"Uncletopia | Frankfurt | 8 | Community","name_short":"frk-8","host":"frk-1.de.uncletopia.com","port":27085,"enabled":true,"region":"eu","cc":"de","latitude":50.110924,"longitude":8.682127,"reserved":0,"last_update":"0001-01-01T00:00:00Z","name_a2s":"Uncletopia | Frankfurt | 8 | Community","protocol":17,"map":"workshop/pl_shoreleave_rc1.ugc1238849347","folder":"tf","game":"Team Fortress","app_id":440,"player_count":0,"max_players":24,"Bots":0,"server_type":"Dedicated","server_os":"Linux","password":true,"vac":true,"version":"7757534","steam_id":85568392924742828,"keywords":["nocrits","nodmgspread","payload","uncletopia"],"game_id":440,"stv_port":27086,"stv_name":"Uncletopia | Frankfurt | 8 | Community | STV","players":null},{"server_id":202,"name":"Uncletopia | Hong Kong | 1 | All Maps","name_short":"hgk-1","host":"hgk-1.hk.uncletopia.com","port":27015,"enabled":true,"region":"asia","cc":"hk","latitude":22.302711,"longitude":114.177216,"reserved":0,"last_update":"0001-01-01T00:00:00Z","name_a2s":"Uncletopia | Hong Kong | 1 | All Maps","protocol":17,"map":"pl_swiftwater_final1","folder":"tf","game":"Team Fortress","app_id":440,"player_count":0,"max_players":24,"Bots":0,"server_type":"Dedicated","server_os":"Linux","password":true,"vac":true,"version":"7757534","steam_id":85568392924494504,"keywords":["nocrits","nodmgspread","payload","uncletopia"],"game_id":440,"stv_port":27016,"stv_name":"Uncletopia | Hong Kong | 1 | All Maps | STV","players":null},{"server_id":1,"name":"Uncletopia | Los Angeles | 1 | All Maps","name_short":"lax-1","host":"lax-1.us.uncletopia.com","port":27015,"enabled":true,"region":"us-west","cc":"us","latitude":33.94279,"longitude":-118.41004,"reserved":0,"last_update":"0001-01-01T00:00:00Z","name_a2s":"Uncletopia | Los Angeles | 1 | All Maps","protocol":17,"map":"pl_badwater","folder":"tf","game":"Team Fortress","app_id":440,"player_count":24,"max_players":24,"Bots":0,"server_type":"Dedicated","server_os":"Linux","password":true,"vac":true,"version":"7757534","steam_id":85568392924469991,"keywords":["nocrits","nodmgspread","payload","uncletopia"],"game_id":440,"stv_port":27016,"stv_name":"Uncletopia | Los Angeles | 1 | All Maps | STV","players":[{"user_id":472,"name":"Mycelius","steam_id":76561198324811385,"connected_time":4503000000000,"state":"active","ping":50},{"user_id":562,"name":"K4le","steam_id":76561198747668363,"connected_time":1016000000000,"state":"active","ping":57},{"user_id":568,"name":"Tinnitus Enjoyer","steam_id":76561198046526036,"connected_time":82000000000,"state":"active","ping":46},{"user_id":474,"name":"the goblin","steam_id":76561198097721532,"connected_time":4429000000000,"state":"active","ping":45},{"user_id":421,"name":"biofio","steam_id":76561198019094571,"connected_time":6172000000000,"state":"active","ping":69},{"user_id":567,"name":"Freddie Benson","steam_id":76561198012741266,"connected_time":209000000000,"state":"active","ping":85},{"user_id":370,"name":"Tako","steam_id":76561199264073138,"connected_time":9466000000000,"state":"active","ping":31},{"user_id":357,"name":"bigman1","steam_id":76561198050225055,"connected_time":10925000000000,"state":"active","ping":53},{"user_id":552,"name":"SpringIvan","steam_id":76561199133179509,"connected_time":1428000000000,"state":"active","ping":53},{"user_id":407,"name":"Empyrean","steam_id":76561198116398716,"connected_time":7002000000000,"state":"active","ping":58},{"user_id":525,"name":"Anxiety","steam_id":76561198365627687,"connected_time":2118000000000,"state":"active","ping":56},{"user_id":569,"name":"MrLeftTurn","steam_id":76561198856743969,"connected_time":10000000000,"state":"active","ping":141},{"user_id":563,"name":"Jarryl97","steam_id":76561198055451373,"connected_time":937000000000,"state":"active","ping":91},{"user_id":565,"name":"cringy","steam_id":76561198323000455,"connected_time":672000000000,"state":"active","ping":63},{"user_id":478,"name":"BrightOrangeMango","steam_id":76561198023144607,"connected_time":4245000000000,"state":"active","ping":61},{"user_id":553,"name":"Weakest Stock Weapon Fan","steam_id":76561198976521735,"connected_time":1335000000000,"state":"active","ping":57},{"user_id":396,"name":"Esue Ijae","steam_id":76561199268519057,"connected_time":8182000000000,"state":"active","ping":45},{"user_id":558,"name":"rmbl","steam_id":76561198150137369,"connected_time":1188000000000,"state":"active","ping":54},{"user_id":500,"name":"Len","steam_id":76561199141913673,"connected_time":2738000000000,"state":"active","ping":33},{"user_id":511,"name":"ejschild745","steam_id":76561199013388867,"connected_time":2448000000000,"state":"active","ping":109},{"user_id":417,"name":"the hottest to ever do it","steam_id":76561198145669711,"connected_time":6577000000000,"state":"active","ping":39},{"user_id":534,"name":"McNamJam","steam_id":76561198028128686,"connected_time":1855000000000,"state":"active","ping":60},{"user_id":546,"name":"captain red","steam_id":76561198191587983,"connected_time":1646000000000,"state":"active","ping":76},{"user_id":566,"name":"The Caretaker","steam_id":76561198125241411,"connected_time":511000000000,"state":"active","ping":73}]},{"server_id":112,"name":"Uncletopia | Los Angeles | 2 | All Maps","name_short":"lax-2","host":"lax-1.us.uncletopia.com","port":27025,"enabled":true,"region":"us-west","cc":"us","latitude":33.94279,"longitude":-118.41004,"reserved":0,"last_update":"0001-01-01T00:00:00Z","name_a2s":"Uncletopia | Los Angeles | 2 | All Maps","protocol":17,"map":"koth_cascade","folder":"tf","game":"Team Fortress","app_id":440,"player_count":0,"max_players":24,"Bots":0,"server_type":"Dedicated","server_os":"Linux","password":true,"vac":true,"version":"7757534","steam_id":85568392924469992,"keywords":["cp","nocrits","nodmgspread","uncletopia"],"game_id":440,"stv_port":27026,"stv_name":"Uncletopia | Los Angeles | 2 | All Maps | STV","players":null},{"server_id":324,"name":"Uncletopia | Los Angeles | 3 | All Maps","name_short":"lax-3","host":"lax-1.us.uncletopia.com","port":27035,"enabled":true,"region":"us-west","cc":"us","latitude":33.94279,"longitude":-118.41004,"reserved":0,"last_update":"0001-01-01T00:00:00Z","name_a2s":"Uncletopia | Los Angeles | 3 | All Maps","protocol":17,"map":"pl_frontier_final","folder":"tf","game":"Team Fortress","app_id":440,"player_count":23,"max_players":24,"Bots":0,"server_type":"Dedicated","server_os":"Linux","password":true,"vac":true,"version":"7757534","steam_id":85568392924510198,"keywords":["nocrits","nodmgspread","payload","uncletopia"],"game_id":440,"stv_port":27036,"stv_name":"Uncletopia | Los Angeles | 3 | All Maps | STV","players":[{"user_id":86,"name":"ZenoeZ","steam_id":76561198073573555,"connected_time":3751000000000,"state":"active","ping":85},{"user_id":113,"name":"greens beans","steam_id":76561198153611491,"connected_time":1253000000000,"state":"active","ping":71},{"user_id":108,"name":"DaBeatGoOff?","steam_id":76561198106507400,"connected_time":1747000000000,"state":"active","ping":57},{"user_id":122,"name":"FriskyDemon","steam_id":76561198043684646,"connected_time":623000000000,"state":"active","ping":74},{"user_id":104,"name":"what da dog doin","steam_id":76561198090573639,"connected_time":2278000000000,"state":"active","ping":41},{"user_id":123,"name":"hakken","steam_id":76561199102391736,"connected_time":593000000000,"state":"active","ping":46},{"user_id":109,"name":"BionicApe","steam_id":76561198154637711,"connected_time":1607000000000,"state":"active","ping":68},{"user_id":121,"name":"nomocantgame","steam_id":76561198865074599,"connected_time":871000000000,"state":"active","ping":105},{"user_id":127,"name":"Bombat","steam_id":76561198083096946,"connected_time":45000000000,"state":"active","ping":62},{"user_id":112,"name":"Reisen","steam_id":76561199174579733,"connected_time":1308000000000,"state":"active","ping":111},{"user_id":128,"name":"Lilac","steam_id":76561198977523626,"connected_time":43000000000,"state":"active","ping":61},{"user_id":125,"name":"Heisenberg","steam_id":76561198400565953,"connected_time":464000000000,"state":"active","ping":78},{"user_id":110,"name":"twitch.tv/cccilytf2","steam_id":76561198322125595,"connected_time":1565000000000,"state":"active","ping":59},{"user_id":116,"name":"VicLoL","steam_id":76561198045580784,"connected_time":1040000000000,"state":"active","ping":54},{"user_id":111,"name":"megaroboleg","steam_id":76561198844644993,"connected_time":1464000000000,"state":"active","ping":58},{"user_id":129,"name":"Laxoloni","steam_id":76561199197045700,"connected_time":11000000000,"state":"spawning","ping":67},{"user_id":118,"name":"Iskcal75","steam_id":76561199446407203,"connected_time":1030000000000,"state":"active","ping":122},{"user_id":102,"name":"APOTATO","steam_id":76561198118199858,"connected_time":2654000000000,"state":"active","ping":46},{"user_id":99,"name":"Frogzilla","steam_id":76561198077657538,"connected_time":2720000000000,"state":"active","ping":96},{"user_id":126,"name":"HOG RIDER","steam_id":76561198298589502,"connected_time":428000000000,"state":"active","ping":46},{"user_id":39,"name":"Mozes","steam_id":76561198282673707,"connected_time":4937000000000,"state":"active","ping":74},{"user_id":40,"name":"Rooster Cookie","steam_id":76561198137850413,"connected_time":4926000000000,"state":"active","ping":115},{"user_id":44,"name":"RobotPrototype","steam_id":76561198117511091,"connected_time":4803000000000,"state":"active","ping":91}]},{"server_id":25,"name":"Uncletopia | Los Angeles | 4 | Stopwatch Beta","name_short":"lax-4","host":"lax-1.us.uncletopia.com","port":27045,"enabled":true,"region":"us-west","cc":"us","latitude":33.94279,"longitude":-118.41004,"reserved":0,"last_update":"0001-01-01T00:00:00Z","name_a2s":"Uncletopia | Los Angeles | 4 | Stopwatch Beta","protocol":17,"map":"pl_frontier_final","folder":"tf","game":"Team Fortress","app_id":440,"player_count":0,"max_players":24,"Bots":0,"server_type":"Dedicated","server_os":"Linux","password":true,"vac":true,"version":"7757534","steam_id":85568392924510199,"keywords":["nocrits","nodmgspread","payload","uncletopia"],"game_id":440,"stv_port":27046,"stv_name":"Uncletopia | Los Angeles | 4 | Stopwatch Beta | STV","players":null},{"server_id":11,"name":"Uncletopia | London | 1 | All Maps","name_short":"lon-1","host":"lon-1.uk.uncletopia.com","port":27015,"enabled":true,"region":"eu","cc":"gb","latitude":51.509865,"longitude":-0.118092,"reserved":0,"last_update":"0001-01-01T00:00:00Z","name_a2s":"Uncletopia | London | 1 | All Maps","protocol":17,"map":"koth_lakeside_final","folder":"tf","game":"Team Fortress","app_id":440,"player_count":0,"max_players":24,"Bots":0,"server_type":"Dedicated","server_os":"Linux","password":true,"vac":true,"version":"7757534","steam_id":85568392924367362,"keywords":["cp","nocrits","nodmgspread","uncletopia"],"game_id":440,"stv_port":27016,"stv_name":"Uncletopia | London | 1 | All Maps | STV","players":null},{"server_id":114,"name":"Uncletopia | London | 2 | All Maps","name_short":"lon-2","host":"lon-1.uk.uncletopia.com","port":27025,"enabled":true,"region":"eu","cc":"gb","latitude":51.509865,"longitude":-0.118092,"reserved":0,"last_update":"0001-01-01T00:00:00Z","name_a2s":"Uncletopia | London | 2 | All Maps","protocol":17,"map":"koth_cascade","folder":"tf","game":"Team Fortress","app_id":440,"player_count":0,"max_players":24,"Bots":0,"server_type":"Dedicated","server_os":"Linux","password":true,"vac":true,"version":"7757534","steam_id":85568392924470941,"keywords":["cp","nocrits","nodmgspread","uncletopia"],"game_id":440,"stv_port":27026,"stv_name":"Uncletopia | London | 2 | All Maps | STV","players":null},{"server_id":320,"name":"Uncletopia | London | 3 | All Maps","name_short":"lon-3","host":"lon-1.uk.uncletopia.com","port":27035,"enabled":true,"region":"eu","cc":"gb","latitude":51.509865,"longitude":-0.118092,"reserved":0,"last_update":"0001-01-01T00:00:00Z","name_a2s":"Uncletopia | London | 3 | All Maps","protocol":17,"map":"pl_upward","folder":"tf","game":"Team Fortress","app_id":440,"player_count":0,"max_players":24,"Bots":0,"server_type":"Dedicated","server_os":"Linux","password":true,"vac":true,"version":"7757534","steam_id":85568392924510192,"keywords":["nocrits","nodmgspread","payload","uncletopia"],"game_id":440,"stv_port":27036,"stv_name":"Uncletopia | London | 3 | All Maps | STV","players":null},{"server_id":321,"name":"Uncletopia | London | 4 | All Maps","name_short":"lon-4","host":"lon-1.uk.uncletopia.com","port":27045,"enabled":true,"region":"eu","cc":"gb","latitude":51.509865,"longitude":-0.118092,"reserved":0,"last_update":"0001-01-01T00:00:00Z","name_a2s":"Uncletopia | London | 4 | All Maps","protocol":17,"map":"koth_highpass","folder":"tf","game":"Team Fortress","app_id":440,"player_count":0,"max_players":24,"Bots":0,"server_type":"Dedicated","server_os":"Linux","password":true,"vac":true,"version":"7757534","steam_id":85568392924510193,"keywords":["cp","nocrits","nodmgspread","uncletopia"],"game_id":440,"stv_port":27046,"stv_name":"Uncletopia | London | 4 | All Maps | STV","players":null},{"server_id":21,"name":"Uncletopia | London | 5 | All Maps","name_short":"lon-5","host":"lon-1.uk.uncletopia.com","port":27055,"enabled":true,"region":"eu","cc":"gb","latitude":51.509865,"longitude":-0.118092,"reserved":0,"last_update":"0001-01-01T00:00:00Z","name_a2s":"Uncletopia | London | 5 | All Maps","protocol":17,"map":"koth_lakeside_final","folder":"tf","game":"Team Fortress","app_id":440,"player_count":0,"max_players":24,"Bots":0,"server_type":"Dedicated","server_os":"Linux","password":true,"vac":true,"version":"7757534","steam_id":85568392924742829,"keywords":["cp","nocrits","nodmgspread","uncletopia"],"game_id":440,"stv_port":27056,"stv_name":"Uncletopia | London | 5 | All Maps | STV","players":null},{"server_id":22,"name":"Uncletopia | London | 6 | All Maps","name_short":"lon-6","host":"lon-1.uk.uncletopia.com","port":27065,"enabled":true,"region":"eu","cc":"gb","latitude":51.509865,"longitude":-0.118092,"reserved":0,"last_update":"0001-01-01T00:00:00Z","name_a2s":"Uncletopia | London | 6 | All Maps","protocol":17,"map":"cp_dustbowl","folder":"tf","game":"Team Fortress","app_id":440,"player_count":0,"max_players":24,"Bots":0,"server_type":"Dedicated","server_os":"Linux","password":true,"vac":true,"version":"7757534","steam_id":85568392924742830,"keywords":["cp","nocrits","nodmgspread","uncletopia"],"game_id":440,"stv_port":27066,"stv_name":"Uncletopia | London | 6 | All Maps | STV","players":null},{"server_id":40,"name":"Uncletopia | London | 7 | No Payload","name_short":"lon-7","host":"lon-1.uk.uncletopia.com","port":27075,"enabled":true,"region":"eu","cc":"gb","latitude":51.509865,"longitude":-0.118092,"reserved":0,"last_update":"0001-01-01T00:00:00Z","name_a2s":"Uncletopia | London | 7 | No Payload","protocol":17,"map":"koth_suijin","folder":"tf","game":"Team Fortress","app_id":440,"player_count":0,"max_players":24,"Bots":0,"server_type":"Dedicated","server_os":"Linux","password":true,"vac":true,"version":"7757534","steam_id":85568392924964314,"keywords":["cp","nocrits","nodmgspread","uncletopia"],"game_id":440,"stv_port":27076,"stv_name":"Uncletopia | London | 7 | No Payload | STV","players":null},{"server_id":41,"name":"Uncletopia | London | 8 | Community","name_short":"lon-8","host":"lon-1.uk.uncletopia.com","port":27085,"enabled":true,"region":"eu","cc":"gb","latitude":51.509865,"longitude":-0.118092,"reserved":0,"last_update":"0001-01-01T00:00:00Z","name_a2s":"Uncletopia | London | 8 | Community","protocol":17,"map":"workshop/pl_cactuscanyon_redux_rc4b.ugc2579644293","folder":"tf","game":"Team Fortress","app_id":440,"player_count":0,"max_players":24,"Bots":0,"server_type":"Dedicated","server_os":"Linux","password":true,"vac":true,"version":"7757534","steam_id":85568392924964315,"keywords":["nocrits","nodmgspread","payload","uncletopia"],"game_id":440,"stv_port":27086,"stv_name":"Uncletopia | London | 8 | Community | STV","players":null},{"server_id":300,"name":"Uncletopia | Montr√©al | 1 | All Maps","name_short":"mtl-1","host":"mtl-1.ca.uncletopia.com","port":27015,"enabled":true,"region":"us-east","cc":"ca","latitude":45.50889,"longitude":-73.56167,"reserved":0,"last_update":"0001-01-01T00:00:00Z","name_a2s":"Uncletopia | Montr√©al | 1 | All Maps","protocol":17,"map":"pl_swiftwater_final1","folder":"tf","game":"Team Fortress","app_id":440,"player_count":24,"max_players":24,"Bots":0,"server_type":"Dedicated","server_os":"Linux","password":true,"vac":true,"version":"7757534","steam_id":85568392924500087,"keywords":["nocrits","nodmgspread","payload","uncletopia"],"game_id":440,"stv_port":27016,"stv_name":"Uncletopia | Montr√©al | 1 | All Maps | STV","players":[{"user_id":358,"name":"Futo","steam_id":76561198023185653,"connected_time":5127000000000,"state":"active","ping":73},{"user_id":389,"name":"Munchyjr","steam_id":76561198041498014,"connected_time":2405000000000,"state":"active","ping":52},{"user_id":371,"name":"carrion goat she/it","steam_id":76561198262064871,"connected_time":4218000000000,"state":"active","ping":52},{"user_id":372,"name":"jootloops","steam_id":76561198155447794,"connected_time":4159000000000,"state":"active","ping":58},{"user_id":407,"name":"Gurt","steam_id":76561198061442334,"connected_time":517000000000,"state":"active","ping":54},{"user_id":403,"name":"ham bone","steam_id":76561198351143785,"connected_time":883000000000,"state":"active","ping":56},{"user_id":386,"name":"mud drater","steam_id":76561198018680492,"connected_time":2931000000000,"state":"active","ping":63},{"user_id":387,"name":"zeredis","steam_id":76561198076596689,"connected_time":2492000000000,"state":"active","ping":61},{"user_id":405,"name":"Zelumie","steam_id":76561198147335801,"connected_time":708000000000,"state":"active","ping":111},{"user_id":401,"name":"crayonnipple","steam_id":76561198070253331,"connected_time":1629000000000,"state":"active","ping":54},{"user_id":402,"name":"‚õß AlphaSatanOmega ‚õß","steam_id":76561198035125511,"connected_time":1433000000000,"state":"active","ping":69},{"user_id":408,"name":"Tones","steam_id":76561198039572032,"connected_time":483000000000,"state":"active","ping":46},{"user_id":406,"name":"IggyYT","steam_id":76561198317980567,"connected_time":650000000000,"state":"active","ping":88},{"user_id":393,"name":"I C U P","steam_id":76561198349252490,"connected_time":2031000000000,"state":"active","ping":72},{"user_id":397,"name":"SpagetMan","steam_id":76561198409640547,"connected_time":1936000000000,"state":"active","ping":75},{"user_id":380,"name":"||:‚ô©‚ô©‚ô©‚ô™:|| Opplydead","steam_id":76561198028630334,"connected_time":3484000000000,"state":"active","ping":130},{"user_id":381,"name":"Lavender","steam_id":76561198142770666,"connected_time":3395000000000,"state":"active","ping":65},{"user_id":382,"name":"Marisad","steam_id":76561198843890616,"connected_time":3391000000000,"state":"active","ping":86},{"user_id":383,"name":"Rykah","steam_id":76561198095040360,"connected_time":3388000000000,"state":"active","ping":61},{"user_id":409,"name":"Lorberry","steam_id":76561198023706058,"connected_time":446000000000,"state":"active","ping":56},{"user_id":385,"name":"flasky","steam_id":76561198079119793,"connected_time":3334000000000,"state":"active","ping":75},{"user_id":410,"name":"Paolo","steam_id":76561198048134549,"connected_time":427000000000,"state":"active","ping":55},{"user_id":411,"name":"catrinaisahuman","steam_id":76561198281355729,"connected_time":375000000000,"state":"active","ping":102},{"user_id":357,"name":"chloe","steam_id":76561198369849908,"connected_time":5350000000000,"state":"active","ping":55}]},{"server_id":301,"name":"Uncletopia | Montr√©al | 2 | All Maps","name_short":"mtl-2","host":"mtl-1.ca.uncletopia.com","port":27025,"enabled":true,"region":"us-east","cc":"ca","latitude":45.50889,"longitude":-73.56167,"reserved":0,"last_update":"0001-01-01T00:00:00Z","name_a2s":"Uncletopia | Montr√©al | 2 | All Maps","protocol":17,"map":"pl_frontier_final","folder":"tf","game":"Team Fortress","app_id":440,"player_count":0,"max_players":24,"Bots":0,"server_type":"Dedicated","server_os":"Linux","password":true,"vac":true,"version":"7757534","steam_id":85568392924500088,"keywords":["nocrits","nodmgspread","payload","uncletopia"],"game_id":440,"stv_port":27026,"stv_name":"Uncletopia | Montr√©al | 2 | All Maps | STV","players":null},{"server_id":302,"name":"Uncletopia | Montr√©al | 3 | All Maps","name_short":"mtl-3","host":"mtl-1.ca.uncletopia.com","port":27035,"enabled":true,"region":"us-east","cc":"ca","latitude":45.50889,"longitude":-73.56167,"reserved":0,"last_update":"0001-01-01T00:00:00Z","name_a2s":"Uncletopia | Montr√©al | 3 | All Maps","protocol":17,"map":"cp_dustbowl","folder":"tf","game":"Team Fortress","app_id":440,"player_count":0,"max_players":24,"Bots":0,"server_type":"Dedicated","server_os":"Linux","password":true,"vac":true,"version":"7757534","steam_id":85568392924500089,"keywords":["cp","nocrits","nodmgspread","uncletopia"],"game_id":440,"stv_port":27036,"stv_name":"Uncletopia | Montr√©al | 3 | All Maps | STV","players":null},{"server_id":303,"name":"Uncletopia | Montr√©al | 4 | No Payload","name_short":"mtl-4","host":"mtl-1.ca.uncletopia.com","port":27045,"enabled":true,"region":"us-east","cc":"ca","latitude":45.50889,"longitude":-73.56167,"reserved":0,"last_update":"0001-01-01T00:00:00Z","name_a2s":"Uncletopia | Montr√©al | 4 | No Payload","protocol":17,"map":"pl_borneo","folder":"tf","game":"Team Fortress","app_id":440,"player_count":0,"max_players":24,"Bots":0,"server_type":"Dedicated","server_os":"Linux","password":true,"vac":true,"version":"7757534","steam_id":85568392924500090,"keywords":["nocrits","nodmgspread","payload","uncletopia"],"game_id":440,"stv_port":27046,"stv_name":"Uncletopia | Montr√©al | 4 | No Payload | STV","players":null},{"server_id":13,"name":"Uncletopia | New York City | 1 | All Maps","name_short":"nyc-1","host":"nyc-1.us.uncletopia.com","port":27015,"enabled":true,"region":"us-east","cc":"us","latitude":40.73061,"longitude":-73.93524,"reserved":0,"last_update":"0001-01-01T00:00:00Z","name_a2s":"Uncletopia | New York City | 1 | All Maps","protocol":17,"map":"pl_barnblitz","folder":"tf","game":"Team Fortress","app_id":440,"player_count":24,"max_players":24,"Bots":0,"server_type":"Dedicated","server_os":"Linux","password":true,"vac":true,"version":"7757534","steam_id":85568392924469993,"keywords":["nocrits","nodmgspread","payload","uncletopia"],"game_id":440,"stv_port":27016,"stv_name":"Uncletopia | New York City | 1 | All Maps | STV","players":[{"user_id":632,"name":"Drake the Pixel","steam_id":76561198131824401,"connected_time":1073000000000,"state":"active","ping":30},{"user_id":616,"name":"Zesty Jesus","steam_id":76561198052431073,"connected_time":2902000000000,"state":"active","ping":76},{"user_id":630,"name":"Mara Roo","steam_id":76561198279341789,"connected_time":1172000000000,"state":"active","ping":85},{"user_id":631,"name":"Huevo Frito","steam_id":76561198896811394,"connected_time":1138000000000,"state":"active","ping":34},{"user_id":548,"name":"ndvr","steam_id":76561199379200102,"connected_time":8246000000000,"state":"active","ping":53},{"user_id":633,"name":"MuZe","steam_id":76561198096212604,"connected_time":1021000000000,"state":"active","ping":90},{"user_id":628,"name":"phurry","steam_id":76561198287843365,"connected_time":1413000000000,"state":"active","ping":59},{"user_id":623,"name":"retinz","steam_id":76561198135563495,"connected_time":2244000000000,"state":"active","ping":58},{"user_id":625,"name":"inyanga!","steam_id":76561198354663927,"connected_time":2060000000000,"state":"active","ping":60},{"user_id":634,"name":"John Business","steam_id":76561198058008452,"connected_time":1018000000000,"state":"active","ping":70},{"user_id":626,"name":"Yuzu","steam_id":76561198417913035,"connected_time":1855000000000,"state":"active","ping":71},{"user_id":639,"name":"mcdoubble","steam_id":76561198089126832,"connected_time":680000000000,"state":"active","ping":70},{"user_id":635,"name":"Dood32","steam_id":76561198029198690,"connected_time":1015000000000,"state":"active","ping":142},{"user_id":624,"name":"Broadway Rose","steam_id":76561198046083342,"connected_time":2211000000000,"state":"active","ping":44},{"user_id":640,"name":"Primitive","steam_id":76561198060500671,"connected_time":661000000000,"state":"active","ping":38},{"user_id":641,"name":"Boolet","steam_id":76561198088666151,"connected_time":639000000000,"state":"active","ping":98},{"user_id":638,"name":"Sydney","steam_id":76561198797603297,"connected_time":812000000000,"state":"active","ping":79},{"user_id":636,"name":"Verily","steam_id":76561198200558318,"connected_time":1014000000000,"state":"active","ping":45},{"user_id":607,"name":"Dezorbo","steam_id":76561197971883897,"connected_time":4507000000000,"state":"active","ping":60},{"user_id":382,"name":"Elixir","steam_id":76561198166786809,"connected_time":20286000000000,"state":"active","ping":57},{"user_id":643,"name":"Green‚Ñ¢","steam_id":76561198136522734,"connected_time":172000000000,"state":"active","ping":43},{"user_id":642,"name":"hoots","steam_id":76561198015609525,"connected_time":589000000000,"state":"active","ping":53},{"user_id":576,"name":"HumFreY","steam_id":76561198076639682,"connected_time":6586000000000,"state":"active","ping":58},{"user_id":610,"name":"Senator Lucon","steam_id":76561198030563610,"connected_time":3529000000000,"state":"active","ping":130}]},{"server_id":14,"name":"Uncletopia | New York City | 2 | All Maps","name_short":"nyc-2","host":"nyc-1.us.uncletopia.com","port":27025,"enabled":true,"region":"us-east","cc":"us","latitude":40.73061,"longitude":-73.93524,"reserved":0,"last_update":"0001-01-01T00:00:00Z","name_a2s":"Uncletopia | New York City | 2 | All Maps","protocol":17,"map":"pl_pier","folder":"tf","game":"Team Fortress","app_id":440,"player_count":24,"max_players":24,"Bots":0,"server_type":"Dedicated","server_os":"Linux","password":true,"vac":true,"version":"7757534","steam_id":85568392924469994,"keywords":["nocrits","nodmgspread","payload","uncletopia"],"game_id":440,"stv_port":27026,"stv_name":"Uncletopia | New York City | 2 | All Maps | STV","players":[{"user_id":219,"name":"gromit","steam_id":76561198037746805,"connected_time":579000000000,"state":"active","ping":63},{"user_id":204,"name":"Big Yoshi","steam_id":76561199160576376,"connected_time":2139000000000,"state":"active","ping":133},{"user_id":209,"name":"Humble Leader","steam_id":76561198169966346,"connected_time":1683000000000,"state":"active","ping":70},{"user_id":220,"name":"Vem","steam_id":76561198117273112,"connected_time":510000000000,"state":"active","ping":70},{"user_id":215,"name":"Bad Hombre","steam_id":76561198046559176,"connected_time":1073000000000,"state":"active","ping":73},{"user_id":207,"name":"Yam Jazzy Jim","steam_id":76561198000788950,"connected_time":1763000000000,"state":"active","ping":83},{"user_id":213,"name":"deftones","steam_id":76561198117835593,"connected_time":1287000000000,"state":"active","ping":59},{"user_id":223,"name":"ƒ†1 ‚ô¶ Synth","steam_id":76561198058660228,"connected_time":249000000000,"state":"active","ping":67},{"user_id":224,"name":"ApertureB","steam_id":76561198019141379,"connected_time":158000000000,"state":"active","ping":68},{"user_id":178,"name":"British Rage","steam_id":76561198009585209,"connected_time":3725000000000,"state":"active","ping":130},{"user_id":221,"name":"Dot.","steam_id":76561198149463984,"connected_time":455000000000,"state":"active","ping":45},{"user_id":153,"name":"Fishman_200","steam_id":76561198152455167,"connected_time":5582000000000,"state":"active","ping":61},{"user_id":169,"name":"Justinbk","steam_id":76561198076047549,"connected_time":4730000000000,"state":"active","ping":58},{"user_id":222,"name":"xFactr","steam_id":76561198129007422,"connected_time":448000000000,"state":"active","ping":42},{"user_id":165,"name":"A Puppy","steam_id":76561198828184456,"connected_time":4768000000000,"state":"active","ping":48},{"user_id":157,"name":"Nobody","steam_id":76561198160544586,"connected_time":4936000000000,"state":"active","ping":89},{"user_id":214,"name":"Super D Duper","steam_id":76561198078203677,"connected_time":1200000000000,"state":"active","ping":54},{"user_id":120,"name":"Heropon","steam_id":76561198105224481,"connected_time":6772000000000,"state":"active","ping":68},{"user_id":188,"name":"Tone","steam_id":76561198139386202,"connected_time":3137000000000,"state":"active","ping":62},{"user_id":218,"name":"food coma esports","steam_id":76561198075216115,"connected_time":801000000000,"state":"active","ping":138},{"user_id":166,"name":"Wefflez","steam_id":76561198049110443,"connected_time":4767000000000,"state":"active","ping":73},{"user_id":203,"name":"speck","steam_id":76561198147107736,"connected_time":2410000000000,"state":"active","ping":61},{"user_id":197,"name":"shadowjango","steam_id":76561198001475833,"connected_time":2979000000000,"state":"active","ping":76}]},{"server_id":15,"name":"Uncletopia | New York City | 3 | Stopwatch Beta","name_short":"nyc-3","host":"nyc-1.us.uncletopia.com","port":27035,"enabled":true,"region":"us-east","cc":"us","latitude":40.73061,"longitude":-73.93524,"reserved":0,"last_update":"0001-01-01T00:00:00Z","name_a2s":"Uncletopia | New York City | 3 | Stopwatch Beta","protocol":17,"map":"workshop/cp_reckoner_rc6.ugc674719999","folder":"tf","game":"Team Fortress","app_id":440,"player_count":0,"max_players":24,"Bots":0,"server_type":"Dedicated","server_os":"Linux","password":true,"vac":true,"version":"7757534","steam_id":85568392924742820,"keywords":["cp","nocrits","nodmgspread","uncletopia"],"game_id":440,"stv_port":27036,"stv_name":"Uncletopia | New York City | 3 | Stopwatch Beta | STV","players":null},{"server_id":16,"name":"Uncletopia | New York City | 4 | Community","name_short":"nyc-4","host":"nyc-1.us.uncletopia.com","port":27045,"enabled":true,"region":"us-east","cc":"us","latitude":40.73061,"longitude":-73.93524,"reserved":0,"last_update":"0001-01-01T00:00:00Z","name_a2s":"Uncletopia | New York City | 4 | Community","protocol":17,"map":"workshop/koth_product_final.ugc454272353","folder":"tf","game":"Team Fortress","app_id":440,"player_count":0,"max_players":24,"Bots":0,"server_type":"Dedicated","server_os":"Linux","password":true,"vac":true,"version":"7757534","steam_id":85568392924742821,"keywords":["cp","nocrits","nodmgspread","uncletopia"],"game_id":440,"stv_port":27046,"stv_name":"Uncletopia | New York City | 4 | Community | STV","players":null},{"server_id":142,"name":"Uncletopia | S√£o Paulo | 1 | All Maps","name_short":"sao-1","host":"sao-1.br.uncletopia.com","port":27015,"enabled":true,"region":"sa","cc":"br","latitude":-23.533773,"longitude":-46.62529,"reserved":0,"last_update":"0001-01-01T00:00:00Z","name_a2s":"Uncletopia | S√£o Paulo | 1 | All Maps","protocol":17,"map":"cp_altitude","folder":"tf","game":"Team Fortress","app_id":440,"player_count":0,"max_players":24,"Bots":0,"server_type":"Dedicated","server_os":"Linux","password":true,"vac":true,"version":"7757534","steam_id":85568392924469996,"keywords":["cp","nocrits","nodmgspread","uncletopia"],"game_id":440,"stv_port":27016,"stv_name":"Uncletopia | S√£o Paulo | 1 | All Maps | STV","players":null},{"server_id":143,"name":"Uncletopia | S√£o Paulo | 2 | All Maps","name_short":"sao-2","host":"sao-2.br.uncletopia.com","port":27015,"enabled":true,"region":"sa","cc":"br","latitude":-23.533773,"longitude":-46.62529,"reserved":0,"last_update":"0001-01-01T00:00:00Z","name_a2s":"Uncletopia | S√£o Paulo | 2 | All Maps","protocol":17,"map":"koth_viaduct","folder":"tf","game":"Team Fortress","app_id":440,"player_count":0,"max_players":24,"Bots":0,"server_type":"Dedicated","server_os":"Linux","password":true,"vac":true,"version":"7757534","steam_id":85568392924485349,"keywords":["cp","nocrits","nodmgspread","uncletopia"],"game_id":440,"stv_port":27016,"stv_name":"Uncletopia | S√£o Paulo | 2 | All Maps | STV","players":null},{"server_id":7,"name":"Uncletopia | Seattle | 1 | All Maps","name_short":"sea-1","host":"sea-1.us.uncletopia.com","port":27015,"enabled":true,"region":"us-west","cc":"us","latitude":47.608013,"longitude":-122.33517,"reserved":0,"last_update":"0001-01-01T00:00:00Z","name_a2s":"Uncletopia | Seattle | 1 | All Maps","protocol":17,"map":"cp_mountainlab","folder":"tf","game":"Team Fortress","app_id":440,"player_count":22,"max_players":24,"Bots":0,"server_type":"Dedicated","server_os":"Linux","password":true,"vac":true,"version":"7757534","steam_id":85568392924469997,"keywords":["cp","nocrits","nodmgspread","uncletopia"],"game_id":440,"stv_port":27016,"stv_name":"Uncletopia | Seattle | 1 | All Maps | STV","players":[{"user_id":311,"name":"exephur","steam_id":76561198135763234,"connected_time":2719000000000,"state":"active","ping":64},{"user_id":336,"name":"Truffles","steam_id":76561198095868800,"connected_time":428000000000,"state":"active","ping":111},{"user_id":339,"name":"Sho","steam_id":76561198267918585,"connected_time":418000000000,"state":"active","ping":101},{"user_id":272,"name":"goldhed","steam_id":76561198051751133,"connected_time":6002000000000,"state":"active","ping":55},{"user_id":236,"name":"lker","steam_id":76561197976975075,"connected_time":8608000000000,"state":"active","ping":102},{"user_id":328,"name":"R5-D4","steam_id":76561198025196439,"connected_time":910000000000,"state":"active","ping":51},{"user_id":341,"name":"The Spanish Inquisition","steam_id":76561198031971596,"connected_time":349000000000,"state":"active","ping":53},{"user_id":342,"name":"TableSauce","steam_id":76561199030395300,"connected_time":329000000000,"state":"active","ping":84},{"user_id":297,"name":"amoeba","steam_id":76561198970261784,"connected_time":3901000000000,"state":"active","ping":46},{"user_id":330,"name":"Thequirka","steam_id":76561198968058652,"connected_time":861000000000,"state":"active","ping":53},{"user_id":331,"name":"eye see you","steam_id":76561198115242460,"connected_time":848000000000,"state":"active","ping":57},{"user_id":318,"name":"Cheezbeargur","steam_id":76561198164702899,"connected_time":1595000000000,"state":"active","ping":67},{"user_id":347,"name":"weegeebad","steam_id":76561198280841437,"connected_time":192000000000,"state":"active","ping":117},{"user_id":338,"name":"Andy","steam_id":76561198043115724,"connected_time":425000000000,"state":"active","ping":66},{"user_id":307,"name":"Flea103","steam_id":76561198085863864,"connected_time":3102000000000,"state":"active","ping":91},{"user_id":343,"name":"Nova Academy of Salmon Action","steam_id":76561198021842526,"connected_time":291000000000,"state":"active","ping":70},{"user_id":325,"name":"Buckytr","steam_id":76561198096335025,"connected_time":1101000000000,"state":"active","ping":69},{"user_id":344,"name":"Your Personal Demon","steam_id":76561198156230733,"connected_time":287000000000,"state":"active","ping":66},{"user_id":345,"name":"Skabbety","steam_id":76561198168044257,"connected_time":256000000000,"state":"active","ping":32},{"user_id":280,"name":"Arsonist Goose","steam_id":76561198147441830,"connected_time":5059000000000,"state":"active","ping":75},{"user_id":292,"name":"Hassium","steam_id":76561198162541373,"connected_time":4659000000000,"state":"active","ping":57},{"user_id":346,"name":"Hyphoid","steam_id":76561199155104696,"connected_time":242000000000,"state":"active","ping":70}]},{"server_id":119,"name":"Uncletopia | Seattle | 2 | All Maps","name_short":"sea-2","host":"sea-1.us.uncletopia.com","port":27025,"enabled":true,"region":"us-west","cc":"us","latitude":47.608013,"longitude":-122.33517,"reserved":0,"last_update":"0001-01-01T00:00:00Z","name_a2s":"Uncletopia | Seattle | 2 | All Maps","protocol":17,"map":"pl_badwater","folder":"tf","game":"Team Fortress","app_id":440,"player_count":24,"max_players":24,"Bots":0,"server_type":"Dedicated","server_os":"Linux","password":true,"vac":true,"version":"7757534","steam_id":85568392924469998,"keywords":["nocrits","nodmgspread","payload","uncletopia"],"game_id":440,"stv_port":27026,"stv_name":"Uncletopia | Seattle | 2 | All Maps | STV","players":[{"user_id":511,"name":"Grammaring","steam_id":76561198867366139,"connected_time":7782000000000,"state":"active","ping":79},{"user_id":569,"name":"big golden rock boy","steam_id":76561199384986721,"connected_time":2042000000000,"state":"active","ping":121},{"user_id":540,"name":"The Population of Sweden","steam_id":76561198202201644,"connected_time":4768000000000,"state":"active","ping":37},{"user_id":548,"name":"Squid121","steam_id":76561198038832034,"connected_time":3497000000000,"state":"active","ping":60},{"user_id":565,"name":"THAT CAT","steam_id":76561198010828625,"connected_time":2171000000000,"state":"active","ping":41},{"user_id":576,"name":"Gustavo Fring","steam_id":76561198132807405,"connected_time":644000000000,"state":"active","ping":134},{"user_id":527,"name":"mountain creature","steam_id":76561198146228439,"connected_time":6031000000000,"state":"active","ping":49},{"user_id":575,"name":"floom","steam_id":76561198387571809,"connected_time":654000000000,"state":"active","ping":116},{"user_id":562,"name":"Lambchop","steam_id":76561198043900363,"connected_time":2673000000000,"state":"active","ping":79},{"user_id":558,"name":"Void","steam_id":76561198308290211,"connected_time":3103000000000,"state":"active","ping":95},{"user_id":557,"name":"Madcows","steam_id":76561198021695614,"connected_time":3293000000000,"state":"active","ping":64},{"user_id":577,"name":"Dija‚Ñ¢","steam_id":76561198027393588,"connected_time":632000000000,"state":"active","ping":42},{"user_id":574,"name":"Naeole1","steam_id":76561198240378926,"connected_time":1549000000000,"state":"active","ping":126},{"user_id":547,"name":"strong and healthy gamer","steam_id":76561198049489349,"connected_time":3525000000000,"state":"active","ping":56},{"user_id":581,"name":"Bubbamanme","steam_id":76561198119778504,"connected_time":449000000000,"state":"active","ping":59},{"user_id":563,"name":"corbenis","steam_id":76561199012442511,"connected_time":2655000000000,"state":"active","ping":82},{"user_id":578,"name":"barrack omama","steam_id":76561199180441047,"connected_time":612000000000,"state":"active","ping":57},{"user_id":570,"name":"Trogdor","steam_id":76561198121353181,"connected_time":1934000000000,"state":"active","ping":70},{"user_id":504,"name":"MarshallMellows","steam_id":76561198231561020,"connected_time":8198000000000,"state":"active","ping":60},{"user_id":543,"name":"S Q U I S H E  T H A T  C A T","steam_id":76561198293865429,"connected_time":4037000000000,"state":"active","ping":39},{"user_id":555,"name":"Theory-ZaZa","steam_id":76561198116419931,"connected_time":3371000000000,"state":"active","ping":61},{"user_id":579,"name":"oxbudy","steam_id":76561198022120207,"connected_time":600000000000,"state":"active","ping":74},{"user_id":556,"name":"Tyth","steam_id":76561198062543298,"connected_time":3345000000000,"state":"active","ping":44},{"user_id":582,"name":"shiftshock01","steam_id":76561199049488870,"connected_time":25000000000,"state":"active","ping":60}]},{"server_id":406,"name":"Uncletopia | Seattle | 3 | Stopwatch Beta","name_short":"sea-3","host":"sea-1.us.uncletopia.com","port":27035,"enabled":true,"region":"us-west","cc":"us","latitude":47.608013,"longitude":-122.33517,"reserved":0,"last_update":"0001-01-01T00:00:00Z","name_a2s":"Uncletopia | Seattle | 3 | Stopwatch Beta","protocol":17,"map":"workshop/koth_ashville_final.ugc2130459942","folder":"tf","game":"Team Fortress","app_id":440,"player_count":23,"max_players":24,"Bots":0,"server_type":"Dedicated","server_os":"Linux","password":true,"vac":true,"version":"7757534","steam_id":85568392924515217,"keywords":["cp","nocrits","nodmgspread","uncletopia"],"game_id":440,"stv_port":27036,"stv_name":"Uncletopia | Seattle | 3 | Stopwatch Beta | STV","players":[{"user_id":333,"name":"fragadelphia","steam_id":76561198066116363,"connected_time":1075000000000,"state":"active","ping":46},{"user_id":323,"name":"some random europeon","steam_id":76561198913057497,"connected_time":2333000000000,"state":"active","ping":118},{"user_id":339,"name":"Vetresol","steam_id":76561198174828486,"connected_time":346000000000,"state":"active","ping":49},{"user_id":346,"name":"Arbitrary Arbiter","steam_id":76561199178964453,"connected_time":101000000000,"state":"active","ping":202},{"user_id":340,"name":"Frongus","steam_id":76561197979056451,"connected_time":300000000000,"state":"active","ping":51},{"user_id":302,"name":"H.","steam_id":76561198074951179,"connected_time":3338000000000,"state":"active","ping":78},{"user_id":307,"name":"https://en.wikipedia.org","steam_id":76561198261326806,"connected_time":3116000000000,"state":"active","ping":64},{"user_id":306,"name":"turbo swaglord","steam_id":76561198114147197,"connected_time":3129000000000,"state":"active","ping":74},{"user_id":308,"name":"im so fucking cool","steam_id":76561198130478487,"connected_time":3116000000000,"state":"active","ping":108},{"user_id":335,"name":"Mindless Numpty","steam_id":76561198415481117,"connected_time":725000000000,"state":"active","ping":68},{"user_id":341,"name":"Joanne \u003c3∆ê\u003e","steam_id":76561198086401160,"connected_time":266000000000,"state":"active","ping":58},{"user_id":342,"name":"nelly modelo","steam_id":76561198044875206,"connected_time":237000000000,"state":"active","ping":45},{"user_id":327,"name":"Oomitch","steam_id":76561198071702759,"connected_time":2058000000000,"state":"active","ping":53},{"user_id":344,"name":"Killer Fish From San Diego","steam_id":76561199037594575,"connected_time":148000000000,"state":"active","ping":59},{"user_id":312,"name":"Ryld","steam_id":76561198010174380,"connected_time":2981000000000,"state":"active","ping":69},{"user_id":345,"name":"UsernamePending","steam_id":76561198087835461,"connected_time":134000000000,"state":"active","ping":128},{"user_id":314,"name":"Dosario","steam_id":76561198298095535,"connected_time":2925000000000,"state":"active","ping":58},{"user_id":315,"name":"Bloom","steam_id":76561199065581662,"connected_time":2908000000000,"state":"active","ping":103},{"user_id":347,"name":"Sprucelass","steam_id":76561197998391724,"connected_time":85000000000,"state":"active","ping":100},{"user_id":320,"name":"Wheaties","steam_id":76561198060909578,"connected_time":2516000000000,"state":"active","ping":60},{"user_id":321,"name":"im insanely fucking cool","steam_id":76561198328338297,"connected_time":2513000000000,"state":"active","ping":64},{"user_id":322,"name":"Morse","steam_id":76561198039944542,"connected_time":2351000000000,"state":"active","ping":50},{"user_id":338,"name":"supafly","steam_id":76561198294281809,"connected_time":566000000000,"state":"active","ping":89}]},{"server_id":17,"name":"Uncletopia | San Francisco | 1 | All Maps","name_short":"sfo-1","host":"sfo-1.us.uncletopia.com","port":27015,"enabled":true,"region":"us-west","cc":"us","latitude":37.77397,"longitude":-122.4313,"reserved":0,"last_update":"0001-01-01T00:00:00Z","name_a2s":"Uncletopia | San Francisco | 1 | All Maps","protocol":17,"map":"pl_upward","folder":"tf","game":"Team Fortress","app_id":440,"player_count":23,"max_players":24,"Bots":0,"server_type":"Dedicated","server_os":"Linux","password":true,"vac":true,"version":"7757534","steam_id":85568392924469999,"keywords":["nocrits","nodmgspread","payload","uncletopia"],"game_id":440,"stv_port":27016,"stv_name":"Uncletopia | San Francisco | 1 | All Maps | STV","players":[{"user_id":31,"name":"Kai","steam_id":76561197972261210,"connected_time":1951000000000,"state":"active","ping":69},{"user_id":32,"name":"Hadn69","steam_id":76561198047885348,"connected_time":1935000000000,"state":"active","ping":58},{"user_id":33,"name":"Ziox Koa","steam_id":76561198024292650,"connected_time":1906000000000,"state":"active","ping":110},{"user_id":34,"name":"josie","steam_id":76561198170848553,"connected_time":1832000000000,"state":"active","ping":60},{"user_id":35,"name":"Du3L","steam_id":76561199119914241,"connected_time":1775000000000,"state":"active","ping":59},{"user_id":36,"name":"Nuggies","steam_id":76561198272432592,"connected_time":1687000000000,"state":"active","ping":57},{"user_id":37,"name":"Frosted Lighted Ornament","steam_id":76561197971250619,"connected_time":1572000000000,"state":"active","ping":44},{"user_id":59,"name":"Ari","steam_id":76561198183269215,"connected_time":184000000000,"state":"active","ping":64},{"user_id":44,"name":"schlarpc","steam_id":76561198007700826,"connected_time":866000000000,"state":"active","ping":47},{"user_id":65,"name":"Largelad","steam_id":76561198024042970,"connected_time":72000000000,"state":"active","ping":87},{"user_id":43,"name":"Knock on the sky and listen","steam_id":76561198077597130,"connected_time":894000000000,"state":"active","ping":48},{"user_id":45,"name":"Krazy","steam_id":76561198835502709,"connected_time":804000000000,"state":"active","ping":48},{"user_id":47,"name":"BasedGod","steam_id":76561198061177973,"connected_time":725000000000,"state":"active","ping":45},{"user_id":60,"name":"goongremlin","steam_id":76561198278196215,"connected_time":154000000000,"state":"active","ping":54},{"user_id":50,"name":"shy guy","steam_id":76561198151246059,"connected_time":527000000000,"state":"active","ping":76},{"user_id":61,"name":"Jack from Jack in The Box","steam_id":76561199083594971,"connected_time":114000000000,"state":"active","ping":63},{"user_id":52,"name":"Wender","steam_id":76561198995247917,"connected_time":463000000000,"state":"active","ping":70},{"user_id":62,"name":"Hippo","steam_id":76561198309681901,"connected_time":112000000000,"state":"active","ping":56},{"user_id":54,"name":"Bunger","steam_id":76561198951348154,"connected_time":401000000000,"state":"active","ping":62},{"user_id":63,"name":"joelthetroll","steam_id":76561198026605788,"connected_time":106000000000,"state":"active","ping":52},{"user_id":56,"name":"blamo","steam_id":76561198044769147,"connected_time":333000000000,"state":"active","ping":45},{"user_id":57,"name":"John Taxenfraud","steam_id":76561199011358805,"connected_time":329000000000,"state":"active","ping":123},{"user_id":58,"name":"Rock Kickass","steam_id":76561198450510841,"connected_time":317000000000,"state":"active","ping":95}]},{"server_id":18,"name":"Uncletopia | San Francisco | 2 | All Maps","name_short":"sfo-2","host":"sfo-1.us.uncletopia.com","port":27025,"enabled":true,"region":"us-west","cc":"us","latitude":37.77397,"longitude":-122.4313,"reserved":0,"last_update":"0001-01-01T00:00:00Z","name_a2s":"Uncletopia | San Francisco | 2 | All Maps","protocol":17,"map":"pl_borneo","folder":"tf","game":"Team Fortress","app_id":440,"player_count":24,"max_players":24,"Bots":0,"server_type":"Dedicated","server_os":"Linux","password":true,"vac":true,"version":"7757534","steam_id":85568392924470000,"keywords":["nocrits","nodmgspread","payload","uncletopia"],"game_id":440,"stv_port":27026,"stv_name":"Uncletopia | San Francisco | 2 | All Maps | STV","players":[{"user_id":140,"name":"Jimmy_2003","steam_id":76561199097791017,"connected_time":2117000000000,"state":"active","ping":88},{"user_id":109,"name":"me","steam_id":76561199468285784,"connected_time":4604000000000,"state":"active","ping":44},{"user_id":167,"name":"SpinnerSpecial","steam_id":76561198065661869,"connected_time":395000000000,"state":"active","ping":75},{"user_id":117,"name":"compulsive","steam_id":76561198212421513,"connected_time":3855000000000,"state":"active","ping":59},{"user_id":158,"name":"WVTERS","steam_id":76561198024004360,"connected_time":1176000000000,"state":"active","ping":102},{"user_id":126,"name":"Snety Gun","steam_id":76561198862745731,"connected_time":3183000000000,"state":"active","ping":82},{"user_id":166,"name":"Ch3wmanji","steam_id":76561198799746229,"connected_time":488000000000,"state":"active","ping":117},{"user_id":153,"name":"StunSeed","steam_id":76561198311602710,"connected_time":1466000000000,"state":"active","ping":46},{"user_id":159,"name":"game","steam_id":76561198334059206,"connected_time":1018000000000,"state":"active","ping":59},{"user_id":160,"name":"HideOnTate","steam_id":76561198209880837,"connected_time":880000000000,"state":"active","ping":69},{"user_id":161,"name":"Black Mesa Scientist","steam_id":76561198064466577,"connected_time":873000000000,"state":"active","ping":75},{"user_id":162,"name":"Irate Gamer Official","steam_id":76561198162688146,"connected_time":869000000000,"state":"active","ping":59},{"user_id":127,"name":"R4 | Mr. Commissioner","steam_id":76561198101666509,"connected_time":3178000000000,"state":"active","ping":70},{"user_id":152,"name":"≈ölimak","steam_id":76561198296476784,"connected_time":1808000000000,"state":"active","ping":74},{"user_id":155,"name":"TonesMcGroans","steam_id":76561197996691606,"connected_time":1320000000000,"state":"active","ping":78},{"user_id":163,"name":"up tossin my pigskin","steam_id":76561198062294687,"connected_time":862000000000,"state":"active","ping":50},{"user_id":149,"name":"whimmu","steam_id":76561198370839794,"connected_time":1851000000000,"state":"active","ping":93},{"user_id":74,"name":"Scarlett (Trans)","steam_id":76561197999367029,"connected_time":8092000000000,"state":"active","ping":103},{"user_id":75,"name":"Evil Ed","steam_id":76561198020055546,"connected_time":8075000000000,"state":"active","ping":111},{"user_id":164,"name":"Amogous Supreme","steam_id":76561198025476774,"connected_time":851000000000,"state":"active","ping":63},{"user_id":147,"name":"Yogurt Raisins","steam_id":76561198172748357,"connected_time":1945000000000,"state":"active","ping":51},{"user_id":165,"name":"UneditedAndy","steam_id":76561198982544947,"connected_time":787000000000,"state":"active","ping":67},{"user_id":132,"name":"Quon Grene for Vice Prez","steam_id":76561198127545817,"connected_time":3047000000000,"state":"active","ping":65},{"user_id":148,"name":"Six Rats","steam_id":76561198007854385,"connected_time":1931000000000,"state":"active","ping":65}]},{"server_id":19,"name":"Uncletopia | San Francisco | 3 | Stopwatch Beta","name_short":"sfo-3","host":"sfo-1.us.uncletopia.com","port":27035,"enabled":true,"region":"us-west","cc":"us","latitude":37.77397,"longitude":-122.4313,"reserved":0,"last_update":"0001-01-01T00:00:00Z","name_a2s":"Uncletopia | San Francisco | 3 | Stopwatch Beta","protocol":17,"map":"pl_borneo","folder":"tf","game":"Team Fortress","app_id":440,"player_count":0,"max_players":24,"Bots":0,"server_type":"Dedicated","server_os":"Linux","password":true,"vac":true,"version":"7757534","steam_id":85568392924742824,"keywords":["nocrits","nodmgspread","payload","uncletopia"],"game_id":440,"stv_port":27036,"stv_name":"Uncletopia | San Francisco | 3 | Stopwatch Beta | STV","players":null},{"server_id":20,"name":"Uncletopia | San Francisco | 4 | Community","name_short":"sfo-4","host":"sfo-1.us.uncletopia.com","port":27045,"enabled":true,"region":"us-west","cc":"us","latitude":37.77397,"longitude":-122.4313,"reserved":0,"last_update":"0001-01-01T00:00:00Z","name_a2s":"Uncletopia | San Francisco | 4 | Community","protocol":17,"map":"koth_highpass","folder":"tf","game":"Team Fortress","app_id":440,"player_count":0,"max_players":24,"Bots":0,"server_type":"Dedicated","server_os":"Linux","password":true,"vac":true,"version":"7757534","steam_id":85568392924742826,"keywords":["cp","nocrits","nodmgspread","uncletopia"],"game_id":440,"stv_port":27046,"stv_name":"Uncletopia | San Francisco | 4 | Community | STV","players":null},{"server_id":141,"name":"Uncletopia | Sydney | 1 | All Maps","name_short":"syd-1","host":"syd-1.au.uncletopia.com","port":27015,"enabled":true,"region":"au","cc":"au","latitude":-33.865143,"longitude":151.2099,"reserved":0,"last_update":"0001-01-01T00:00:00Z","name_a2s":"Uncletopia | Sydney | 1 | All Maps","protocol":17,"map":"koth_lakeside_final","folder":"tf","game":"Team Fortress","app_id":440,"player_count":3,"max_players":24,"Bots":0,"server_type":"Dedicated","server_os":"Linux","password":true,"vac":true,"version":"7757534","steam_id":85568392924470001,"keywords":["cp","nocrits","nodmgspread","uncletopia"],"game_id":440,"stv_port":27016,"stv_name":"Uncletopia | Sydney | 1 | All Maps | STV","players":[{"user_id":32,"name":"( Õ°¬∞ Õú ñ Õ°¬∞)","steam_id":76561199262196710,"connected_time":857000000000,"state":"active","ping":43},{"user_id":20,"name":"‰∏≠ÊñáÂçïËØç","steam_id":76561199017211623,"connected_time":3163000000000,"state":"active","ping":71},{"user_id":31,"name":"Exornan","steam_id":76561198160180985,"connected_time":1308000000000,"state":"active","ping":52}]},{"server_id":123,"name":"Uncletopia | Sydney | 2 | All Maps","name_short":"syd-2","host":"syd-1.au.uncletopia.com","port":27025,"enabled":true,"region":"au","cc":"au","latitude":-33.865143,"longitude":151.2099,"reserved":0,"last_update":"0001-01-01T00:00:00Z","name_a2s":"Uncletopia | Sydney | 2 | All Maps","protocol":17,"map":"koth_lakeside_final","folder":"tf","game":"Team Fortress","app_id":440,"player_count":24,"max_players":24,"Bots":0,"server_type":"Dedicated","server_os":"Linux","password":true,"vac":true,"version":"7757534","steam_id":85568392924470002,"keywords":["cp","nocrits","nodmgspread","uncletopia"],"game_id":440,"stv_port":27026,"stv_name":"Uncletopia | Sydney | 2 | All Maps | STV","players":[{"user_id":187,"name":"·†å·†åBepis","steam_id":76561198160379809,"connected_time":202000000000,"state":"active","ping":91},{"user_id":89,"name":"Fresh Produce Gaming","steam_id":76561198358483352,"connected_time":7261000000000,"state":"active","ping":69},{"user_id":179,"name":"Ponderosa","steam_id":76561199436707447,"connected_time":980000000000,"state":"active","ping":45},{"user_id":167,"name":"to the child drifting out at se","steam_id":76561198016686295,"connected_time":1744000000000,"state":"active","ping":71},{"user_id":130,"name":"Rarity the Fabulous","steam_id":76561198077653287,"connected_time":3734000000000,"state":"active","ping":30},{"user_id":170,"name":"conga man","steam_id":76561198406959622,"connected_time":1558000000000,"state":"active","ping":60},{"user_id":171,"name":"yung ape","steam_id":76561198126960363,"connected_time":1547000000000,"state":"active","ping":107},{"user_id":189,"name":"lavanderpumpernickle","steam_id":76561199093611800,"connected_time":52000000000,"state":"active","ping":61},{"user_id":164,"name":"Oysenberry","steam_id":76561198125443335,"connected_time":2008000000000,"state":"active","ping":44},{"user_id":185,"name":"bluehat","steam_id":76561198355125370,"connected_time":353000000000,"state":"active","ping":47},{"user_id":125,"name":"blortzoing","steam_id":76561198063481761,"connected_time":4732000000000,"state":"active","ping":44},{"user_id":142,"name":"Doctor Estonia","steam_id":76561198057365089,"connected_time":2665000000000,"state":"active","ping":93},{"user_id":176,"name":"Courier","steam_id":76561198008866403,"connected_time":1071000000000,"state":"active","ping":88},{"user_id":174,"name":"Del Davis","steam_id":76561199365669004,"connected_time":1220000000000,"state":"active","ping":58},{"user_id":190,"name":"Dr Barry Mundy PhD","steam_id":76561198034512686,"connected_time":20000000000,"state":"active","ping":134},{"user_id":188,"name":"cafe7","steam_id":76561198402369077,"connected_time":158000000000,"state":"active","ping":64},{"user_id":175,"name":"lofty","steam_id":76561198380588357,"connected_time":1079000000000,"state":"active","ping":68},{"user_id":161,"name":"Ok Mate","steam_id":76561198254922035,"connected_time":2075000000000,"state":"active","ping":57},{"user_id":182,"name":"TW_light2022","steam_id":76561199393566784,"connected_time":687000000000,"state":"active","ping":60},{"user_id":180,"name":"snooty123","steam_id":76561199055258276,"connected_time":842000000000,"state":"active","ping":59},{"user_id":183,"name":"courtesy","steam_id":76561198248550514,"connected_time":597000000000,"state":"active","ping":53},{"user_id":169,"name":"floop flub","steam_id":76561198418968979,"connected_time":1583000000000,"state":"active","ping":106},{"user_id":117,"name":"Glockenspe (She/Her)","steam_id":76561199184115241,"connected_time":5231000000000,"state":"active","ping":50},{"user_id":135,"name":"ex nihilo","steam_id":76561198054804209,"connected_time":3152000000000,"state":"active","ping":90}]},{"server_id":395,"name":"Uncletopia | Sydney | 3 | All Maps","name_short":"syd-3","host":"syd-1.au.uncletopia.com","port":27035,"enabled":true,"region":"au","cc":"au","latitude":-33.865143,"longitude":151.2099,"reserved":0,"last_update":"0001-01-01T00:00:00Z","name_a2s":"Uncletopia | Sydney | 3 | All Maps","protocol":17,"map":"pl_upward","folder":"tf","game":"Team Fortress","app_id":440,"player_count":0,"max_players":24,"Bots":0,"server_type":"Dedicated","server_os":"Linux","password":true,"vac":true,"version":"7757534","steam_id":85568392925194467,"keywords":["nocrits","nodmgspread","payload","uncletopia"],"game_id":440,"stv_port":27036,"stv_name":"Uncletopia | Sydney | 3 | All Maps | STV","players":null},{"server_id":396,"name":"Uncletopia | Sydney | 4 | All Maps","name_short":"syd-4","host":"syd-1.au.uncletopia.com","port":27045,"enabled":true,"region":"au","cc":"au","latitude":-33.865143,"longitude":151.2099,"reserved":0,"last_update":"0001-01-01T00:00:00Z","name_a2s":"Uncletopia | Sydney | 4 | All Maps","protocol":17,"map":"cp_sunshine","folder":"tf","game":"Team Fortress","app_id":440,"player_count":0,"max_players":24,"Bots":0,"server_type":"Dedicated","server_os":"Linux","password":true,"vac":true,"version":"7757534","steam_id":85568392925397958,"keywords":["cp","nocrits","nodmgspread","uncletopia"],"game_id":440,"stv_port":27046,"stv_name":"Uncletopia | Sydney | 4 | All Maps | STV","players":null},{"server_id":58,"name":"Uncletopia | Sydney | 5 | Stopwatch Beta","name_short":"syd-5","host":"syd-1.au.uncletopia.com","port":27055,"enabled":true,"region":"au","cc":"au","latitude":-33.865143,"longitude":151.2099,"reserved":0,"last_update":"0001-01-01T00:00:00Z","name_a2s":"Uncletopia | Sydney | 5 | Stopwatch Beta","protocol":17,"map":"koth_highpass","folder":"tf","game":"Team Fortress","app_id":440,"player_count":0,"max_players":24,"Bots":0,"server_type":"Dedicated","server_os":"Linux","password":true,"vac":true,"version":"7757534","steam_id":85568392925397959,"keywords":["cp","nocrits","nodmgspread","uncletopia"],"game_id":440,"stv_port":27056,"stv_name":"Uncletopia | Sydney | 5 | Stopwatch Beta | STV","players":null},{"server_id":59,"name":"Uncletopia | Sydney | 6 | Community","name_short":"syd-6","host":"syd-1.au.uncletopia.com","port":27065,"enabled":true,"region":"au","cc":"au","latitude":-33.865143,"longitude":151.2099,"reserved":0,"last_update":"0001-01-01T00:00:00Z","name_a2s":"Uncletopia | Sydney | 6 | Community","protocol":17,"map":"cp_sunshine","folder":"tf","game":"Team Fortress","app_id":440,"player_count":0,"max_players":24,"Bots":0,"server_type":"Dedicated","server_os":"Linux","password":true,"vac":true,"version":"7757534","steam_id":85568392925397960,"keywords":["cp","nocrits","nodmgspread","uncletopia"],"game_id":440,"stv_port":27066,"stv_name":"Uncletopia | Sydney | 6 | Community | STV","players":null},{"server_id":49,"name":"Uncletopia | Warsaw | 1 | All Maps","name_short":"waw-1","host":"waw-1.pl.uncletopia.com","port":27015,"enabled":true,"region":"eu","cc":"pl","latitude":52.2297,"longitude":21.017532,"reserved":0,"last_update":"0001-01-01T00:00:00Z","name_a2s":"","protocol":0,"map":"","folder":"","game":"","app_id":0,"player_count":0,"max_players":0,"Bots":0,"server_type":"","server_os":"","password":false,"vac":false,"version":"","steam_id":0,"keywords":null,"game_id":0,"stv_port":0,"stv_name":"","players":null},{"server_id":50,"name":"Uncletopia | Warsaw | 2 | All Maps","name_short":"waw-2","host":"waw-1.pl.uncletopia.com","port":27025,"enabled":true,"region":"eu","cc":"pl","latitude":52.2297,"longitude":21.017532,"reserved":0,"last_update":"0001-01-01T00:00:00Z","name_a2s":"Uncletopia | Warsaw | 2 | All Maps","protocol":17,"map":"koth_lakeside_final","folder":"tf","game":"Team Fortress","app_id":440,"player_count":0,"max_players":24,"Bots":0,"server_type":"Dedicated","server_os":"Linux","password":true,"vac":true,"version":"7757534","steam_id":85568392925397851,"keywords":["cp","nocrits","nodmgspread","uncletopia"],"game_id":440,"stv_port":27026,"stv_name":"Uncletopia | Warsaw | 2 | All Maps | STV","players":null},{"server_id":51,"name":"Uncletopia | Warsaw | 3 | All Maps","name_short":"waw-3","host":"waw-1.pl.uncletopia.com","port":27035,"enabled":true,"region":"eu","cc":"pl","latitude":52.2297,"longitude":21.017532,"reserved":0,"last_update":"0001-01-01T00:00:00Z","name_a2s":"Uncletopia | Warsaw | 3 | All Maps","protocol":17,"map":"cp_dustbowl","folder":"tf","game":"Team Fortress","app_id":440,"player_count":0,"max_players":24,"Bots":0,"server_type":"Dedicated","server_os":"Linux","password":true,"vac":true,"version":"7757534","steam_id":85568392925397852,"keywords":["cp","nocrits","nodmgspread","uncletopia"],"game_id":440,"stv_port":27036,"stv_name":"Uncletopia | Warsaw | 3 | All Maps | STV","players":null},{"server_id":52,"name":"Uncletopia | Warsaw | 4 | All Maps","name_short":"waw-4","host":"waw-1.pl.uncletopia.com","port":27045,"enabled":true,"region":"eu","cc":"pl","latitude":52.2297,"longitude":21.017532,"reserved":0,"last_update":"0001-01-01T00:00:00Z","name_a2s":"Uncletopia | Warsaw | 4 | All Maps","protocol":17,"map":"pl_snowycoast","folder":"tf","game":"Team Fortress","app_id":440,"player_count":0,"max_players":24,"Bots":0,"server_type":"Dedicated","server_os":"Linux","password":true,"vac":true,"version":"7757534","steam_id":85568392925397853,"keywords":["nocrits","nodmgspread","payload","uncletopia"],"game_id":440,"stv_port":27046,"stv_name":"Uncletopia | Warsaw | 4 | All Maps | STV","players":null},{"server_id":53,"name":"Uncletopia | Warsaw | 5 | Stopwatch Beta","name_short":"waw-5","host":"waw-1.pl.uncletopia.com","port":27055,"enabled":true,"region":"eu","cc":"pl","latitude":52.2297,"longitude":21.017532,"reserved":0,"last_update":"0001-01-01T00:00:00Z","name_a2s":"Uncletopia | Warsaw | 5 | Stopwatch Beta","protocol":17,"map":"pl_barnblitz","folder":"tf","game":"Team Fortress","app_id":440,"player_count":0,"max_players":24,"Bots":0,"server_type":"Dedicated","server_os":"Linux","password":true,"vac":true,"version":"7757534","steam_id":85568392925397854,"keywords":["nocrits","nodmgspread","payload","uncletopia"],"game_id":440,"stv_port":27056,"stv_name":"Uncletopia | Warsaw | 5 | Stopwatch Beta | STV","players":null},{"server_id":54,"name":"Uncletopia | Warsaw | 6 | Community","name_short":"waw-6","host":"waw-1.pl.uncletopia.com","port":27065,"enabled":true,"region":"eu","cc":"pl","latitude":52.2297,"longitude":21.017532,"reserved":0,"last_update":"0001-01-01T00:00:00Z","name_a2s":"Uncletopia | Warsaw | 6 | Community","protocol":17,"map":"workshop/cp_sulfur_rc2.ugc619869471","folder":"tf","game":"Team Fortress","app_id":440,"player_count":0,"max_players":24,"Bots":0,"server_type":"Dedicated","server_os":"Linux","password":true,"vac":true,"version":"7757534","steam_id":85568392925397856,"keywords":["cp","nocrits","nodmgspread","uncletopia"],"game_id":440,"stv_port":27066,"stv_name":"Uncletopia | Warsaw | 6 | Community | STV","players":null}]}