{"status":true,"message":"","result":[{"server_id":2,"name":"Uncletopia | Chicago | 1 | All Maps","name_short":"chi-1","host":"chi-1.us.uncletopia.com","port":27015,"enabled":true,"region":"us-central","cc":"us","latitude":41.881832,"longitude":-87.62318,"reserved":0,"last_update":"0001-01-01T00:00:00Z","name_a2s":"Uncletopia | Chicago | 1 | All Maps","protocol":17,"map":"pl_upward","folder":"tf","game":"Team Fortress","app_id":440,"player_count":24,"max_players":24,"Bots":0,"server_type":"Dedicated","server_os":"Linux","password":true,"vac":true,"version":"7961495","steam_id":85568392924469984,"keywords":["nocrits","nodmgspread","payload","uncletopia"],"game_id":440,"stv_port":27016,"stv_name":"Uncletopia | Chicago | 1 | All Maps | STV","players":[{"user_id":300,"name":"frank","steam_id":76561198137777483,"connected_time":1446000000000,"state":"active","ping":61},{"user_id":290,"name":"Bill Murray","steam_id":76561197997899786,"connected_time":2064000000000,"state":"active","ping":74},{"user_id":256,"name":"LerN","steam_id":76561198083463877,"connected_time":5199000000000,"state":"active","ping":48},{"user_id":278,"name":"Nephi","steam_id":76561198031525122,"connected_time":3739000000000,"state":"active","ping":76},{"user_id":289,"name":"HOTA","steam_id":76561199002778841,"connected_time":2076000000000,"state":"active","ping":73},{"user_id":292,"name":"SoaringPhoenix","steam_id":76561198445103637,"connected_time":2034000000000,"state":"active","ping":56},{"user_id":275,"name":"NikoOS (NO SOUND)","steam_id":76561198180020521,"connected_time":3865000000000,"state":"active","ping":112},{"user_id":281,"name":"L + Ratio","steam_id":76561198263786953,"connected_time":3175000000000,"state":"active","ping":83},{"user_id":318,"name":"samantha","steam_id":76561198049258493,"connected_time":198000000000,"state":"active","ping":113},{"user_id":308,"name":"good_s1r","steam_id":76561199010842391,"connected_time":657000000000,"state":"active","ping":115},{"user_id":317,"name":"jubb","steam_id":76561198186865526,"connected_time":252000000000,"state":"active","ping":111},{"user_id":302,"name":"swam","steam_id":76561198412916626,"connected_time":1310000000000,"state":"active","ping":75},{"user_id":307,"name":"Tokyo_Timeshift_","steam_id":76561198048677523,"connected_time":994000000000,"state":"active","ping":72},{"user_id":309,"name":"Bla","steam_id":76561199086616630,"connected_time":625000000000,"state":"active","ping":90},{"user_id":311,"name":"LukeLeal","steam_id":76561198049822995,"connected_time":602000000000,"state":"active","ping":174},{"user_id":304,"name":"Astoriae!","steam_id":76561199090168858,"connected_time":1112000000000,"state":"active","ping":70},{"user_id":286,"name":"Swiftmend","steam_id":76561197995595692,"connected_time":2974000000000,"state":"active","ping":76},{"user_id":312,"name":"LinkStorm","steam_id":76561198202772455,"connected_time":601000000000,"state":"active","ping":69},{"user_id":319,"name":"Female Gamer","steam_id":76561199366482682,"connected_time":144000000000,"state":"active","ping":122},{"user_id":288,"name":"lowtiergrapejuice-rng","steam_id":76561198093829623,"connected_time":2256000000000,"state":"active","ping":90},{"user_id":316,"name":"Rowmaster","steam_id":76561198271659574,"connected_time":259000000000,"state":"active","ping":85},{"user_id":269,"name":"Der Krieger105","steam_id":76561197978384609,"connected_time":4873000000000,"state":"active","ping":87},{"user_id":303,"name":"Mkwhackertracker","steam_id":76561198128343704,"connected_time":1260000000000,"state":"active","ping":64},{"user_id":277,"name":"Lia_Rein","steam_id":76561198151569597,"connected_time":3822000000000,"state":"active","ping":144}]},{"server_id":106,"name":"Uncletopia | Chicago | 2 | All Maps","name_short":"chi-2","host":"chi-1.us.uncletopia.com","port":27025,"enabled":true,"region":"us-central","cc":"us","latitude":41.881832,"longitude":-87.62318,"reserved":0,"last_update":"0001-01-01T00:00:00Z","name_a2s":"Uncletopia | Chicago | 2 | All Maps","protocol":17,"map":"pl_pier","folder":"tf","game":"Team Fortress","app_id":440,"player_count":23,"max_players":24,"Bots":0,"server_type":"Dedicated","server_os":"Linux","password":true,"vac":true,"version":"7961495","steam_id":85568392924469985,"keywords":["nocrits","nodmgspread","payload","uncletopia"],"game_id":440,"stv_port":27026,"stv_name":"Uncletopia | Chicago | 2 | All Maps | STV","players":[{"user_id":474,"name":"Milk","steam_id":76561198892311722,"connected_time":1337000000000,"state":"active","ping":94},{"user_id":482,"name":"Joe Family guy","steam_id":76561198065327106,"connected_time":396000000000,"state":"active","ping":59},{"user_id":475,"name":"Baby gaming","steam_id":76561198867319323,"connected_time":1225000000000,"state":"active","ping":61},{"user_id":481,"name":"Chunk Stuffer","steam_id":76561198856508573,"connected_time":443000000000,"state":"active","ping":55},{"user_id":419,"name":"definitely (not) a twink","steam_id":76561199208833695,"connected_time":3363000000000,"state":"active","ping":83},{"user_id":488,"name":"big steve","steam_id":76561199037050183,"connected_time":229000000000,"state":"active","ping":94},{"user_id":486,"name":"Drakeo","steam_id":76561198068214572,"connected_time":256000000000,"state":"active","ping":102},{"user_id":472,"name":"Rukks","steam_id":76561197993918954,"connected_time":1469000000000,"state":"active","ping":86},{"user_id":466,"name":"itchy nutz","steam_id":76561198397009880,"connected_time":1587000000000,"state":"active","ping":71},{"user_id":489,"name":"minecraft","steam_id":76561198104345201,"connected_time":225000000000,"state":"active","ping":66},{"user_id":477,"name":"kite","steam_id":76561198346516392,"connected_time":740000000000,"state":"active","ping":70},{"user_id":491,"name":"flange","steam_id":76561198040182692,"connected_time":76000000000,"state":"active","ping":126},{"user_id":487,"name":"[MBat]Pvt. W. Wadsworth","steam_id":76561198034154646,"connected_time":246000000000,"state":"active","ping":76},{"user_id":468,"name":"Barmy","steam_id":76561198111626352,"connected_time":1561000000000,"state":"active","ping":95},{"user_id":476,"name":"thetroupegang","steam_id":76561198340510098,"connected_time":1213000000000,"state":"active","ping":70},{"user_id":442,"name":"Shady Businessman","steam_id":76561198143855968,"connected_time":2540000000000,"state":"active","ping":87},{"user_id":413,"name":"WitheringLeo","steam_id":76561198046722918,"connected_time":4056000000000,"state":"active","ping":93},{"user_id":440,"name":"Goober","steam_id":76561198894808611,"connected_time":2710000000000,"state":"active","ping":126},{"user_id":469,"name":"heavy","steam_id":76561199391478575,"connected_time":1556000000000,"state":"active","ping":115},{"user_id":480,"name":"Spicy Chicken","steam_id":76561198074209737,"connected_time":639000000000,"state":"active","ping":60},{"user_id":490,"name":"chunguspilled","steam_id":76561198263122601,"connected_time":213000000000,"state":"active","ping":49},{"user_id":422,"name":"LemonZest","steam_id":76561199196369249,"connected_time":3347000000000,"state":"active","ping":83},{"user_id":439,"name":"TQman","steam_id":76561199031963925,"connected_time":2718000000000,"state":"active","ping":113}]},{"server_id":402,"name":"Uncletopia | Chicago | 3 | All Maps","name_short":"chi-3","host":"chi-1.us.uncletopia.com","port":27035,"enabled":true,"region":"us-central","cc":"us","latitude":41.881832,"longitude":-87.62318,"reserved":0,"last_update":"0001-01-01T00:00:00Z","name_a2s":"Uncletopia | Chicago | 3 | All Maps","protocol":17,"map":"pl_swiftwater_final1","folder":"tf","game":"Team Fortress","app_id":440,"player_count":24,"max_players":24,"Bots":0,"server_type":"Dedicated","server_os":"Linux","password":true,"vac":true,"version":"7961495","steam_id":85568392924515191,"keywords":["nocrits","nodmgspread","payload","uncletopia"],"game_id":440,"stv_port":27036,"stv_name":"Uncletopia | Chicago | 3 | All Maps | STV","players":[{"user_id":289,"name":"nuh uh","steam_id":76561198107343544,"connected_time":1166000000000,"state":"active","ping":87},{"user_id":290,"name":"Big Boobs","steam_id":76561198401455467,"connected_time":1163000000000,"state":"active","ping":113},{"user_id":298,"name":"Rx Auntie","steam_id":76561198051618393,"connected_time":719000000000,"state":"active","ping":65},{"user_id":293,"name":"The Sinister Potion","steam_id":76561198131280715,"connected_time":1135000000000,"state":"active","ping":67},{"user_id":259,"name":"YesMargaret","steam_id":76561198127971751,"connected_time":2445000000000,"state":"active","ping":62},{"user_id":297,"name":"Penrose42","steam_id":76561198288577396,"connected_time":760000000000,"state":"active","ping":88},{"user_id":299,"name":"H‚ÇÇSeGamez","steam_id":76561198250471340,"connected_time":663000000000,"state":"active","ping":53},{"user_id":233,"name":"Gachalover","steam_id":76561199231552074,"connected_time":3780000000000,"state":"active","ping":77},{"user_id":291,"name":"drwwby","steam_id":76561198067741339,"connected_time":1162000000000,"state":"active","ping":59},{"user_id":267,"name":"el lim√≥n epil√©ptico","steam_id":76561198974549577,"connected_time":2204000000000,"state":"active","ping":129},{"user_id":303,"name":"Blue Banana","steam_id":76561198100077411,"connected_time":551000000000,"state":"active","ping":99},{"user_id":304,"name":"Milk","steam_id":76561198283314672,"connected_time":317000000000,"state":"active","ping":58},{"user_id":305,"name":"MY LOVE DRIPS IN RED","steam_id":76561198072179483,"connected_time":246000000000,"state":"active","ping":91},{"user_id":264,"name":"Skulgan","steam_id":76561198150261397,"connected_time":2255000000000,"state":"active","ping":73},{"user_id":294,"name":"Totally_faraam","steam_id":76561199230162663,"connected_time":1106000000000,"state":"active","ping":65},{"user_id":302,"name":"Red","steam_id":76561198001939529,"connected_time":569000000000,"state":"active","ping":100},{"user_id":268,"name":"resident frog","steam_id":76561198397981670,"connected_time":2190000000000,"state":"active","ping":40},{"user_id":282,"name":"pabloramirez1998@gmail.com","steam_id":76561198969675306,"connected_time":1401000000000,"state":"active","ping":65},{"user_id":278,"name":"seldom","steam_id":76561198166193756,"connected_time":1864000000000,"state":"active","ping":70},{"user_id":292,"name":"scout main (derogatory)","steam_id":76561199117424896,"connected_time":1159000000000,"state":"active","ping":73},{"user_id":295,"name":"1000 Gigglebytes of clown girls","steam_id":76561198290719848,"connected_time":1099000000000,"state":"active","ping":96},{"user_id":280,"name":"Tom","steam_id":76561198070630154,"connected_time":1711000000000,"state":"active","ping":90},{"user_id":250,"name":"Ninetees","steam_id":76561198119483989,"connected_time":2927000000000,"state":"active","ping":78},{"user_id":306,"name":"*","steam_id":76561198173047169,"connected_time":71000000000,"state":"active","ping":60}]},{"server_id":403,"name":"Uncletopia | Chicago | 4 | All Maps","name_short":"chi-4","host":"chi-1.us.uncletopia.com","port":27045,"enabled":true,"region":"us-central","cc":"us","latitude":41.881832,"longitude":-87.62318,"reserved":0,"last_update":"0001-01-01T00:00:00Z","name_a2s":"Uncletopia | Chicago | 4 | All Maps","protocol":17,"map":"cp_dustbowl","folder":"tf","game":"Team Fortress","app_id":440,"player_count":24,"max_players":24,"Bots":0,"server_type":"Dedicated","server_os":"Linux","password":true,"vac":true,"version":"7961495","steam_id":85568392924515193,"keywords":["cp","nocrits","nodmgspread","uncletopia"],"game_id":440,"stv_port":27046,"stv_name":"Uncletopia | Chicago | 4 | All Maps | STV","players":[{"user_id":711,"name":"Shadedcat444","steam_id":76561199219564490,"connected_time":532000000000,"state":"active","ping":81},{"user_id":696,"name":"MINILEGOLAS","steam_id":76561198859362058,"connected_time":992000000000,"state":"active","ping":100},{"user_id":649,"name":"Theory-LOL","steam_id":76561198116419931,"connected_time":3933000000000,"state":"active","ping":104},{"user_id":699,"name":"Oddball","steam_id":76561198040440984,"connected_time":850000000000,"state":"active","ping":64},{"user_id":697,"name":"TenkoTenko","steam_id":76561199134895220,"connected_time":892000000000,"state":"active","ping":75},{"user_id":701,"name":"eat Pant","steam_id":76561197974965536,"connected_time":787000000000,"state":"active","ping":64},{"user_id":700,"name":"Space‚≠êTaffy","steam_id":76561198002271720,"connected_time":800000000000,"state":"active","ping":62},{"user_id":692,"name":"suns","steam_id":76561198079583278,"connected_time":1026000000000,"state":"active","ping":45},{"user_id":663,"name":"Tags3","steam_id":76561198115926329,"connected_time":2090000000000,"state":"active","ping":72},{"user_id":689,"name":"!! NOT A FLYING TOY !!","steam_id":76561198069735882,"connected_time":1056000000000,"state":"active","ping":77},{"user_id":679,"name":"crite spranberry","steam_id":76561198233984300,"connected_time":1366000000000,"state":"active","ping":50},{"user_id":703,"name":"I'mWalkerHere","steam_id":76561199310055450,"connected_time":738000000000,"state":"active","ping":91},{"user_id":708,"name":"Aerobro","steam_id":76561198033530996,"connected_time":618000000000,"state":"active","ping":92},{"user_id":641,"name":"Zing","steam_id":76561198097160898,"connected_time":4448000000000,"state":"active","ping":80},{"user_id":710,"name":"Deathknight719","steam_id":76561198867241911,"connected_time":562000000000,"state":"active","ping":125},{"user_id":695,"name":"Chip Skylark","steam_id":76561198148263717,"connected_time":1008000000000,"state":"active","ping":71},{"user_id":704,"name":"Nephs","steam_id":76561198136763403,"connected_time":732000000000,"state":"active","ping":71},{"user_id":712,"name":"Sushi McBeef","steam_id":76561198039227477,"connected_time":498000000000,"state":"active","ping":64},{"user_id":706,"name":"aiden","steam_id":76561198449527009,"connected_time":726000000000,"state":"active","ping":84},{"user_id":588,"name":"crazygolfguy100","steam_id":76561198063099828,"connected_time":7649000000000,"state":"active","ping":51},{"user_id":707,"name":"Cee","steam_id":76561199114277048,"connected_time":710000000000,"state":"active","ping":52},{"user_id":713,"name":"Lumpy the Illegally Blind","steam_id":76561198053125768,"connected_time":490000000000,"state":"active","ping":127},{"user_id":714,"name":"Nicaraguan Swamp Monster","steam_id":76561198870787089,"connected_time":483000000000,"state":"active","ping":89},{"user_id":716,"name":"ShmixyTheBishop","steam_id":76561199281919953,"connected_time":117000000000,"state":"active","ping":94}]},{"server_id":36,"name":"Uncletopia | Chicago | 5 | All Maps","name_short":"chi-5","host":"chi-2.us.uncletopia.com","port":27015,"enabled":true,"region":"us-central","cc":"us","latitude":41.881832,"longitude":-87.62318,"reserved":0,"last_update":"0001-01-01T00:00:00Z","name_a2s":"Uncletopia | Chicago | 5 | All Maps","protocol":17,"map":"pl_badwater","folder":"tf","game":"Team Fortress","app_id":440,"player_count":24,"max_players":24,"Bots":0,"server_type":"Dedicated","server_os":"Linux","password":true,"vac":true,"version":"7961495","steam_id":85568392924866362,"keywords":["nocrits","nodmgspread","payload","uncletopia"],"game_id":440,"stv_port":27016,"stv_name":"Uncletopia | Chicago | 5 | All Maps | STV","players":[{"user_id":224,"name":"Angry Ginger","steam_id":76561198256929349,"connected_time":1272000000000,"state":"active","ping":48},{"user_id":205,"name":"Space Lizard","steam_id":76561198056798193,"connected_time":2389000000000,"state":"active","ping":72},{"user_id":182,"name":"corned beef","steam_id":76561199366782761,"connected_time":3850000000000,"state":"active","ping":160},{"user_id":164,"name":"SilentFootba11","steam_id":76561199006570947,"connected_time":5345000000000,"state":"active","ping":70},{"user_id":227,"name":"BigBubble42","steam_id":76561198136286123,"connected_time":1077000000000,"state":"active","ping":51},{"user_id":228,"name":"the michael jordan of drunk dri","steam_id":76561198111259720,"connected_time":1051000000000,"state":"active","ping":73},{"user_id":242,"name":"Soulidity","steam_id":76561198429603550,"connected_time":525000000000,"state":"active","ping":61},{"user_id":248,"name":"FancyBones","steam_id":76561198180198885,"connected_time":82000000000,"state":"active","ping":87},{"user_id":229,"name":"Nice Moose","steam_id":76561198008134178,"connected_time":1011000000000,"state":"active","ping":163},{"user_id":193,"name":"Pussy Slambasket","steam_id":76561198093694322,"connected_time":3615000000000,"state":"active","ping":49},{"user_id":247,"name":"1st year at kindergarden","steam_id":76561199100342013,"connected_time":138000000000,"state":"active","ping":91},{"user_id":244,"name":"Cedric","steam_id":76561198072090580,"connected_time":296000000000,"state":"active","ping":102},{"user_id":240,"name":"some tree","steam_id":76561198166093346,"connected_time":721000000000,"state":"active","ping":63},{"user_id":191,"name":"TheLuzinator","steam_id":76561198377144604,"connected_time":3672000000000,"state":"active","ping":93},{"user_id":153,"name":"Tri-Dot","steam_id":76561199075186597,"connected_time":5660000000000,"state":"active","ping":69},{"user_id":238,"name":"Idk","steam_id":76561198971629959,"connected_time":842000000000,"state":"active","ping":150},{"user_id":249,"name":"Fredrick","steam_id":76561197981419964,"connected_time":81000000000,"state":"active","ping":68},{"user_id":250,"name":"shai","steam_id":76561198144909435,"connected_time":68000000000,"state":"active","ping":106},{"user_id":168,"name":"ShawnLmao","steam_id":76561198350691501,"connected_time":5024000000000,"state":"active","ping":85},{"user_id":196,"name":"AlcoholicDad454","steam_id":76561198157414556,"connected_time":3288000000000,"state":"active","ping":86},{"user_id":221,"name":"turbo shart","steam_id":76561198012351808,"connected_time":1484000000000,"state":"active","ping":146},{"user_id":211,"name":"helen keller","steam_id":76561197979870540,"connected_time":2236000000000,"state":"active","ping":48},{"user_id":245,"name":"sansa musa","steam_id":76561198163723555,"connected_time":295000000000,"state":"active","ping":62},{"user_id":237,"name":"boog","steam_id":76561197993699665,"connected_time":877000000000,"state":"active","ping":78}]},{"server_id":37,"name":"Uncletopia | Chicago | 6 | All Maps","name_short":"chi-6","host":"chi-2.us.uncletopia.com","port":27025,"enabled":true,"region":"us-central","cc":"us","latitude":41.881832,"longitude":-87.62318,"reserved":0,"last_update":"0001-01-01T00:00:00Z","name_a2s":"Uncletopia | Chicago | 6 | All Maps","protocol":17,"map":"pl_goldrush","folder":"tf","game":"Team Fortress","app_id":440,"player_count":24,"max_players":24,"Bots":0,"server_type":"Dedicated","server_os":"Linux","password":true,"vac":true,"version":"7961495","steam_id":85568392924866363,"keywords":["nocrits","nodmgspread","payload","uncletopia"],"game_id":440,"stv_port":27026,"stv_name":"Uncletopia | Chicago | 6 | All Maps | STV","players":[{"user_id":327,"name":"HTML","steam_id":76561198099061153,"connected_time":192000000000,"state":"active","ping":103},{"user_id":300,"name":"GreySweaterCat","steam_id":76561198351860293,"connected_time":1635000000000,"state":"active","ping":90},{"user_id":273,"name":"Someone...","steam_id":76561198065251542,"connected_time":2391000000000,"state":"active","ping":74},{"user_id":259,"name":"Danmar33","steam_id":76561198056453091,"connected_time":3931000000000,"state":"active","ping":45},{"user_id":330,"name":"Ender","steam_id":76561198819439451,"connected_time":137000000000,"state":"active","ping":65},{"user_id":271,"name":"SynisterGrin","steam_id":76561198350445456,"connected_time":2463000000000,"state":"active","ping":70},{"user_id":264,"name":"Walkiing","steam_id":76561198074473413,"connected_time":3459000000000,"state":"active","ping":45},{"user_id":323,"name":"fyg","steam_id":76561198027610614,"connected_time":310000000000,"state":"active","ping":47},{"user_id":325,"name":"Aquiles Baesta","steam_id":76561198081053203,"connected_time":222000000000,"state":"active","ping":120},{"user_id":331,"name":"Abacus","steam_id":76561197999447991,"connected_time":116000000000,"state":"active","ping":72},{"user_id":298,"name":"A Sun","steam_id":76561198142545364,"connected_time":1721000000000,"state":"active","ping":70},{"user_id":279,"name":"Hope","steam_id":76561199201900779,"connected_time":2118000000000,"state":"active","ping":75},{"user_id":326,"name":"jpuzza‚ù§‚ù§‚ù§","steam_id":76561198035535731,"connected_time":212000000000,"state":"active","ping":59},{"user_id":320,"name":"Jabroni Kris","steam_id":76561198048736247,"connected_time":540000000000,"state":"active","ping":93},{"user_id":329,"name":"Corpokev","steam_id":76561198180884222,"connected_time":171000000000,"state":"active","ping":73},{"user_id":332,"name":"bobby wasabi","steam_id":76561198380018244,"connected_time":60000000000,"state":"active","ping":75},{"user_id":317,"name":"Stranger in a Strange Land","steam_id":76561198049843671,"connected_time":918000000000,"state":"active","ping":64},{"user_id":312,"name":"CarlOfDuty","steam_id":76561198026774857,"connected_time":1298000000000,"state":"active","ping":73},{"user_id":333,"name":"Magic","steam_id":76561198354674755,"connected_time":44000000000,"state":"active","ping":60},{"user_id":334,"name":"KeyMaster28150","steam_id":76561199482024428,"connected_time":43000000000,"state":"active","ping":94},{"user_id":319,"name":"Mattron1","steam_id":76561198012270524,"connected_time":654000000000,"state":"active","ping":90},{"user_id":313,"name":"purple diesel","steam_id":76561197976548449,"connected_time":1287000000000,"state":"active","ping":107},{"user_id":293,"name":"UnReLinked","steam_id":76561199366044663,"connected_time":1882000000000,"state":"active","ping":108},{"user_id":305,"name":"L0b5terlick","steam_id":76561198134990930,"connected_time":1436000000000,"state":"active","ping":64}]},{"server_id":38,"name":"Uncletopia | Chicago | 7 | Stopwatch Beta","name_short":"chi-7","host":"chi-2.us.uncletopia.com","port":27035,"enabled":true,"region":"us-central","cc":"us","latitude":41.881832,"longitude":-87.62318,"reserved":0,"last_update":"0001-01-01T00:00:00Z","name_a2s":"Uncletopia | Chicago | 7 | Stopwatch Beta","protocol":17,"map":"koth_lakeside_final","folder":"tf","game":"Team Fortress","app_id":440,"player_count":0,"max_players":24,"Bots":0,"server_type":"Dedicated","server_os":"Linux","password":true,"vac":true,"version":"7961495","steam_id":85568392924866364,"keywords":["cp","nocrits","nodmgspread","uncletopia"],"game_id":440,"stv_port":27036,"stv_name":"Uncletopia | Chicago | 7 | Stopwatch Beta | STV","players":null},{"server_id":39,"name":"Uncletopia | Chicago | 8 | Community","name_short":"chi-8","host":"chi-2.us.uncletopia.com","port":27045,"enabled":true,"region":"us-central","cc":"us","latitude":41.881832,"longitude":-87.62318,"reserved":0,"last_update":"0001-01-01T00:00:00Z","name_a2s":"Uncletopia | Chicago | 8 | Community","protocol":17,"map":"workshop/cp_glassworks_rc6a.ugc454118349","folder":"tf","game":"Team Fortress","app_id":440,"player_count":13,"max_players":24,"Bots":0,"server_type":"Dedicated","server_os":"Linux","password":true,"vac":true,"version":"7961495","steam_id":85568392924866365,"keywords":["cp","nocrits","nodmgspread","uncletopia"],"game_id":440,"stv_port":27046,"stv_name":"Uncletopia | Chicago | 8 | Community | STV","players":[{"user_id":65,"name":"bongopod","steam_id":76561198964588715,"connected_time":1051000000000,"state":"active","ping":57},{"user_id":66,"name":"Martysh12","steam_id":76561198447421493,"connected_time":915000000000,"state":"active","ping":285},{"user_id":67,"name":"thezranger","steam_id":76561198454086460,"connected_time":903000000000,"state":"active","ping":463},{"user_id":80,"name":"Amaxeme","steam_id":76561199069780237,"connected_time":58000000000,"state":"active","ping":76},{"user_id":75,"name":"Kingcole2022","steam_id":76561198030663950,"connected_time":351000000000,"state":"active","ping":84},{"user_id":71,"name":"Jolt","steam_id":76561198168669087,"connected_time":744000000000,"state":"active","ping":64},{"user_id":72,"name":"gideon nav my beloved","steam_id":76561198259092181,"connected_time":737000000000,"state":"active","ping":60},{"user_id":73,"name":"mreow.","steam_id":76561198240217520,"connected_time":675000000000,"state":"active","ping":56},{"user_id":74,"name":"Ejaculation Zach","steam_id":76561198203765200,"connected_time":449000000000,"state":"active","ping":61},{"user_id":76,"name":"Pixel","steam_id":76561198156746320,"connected_time":271000000000,"state":"active","ping":43},{"user_id":77,"name":"chronic water drinker","steam_id":76561198291275012,"connected_time":213000000000,"state":"active","ping":98},{"user_id":78,"name":"Nightmare (Space Dandy)","steam_id":76561198082333346,"connected_time":155000000000,"state":"active","ping":83},{"user_id":79,"name":"Lord Scrubling","steam_id":76561198263744445,"connected_time":139000000000,"state":"active","ping":71}]},{"server_id":8,"name":"Uncletopia | Dallas | 1 | All Maps","name_short":"dal-1","host":"dal-1.us.uncletopia.com","port":27015,"enabled":true,"region":"us-central","cc":"us","latitude":32.779167,"longitude":-96.80889,"reserved":0,"last_update":"0001-01-01T00:00:00Z","name_a2s":"Uncletopia | Dallas | 1 | All Maps","protocol":17,"map":"cp_snakewater_final1","folder":"tf","game":"Team Fortress","app_id":440,"player_count":24,"max_players":24,"Bots":0,"server_type":"Dedicated","server_os":"Linux","password":true,"vac":true,"version":"7961495","steam_id":85568392924469986,"keywords":["cp","nocrits","nodmgspread","uncletopia"],"game_id":440,"stv_port":27016,"stv_name":"Uncletopia | Dallas | 1 | All Maps | STV","players":[{"user_id":345,"name":"booty, penis suckah!! (Steve)","steam_id":76561198104086771,"connected_time":1767000000000,"state":"active","ping":75},{"user_id":335,"name":"Grape Juice","steam_id":76561198380337568,"connected_time":2451000000000,"state":"active","ping":65},{"user_id":347,"name":"glue inhaler","steam_id":76561199085645300,"connected_time":1215000000000,"state":"active","ping":59},{"user_id":322,"name":"WhackyOrc","steam_id":76561199470020355,"connected_time":2924000000000,"state":"active","ping":71},{"user_id":272,"name":"„Åµ„Çè„Åµ„ÇèÊØõÂ∏É","steam_id":76561198088403016,"connected_time":5872000000000,"state":"active","ping":181},{"user_id":362,"name":"Pasta","steam_id":76561198358320222,"connected_time":364000000000,"state":"active","ping":68},{"user_id":353,"name":"Eggplanx","steam_id":76561199007744343,"connected_time":636000000000,"state":"active","ping":85},{"user_id":301,"name":"SafetyInstructor","steam_id":76561199195205705,"connected_time":4258000000000,"state":"active","ping":55},{"user_id":355,"name":"cc","steam_id":76561199215821942,"connected_time":484000000000,"state":"active","ping":47},{"user_id":356,"name":"lost in spaaaaace","steam_id":76561199085974120,"connected_time":484000000000,"state":"active","ping":85},{"user_id":350,"name":"Teej #nagi fan","steam_id":76561198120896030,"connected_time":1193000000000,"state":"active","ping":84},{"user_id":300,"name":"FFESK","steam_id":76561198118182211,"connected_time":4456000000000,"state":"active","ping":85},{"user_id":344,"name":"ElZeto","steam_id":76561198252322622,"connected_time":2084000000000,"state":"active","ping":92},{"user_id":354,"name":"2010 Honda Civic Si Sedan","steam_id":76561198926416886,"connected_time":567000000000,"state":"active","ping":66},{"user_id":348,"name":"Not A Rapper","steam_id":76561198077523537,"connected_time":1214000000000,"state":"active","ping":95},{"user_id":328,"name":"Green Bean","steam_id":76561198827330768,"connected_time":2560000000000,"state":"active","ping":82},{"user_id":363,"name":"FanaticSalt","steam_id":76561199380123059,"connected_time":178000000000,"state":"active","ping":42},{"user_id":334,"name":"Rafl","steam_id":76561198055222756,"connected_time":2468000000000,"state":"active","ping":44},{"user_id":351,"name":"primordialheath","steam_id":76561199386942638,"connected_time":1178000000000,"state":"active","ping":73},{"user_id":267,"name":"Rob","steam_id":76561199187786660,"connected_time":6379000000000,"state":"active","ping":53},{"user_id":341,"name":"gps","steam_id":76561198067492304,"connected_time":2226000000000,"state":"active","ping":57},{"user_id":339,"name":"Hector Salamanca","steam_id":76561199103213955,"connected_time":2317000000000,"state":"active","ping":103},{"user_id":360,"name":"SDL","steam_id":76561198859719985,"connected_time":384000000000,"state":"active","ping":59},{"user_id":361,"name":"WrenLightsaber","steam_id":76561199054971009,"connected_time":383000000000,"state":"active","ping":59}]},{"server_id":108,"name":"Uncletopia | Dallas | 2 | All Maps","name_short":"dal-2","host":"dal-1.us.uncletopia.com","port":27025,"enabled":true,"region":"us-central","cc":"us","latitude":32.779167,"longitude":-96.80889,"reserved":0,"last_update":"0001-01-01T00:00:00Z","name_a2s":"Uncletopia | Dallas | 2 | All Maps","protocol":17,"map":"cp_sunshine","folder":"tf","game":"Team Fortress","app_id":440,"player_count":24,"max_players":24,"Bots":0,"server_type":"Dedicated","server_os":"Linux","password":true,"vac":true,"version":"7961495","steam_id":85568392924469988,"keywords":["cp","nocrits","nodmgspread","uncletopia"],"game_id":440,"stv_port":27026,"stv_name":"Uncletopia | Dallas | 2 | All Maps | STV","players":[{"user_id":523,"name":"Guess__Who","steam_id":76561198347828936,"connected_time":210000000000,"state":"active","ping":89},{"user_id":512,"name":"listerine","steam_id":76561198041104084,"connected_time":325000000000,"state":"active","ping":79},{"user_id":507,"name":"dumpster fire","steam_id":76561199180461090,"connected_time":438000000000,"state":"active","ping":77},{"user_id":528,"name":"Nuclear Tan","steam_id":76561197983230701,"connected_time":69000000000,"state":"active","ping":71},{"user_id":438,"name":"Giselle","steam_id":76561198162593640,"connected_time":5068000000000,"state":"active","ping":106},{"user_id":505,"name":"Clockwerk","steam_id":76561198055226070,"connected_time":558000000000,"state":"active","ping":87},{"user_id":522,"name":"stickman488","steam_id":76561198190598823,"connected_time":222000000000,"state":"active","ping":94},{"user_id":514,"name":"nailbxmb98","steam_id":76561199131463997,"connected_time":282000000000,"state":"active","ping":74},{"user_id":526,"name":"Chub","steam_id":76561197960983902,"connected_time":167000000000,"state":"active","ping":44},{"user_id":510,"name":"Uik","steam_id":76561199061965517,"connected_time":381000000000,"state":"active","ping":54},{"user_id":488,"name":"schmuck","steam_id":76561198143789773,"connected_time":1512000000000,"state":"active","ping":56},{"user_id":468,"name":"Breadman","steam_id":76561198097979919,"connected_time":2729000000000,"state":"active","ping":132},{"user_id":515,"name":"swan","steam_id":76561198012569200,"connected_time":279000000000,"state":"active","ping":100},{"user_id":529,"name":"Glaceon","steam_id":76561198177715869,"connected_time":53000000000,"state":"active","ping":59},{"user_id":517,"name":"Sideways Whoopi Goldberg","steam_id":76561198003736560,"connected_time":251000000000,"state":"active","ping":29},{"user_id":518,"name":"moe","steam_id":76561198929586245,"connected_time":251000000000,"state":"active","ping":76},{"user_id":520,"name":"Soup_Cell","steam_id":76561198148607583,"connected_time":237000000000,"state":"active","ping":77},{"user_id":521,"name":"TechnoBear2099","steam_id":76561198238863596,"connected_time":226000000000,"state":"active","ping":51},{"user_id":484,"name":"Stryder","steam_id":76561199387418697,"connected_time":1669000000000,"state":"active","ping":69},{"user_id":452,"name":"[cf] Captain Terror","steam_id":76561198028034742,"connected_time":4342000000000,"state":"active","ping":90},{"user_id":464,"name":"Chol","steam_id":76561198122054259,"connected_time":2795000000000,"state":"active","ping":81},{"user_id":524,"name":"sebjzy ‚ô•","steam_id":76561198009959034,"connected_time":186000000000,"state":"active","ping":52},{"user_id":527,"name":"I sold my backpack for my cats","steam_id":76561198011363677,"connected_time":161000000000,"state":"active","ping":70}]},{"server_id":5,"name":"Uncletopia | Frankfurt | 1 | All Maps","name_short":"frk-1","host":"frk-1.de.uncletopia.com","port":27015,"enabled":true,"region":"eu","cc":"de","latitude":50.110924,"longitude":8.682127,"reserved":0,"last_update":"0001-01-01T00:00:00Z","name_a2s":"Uncletopia | Frankfurt | 1 | All Maps","protocol":17,"map":"pl_badwater","folder":"tf","game":"Team Fortress","app_id":440,"player_count":24,"max_players":24,"Bots":0,"server_type":"Dedicated","server_os":"Linux","password":true,"vac":true,"version":"7961495","steam_id":85568392924469989,"keywords":["nocrits","nodmgspread","payload","uncletopia"],"game_id":440,"stv_port":27016,"stv_name":"Uncletopia | Frankfurt | 1 | All Maps | STV","players":[{"user_id":642,"name":"POOTISMAN","steam_id":76561197986793136,"connected_time":2087000000000,"state":"active","ping":55},{"user_id":528,"name":"the least schizo med main","steam_id":76561198048530109,"connected_time":8773000000000,"state":"active","ping":62},{"user_id":663,"name":"Bubbles","steam_id":76561198131764464,"connected_time":177000000000,"state":"active","ping":72},{"user_id":643,"name":"oscail","steam_id":76561198180640198,"connected_time":2076000000000,"state":"active","ping":85},{"user_id":641,"name":"FishD.ck_47","steam_id":76561198114773103,"connected_time":2149000000000,"state":"active","ping":89},{"user_id":649,"name":"r06u3","steam_id":76561198254099253,"connected_time":1789000000000,"state":"active","ping":160},{"user_id":652,"name":"Dewotter","steam_id":76561198007653168,"connected_time":1295000000000,"state":"active","ping":74},{"user_id":644,"name":"Moe Torola","steam_id":76561198025167560,"connected_time":2060000000000,"state":"active","ping":69},{"user_id":662,"name":"MacxNxCheese80","steam_id":76561198923725480,"connected_time":230000000000,"state":"active","ping":149},{"user_id":645,"name":"Huskey","steam_id":76561198152392309,"connected_time":2032000000000,"state":"active","ping":46},{"user_id":658,"name":"Master Of Noob","steam_id":76561198217926783,"connected_time":278000000000,"state":"active","ping":71},{"user_id":630,"name":"BeefHammer","steam_id":76561198078426223,"connected_time":3008000000000,"state":"active","ping":101},{"user_id":559,"name":"tallen","steam_id":76561198061708595,"connected_time":7073000000000,"state":"active","ping":85},{"user_id":614,"name":"Wepto","steam_id":76561198009536306,"connected_time":3907000000000,"state":"active","ping":61},{"user_id":618,"name":"isaku","steam_id":76561198092648865,"connected_time":3749000000000,"state":"active","ping":71},{"user_id":637,"name":"A simple berry picker","steam_id":76561198091969871,"connected_time":2656000000000,"state":"active","ping":96},{"user_id":620,"name":"Teolus","steam_id":76561197989494538,"connected_time":3615000000000,"state":"active","ping":61},{"user_id":659,"name":"–ë–∞—Ä—Ö–∞—Ç–Ω—ã–µ —Ç—è–≥–∏, –ö","steam_id":76561198214926087,"connected_time":272000000000,"state":"active","ping":90},{"user_id":638,"name":"Reilly","steam_id":76561198256604603,"connected_time":2464000000000,"state":"active","ping":106},{"user_id":661,"name":"ChPerette üéÆ","steam_id":76561198060004887,"connected_time":246000000000,"state":"active","ping":52},{"user_id":655,"name":"Pain in a Box","steam_id":76561197990777173,"connected_time":991000000000,"state":"active","ping":99},{"user_id":650,"name":"click click","steam_id":76561198049405872,"connected_time":1743000000000,"state":"active","ping":44},{"user_id":660,"name":"peso enjoyer","steam_id":76561198798177799,"connected_time":271000000000,"state":"active","ping":78},{"user_id":651,"name":"Valdis","steam_id":76561198057340489,"connected_time":1675000000000,"state":"active","ping":54}]},{"server_id":110,"name":"Uncletopia | Frankfurt | 2 | All Maps","name_short":"frk-2","host":"frk-1.de.uncletopia.com","port":27025,"enabled":true,"region":"eu","cc":"de","latitude":50.110924,"longitude":8.682127,"reserved":0,"last_update":"0001-01-01T00:00:00Z","name_a2s":"Uncletopia | Frankfurt | 2 | All Maps","protocol":17,"map":"pl_borneo","folder":"tf","game":"Team Fortress","app_id":440,"player_count":24,"max_players":24,"Bots":0,"server_type":"Dedicated","server_os":"Linux","password":true,"vac":true,"version":"7961495","steam_id":85568392924469990,"keywords":["nocrits","nodmgspread","payload","uncletopia"],"game_id":440,"stv_port":27026,"stv_name":"Uncletopia | Frankfurt | 2 | All Maps | STV","players":[{"user_id":754,"name":"Remenos","steam_id":76561198029337778,"connected_time":209000000000,"state":"active","ping":102},{"user_id":755,"name":"an idiot","steam_id":76561198172542535,"connected_time":198000000000,"state":"active","ping":63},{"user_id":743,"name":"hammythegreat #SaveTF2","steam_id":76561198079526946,"connected_time":1076000000000,"state":"active","ping":173},{"user_id":749,"name":"demoman gamer","steam_id":76561199193255437,"connected_time":359000000000,"state":"active","ping":177},{"user_id":737,"name":"pos","steam_id":76561198026132442,"connected_time":1442000000000,"state":"active","ping":76},{"user_id":757,"name":"Vinnidict","steam_id":76561198037087000,"connected_time":25000000000,"state":"active","ping":77},{"user_id":704,"name":"jerry (:","steam_id":76561198205668108,"connected_time":3165000000000,"state":"active","ping":56},{"user_id":705,"name":"the Spycrab","steam_id":76561198043480678,"connected_time":3150000000000,"state":"active","ping":53},{"user_id":746,"name":"Snokie Boi","steam_id":76561198081126247,"connected_time":881000000000,"state":"active","ping":60},{"user_id":703,"name":"K.O.wal","steam_id":76561198317737261,"connected_time":3198000000000,"state":"active","ping":62},{"user_id":717,"name":"Mr_Pulse_","steam_id":76561198095001602,"connected_time":2730000000000,"state":"active","ping":89},{"user_id":729,"name":"TeslaVet","steam_id":76561198027201872,"connected_time":1694000000000,"state":"active","ping":69},{"user_id":712,"name":"Teathling","steam_id":76561198061580505,"connected_time":2869000000000,"state":"active","ping":56},{"user_id":730,"name":"ELHAM","steam_id":76561198076474035,"connected_time":1687000000000,"state":"active","ping":70},{"user_id":735,"name":"[T]aKer","steam_id":76561198001778013,"connected_time":1558000000000,"state":"active","ping":49},{"user_id":750,"name":"Bucket","steam_id":76561199165494885,"connected_time":314000000000,"state":"active","ping":103},{"user_id":747,"name":"Tusho","steam_id":76561198115447383,"connected_time":570000000000,"state":"active","ping":75},{"user_id":739,"name":"ArmedWithWings","steam_id":76561198154615474,"connected_time":1295000000000,"state":"active","ping":73},{"user_id":751,"name":"Blurbo","steam_id":76561198137444159,"connected_time":268000000000,"state":"active","ping":87},{"user_id":652,"name":"Ankle Dane","steam_id":76561198134378108,"connected_time":7680000000000,"state":"active","ping":83},{"user_id":753,"name":"‚ô• trixy ‚ô•","steam_id":76561199474154775,"connected_time":255000000000,"state":"active","ping":58},{"user_id":738,"name":"kanka","steam_id":76561198116530769,"connected_time":1349000000000,"state":"active","ping":81},{"user_id":740,"name":"H-say","steam_id":76561198177400362,"connected_time":1291000000000,"state":"active","ping":85},{"user_id":756,"name":"D * XCR","steam_id":76561198086304421,"connected_time":112000000000,"state":"active","ping":69}]},{"server_id":308,"name":"Uncletopia | Frankfurt | 3 | All Maps","name_short":"frk-3","host":"frk-1.de.uncletopia.com","port":27035,"enabled":true,"region":"eu","cc":"de","latitude":50.110924,"longitude":8.682127,"reserved":0,"last_update":"0001-01-01T00:00:00Z","name_a2s":"Uncletopia | Frankfurt | 3 | All Maps","protocol":17,"map":"pl_thundermountain","folder":"tf","game":"Team Fortress","app_id":440,"player_count":24,"max_players":24,"Bots":0,"server_type":"Dedicated","server_os":"Linux","password":true,"vac":true,"version":"7961495","steam_id":85568392924504274,"keywords":["nocrits","nodmgspread","payload","uncletopia"],"game_id":440,"stv_port":27036,"stv_name":"Uncletopia | Frankfurt | 3 | All Maps | STV","players":[{"user_id":444,"name":"Hussain_144","steam_id":76561198346029208,"connected_time":844000000000,"state":"active","ping":204},{"user_id":445,"name":"ArcX","steam_id":76561198805049375,"connected_time":811000000000,"state":"active","ping":54},{"user_id":463,"name":"Sarah Obama Michella","steam_id":76561198078996559,"connected_time":80000000000,"state":"active","ping":73},{"user_id":459,"name":"DaveRISK","steam_id":76561198143854076,"connected_time":337000000000,"state":"active","ping":93},{"user_id":420,"name":"Burpman","steam_id":76561198022897937,"connected_time":2592000000000,"state":"active","ping":60},{"user_id":348,"name":"finbar","steam_id":76561198056812396,"connected_time":8148000000000,"state":"active","ping":82},{"user_id":431,"name":"cvprian","steam_id":76561198066655971,"connected_time":2302000000000,"state":"active","ping":67},{"user_id":448,"name":"tone","steam_id":76561197975301462,"connected_time":581000000000,"state":"active","ping":95},{"user_id":451,"name":"Dapper","steam_id":76561198081694974,"connected_time":541000000000,"state":"active","ping":56},{"user_id":450,"name":"rummy","steam_id":76561197997573379,"connected_time":546000000000,"state":"active","ping":68},{"user_id":449,"name":"Jureron","steam_id":76561198097535175,"connected_time":559000000000,"state":"active","ping":62},{"user_id":397,"name":"ScarredPixel123","steam_id":76561199165112703,"connected_time":4900000000000,"state":"active","ping":79},{"user_id":452,"name":"DINKICO CON QUESO","steam_id":76561198162809979,"connected_time":535000000000,"state":"active","ping":57},{"user_id":453,"name":"Femboy Enjoyer","steam_id":76561198389548524,"connected_time":505000000000,"state":"active","ping":57},{"user_id":454,"name":"chocolate flavoured femboy","steam_id":76561198819353867,"connected_time":493000000000,"state":"active","ping":48},{"user_id":399,"name":"NotChloe","steam_id":76561198080658092,"connected_time":4757000000000,"state":"active","ping":75},{"user_id":427,"name":"sylvyy","steam_id":76561198976976583,"connected_time":2458000000000,"state":"active","ping":180},{"user_id":461,"name":"Dr Nefario","steam_id":76561198254646194,"connected_time":230000000000,"state":"active","ping":135},{"user_id":428,"name":"LtSalte","steam_id":76561198004721081,"connected_time":2454000000000,"state":"active","ping":191},{"user_id":406,"name":"ht","steam_id":76561198860941690,"connected_time":4123000000000,"state":"active","ping":60},{"user_id":456,"name":"Star in a pond","steam_id":76561198205501279,"connected_time":451000000000,"state":"active","ping":94},{"user_id":371,"name":"Flint Atheno","steam_id":76561198000565196,"connected_time":6747000000000,"state":"active","ping":54},{"user_id":462,"name":"C.H.E.R.E.P.","steam_id":76561198026938595,"connected_time":162000000000,"state":"active","ping":89},{"user_id":441,"name":"bastard","steam_id":76561198993925146,"connected_time":1008000000000,"state":"active","ping":75}]},{"server_id":309,"name":"Uncletopia | Frankfurt | 4 | All Maps","name_short":"frk-4","host":"frk-1.de.uncletopia.com","port":27045,"enabled":true,"region":"eu","cc":"de","latitude":50.110924,"longitude":8.682127,"reserved":0,"last_update":"0001-01-01T00:00:00Z","name_a2s":"Uncletopia | Frankfurt | 4 | All Maps","protocol":17,"map":"pl_pier","folder":"tf","game":"Team Fortress","app_id":440,"player_count":0,"max_players":24,"Bots":0,"server_type":"Dedicated","server_os":"Linux","password":true,"vac":true,"version":"7961495","steam_id":85568392924504275,"keywords":["nocrits","nodmgspread","payload","uncletopia"],"game_id":440,"stv_port":27046,"stv_name":"Uncletopia | Frankfurt | 4 | All Maps | STV","players":null},{"server_id":310,"name":"Uncletopia | Frankfurt | 5 | All Maps","name_short":"frk-5","host":"frk-1.de.uncletopia.com","port":27055,"enabled":true,"region":"eu","cc":"de","latitude":50.110924,"longitude":8.682127,"reserved":0,"last_update":"0001-01-01T00:00:00Z","name_a2s":"Uncletopia | Frankfurt | 5 | All Maps","protocol":17,"map":"koth_cascade","folder":"tf","game":"Team Fortress","app_id":440,"player_count":0,"max_players":24,"Bots":0,"server_type":"Dedicated","server_os":"Linux","password":true,"vac":true,"version":"7961495","steam_id":85568392924504277,"keywords":["cp","nocrits","nodmgspread","uncletopia"],"game_id":440,"stv_port":27056,"stv_name":"Uncletopia | Frankfurt | 5 | All Maps | STV","players":null},{"server_id":311,"name":"Uncletopia | Frankfurt | 6 | All Maps","name_short":"frk-6","host":"frk-1.de.uncletopia.com","port":27065,"enabled":true,"region":"eu","cc":"de","latitude":50.110924,"longitude":8.682127,"reserved":0,"last_update":"0001-01-01T00:00:00Z","name_a2s":"Uncletopia | Frankfurt | 6 | All Maps","protocol":17,"map":"pl_frontier_final","folder":"tf","game":"Team Fortress","app_id":440,"player_count":21,"max_players":24,"Bots":0,"server_type":"Dedicated","server_os":"Linux","password":true,"vac":true,"version":"7961495","steam_id":85568392924504278,"keywords":["nocrits","nodmgspread","payload","uncletopia"],"game_id":440,"stv_port":27066,"stv_name":"Uncletopia | Frankfurt | 6 | All Maps | STV","players":[{"user_id":526,"name":"glyph","steam_id":76561197980736364,"connected_time":3043000000000,"state":"active","ping":72},{"user_id":561,"name":"armadillo","steam_id":76561198324656652,"connected_time":93000000000,"state":"active","ping":63},{"user_id":518,"name":"Dr. Saygƒ±sƒ±zlƒ±k","steam_id":76561198125010818,"connected_time":3367000000000,"state":"active","ping":94},{"user_id":557,"name":"WhyDoIFeed?","steam_id":76561198003117441,"connected_time":416000000000,"state":"active","ping":60},{"user_id":545,"name":"chess club manager","steam_id":76561198011047413,"connected_time":1141000000000,"state":"active","ping":71},{"user_id":520,"name":"priscilla","steam_id":76561198167283985,"connected_time":3342000000000,"state":"active","ping":76},{"user_id":513,"name":"TidB","steam_id":76561198055342304,"connected_time":3818000000000,"state":"active","ping":57},{"user_id":560,"name":"‚ô• Cirno ‚ô•","steam_id":76561198834982738,"connected_time":158000000000,"state":"active","ping":69},{"user_id":462,"name":"VK2124 :D","steam_id":76561198111130688,"connected_time":8064000000000,"state":"active","ping":48},{"user_id":539,"name":"highest noon","steam_id":76561199103959197,"connected_time":2054000000000,"state":"active","ping":90},{"user_id":502,"name":"BreadAcres","steam_id":76561198098217082,"connected_time":4615000000000,"state":"active","ping":56},{"user_id":562,"name":"Basil","steam_id":76561198046832312,"connected_time":82000000000,"state":"active","ping":114},{"user_id":563,"name":"ein'd","steam_id":76561198152162834,"connected_time":48000000000,"state":"active","ping":84},{"user_id":564,"name":"FanFish","steam_id":76561199389558024,"connected_time":37000000000,"state":"active","ping":65},{"user_id":555,"name":"LIGHTWEIGHT BABY","steam_id":76561198002761980,"connected_time":691000000000,"state":"active","ping":60},{"user_id":472,"name":"Ewelinka Zniszczenia","steam_id":76561198307374456,"connected_time":7290000000000,"state":"active","ping":68},{"user_id":506,"name":"cult","steam_id":76561198188647690,"connected_time":4556000000000,"state":"active","ping":70},{"user_id":473,"name":"Kaishakunin","steam_id":76561198028123874,"connected_time":7285000000000,"state":"active","ping":93},{"user_id":378,"name":"Gaxkang","steam_id":76561198125768571,"connected_time":14311000000000,"state":"active","ping":73},{"user_id":551,"name":"djokanda","steam_id":76561199196865947,"connected_time":898000000000,"state":"active","ping":170},{"user_id":552,"name":"Benson Blenderdick IV","steam_id":76561198109682749,"connected_time":860000000000,"state":"active","ping":69}]},{"server_id":23,"name":"Uncletopia | Frankfurt | 7 | Stopwatch Beta","name_short":"frk-7","host":"frk-1.de.uncletopia.com","port":27075,"enabled":true,"region":"eu","cc":"de","latitude":50.110924,"longitude":8.682127,"reserved":0,"last_update":"0001-01-01T00:00:00Z","name_a2s":"Uncletopia | Frankfurt | 7 | Stopwatch Beta","protocol":17,"map":"koth_lakeside_final","folder":"tf","game":"Team Fortress","app_id":440,"player_count":0,"max_players":24,"Bots":0,"server_type":"Dedicated","server_os":"Linux","password":true,"vac":true,"version":"7961495","steam_id":85568392924742827,"keywords":["cp","nocrits","nodmgspread","uncletopia"],"game_id":440,"stv_port":27076,"stv_name":"Uncletopia | Frankfurt | 7 | Stopwatch Beta | STV","players":null},{"server_id":24,"name":"Uncletopia | Frankfurt | 8 | Community","name_short":"frk-8","host":"frk-1.de.uncletopia.com","port":27085,"enabled":true,"region":"eu","cc":"de","latitude":50.110924,"longitude":8.682127,"reserved":0,"last_update":"0001-01-01T00:00:00Z","name_a2s":"Uncletopia | Frankfurt | 8 | Community","protocol":17,"map":"workshop/cp_overgrown_rc8.ugc503939302","folder":"tf","game":"Team Fortress","app_id":440,"player_count":0,"max_players":24,"Bots":0,"server_type":"Dedicated","server_os":"Linux","password":true,"vac":true,"version":"7961495","steam_id":85568392924742828,"keywords":["cp","nocrits","nodmgspread","uncletopia"],"game_id":440,"stv_port":27086,"stv_name":"Uncletopia | Frankfurt | 8 | Community | STV","players":null},{"server_id":202,"name":"Uncletopia | Hong Kong | 1 | All Maps","name_short":"hgk-1","host":"hgk-1.hk.uncletopia.com","port":27015,"enabled":true,"region":"asia","cc":"hk","latitude":22.302711,"longitude":114.177216,"reserved":0,"last_update":"0001-01-01T00:00:00Z","name_a2s":"Uncletopia | Hong Kong | 1 | All Maps","protocol":17,"map":"cp_process_final","folder":"tf","game":"Team Fortress","app_id":440,"player_count":0,"max_players":24,"Bots":0,"server_type":"Dedicated","server_os":"Linux","password":true,"vac":true,"version":"7961495","steam_id":85568392924494504,"keywords":["cp","nocrits","nodmgspread","uncletopia"],"game_id":440,"stv_port":27016,"stv_name":"Uncletopia | Hong Kong | 1 | All Maps | STV","players":null},{"server_id":1,"name":"Uncletopia | Los Angeles | 1 | All Maps","name_short":"lax-1","host":"lax-1.us.uncletopia.com","port":27015,"enabled":true,"region":"us-west","cc":"us","latitude":33.94279,"longitude":-118.41004,"reserved":0,"last_update":"0001-01-01T00:00:00Z","name_a2s":"Uncletopia | Los Angeles | 1 | All Maps","protocol":17,"map":"pl_frontier_final","folder":"tf","game":"Team Fortress","app_id":440,"player_count":24,"max_players":24,"Bots":0,"server_type":"Dedicated","server_os":"Linux","password":true,"vac":true,"version":"7961495","steam_id":85568392924469991,"keywords":["nocrits","nodmgspread","payload","uncletopia"],"game_id":440,"stv_port":27016,"stv_name":"Uncletopia | Los Angeles | 1 | All Maps | STV","players":[{"user_id":275,"name":"BrockSpread","steam_id":76561198145924402,"connected_time":1337000000000,"state":"active","ping":91},{"user_id":255,"name":"Just a Good Friend","steam_id":76561198140052403,"connected_time":2468000000000,"state":"active","ping":49},{"user_id":226,"name":"Derp140","steam_id":76561198887787200,"connected_time":3654000000000,"state":"active","ping":47},{"user_id":271,"name":"Spud","steam_id":76561198878000618,"connected_time":1537000000000,"state":"active","ping":44},{"user_id":269,"name":"Jazpy","steam_id":76561198036872545,"connected_time":1569000000000,"state":"active","ping":78},{"user_id":223,"name":"Type Three Dabeetus","steam_id":76561198062710038,"connected_time":3969000000000,"state":"active","ping":56},{"user_id":285,"name":"Cambonieboo","steam_id":76561198139174433,"connected_time":297000000000,"state":"active","ping":51},{"user_id":281,"name":"greenpeace","steam_id":76561197983221708,"connected_time":775000000000,"state":"active","ping":59},{"user_id":274,"name":"meme","steam_id":76561199170771700,"connected_time":1445000000000,"state":"active","ping":58},{"user_id":249,"name":"GuyInBronzeV","steam_id":76561198044922651,"connected_time":2678000000000,"state":"active","ping":72},{"user_id":250,"name":"[DATS‚û°] Sugar Meowth","steam_id":76561197995251793,"connected_time":2669000000000,"state":"active","ping":64},{"user_id":282,"name":"asmr eater (deaf)","steam_id":76561198067053408,"connected_time":766000000000,"state":"active","ping":52},{"user_id":251,"name":"Pissing'Runt","steam_id":76561198268078235,"connected_time":2604000000000,"state":"active","ping":92},{"user_id":253,"name":"Texas","steam_id":76561198053276976,"connected_time":2528000000000,"state":"active","ping":62},{"user_id":287,"name":"thai tea","steam_id":76561198308290211,"connected_time":155000000000,"state":"active","ping":82},{"user_id":272,"name":"NFL.com","steam_id":76561198113405376,"connected_time":1535000000000,"state":"active","ping":54},{"user_id":207,"name":"Purchase","steam_id":76561198821991700,"connected_time":5327000000000,"state":"active","ping":74},{"user_id":280,"name":"THIRDPIERCE","steam_id":76561198405366314,"connected_time":980000000000,"state":"active","ping":97},{"user_id":279,"name":"rimed toothpick","steam_id":76561198242099910,"connected_time":995000000000,"state":"active","ping":119},{"user_id":286,"name":"[Industrial] A_HUMBLEBUMBLED","steam_id":76561198064771878,"connected_time":289000000000,"state":"active","ping":84},{"user_id":284,"name":"how do i control my guy?","steam_id":76561198158855211,"connected_time":510000000000,"state":"active","ping":71},{"user_id":288,"name":"üíÄKing DiamondüíÄ","steam_id":76561198012101598,"connected_time":55000000000,"state":"active","ping":47},{"user_id":266,"name":"Altruisticailuridae","steam_id":76561198335295596,"connected_time":2210000000000,"state":"active","ping":56},{"user_id":270,"name":"Chirp","steam_id":76561198240780230,"connected_time":1568000000000,"state":"active","ping":46}]},{"server_id":112,"name":"Uncletopia | Los Angeles | 2 | All Maps","name_short":"lax-2","host":"lax-1.us.uncletopia.com","port":27025,"enabled":true,"region":"us-west","cc":"us","latitude":33.94279,"longitude":-118.41004,"reserved":0,"last_update":"0001-01-01T00:00:00Z","name_a2s":"Uncletopia | Los Angeles | 2 | All Maps","protocol":17,"map":"pl_badwater","folder":"tf","game":"Team Fortress","app_id":440,"player_count":5,"max_players":24,"Bots":0,"server_type":"Dedicated","server_os":"Linux","password":true,"vac":true,"version":"7961495","steam_id":85568392924469992,"keywords":["nocrits","nodmgspread","payload","uncletopia"],"game_id":440,"stv_port":27026,"stv_name":"Uncletopia | Los Angeles | 2 | All Maps | STV","players":[{"user_id":32,"name":"fish","steam_id":76561198194508197,"connected_time":526000000000,"state":"active","ping":66},{"user_id":33,"name":"Kelux","steam_id":76561198042676009,"connected_time":511000000000,"state":"active","ping":47},{"user_id":35,"name":"Rat Smacker","steam_id":76561199090197628,"connected_time":90000000000,"state":"active","ping":76},{"user_id":23,"name":"eau:","steam_id":76561198110020262,"connected_time":1506000000000,"state":"active","ping":36},{"user_id":25,"name":"Varie","steam_id":76561199454930210,"connected_time":1447000000000,"state":"active","ping":127}]},{"server_id":324,"name":"Uncletopia | Los Angeles | 3 | All Maps","name_short":"lax-3","host":"lax-1.us.uncletopia.com","port":27035,"enabled":true,"region":"us-west","cc":"us","latitude":33.94279,"longitude":-118.41004,"reserved":0,"last_update":"0001-01-01T00:00:00Z","name_a2s":"Uncletopia | Los Angeles | 3 | All Maps","protocol":17,"map":"koth_lakeside_final","folder":"tf","game":"Team Fortress","app_id":440,"player_count":0,"max_players":24,"Bots":0,"server_type":"Dedicated","server_os":"Linux","password":true,"vac":true,"version":"7961495","steam_id":85568392924510198,"keywords":["cp","nocrits","nodmgspread","uncletopia"],"game_id":440,"stv_port":27036,"stv_name":"Uncletopia | Los Angeles | 3 | All Maps | STV","players":null},{"server_id":25,"name":"Uncletopia | Los Angeles | 4 | Stopwatch Beta","name_short":"lax-4","host":"lax-1.us.uncletopia.com","port":27045,"enabled":true,"region":"us-west","cc":"us","latitude":33.94279,"longitude":-118.41004,"reserved":0,"last_update":"0001-01-01T00:00:00Z","name_a2s":"Uncletopia | Los Angeles | 4 | Stopwatch Beta","protocol":17,"map":"pl_frontier_final","folder":"tf","game":"Team Fortress","app_id":440,"player_count":0,"max_players":24,"Bots":0,"server_type":"Dedicated","server_os":"Linux","password":true,"vac":true,"version":"7961495","steam_id":85568392924510199,"keywords":["nocrits","nodmgspread","payload","uncletopia"],"game_id":440,"stv_port":27046,"stv_name":"Uncletopia | Los Angeles | 4 | Stopwatch Beta | STV","players":null},{"server_id":11,"name":"Uncletopia | London | 1 | All Maps","name_short":"lon-1","host":"lon-1.uk.uncletopia.com","port":27015,"enabled":true,"region":"eu","cc":"gb","latitude":51.509865,"longitude":-0.118092,"reserved":0,"last_update":"0001-01-01T00:00:00Z","name_a2s":"Uncletopia | London | 1 | All Maps","protocol":17,"map":"pl_upward","folder":"tf","game":"Team Fortress","app_id":440,"player_count":24,"max_players":24,"Bots":0,"server_type":"Dedicated","server_os":"Linux","password":true,"vac":true,"version":"7961495","steam_id":85568392924367362,"keywords":["nocrits","nodmgspread","payload","uncletopia"],"game_id":440,"stv_port":27016,"stv_name":"Uncletopia | London | 1 | All Maps | STV","players":[{"user_id":779,"name":"Neonstrip","steam_id":76561198032261834,"connected_time":907000000000,"state":"active","ping":78},{"user_id":765,"name":"beurgeur","steam_id":76561198872426314,"connected_time":2254000000000,"state":"active","ping":37},{"user_id":750,"name":"BreadBubbles","steam_id":76561198174332826,"connected_time":5014000000000,"state":"active","ping":57},{"user_id":785,"name":"iNFERN0","steam_id":76561198045940117,"connected_time":248000000000,"state":"active","ping":117},{"user_id":781,"name":"BooceMaster","steam_id":76561198148520318,"connected_time":723000000000,"state":"active","ping":128},{"user_id":763,"name":"SOPHIIEE","steam_id":76561198443798981,"connected_time":2413000000000,"state":"active","ping":47},{"user_id":784,"name":"5mech","steam_id":76561198979167520,"connected_time":257000000000,"state":"active","ping":122},{"user_id":766,"name":"Milosz52","steam_id":76561199060940204,"connected_time":2245000000000,"state":"active","ping":90},{"user_id":780,"name":"VideoJames","steam_id":76561197970114051,"connected_time":851000000000,"state":"active","ping":45},{"user_id":786,"name":"Redkiller","steam_id":76561199453655288,"connected_time":243000000000,"state":"active","ping":128},{"user_id":725,"name":"Prome","steam_id":76561199050383942,"connected_time":8426000000000,"state":"active","ping":58},{"user_id":767,"name":"Starach","steam_id":76561198084530972,"connected_time":2243000000000,"state":"active","ping":51},{"user_id":769,"name":"snowycoast","steam_id":76561198346638308,"connected_time":2129000000000,"state":"active","ping":51},{"user_id":724,"name":"dec","steam_id":76561198009660168,"connected_time":8563000000000,"state":"active","ping":51},{"user_id":770,"name":"[PKBG] Pipera","steam_id":76561197998280567,"connected_time":1915000000000,"state":"active","ping":50},{"user_id":775,"name":"hmscole09","steam_id":76561198811362788,"connected_time":1233000000000,"state":"active","ping":57},{"user_id":754,"name":"teddy","steam_id":76561198007436837,"connected_time":4220000000000,"state":"active","ping":43},{"user_id":776,"name":"smell_my_cheese","steam_id":76561198008517427,"connected_time":1204000000000,"state":"active","ping":54},{"user_id":778,"name":"tompp","steam_id":76561198143529110,"connected_time":1130000000000,"state":"active","ping":58},{"user_id":782,"name":"Laurie","steam_id":76561198082951750,"connected_time":385000000000,"state":"active","ping":49},{"user_id":761,"name":"Slifer The Sky Dragon","steam_id":76561198062255803,"connected_time":3314000000000,"state":"active","ping":74},{"user_id":787,"name":"Eidolon","steam_id":76561198043919565,"connected_time":221000000000,"state":"active","ping":71},{"user_id":783,"name":"Gety0","steam_id":76561198044387185,"connected_time":273000000000,"state":"active","ping":100},{"user_id":788,"name":"Soloman","steam_id":76561199212054667,"connected_time":141000000000,"state":"active","ping":46}]},{"server_id":114,"name":"Uncletopia | London | 2 | All Maps","name_short":"lon-2","host":"lon-1.uk.uncletopia.com","port":27025,"enabled":true,"region":"eu","cc":"gb","latitude":51.509865,"longitude":-0.118092,"reserved":0,"last_update":"0001-01-01T00:00:00Z","name_a2s":"Uncletopia | London | 2 | All Maps","protocol":17,"map":"pl_borneo","folder":"tf","game":"Team Fortress","app_id":440,"player_count":24,"max_players":24,"Bots":0,"server_type":"Dedicated","server_os":"Linux","password":true,"vac":true,"version":"7961495","steam_id":85568392924470941,"keywords":["nocrits","nodmgspread","payload","uncletopia"],"game_id":440,"stv_port":27026,"stv_name":"Uncletopia | London | 2 | All Maps | STV","players":[{"user_id":371,"name":"Sarahtonin","steam_id":76561197992144115,"connected_time":1071000000000,"state":"active","ping":66},{"user_id":378,"name":"blonde furry femboy","steam_id":76561198273361428,"connected_time":796000000000,"state":"active","ping":82},{"user_id":381,"name":"Puppy","steam_id":76561198284766141,"connected_time":662000000000,"state":"active","ping":45},{"user_id":361,"name":"W","steam_id":76561198273623211,"connected_time":1513000000000,"state":"active","ping":90},{"user_id":362,"name":"Truegear","steam_id":76561198059511386,"connected_time":1487000000000,"state":"active","ping":62},{"user_id":335,"name":"YYS","steam_id":76561198201866574,"connected_time":3390000000000,"state":"active","ping":81},{"user_id":382,"name":"Herb","steam_id":76561198205266944,"connected_time":656000000000,"state":"active","ping":44},{"user_id":385,"name":"Tort","steam_id":76561198329646769,"connected_time":491000000000,"state":"active","ping":57},{"user_id":304,"name":"Hukka","steam_id":76561198035505355,"connected_time":6237000000000,"state":"active","ping":98},{"user_id":377,"name":"saltyy","steam_id":76561198124055526,"connected_time":828000000000,"state":"active","ping":57},{"user_id":345,"name":"Gry","steam_id":76561198053961616,"connected_time":2592000000000,"state":"active","ping":59},{"user_id":359,"name":"Ran33","steam_id":76561197991474499,"connected_time":1767000000000,"state":"active","ping":80},{"user_id":384,"name":"remi, she wrote.","steam_id":76561198044045655,"connected_time":538000000000,"state":"active","ping":73},{"user_id":387,"name":"clcraven","steam_id":76561198004637699,"connected_time":321000000000,"state":"active","ping":51},{"user_id":365,"name":"rmz.ssj","steam_id":76561198329613930,"connected_time":1447000000000,"state":"active","ping":49},{"user_id":296,"name":"bert","steam_id":76561198156318293,"connected_time":6699000000000,"state":"active","ping":47},{"user_id":373,"name":"Jimmi Amareno","steam_id":76561198327750625,"connected_time":949000000000,"state":"active","ping":36},{"user_id":357,"name":"Simply Devine","steam_id":76561198079023104,"connected_time":2086000000000,"state":"active","ping":155},{"user_id":323,"name":"{TPF}Badaabing","steam_id":76561197996161449,"connected_time":4355000000000,"state":"active","ping":62},{"user_id":389,"name":"Dr ADHD MD","steam_id":76561198025252995,"connected_time":270000000000,"state":"active","ping":68},{"user_id":297,"name":"Bookus","steam_id":76561198108620516,"connected_time":6694000000000,"state":"active","ping":41},{"user_id":332,"name":"yuno appreciator","steam_id":76561198083286511,"connected_time":3540000000000,"state":"active","ping":43},{"user_id":299,"name":"Jamon","steam_id":76561198393024383,"connected_time":6666000000000,"state":"active","ping":42},{"user_id":370,"name":"juicy","steam_id":76561198127264835,"connected_time":1277000000000,"state":"active","ping":46}]},{"server_id":320,"name":"Uncletopia | London | 3 | All Maps","name_short":"lon-3","host":"lon-1.uk.uncletopia.com","port":27035,"enabled":true,"region":"eu","cc":"gb","latitude":51.509865,"longitude":-0.118092,"reserved":0,"last_update":"0001-01-01T00:00:00Z","name_a2s":"Uncletopia | London | 3 | All Maps","protocol":17,"map":"pl_borneo","folder":"tf","game":"Team Fortress","app_id":440,"player_count":24,"max_players":24,"Bots":0,"server_type":"Dedicated","server_os":"Linux","password":true,"vac":true,"version":"7961495","steam_id":85568392924510192,"keywords":["nocrits","nodmgspread","payload","uncletopia"],"game_id":440,"stv_port":27036,"stv_name":"Uncletopia | London | 3 | All Maps | STV","players":[{"user_id":142,"name":"Gen","steam_id":76561198021775885,"connected_time":6262000000000,"state":"active","ping":44},{"user_id":201,"name":"7oid","steam_id":76561198142074232,"connected_time":665000000000,"state":"active","ping":97},{"user_id":146,"name":"hananamanna","steam_id":76561198006570285,"connected_time":6081000000000,"state":"active","ping":122},{"user_id":139,"name":"Vershal Smershal","steam_id":76561198116223995,"connected_time":6330000000000,"state":"active","ping":55},{"user_id":179,"name":"tm`","steam_id":76561197993580412,"connected_time":2566000000000,"state":"active","ping":74},{"user_id":183,"name":"Mi Manchi","steam_id":76561198171573129,"connected_time":1880000000000,"state":"active","ping":75},{"user_id":145,"name":"Yangus","steam_id":76561198147796010,"connected_time":6202000000000,"state":"active","ping":58},{"user_id":198,"name":"Cherry","steam_id":76561198150841824,"connected_time":714000000000,"state":"active","ping":69},{"user_id":196,"name":"All-you-can-eat Shrimp for $4.9","steam_id":76561198329205668,"connected_time":761000000000,"state":"active","ping":45},{"user_id":191,"name":"Seail_M","steam_id":76561198002405605,"connected_time":1416000000000,"state":"active","ping":62},{"user_id":192,"name":"cuddle","steam_id":76561198805181599,"connected_time":1372000000000,"state":"active","ping":52},{"user_id":197,"name":"Serious Frost","steam_id":76561198096899037,"connected_time":757000000000,"state":"active","ping":88},{"user_id":161,"name":"AftiksPL","steam_id":76561198875182686,"connected_time":4547000000000,"state":"active","ping":100},{"user_id":187,"name":"Drosan „ÉÑ","steam_id":76561197960389216,"connected_time":1657000000000,"state":"active","ping":52},{"user_id":172,"name":"sushii","steam_id":76561198297987372,"connected_time":2805000000000,"state":"active","ping":55},{"user_id":181,"name":"xavier","steam_id":76561198076494034,"connected_time":2431000000000,"state":"active","ping":47},{"user_id":188,"name":"Lyncurion","steam_id":76561199260022725,"connected_time":1623000000000,"state":"active","ping":90},{"user_id":204,"name":"noVa","steam_id":76561198296550363,"connected_time":165000000000,"state":"active","ping":60},{"user_id":200,"name":"N","steam_id":76561198257342972,"connected_time":678000000000,"state":"active","ping":60},{"user_id":193,"name":"TheEventGuy","steam_id":76561197972797744,"connected_time":1158000000000,"state":"active","ping":74},{"user_id":190,"name":"dEzZe „ÉÑ","steam_id":76561197960291106,"connected_time":1514000000000,"state":"active","ping":63},{"user_id":171,"name":"Aroo","steam_id":76561198132601368,"connected_time":3620000000000,"state":"active","ping":78},{"user_id":202,"name":"Random city potato","steam_id":76561199010542992,"connected_time":633000000000,"state":"active","ping":61},{"user_id":203,"name":"RIFT","steam_id":76561198991622379,"connected_time":626000000000,"state":"active","ping":42}]},{"server_id":321,"name":"Uncletopia | London | 4 | All Maps","name_short":"lon-4","host":"lon-1.uk.uncletopia.com","port":27045,"enabled":true,"region":"eu","cc":"gb","latitude":51.509865,"longitude":-0.118092,"reserved":0,"last_update":"0001-01-01T00:00:00Z","name_a2s":"Uncletopia | London | 4 | All Maps","protocol":17,"map":"koth_viaduct","folder":"tf","game":"Team Fortress","app_id":440,"player_count":0,"max_players":24,"Bots":0,"server_type":"Dedicated","server_os":"Linux","password":true,"vac":true,"version":"7961495","steam_id":85568392924510193,"keywords":["cp","nocrits","nodmgspread","uncletopia"],"game_id":440,"stv_port":27046,"stv_name":"Uncletopia | London | 4 | All Maps | STV","players":null},{"server_id":21,"name":"Uncletopia | London | 5 | All Maps","name_short":"lon-5","host":"lon-1.uk.uncletopia.com","port":27055,"enabled":true,"region":"eu","cc":"gb","latitude":51.509865,"longitude":-0.118092,"reserved":0,"last_update":"0001-01-01T00:00:00Z","name_a2s":"Uncletopia | London | 5 | All Maps","protocol":17,"map":"pl_pier","folder":"tf","game":"Team Fortress","app_id":440,"player_count":0,"max_players":24,"Bots":0,"server_type":"Dedicated","server_os":"Linux","password":true,"vac":true,"version":"7961495","steam_id":85568392924742829,"keywords":["nocrits","nodmgspread","payload","uncletopia"],"game_id":440,"stv_port":27056,"stv_name":"Uncletopia | London | 5 | All Maps | STV","players":null},{"server_id":22,"name":"Uncletopia | London | 6 | All Maps","name_short":"lon-6","host":"lon-1.uk.uncletopia.com","port":27065,"enabled":true,"region":"eu","cc":"gb","latitude":51.509865,"longitude":-0.118092,"reserved":0,"last_update":"0001-01-01T00:00:00Z","name_a2s":"Uncletopia | London | 6 | All Maps","protocol":17,"map":"cp_dustbowl","folder":"tf","game":"Team Fortress","app_id":440,"player_count":0,"max_players":24,"Bots":0,"server_type":"Dedicated","server_os":"Linux","password":true,"vac":true,"version":"7961495","steam_id":85568392924742830,"keywords":["cp","nocrits","nodmgspread","uncletopia"],"game_id":440,"stv_port":27066,"stv_name":"Uncletopia | London | 6 | All Maps | STV","players":null},{"server_id":40,"name":"Uncletopia | London | 7 | No Payload","name_short":"lon-7","host":"lon-1.uk.uncletopia.com","port":27075,"enabled":true,"region":"eu","cc":"gb","latitude":51.509865,"longitude":-0.118092,"reserved":0,"last_update":"0001-01-01T00:00:00Z","name_a2s":"Uncletopia | London | 7 | No Payload","protocol":17,"map":"cp_coldfront","folder":"tf","game":"Team Fortress","app_id":440,"player_count":0,"max_players":24,"Bots":0,"server_type":"Dedicated","server_os":"Linux","password":true,"vac":true,"version":"7961495","steam_id":85568392924964314,"keywords":["cp","nocrits","nodmgspread","uncletopia"],"game_id":440,"stv_port":27076,"stv_name":"Uncletopia | London | 7 | No Payload | STV","players":null},{"server_id":41,"name":"Uncletopia | London | 8 | Community","name_short":"lon-8","host":"lon-1.uk.uncletopia.com","port":27085,"enabled":true,"region":"eu","cc":"gb","latitude":51.509865,"longitude":-0.118092,"reserved":0,"last_update":"0001-01-01T00:00:00Z","name_a2s":"Uncletopia | London | 8 | Community","protocol":17,"map":"workshop/koth_bagel_rc6.ugc2514036946","folder":"tf","game":"Team Fortress","app_id":440,"player_count":0,"max_players":24,"Bots":0,"server_type":"Dedicated","server_os":"Linux","password":true,"vac":true,"version":"7961495","steam_id":85568392924964315,"keywords":["cp","nocrits","nodmgspread","uncletopia"],"game_id":440,"stv_port":27086,"stv_name":"Uncletopia | London | 8 | Community | STV","players":null},{"server_id":300,"name":"Uncletopia | Montr√©al | 1 | All Maps","name_short":"mtl-1","host":"mtl-1.ca.uncletopia.com","port":27015,"enabled":true,"region":"us-east","cc":"ca","latitude":45.50889,"longitude":-73.56167,"reserved":0,"last_update":"0001-01-01T00:00:00Z","name_a2s":"Uncletopia | Montr√©al | 1 | All Maps","protocol":17,"map":"koth_cascade","folder":"tf","game":"Team Fortress","app_id":440,"player_count":0,"max_players":24,"Bots":0,"server_type":"Dedicated","server_os":"Linux","password":true,"vac":true,"version":"7961495","steam_id":85568392924500087,"keywords":["cp","nocrits","nodmgspread","uncletopia"],"game_id":440,"stv_port":27016,"stv_name":"Uncletopia | Montr√©al | 1 | All Maps | STV","players":null},{"server_id":301,"name":"Uncletopia | Montr√©al | 2 | All Maps","name_short":"mtl-2","host":"mtl-1.ca.uncletopia.com","port":27025,"enabled":true,"region":"us-east","cc":"ca","latitude":45.50889,"longitude":-73.56167,"reserved":0,"last_update":"0001-01-01T00:00:00Z","name_a2s":"Uncletopia | Montr√©al | 2 | All Maps","protocol":17,"map":"koth_lakeside_final","folder":"tf","game":"Team Fortress","app_id":440,"player_count":8,"max_players":24,"Bots":0,"server_type":"Dedicated","server_os":"Linux","password":true,"vac":true,"version":"7961495","steam_id":85568392924500088,"keywords":["cp","nocrits","nodmgspread","uncletopia"],"game_id":440,"stv_port":27026,"stv_name":"Uncletopia | Montr√©al | 2 | All Maps | STV","players":[{"user_id":104,"name":"DERPgirl100","steam_id":76561199078210456,"connected_time":1896000000000,"state":"active","ping":73},{"user_id":115,"name":"dicksouls26","steam_id":76561198838196266,"connected_time":1229000000000,"state":"active","ping":54},{"user_id":124,"name":"DogSpoon","steam_id":76561198012485990,"connected_time":870000000000,"state":"active","ping":48},{"user_id":127,"name":"DragonlynX1048","steam_id":76561199084800227,"connected_time":624000000000,"state":"active","ping":87},{"user_id":119,"name":"living in mushroom park","steam_id":76561198097588802,"connected_time":1119000000000,"state":"active","ping":73},{"user_id":111,"name":"cpg","steam_id":76561198853515541,"connected_time":1631000000000,"state":"active","ping":69},{"user_id":86,"name":"salsa","steam_id":76561198317584223,"connected_time":2969000000000,"state":"active","ping":68},{"user_id":102,"name":"Suspicious Delicious","steam_id":76561198001741258,"connected_time":2067000000000,"state":"active","ping":71}]},{"server_id":302,"name":"Uncletopia | Montr√©al | 3 | All Maps","name_short":"mtl-3","host":"mtl-1.ca.uncletopia.com","port":27035,"enabled":true,"region":"us-east","cc":"ca","latitude":45.50889,"longitude":-73.56167,"reserved":0,"last_update":"0001-01-01T00:00:00Z","name_a2s":"Uncletopia | Montr√©al | 3 | All Maps","protocol":17,"map":"pl_snowycoast","folder":"tf","game":"Team Fortress","app_id":440,"player_count":0,"max_players":24,"Bots":0,"server_type":"Dedicated","server_os":"Linux","password":true,"vac":true,"version":"7961495","steam_id":85568392924500089,"keywords":["nocrits","nodmgspread","payload","uncletopia"],"game_id":440,"stv_port":27036,"stv_name":"Uncletopia | Montr√©al | 3 | All Maps | STV","players":null},{"server_id":303,"name":"Uncletopia | Montr√©al | 4 | No Payload","name_short":"mtl-4","host":"mtl-1.ca.uncletopia.com","port":27045,"enabled":true,"region":"us-east","cc":"ca","latitude":45.50889,"longitude":-73.56167,"reserved":0,"last_update":"0001-01-01T00:00:00Z","name_a2s":"Uncletopia | Montr√©al | 4 | No Payload","protocol":17,"map":"cp_5gorge","folder":"tf","game":"Team Fortress","app_id":440,"player_count":0,"max_players":24,"Bots":0,"server_type":"Dedicated","server_os":"Linux","password":true,"vac":true,"version":"7961495","steam_id":85568392924500090,"keywords":["cp","nocrits","nodmgspread","uncletopia"],"game_id":440,"stv_port":27046,"stv_name":"Uncletopia | Montr√©al | 4 | No Payload | STV","players":null},{"server_id":13,"name":"Uncletopia | New York City | 1 | All Maps","name_short":"nyc-1","host":"nyc-1.us.uncletopia.com","port":27015,"enabled":true,"region":"us-east","cc":"us","latitude":40.73061,"longitude":-73.93524,"reserved":0,"last_update":"0001-01-01T00:00:00Z","name_a2s":"Uncletopia | New York City | 1 | All Maps","protocol":17,"map":"pl_pier","folder":"tf","game":"Team Fortress","app_id":440,"player_count":24,"max_players":24,"Bots":0,"server_type":"Dedicated","server_os":"Linux","password":true,"vac":true,"version":"7961495","steam_id":85568392924469993,"keywords":["nocrits","nodmgspread","payload","uncletopia"],"game_id":440,"stv_port":27016,"stv_name":"Uncletopia | New York City | 1 | All Maps | STV","players":[{"user_id":187,"name":"Meurik","steam_id":76561198078032795,"connected_time":266000000000,"state":"active","ping":151},{"user_id":188,"name":"pest","steam_id":76561198052571208,"connected_time":266000000000,"state":"active","ping":46},{"user_id":131,"name":"CRAZY engineer","steam_id":76561198887937902,"connected_time":4358000000000,"state":"active","ping":50},{"user_id":169,"name":"Toastered","steam_id":76561198178459042,"connected_time":1119000000000,"state":"active","ping":129},{"user_id":167,"name":"Ziath","steam_id":76561198094009164,"connected_time":1217000000000,"state":"active","ping":50},{"user_id":156,"name":"Comrade Chaos","steam_id":76561198216223608,"connected_time":1920000000000,"state":"active","ping":45},{"user_id":170,"name":"badasscoolboy57","steam_id":76561198795412055,"connected_time":1119000000000,"state":"active","ping":63},{"user_id":189,"name":"avantime","steam_id":76561199203175541,"connected_time":219000000000,"state":"active","ping":73},{"user_id":171,"name":"Shapeshiftertrue","steam_id":76561198440835095,"connected_time":1091000000000,"state":"active","ping":80},{"user_id":190,"name":"Bannergaming1005","steam_id":76561199230396922,"connected_time":211000000000,"state":"active","ping":74},{"user_id":186,"name":"A unneeded medic(F2p)","steam_id":76561199388826335,"connected_time":400000000000,"state":"active","ping":62},{"user_id":191,"name":"Hank the Tank","steam_id":76561198424853684,"connected_time":200000000000,"state":"active","ping":63},{"user_id":146,"name":"Wiener Hole Paper Cut","steam_id":76561198000808203,"connected_time":3193000000000,"state":"active","ping":67},{"user_id":159,"name":"fanta thor","steam_id":76561199000379983,"connected_time":1736000000000,"state":"active","ping":74},{"user_id":192,"name":"ball destroyer (official)","steam_id":76561198349892286,"connected_time":190000000000,"state":"active","ping":103},{"user_id":182,"name":"DefaultKoala","steam_id":76561198059141147,"connected_time":650000000000,"state":"active","ping":93},{"user_id":174,"name":"gIBBY","steam_id":76561198080099598,"connected_time":1033000000000,"state":"active","ping":32},{"user_id":160,"name":"joe","steam_id":76561199389283507,"connected_time":1686000000000,"state":"active","ping":83},{"user_id":148,"name":"Lifial","steam_id":76561198271885819,"connected_time":2938000000000,"state":"active","ping":57},{"user_id":180,"name":"scout in open gif","steam_id":76561198413930183,"connected_time":937000000000,"state":"active","ping":45},{"user_id":162,"name":"Spiral Mountain","steam_id":76561198058683715,"connected_time":1389000000000,"state":"active","ping":71},{"user_id":177,"name":"Sicko Mode (Chris Pratt Cover)","steam_id":76561198315786174,"connected_time":982000000000,"state":"active","ping":64},{"user_id":178,"name":"boe jiden","steam_id":76561198041048289,"connected_time":968000000000,"state":"active","ping":44},{"user_id":185,"name":"Thedarkdot","steam_id":76561199200787877,"connected_time":430000000000,"state":"active","ping":56}]},{"server_id":14,"name":"Uncletopia | New York City | 2 | All Maps","name_short":"nyc-2","host":"nyc-1.us.uncletopia.com","port":27025,"enabled":true,"region":"us-east","cc":"us","latitude":40.73061,"longitude":-73.93524,"reserved":0,"last_update":"0001-01-01T00:00:00Z","name_a2s":"Uncletopia | New York City | 2 | All Maps","protocol":17,"map":"cp_altitude","folder":"tf","game":"Team Fortress","app_id":440,"player_count":24,"max_players":24,"Bots":0,"server_type":"Dedicated","server_os":"Linux","password":true,"vac":true,"version":"7961495","steam_id":85568392924469994,"keywords":["cp","nocrits","nodmgspread","uncletopia"],"game_id":440,"stv_port":27026,"stv_name":"Uncletopia | New York City | 2 | All Maps | STV","players":[{"user_id":443,"name":"okar","steam_id":76561198916847884,"connected_time":372000000000,"state":"active","ping":49},{"user_id":416,"name":"daemon","steam_id":76561198001541433,"connected_time":1786000000000,"state":"active","ping":64},{"user_id":404,"name":"Fish","steam_id":76561199258053772,"connected_time":2973000000000,"state":"active","ping":71},{"user_id":444,"name":"Mr.Deer","steam_id":76561198967106276,"connected_time":198000000000,"state":"active","ping":95},{"user_id":418,"name":"eugene hinkleton","steam_id":76561199083451324,"connected_time":1781000000000,"state":"active","ping":53},{"user_id":445,"name":"J21","steam_id":76561198066590783,"connected_time":148000000000,"state":"active","ping":63},{"user_id":435,"name":"Admiral Firehead","steam_id":76561198001978384,"connected_time":673000000000,"state":"active","ping":69},{"user_id":428,"name":"--_Cook_--","steam_id":76561198080855748,"connected_time":1427000000000,"state":"active","ping":50},{"user_id":361,"name":"wearing my sunday pants","steam_id":76561198834106533,"connected_time":5332000000000,"state":"active","ping":68},{"user_id":446,"name":"UserGavin","steam_id":76561199122031388,"connected_time":145000000000,"state":"active","ping":68},{"user_id":434,"name":"orange porridge","steam_id":76561198044102244,"connected_time":770000000000,"state":"active","ping":54},{"user_id":436,"name":"Hi, I'm Jesus","steam_id":76561198015327152,"connected_time":566000000000,"state":"active","ping":49},{"user_id":401,"name":"fazaness","steam_id":76561198851525394,"connected_time":3187000000000,"state":"active","ping":66},{"user_id":380,"name":"Apetometrist","steam_id":76561198045391635,"connected_time":4853000000000,"state":"active","ping":71},{"user_id":433,"name":"baconandx","steam_id":76561198355074004,"connected_time":959000000000,"state":"active","ping":64},{"user_id":430,"name":"The Incredible Fem Boy","steam_id":76561198355754259,"connected_time":1340000000000,"state":"active","ping":69},{"user_id":447,"name":"Yongle","steam_id":76561198068591156,"connected_time":128000000000,"state":"active","ping":62},{"user_id":431,"name":"‚àáTEARS","steam_id":76561198740347952,"connected_time":1337000000000,"state":"active","ping":57},{"user_id":396,"name":"Mr_Frosty","steam_id":76561199380389079,"connected_time":3909000000000,"state":"active","ping":70},{"user_id":438,"name":"saurhead","steam_id":76561198132937722,"connected_time":528000000000,"state":"active","ping":46},{"user_id":439,"name":"TeatsMcghee #TummyTroubles","steam_id":76561198036483480,"connected_time":511000000000,"state":"active","ping":60},{"user_id":398,"name":"J-Booty Rasengan","steam_id":76561198088854411,"connected_time":3402000000000,"state":"active","ping":60},{"user_id":448,"name":"kubokujo","steam_id":76561198948966952,"connected_time":8000000000,"state":"spawning","ping":71},{"user_id":407,"name":"Jamendithas","steam_id":76561198119537716,"connected_time":2874000000000,"state":"active","ping":64}]},{"server_id":15,"name":"Uncletopia | New York City | 3 | Stopwatch Beta","name_short":"nyc-3","host":"nyc-1.us.uncletopia.com","port":27035,"enabled":true,"region":"us-east","cc":"us","latitude":40.73061,"longitude":-73.93524,"reserved":0,"last_update":"0001-01-01T00:00:00Z","name_a2s":"Uncletopia | New York City | 3 | Stopwatch Beta","protocol":17,"map":"cp_process_final","folder":"tf","game":"Team Fortress","app_id":440,"player_count":0,"max_players":24,"Bots":0,"server_type":"Dedicated","server_os":"Linux","password":true,"vac":true,"version":"7961495","steam_id":85568392924742820,"keywords":["cp","nocrits","nodmgspread","uncletopia"],"game_id":440,"stv_port":27036,"stv_name":"Uncletopia | New York City | 3 | Stopwatch Beta | STV","players":null},{"server_id":16,"name":"Uncletopia | New York City | 4 | Community","name_short":"nyc-4","host":"nyc-1.us.uncletopia.com","port":27045,"enabled":true,"region":"us-east","cc":"us","latitude":40.73061,"longitude":-73.93524,"reserved":0,"last_update":"0001-01-01T00:00:00Z","name_a2s":"Uncletopia | New York City | 4 | Community","protocol":17,"map":"workshop/koth_trenchfoot_b1a.ugc731436616","folder":"tf","game":"Team Fortress","app_id":440,"player_count":0,"max_players":24,"Bots":0,"server_type":"Dedicated","server_os":"Linux","password":true,"vac":true,"version":"7961495","steam_id":85568392924742821,"keywords":["cp","nocrits","nodmgspread","uncletopia"],"game_id":440,"stv_port":27046,"stv_name":"Uncletopia | New York City | 4 | Community | STV","players":null},{"server_id":142,"name":"Uncletopia | S√£o Paulo | 1 | All Maps","name_short":"sao-1","host":"sao-1.br.uncletopia.com","port":27015,"enabled":true,"region":"sa","cc":"br","latitude":-23.533773,"longitude":-46.62529,"reserved":0,"last_update":"0001-01-01T00:00:00Z","name_a2s":"Uncletopia | S√£o Paulo | 1 | All Maps","protocol":17,"map":"koth_highpass","folder":"tf","game":"Team Fortress","app_id":440,"player_count":0,"max_players":24,"Bots":0,"server_type":"Dedicated","server_os":"Linux","password":true,"vac":true,"version":"7961495","steam_id":85568392924469996,"keywords":["cp","nocrits","nodmgspread","uncletopia"],"game_id":440,"stv_port":27016,"stv_name":"Uncletopia | S√£o Paulo | 1 | All Maps | STV","players":null},{"server_id":143,"name":"Uncletopia | S√£o Paulo | 2 | All Maps","name_short":"sao-2","host":"sao-2.br.uncletopia.com","port":27015,"enabled":true,"region":"sa","cc":"br","latitude":-23.533773,"longitude":-46.62529,"reserved":0,"last_update":"0001-01-01T00:00:00Z","name_a2s":"Uncletopia | S√£o Paulo | 2 | All Maps","protocol":17,"map":"cp_sunshine","folder":"tf","game":"Team Fortress","app_id":440,"player_count":0,"max_players":24,"Bots":0,"server_type":"Dedicated","server_os":"Linux","password":true,"vac":true,"version":"7961495","steam_id":85568392924485349,"keywords":["cp","nocrits","nodmgspread","uncletopia"],"game_id":440,"stv_port":27016,"stv_name":"Uncletopia | S√£o Paulo | 2 | All Maps | STV","players":null},{"server_id":7,"name":"Uncletopia | Seattle | 1 | All Maps","name_short":"sea-1","host":"sea-1.us.uncletopia.com","port":27015,"enabled":true,"region":"us-west","cc":"us","latitude":47.608013,"longitude":-122.33517,"reserved":0,"last_update":"0001-01-01T00:00:00Z","name_a2s":"Uncletopia | Seattle | 1 | All Maps","protocol":17,"map":"pl_thundermountain","folder":"tf","game":"Team Fortress","app_id":440,"player_count":24,"max_players":24,"Bots":0,"server_type":"Dedicated","server_os":"Linux","password":true,"vac":true,"version":"7961495","steam_id":85568392924469997,"keywords":["nocrits","nodmgspread","payload","uncletopia"],"game_id":440,"stv_port":27016,"stv_name":"Uncletopia | Seattle | 1 | All Maps | STV","players":[{"user_id":222,"name":"no vc no c","steam_id":76561197989503095,"connected_time":1424000000000,"state":"active","ping":160},{"user_id":207,"name":"secio5","steam_id":76561198189746963,"connected_time":3319000000000,"state":"active","ping":47},{"user_id":205,"name":"Geobeetle","steam_id":76561198207400124,"connected_time":3617000000000,"state":"active","ping":57},{"user_id":227,"name":"mega","steam_id":76561198089520959,"connected_time":1116000000000,"state":"active","ping":94},{"user_id":138,"name":"Yurei","steam_id":76561198088750661,"connected_time":9364000000000,"state":"active","ping":75},{"user_id":203,"name":"It's a Doggydog World","steam_id":76561198018232414,"connected_time":3935000000000,"state":"active","ping":84},{"user_id":209,"name":"A UsedNom","steam_id":76561198402832756,"connected_time":2852000000000,"state":"active","ping":65},{"user_id":197,"name":"TrixieHap","steam_id":76561198728548389,"connected_time":4301000000000,"state":"active","ping":70},{"user_id":228,"name":"Crake","steam_id":76561198001959071,"connected_time":1051000000000,"state":"active","ping":60},{"user_id":234,"name":"ROGUE-PLANET","steam_id":76561198116023052,"connected_time":575000000000,"state":"active","ping":82},{"user_id":232,"name":"Enderlord99","steam_id":76561198158152954,"connected_time":746000000000,"state":"active","ping":60},{"user_id":175,"name":"Yoyo-Wo","steam_id":76561198880520205,"connected_time":6085000000000,"state":"active","ping":100},{"user_id":225,"name":"havarti gaming","steam_id":76561198069895678,"connected_time":1266000000000,"state":"active","ping":68},{"user_id":206,"name":"Skoad","steam_id":76561198104650528,"connected_time":3470000000000,"state":"active","ping":68},{"user_id":181,"name":"Happy TDOV","steam_id":76561198085813708,"connected_time":5746000000000,"state":"active","ping":120},{"user_id":210,"name":"Wheaty","steam_id":76561198003553412,"connected_time":2788000000000,"state":"active","ping":50},{"user_id":233,"name":"SYMBOL_YT","steam_id":76561198848655517,"connected_time":736000000000,"state":"active","ping":60},{"user_id":221,"name":"ATHEIST TIL I REALIZED I AM GOD","steam_id":76561199190800520,"connected_time":1450000000000,"state":"active","ping":43},{"user_id":235,"name":"craftylongsword","steam_id":76561198340102940,"connected_time":255000000000,"state":"active","ping":70},{"user_id":162,"name":"Muralo","steam_id":76561198202160268,"connected_time":7260000000000,"state":"active","ping":43},{"user_id":200,"name":"Radio","steam_id":76561198194821053,"connected_time":4231000000000,"state":"active","ping":59},{"user_id":226,"name":"caca sniffer","steam_id":76561199099914725,"connected_time":1233000000000,"state":"active","ping":57},{"user_id":212,"name":"Mocha Josie","steam_id":76561198066452726,"connected_time":2768000000000,"state":"active","ping":82},{"user_id":217,"name":"Career","steam_id":76561198028542212,"connected_time":2332000000000,"state":"active","ping":135}]},{"server_id":119,"name":"Uncletopia | Seattle | 2 | All Maps","name_short":"sea-2","host":"sea-1.us.uncletopia.com","port":27025,"enabled":true,"region":"us-west","cc":"us","latitude":47.608013,"longitude":-122.33517,"reserved":0,"last_update":"0001-01-01T00:00:00Z","name_a2s":"Uncletopia | Seattle | 2 | All Maps","protocol":17,"map":"koth_highpass","folder":"tf","game":"Team Fortress","app_id":440,"player_count":12,"max_players":24,"Bots":0,"server_type":"Dedicated","server_os":"Linux","password":true,"vac":true,"version":"7961495","steam_id":85568392924469998,"keywords":["cp","nocrits","nodmgspread","uncletopia"],"game_id":440,"stv_port":27026,"stv_name":"Uncletopia | Seattle | 2 | All Maps | STV","players":[{"user_id":22,"name":"spiderland","steam_id":76561198335992132,"connected_time":608000000000,"state":"active","ping":38},{"user_id":23,"name":"thebeast","steam_id":76561198255963049,"connected_time":575000000000,"state":"active","ping":68},{"user_id":14,"name":"keithykeithers","steam_id":76561197995552615,"connected_time":1951000000000,"state":"active","ping":45},{"user_id":24,"name":"donutdagger","steam_id":76561199203048300,"connected_time":429000000000,"state":"active","ping":86},{"user_id":19,"name":"Owl Of Delos","steam_id":76561198437116566,"connected_time":1062000000000,"state":"active","ping":59},{"user_id":33,"name":"The Janitor","steam_id":76561198292180883,"connected_time":49000000000,"state":"spawning","ping":554},{"user_id":26,"name":"big titty goth gf","steam_id":76561198968958854,"connected_time":334000000000,"state":"active","ping":51},{"user_id":27,"name":"Overwished","steam_id":76561199177296063,"connected_time":316000000000,"state":"active","ping":158},{"user_id":28,"name":"Feldspaten","steam_id":76561199122059102,"connected_time":298000000000,"state":"active","ping":71},{"user_id":30,"name":"Immortal8Reaper","steam_id":76561198297661559,"connected_time":190000000000,"state":"active","ping":92},{"user_id":31,"name":"The_Skull","steam_id":76561198121244647,"connected_time":187000000000,"state":"active","ping":127},{"user_id":32,"name":"GRONT","steam_id":76561198040464533,"connected_time":153000000000,"state":"active","ping":114}]},{"server_id":406,"name":"Uncletopia | Seattle | 3 | Stopwatch Beta","name_short":"sea-3","host":"sea-1.us.uncletopia.com","port":27035,"enabled":true,"region":"us-west","cc":"us","latitude":47.608013,"longitude":-122.33517,"reserved":0,"last_update":"0001-01-01T00:00:00Z","name_a2s":"Uncletopia | Seattle | 3 | Stopwatch Beta","protocol":17,"map":"cp_mountainlab","folder":"tf","game":"Team Fortress","app_id":440,"player_count":0,"max_players":24,"Bots":0,"server_type":"Dedicated","server_os":"Linux","password":true,"vac":true,"version":"7961495","steam_id":85568392924515217,"keywords":["cp","nocrits","nodmgspread","uncletopia"],"game_id":440,"stv_port":27036,"stv_name":"Uncletopia | Seattle | 3 | Stopwatch Beta | STV","players":null},{"server_id":17,"name":"Uncletopia | San Francisco | 1 | All Maps","name_short":"sfo-1","host":"sfo-1.us.uncletopia.com","port":27015,"enabled":true,"region":"us-west","cc":"us","latitude":37.77397,"longitude":-122.4313,"reserved":0,"last_update":"0001-01-01T00:00:00Z","name_a2s":"Uncletopia | San Francisco | 1 | All Maps","protocol":17,"map":"pl_frontier_final","folder":"tf","game":"Team Fortress","app_id":440,"player_count":0,"max_players":24,"Bots":0,"server_type":"Dedicated","server_os":"Linux","password":true,"vac":true,"version":"7932396","steam_id":85568392924469999,"keywords":["nocrits","nodmgspread","payload","uncletopia"],"game_id":440,"stv_port":27016,"stv_name":"Uncletopia | San Francisco | 1 | All Maps | STV","players":null},{"server_id":18,"name":"Uncletopia | San Francisco | 2 | All Maps","name_short":"sfo-2","host":"sfo-1.us.uncletopia.com","port":27025,"enabled":true,"region":"us-west","cc":"us","latitude":37.77397,"longitude":-122.4313,"reserved":0,"last_update":"0001-01-01T00:00:00Z","name_a2s":"Uncletopia | San Francisco | 2 | All Maps","protocol":17,"map":"cp_snakewater_final1","folder":"tf","game":"Team Fortress","app_id":440,"player_count":0,"max_players":24,"Bots":0,"server_type":"Dedicated","server_os":"Linux","password":true,"vac":true,"version":"7932396","steam_id":85568392924470000,"keywords":["cp","nocrits","nodmgspread","uncletopia"],"game_id":440,"stv_port":27026,"stv_name":"Uncletopia | San Francisco | 2 | All Maps | STV","players":null},{"server_id":19,"name":"Uncletopia | San Francisco | 3 | Stopwatch Beta","name_short":"sfo-3","host":"sfo-1.us.uncletopia.com","port":27035,"enabled":true,"region":"us-west","cc":"us","latitude":37.77397,"longitude":-122.4313,"reserved":0,"last_update":"0001-01-01T00:00:00Z","name_a2s":"Uncletopia | San Francisco | 3 | Stopwatch Beta","protocol":17,"map":"koth_lakeside_final","folder":"tf","game":"Team Fortress","app_id":440,"player_count":0,"max_players":24,"Bots":0,"server_type":"Dedicated","server_os":"Linux","password":true,"vac":true,"version":"7932396","steam_id":85568392924742824,"keywords":["cp","nocrits","nodmgspread","uncletopia"],"game_id":440,"stv_port":27036,"stv_name":"Uncletopia | San Francisco | 3 | Stopwatch Beta | STV","players":null},{"server_id":20,"name":"Uncletopia | San Francisco | 4 | Community","name_short":"sfo-4","host":"sfo-1.us.uncletopia.com","port":27045,"enabled":true,"region":"us-west","cc":"us","latitude":37.77397,"longitude":-122.4313,"reserved":0,"last_update":"0001-01-01T00:00:00Z","name_a2s":"Uncletopia | San Francisco | 4 | Community","protocol":17,"map":"pl_borneo","folder":"tf","game":"Team Fortress","app_id":440,"player_count":0,"max_players":24,"Bots":0,"server_type":"Dedicated","server_os":"Linux","password":true,"vac":true,"version":"7932396","steam_id":85568392924742826,"keywords":["nocrits","nodmgspread","payload","uncletopia"],"game_id":440,"stv_port":27046,"stv_name":"Uncletopia | San Francisco | 4 | Community | STV","players":null},{"server_id":141,"name":"Uncletopia | Sydney | 1 | All Maps","name_short":"syd-1","host":"syd-1.au.uncletopia.com","port":27015,"enabled":true,"region":"au","cc":"au","latitude":-33.865143,"longitude":151.2099,"reserved":0,"last_update":"0001-01-01T00:00:00Z","name_a2s":"Uncletopia | Sydney | 1 | All Maps","protocol":17,"map":"koth_highpass","folder":"tf","game":"Team Fortress","app_id":440,"player_count":0,"max_players":24,"Bots":0,"server_type":"Dedicated","server_os":"Linux","password":true,"vac":true,"version":"7961495","steam_id":85568392924470001,"keywords":["cp","nocrits","nodmgspread","uncletopia"],"game_id":440,"stv_port":27016,"stv_name":"Uncletopia | Sydney | 1 | All Maps | STV","players":null},{"server_id":123,"name":"Uncletopia | Sydney | 2 | All Maps","name_short":"syd-2","host":"syd-1.au.uncletopia.com","port":27025,"enabled":true,"region":"au","cc":"au","latitude":-33.865143,"longitude":151.2099,"reserved":0,"last_update":"0001-01-01T00:00:00Z","name_a2s":"Uncletopia | Sydney | 2 | All Maps","protocol":17,"map":"koth_viaduct","folder":"tf","game":"Team Fortress","app_id":440,"player_count":0,"max_players":24,"Bots":0,"server_type":"Dedicated","server_os":"Linux","password":true,"vac":true,"version":"7961495","steam_id":85568392924470002,"keywords":["cp","nocrits","nodmgspread","uncletopia"],"game_id":440,"stv_port":27026,"stv_name":"Uncletopia | Sydney | 2 | All Maps | STV","players":null},{"server_id":395,"name":"Uncletopia | Sydney | 3 | All Maps","name_short":"syd-3","host":"syd-1.au.uncletopia.com","port":27035,"enabled":true,"region":"au","cc":"au","latitude":-33.865143,"longitude":151.2099,"reserved":0,"last_update":"0001-01-01T00:00:00Z","name_a2s":"Uncletopia | Sydney | 3 | All Maps","protocol":17,"map":"koth_harvest_final","folder":"tf","game":"Team Fortress","app_id":440,"player_count":0,"max_players":24,"Bots":0,"server_type":"Dedicated","server_os":"Linux","password":true,"vac":true,"version":"7961495","steam_id":85568392925194467,"keywords":["cp","nocrits","nodmgspread","uncletopia"],"game_id":440,"stv_port":27036,"stv_name":"Uncletopia | Sydney | 3 | All Maps | STV","players":null},{"server_id":396,"name":"Uncletopia | Sydney | 4 | All Maps","name_short":"syd-4","host":"syd-1.au.uncletopia.com","port":27045,"enabled":true,"region":"au","cc":"au","latitude":-33.865143,"longitude":151.2099,"reserved":0,"last_update":"0001-01-01T00:00:00Z","name_a2s":"Uncletopia | Sydney | 4 | All Maps","protocol":17,"map":"koth_cascade","folder":"tf","game":"Team Fortress","app_id":440,"player_count":0,"max_players":24,"Bots":0,"server_type":"Dedicated","server_os":"Linux","password":true,"vac":true,"version":"7961495","steam_id":85568392925397958,"keywords":["cp","nocrits","nodmgspread","uncletopia"],"game_id":440,"stv_port":27046,"stv_name":"Uncletopia | Sydney | 4 | All Maps | STV","players":null},{"server_id":58,"name":"Uncletopia | Sydney | 5 | Stopwatch Beta","name_short":"syd-5","host":"syd-1.au.uncletopia.com","port":27055,"enabled":true,"region":"au","cc":"au","latitude":-33.865143,"longitude":151.2099,"reserved":0,"last_update":"0001-01-01T00:00:00Z","name_a2s":"Uncletopia | Sydney | 5 | Stopwatch Beta","protocol":17,"map":"koth_viaduct","folder":"tf","game":"Team Fortress","app_id":440,"player_count":0,"max_players":24,"Bots":0,"server_type":"Dedicated","server_os":"Linux","password":true,"vac":true,"version":"7961495","steam_id":85568392925397959,"keywords":["cp","nocrits","nodmgspread","uncletopia"],"game_id":440,"stv_port":27056,"stv_name":"Uncletopia | Sydney | 5 | Stopwatch Beta | STV","players":null},{"server_id":59,"name":"Uncletopia | Sydney | 6 | Community","name_short":"syd-6","host":"syd-1.au.uncletopia.com","port":27065,"enabled":true,"region":"au","cc":"au","latitude":-33.865143,"longitude":151.2099,"reserved":0,"last_update":"0001-01-01T00:00:00Z","name_a2s":"Uncletopia | Sydney | 6 | Community","protocol":17,"map":"pl_barnblitz","folder":"tf","game":"Team Fortress","app_id":440,"player_count":0,"max_players":24,"Bots":0,"server_type":"Dedicated","server_os":"Linux","password":true,"vac":true,"version":"7961495","steam_id":85568392925397960,"keywords":["nocrits","nodmgspread","payload","uncletopia"],"game_id":440,"stv_port":27066,"stv_name":"Uncletopia | Sydney | 6 | Community | STV","players":null},{"server_id":49,"name":"Uncletopia | Warsaw | 1 | All Maps","name_short":"waw-1","host":"waw-1.pl.uncletopia.com","port":27015,"enabled":true,"region":"eu","cc":"pl","latitude":52.2297,"longitude":21.017532,"reserved":0,"last_update":"0001-01-01T00:00:00Z","name_a2s":"","protocol":0,"map":"","folder":"","game":"","app_id":0,"player_count":0,"max_players":0,"Bots":0,"server_type":"","server_os":"","password":false,"vac":false,"version":"","steam_id":0,"keywords":null,"game_id":0,"stv_port":0,"stv_name":"","players":null},{"server_id":50,"name":"Uncletopia | Warsaw | 2 | All Maps","name_short":"waw-2","host":"waw-1.pl.uncletopia.com","port":27025,"enabled":true,"region":"eu","cc":"pl","latitude":52.2297,"longitude":21.017532,"reserved":0,"last_update":"0001-01-01T00:00:00Z","name_a2s":"Uncletopia | Warsaw | 2 | All Maps","protocol":17,"map":"koth_lakeside_final","folder":"tf","game":"Team Fortress","app_id":440,"player_count":0,"max_players":24,"Bots":0,"server_type":"Dedicated","server_os":"Linux","password":true,"vac":true,"version":"7961495","steam_id":85568392925397851,"keywords":["cp","nocrits","nodmgspread","uncletopia"],"game_id":440,"stv_port":27026,"stv_name":"Uncletopia | Warsaw | 2 | All Maps | STV","players":null},{"server_id":51,"name":"Uncletopia | Warsaw | 3 | All Maps","name_short":"waw-3","host":"waw-1.pl.uncletopia.com","port":27035,"enabled":true,"region":"eu","cc":"pl","latitude":52.2297,"longitude":21.017532,"reserved":0,"last_update":"0001-01-01T00:00:00Z","name_a2s":"Uncletopia | Warsaw | 3 | All Maps","protocol":17,"map":"koth_lakeside_final","folder":"tf","game":"Team Fortress","app_id":440,"player_count":2,"max_players":24,"Bots":0,"server_type":"Dedicated","server_os":"Linux","password":true,"vac":true,"version":"7961495","steam_id":85568392925397852,"keywords":["cp","nocrits","nodmgspread","uncletopia"],"game_id":440,"stv_port":27036,"stv_name":"Uncletopia | Warsaw | 3 | All Maps | STV","players":[{"user_id":37,"name":"Kjat","steam_id":76561198839433592,"connected_time":2488000000000,"state":"active","ping":62},{"user_id":39,"name":"lolman","steam_id":76561199443152879,"connected_time":911000000000,"state":"active","ping":191}]},{"server_id":52,"name":"Uncletopia | Warsaw | 4 | All Maps","name_short":"waw-4","host":"waw-1.pl.uncletopia.com","port":27045,"enabled":true,"region":"eu","cc":"pl","latitude":52.2297,"longitude":21.017532,"reserved":0,"last_update":"0001-01-01T00:00:00Z","name_a2s":"Uncletopia | Warsaw | 4 | All Maps","protocol":17,"map":"koth_cascade","folder":"tf","game":"Team Fortress","app_id":440,"player_count":0,"max_players":24,"Bots":0,"server_type":"Dedicated","server_os":"Linux","password":true,"vac":true,"version":"7961495","steam_id":85568392925397853,"keywords":["cp","nocrits","nodmgspread","uncletopia"],"game_id":440,"stv_port":27046,"stv_name":"Uncletopia | Warsaw | 4 | All Maps | STV","players":null},{"server_id":53,"name":"Uncletopia | Warsaw | 5 | Stopwatch Beta","name_short":"waw-5","host":"waw-1.pl.uncletopia.com","port":27055,"enabled":true,"region":"eu","cc":"pl","latitude":52.2297,"longitude":21.017532,"reserved":0,"last_update":"0001-01-01T00:00:00Z","name_a2s":"Uncletopia | Warsaw | 5 | Stopwatch Beta","protocol":17,"map":"workshop/pl_summercoast_rc8e.ugc1761528829","folder":"tf","game":"Team Fortress","app_id":440,"player_count":0,"max_players":24,"Bots":0,"server_type":"Dedicated","server_os":"Linux","password":true,"vac":true,"version":"7961495","steam_id":85568392925397854,"keywords":["nocrits","nodmgspread","payload","uncletopia"],"game_id":440,"stv_port":27056,"stv_name":"Uncletopia | Warsaw | 5 | Stopwatch Beta | STV","players":null},{"server_id":54,"name":"Uncletopia | Warsaw | 6 | Community","name_short":"waw-6","host":"waw-1.pl.uncletopia.com","port":27065,"enabled":true,"region":"eu","cc":"pl","latitude":52.2297,"longitude":21.017532,"reserved":0,"last_update":"0001-01-01T00:00:00Z","name_a2s":"Uncletopia | Warsaw | 6 | Community","protocol":17,"map":"workshop/cp_reckoner_rc6.ugc674719999","folder":"tf","game":"Team Fortress","app_id":440,"player_count":0,"max_players":24,"Bots":0,"server_type":"Dedicated","server_os":"Linux","password":true,"vac":true,"version":"7961495","steam_id":85568392925397856,"keywords":["cp","nocrits","nodmgspread","uncletopia"],"game_id":440,"stv_port":27066,"stv_name":"Uncletopia | Warsaw | 6 | Community | STV","players":null}]}