{"status":true,"message":"","result":[{"server_id":9,"name":"Uncletopia | Atlanta | 1 | All Maps","name_short":"atl-1","host":"atl-1.us.uncletopia.com","port":27015,"enabled":true,"region":"us-east","cc":"us","latitude":33.753746,"longitude":-84.38633,"reserved":0,"last_update":"0001-01-01T00:00:00Z","name_a2s":"Uncletopia | Atlanta | 1 | All Maps","protocol":17,"map":"pl_barnblitz","folder":"tf","game":"Team Fortress","app_id":440,"player_count":24,"max_players":24,"Bots":0,"server_type":"Dedicated","server_os":"Linux","password":true,"vac":true,"version":"7882260","steam_id":85568392924469982,"keywords":["nocrits","nodmgspread","payload","uncletopia"],"game_id":440,"stv_port":27016,"stv_name":"Uncletopia | Atlanta | 1 | All Maps | STV","players":[{"user_id":340,"name":"buzz","steam_id":76561198107899101,"connected_time":1346000000000,"state":"active","ping":72},{"user_id":299,"name":"DragonFalcon™","steam_id":76561198044559930,"connected_time":4318000000000,"state":"active","ping":64},{"user_id":358,"name":"ATLS 1 | Krissy","steam_id":76561197960848174,"connected_time":237000000000,"state":"active","ping":58},{"user_id":341,"name":"Broken Cereal√","steam_id":76561198087489795,"connected_time":1302000000000,"state":"active","ping":61},{"user_id":284,"name":"Flint","steam_id":76561198066547582,"connected_time":5124000000000,"state":"active","ping":108},{"user_id":296,"name":"stampdawg","steam_id":76561198050500060,"connected_time":4591000000000,"state":"active","ping":88},{"user_id":332,"name":"MayaBon","steam_id":76561198797968261,"connected_time":1806000000000,"state":"active","ping":111},{"user_id":209,"name":"Elflocky","steam_id":76561199096852639,"connected_time":13295000000000,"state":"active","ping":70},{"user_id":289,"name":"Eins","steam_id":76561199030343810,"connected_time":5098000000000,"state":"active","ping":42},{"user_id":349,"name":"Ben","steam_id":76561198129254533,"connected_time":714000000000,"state":"active","ping":80},{"user_id":331,"name":"mayhem","steam_id":76561199246637881,"connected_time":1818000000000,"state":"active","ping":57},{"user_id":352,"name":"Jabroni Kris","steam_id":76561198048736247,"connected_time":606000000000,"state":"active","ping":128},{"user_id":323,"name":"Skinny Pete","steam_id":76561198801608576,"connected_time":2360000000000,"state":"active","ping":68},{"user_id":336,"name":"JustJeffIguess","steam_id":76561199474207659,"connected_time":1754000000000,"state":"active","ping":73},{"user_id":348,"name":"[chef] iron","steam_id":76561197970888616,"connected_time":869000000000,"state":"active","ping":69},{"user_id":330,"name":"Zack","steam_id":76561198308083836,"connected_time":1860000000000,"state":"active","ping":66},{"user_id":333,"name":"[ATL1] Lavender They/Them","steam_id":76561198825997674,"connected_time":1805000000000,"state":"active","ping":57},{"user_id":353,"name":"Dr. Pleasant","steam_id":76561198111945101,"connected_time":585000000000,"state":"active","ping":102},{"user_id":338,"name":"crouton","steam_id":76561198828709358,"connected_time":1482000000000,"state":"active","ping":56},{"user_id":355,"name":"Epifiny","steam_id":76561198027958086,"connected_time":393000000000,"state":"active","ping":87},{"user_id":259,"name":"G_Bob","steam_id":76561198098133233,"connected_time":7192000000000,"state":"active","ping":56},{"user_id":337,"name":"eish","steam_id":76561198089463603,"connected_time":1711000000000,"state":"active","ping":121},{"user_id":354,"name":"vordhosbn","steam_id":76561198148132163,"connected_time":528000000000,"state":"active","ping":85},{"user_id":359,"name":"DiGiorno's Pizza","steam_id":76561198142244035,"connected_time":190000000000,"state":"active","ping":73}]},{"server_id":104,"name":"Uncletopia | Atlanta | 2 | All Maps","name_short":"atl-2","host":"atl-1.us.uncletopia.com","port":27025,"enabled":true,"region":"us-east","cc":"us","latitude":33.753746,"longitude":-84.38633,"reserved":0,"last_update":"0001-01-01T00:00:00Z","name_a2s":"Uncletopia | Atlanta | 2 | All Maps","protocol":17,"map":"cp_steel","folder":"tf","game":"Team Fortress","app_id":440,"player_count":24,"max_players":24,"Bots":0,"server_type":"Dedicated","server_os":"Linux","password":true,"vac":true,"version":"7882260","steam_id":85568392924469983,"keywords":["cp","nocrits","nodmgspread","uncletopia"],"game_id":440,"stv_port":27026,"stv_name":"Uncletopia | Atlanta | 2 | All Maps | STV","players":[{"user_id":165,"name":"pel","steam_id":76561198021224745,"connected_time":2513000000000,"state":"active","ping":56},{"user_id":203,"name":"crab","steam_id":76561198121631424,"connected_time":373000000000,"state":"active","ping":67},{"user_id":198,"name":"SuperViolence","steam_id":76561198973670368,"connected_time":649000000000,"state":"active","ping":105},{"user_id":189,"name":"Aerobro","steam_id":76561198033530996,"connected_time":925000000000,"state":"active","ping":88},{"user_id":202,"name":"Lapis","steam_id":76561199058289949,"connected_time":482000000000,"state":"active","ping":63},{"user_id":161,"name":"Chhaam","steam_id":76561198058508132,"connected_time":2928000000000,"state":"active","ping":54},{"user_id":146,"name":".-.","steam_id":76561198820617005,"connected_time":3646000000000,"state":"active","ping":96},{"user_id":185,"name":"TURTLEPOOL21","steam_id":76561198278212264,"connected_time":1612000000000,"state":"active","ping":45},{"user_id":211,"name":"Xiphor","steam_id":76561199236537212,"connected_time":43000000000,"state":"active","ping":57},{"user_id":188,"name":"Mr. Cool","steam_id":76561198286473342,"connected_time":934000000000,"state":"active","ping":70},{"user_id":208,"name":"BreadBank87","steam_id":76561199082498273,"connected_time":111000000000,"state":"active","ping":98},{"user_id":182,"name":"ilady","steam_id":76561198139802458,"connected_time":1814000000000,"state":"active","ping":82},{"user_id":183,"name":"mel0n","steam_id":76561198034817244,"connected_time":1755000000000,"state":"active","ping":60},{"user_id":193,"name":"Constellar Nova","steam_id":76561198868215392,"connected_time":828000000000,"state":"active","ping":72},{"user_id":96,"name":"Elena Manetta","steam_id":76561197998344054,"connected_time":8452000000000,"state":"active","ping":57},{"user_id":93,"name":"lemon","steam_id":76561198329179651,"connected_time":8611000000000,"state":"active","ping":95},{"user_id":113,"name":"Cat","steam_id":76561198191887141,"connected_time":7142000000000,"state":"active","ping":89},{"user_id":83,"name":"minty","steam_id":76561198096347625,"connected_time":8988000000000,"state":"active","ping":58},{"user_id":206,"name":"{FITH}™ SmittyWun {FM}","steam_id":76561198079531938,"connected_time":249000000000,"state":"active","ping":67},{"user_id":172,"name":"Poo","steam_id":76561198265144507,"connected_time":2377000000000,"state":"active","ping":81},{"user_id":209,"name":"Chaotic Rushu","steam_id":76561198170054407,"connected_time":103000000000,"state":"active","ping":72},{"user_id":200,"name":"BingoDingo","steam_id":76561198068692880,"connected_time":599000000000,"state":"active","ping":56},{"user_id":205,"name":"tulpa","steam_id":76561198013253513,"connected_time":306000000000,"state":"active","ping":56},{"user_id":210,"name":"OHGODBEES!","steam_id":76561198000653374,"connected_time":77000000000,"state":"active","ping":145}]},{"server_id":400,"name":"Uncletopia | Atlanta | 3 | Community","name_short":"atl-3","host":"atl-1.us.uncletopia.com","port":27035,"enabled":true,"region":"us-east","cc":"us","latitude":33.753746,"longitude":-84.38633,"reserved":0,"last_update":"0001-01-01T00:00:00Z","name_a2s":"Uncletopia | Atlanta | 3 | Community","protocol":17,"map":"workshop/koth_slaughter_rc1.ugc1712845210","folder":"tf","game":"Team Fortress","app_id":440,"player_count":23,"max_players":24,"Bots":0,"server_type":"Dedicated","server_os":"Linux","password":true,"vac":true,"version":"7882260","steam_id":85568392924515187,"keywords":["cp","nocrits","nodmgspread","uncletopia"],"game_id":440,"stv_port":27036,"stv_name":"Uncletopia | Atlanta | 3 | Community | STV","players":[{"user_id":119,"name":"sassy loli","steam_id":76561198402316065,"connected_time":4228000000000,"state":"active","ping":91},{"user_id":203,"name":"Zillers","steam_id":76561198095248744,"connected_time":24000000000,"state":"spawning","ping":381},{"user_id":190,"name":"ted twenty-two ( Triple T )","steam_id":76561198121316868,"connected_time":506000000000,"state":"active","ping":74},{"user_id":151,"name":"Heavy Boss Fight","steam_id":76561198447513500,"connected_time":2471000000000,"state":"active","ping":74},{"user_id":152,"name":"craven","steam_id":76561198088191503,"connected_time":2428000000000,"state":"active","ping":62},{"user_id":153,"name":"Bill from L4D","steam_id":76561198821762699,"connected_time":2177000000000,"state":"active","ping":113},{"user_id":155,"name":"Remember the Canterbury","steam_id":76561198123334471,"connected_time":2120000000000,"state":"active","ping":119},{"user_id":191,"name":"Morderock","steam_id":76561198271137325,"connected_time":500000000000,"state":"active","ping":121},{"user_id":192,"name":"Baker","steam_id":76561198055196430,"connected_time":472000000000,"state":"active","ping":83},{"user_id":158,"name":"Fashion","steam_id":76561198056788026,"connected_time":2036000000000,"state":"active","ping":53},{"user_id":128,"name":"Samrizo el Chorizo","steam_id":76561198009838162,"connected_time":3677000000000,"state":"active","ping":72},{"user_id":159,"name":"Draven","steam_id":76561198074776388,"connected_time":2013000000000,"state":"active","ping":73},{"user_id":187,"name":"Phocae (She/Her)","steam_id":76561199317584594,"connected_time":890000000000,"state":"active","ping":73},{"user_id":199,"name":"emesis blue gave me nightmares","steam_id":76561198133834262,"connected_time":247000000000,"state":"active","ping":75},{"user_id":173,"name":"xLeoparrd","steam_id":76561198940657194,"connected_time":1728000000000,"state":"active","ping":72},{"user_id":193,"name":"ICoomConcrete","steam_id":76561198046401833,"connected_time":437000000000,"state":"active","ping":116},{"user_id":185,"name":"TheChickenChuck","steam_id":76561199192686708,"connected_time":1028000000000,"state":"active","ping":123},{"user_id":198,"name":"Trash Rummager","steam_id":76561198085388962,"connected_time":379000000000,"state":"active","ping":75},{"user_id":168,"name":"Toast","steam_id":76561199243331140,"connected_time":1882000000000,"state":"active","ping":70},{"user_id":189,"name":"harris","steam_id":76561198381983721,"connected_time":722000000000,"state":"active","ping":60},{"user_id":197,"name":"joris bohnson","steam_id":76561198424954118,"connected_time":387000000000,"state":"active","ping":75},{"user_id":202,"name":"troll","steam_id":76561198040890252,"connected_time":146000000000,"state":"active","ping":46},{"user_id":180,"name":"Mehman","steam_id":76561199020244051,"connected_time":1342000000000,"state":"active","ping":89}]},{"server_id":401,"name":"Uncletopia | Atlanta | 4 | No Payload","name_short":"atl-4","host":"atl-1.us.uncletopia.com","port":27045,"enabled":true,"region":"us-east","cc":"us","latitude":33.753746,"longitude":-84.38633,"reserved":0,"last_update":"0001-01-01T00:00:00Z","name_a2s":"","protocol":0,"map":"","folder":"","game":"","app_id":0,"player_count":0,"max_players":0,"Bots":0,"server_type":"","server_os":"","password":false,"vac":false,"version":"","steam_id":0,"keywords":null,"game_id":0,"stv_port":0,"stv_name":"","players":null},{"server_id":2,"name":"Uncletopia | Chicago | 1 | All Maps","name_short":"chi-1","host":"chi-1.us.uncletopia.com","port":27015,"enabled":true,"region":"us-central","cc":"us","latitude":41.881832,"longitude":-87.62318,"reserved":0,"last_update":"0001-01-01T00:00:00Z","name_a2s":"Uncletopia | Chicago | 1 | All Maps","protocol":17,"map":"pl_snowycoast","folder":"tf","game":"Team Fortress","app_id":440,"player_count":24,"max_players":24,"Bots":0,"server_type":"Dedicated","server_os":"Linux","password":true,"vac":true,"version":"7882260","steam_id":85568392924469984,"keywords":["nocrits","nodmgspread","payload","uncletopia"],"game_id":440,"stv_port":27016,"stv_name":"Uncletopia | Chicago | 1 | All Maps | STV","players":[{"user_id":477,"name":"Mookie Burns","steam_id":76561199202153909,"connected_time":724000000000,"state":"active","ping":87},{"user_id":480,"name":"Tri-Dot","steam_id":76561199075186597,"connected_time":653000000000,"state":"active","ping":64},{"user_id":457,"name":"eat Pant","steam_id":76561197974965536,"connected_time":2033000000000,"state":"active","ping":62},{"user_id":490,"name":"Quietsharp","steam_id":76561198277968438,"connected_time":283000000000,"state":"active","ping":105},{"user_id":489,"name":"Hoop","steam_id":76561199124865843,"connected_time":325000000000,"state":"active","ping":61},{"user_id":486,"name":"Adreeh","steam_id":76561198158492390,"connected_time":475000000000,"state":"active","ping":85},{"user_id":487,"name":"Sir Cumcision IV","steam_id":76561199200827595,"connected_time":470000000000,"state":"active","ping":105},{"user_id":488,"name":"NovaScotianDuckRetriever","steam_id":76561198061867269,"connected_time":445000000000,"state":"active","ping":88},{"user_id":470,"name":"Jak(i)","steam_id":76561198076823144,"connected_time":1304000000000,"state":"active","ping":86},{"user_id":484,"name":"sono","steam_id":76561198187678698,"connected_time":535000000000,"state":"active","ping":52},{"user_id":471,"name":"Konyuna","steam_id":76561198067951988,"connected_time":1303000000000,"state":"active","ping":52},{"user_id":428,"name":"Your Local Queer Librarian","steam_id":76561198013077080,"connected_time":4252000000000,"state":"active","ping":60},{"user_id":485,"name":"Cool Ghost","steam_id":76561198440103807,"connected_time":507000000000,"state":"active","ping":114},{"user_id":472,"name":"Clean Lines","steam_id":76561197960691518,"connected_time":1254000000000,"state":"active","ping":58},{"user_id":459,"name":"aeon","steam_id":76561198068654532,"connected_time":2022000000000,"state":"active","ping":71},{"user_id":444,"name":"stewfat","steam_id":76561198084066964,"connected_time":3644000000000,"state":"active","ping":59},{"user_id":447,"name":"wwhg","steam_id":76561198140658919,"connected_time":3427000000000,"state":"active","ping":77},{"user_id":481,"name":"Boring101","steam_id":76561198300662918,"connected_time":604000000000,"state":"active","ping":75},{"user_id":473,"name":"challen","steam_id":76561197961277967,"connected_time":1184000000000,"state":"active","ping":66},{"user_id":446,"name":"Hank","steam_id":76561198094830509,"connected_time":3569000000000,"state":"active","ping":75},{"user_id":483,"name":"Craig Isonychia","steam_id":76561198272013678,"connected_time":543000000000,"state":"active","ping":76},{"user_id":433,"name":"kermitcreeper(ZAZA)","steam_id":76561199222829972,"connected_time":4138000000000,"state":"active","ping":52},{"user_id":461,"name":"Rec","steam_id":76561198022813906,"connected_time":1919000000000,"state":"active","ping":59},{"user_id":398,"name":"WatchWill","steam_id":76561198157237945,"connected_time":5625000000000,"state":"active","ping":80}]},{"server_id":106,"name":"Uncletopia | Chicago | 2 | All Maps","name_short":"chi-2","host":"chi-1.us.uncletopia.com","port":27025,"enabled":true,"region":"us-central","cc":"us","latitude":41.881832,"longitude":-87.62318,"reserved":0,"last_update":"0001-01-01T00:00:00Z","name_a2s":"Uncletopia | Chicago | 2 | All Maps","protocol":17,"map":"koth_viaduct","folder":"tf","game":"Team Fortress","app_id":440,"player_count":23,"max_players":24,"Bots":0,"server_type":"Dedicated","server_os":"Linux","password":true,"vac":true,"version":"7882260","steam_id":85568392924469985,"keywords":["cp","nocrits","nodmgspread","uncletopia"],"game_id":440,"stv_port":27026,"stv_name":"Uncletopia | Chicago | 2 | All Maps | STV","players":[{"user_id":423,"name":"Gremmy","steam_id":76561198226526104,"connected_time":108000000000,"state":"active","ping":61},{"user_id":424,"name":"mkl","steam_id":76561197986401685,"connected_time":102000000000,"state":"active","ping":74},{"user_id":350,"name":"Thequirka (bad player)","steam_id":76561198968058652,"connected_time":5389000000000,"state":"active","ping":99},{"user_id":410,"name":"Sean Bae","steam_id":76561198036909521,"connected_time":733000000000,"state":"active","ping":84},{"user_id":420,"name":"Aifx #ForFireball","steam_id":76561198398268649,"connected_time":147000000000,"state":"active","ping":75},{"user_id":396,"name":"robot with human hair","steam_id":76561198018691308,"connected_time":1941000000000,"state":"active","ping":76},{"user_id":402,"name":"Spectre","steam_id":76561198025652246,"connected_time":1621000000000,"state":"active","ping":34},{"user_id":422,"name":"uufyfuu","steam_id":76561198142787212,"connected_time":126000000000,"state":"active","ping":75},{"user_id":395,"name":"wwwwww","steam_id":76561198078395002,"connected_time":2026000000000,"state":"active","ping":63},{"user_id":407,"name":"いちごまろ","steam_id":76561198166100997,"connected_time":1442000000000,"state":"active","ping":78},{"user_id":412,"name":"Ace Chromatica","steam_id":76561198042211131,"connected_time":710000000000,"state":"active","ping":51},{"user_id":371,"name":"Medl3y Batel","steam_id":76561198179888142,"connected_time":3846000000000,"state":"active","ping":54},{"user_id":401,"name":"Stupid_Cake","steam_id":76561198079566684,"connected_time":1629000000000,"state":"active","ping":65},{"user_id":411,"name":"codemode","steam_id":76561199058874617,"connected_time":718000000000,"state":"active","ping":84},{"user_id":418,"name":"Zeppy but legal","steam_id":76561199068188042,"connected_time":194000000000,"state":"active","ping":84},{"user_id":295,"name":"Seojer","steam_id":76561198234965408,"connected_time":9959000000000,"state":"active","ping":115},{"user_id":430,"name":"money getting 1 percenter","steam_id":76561198012796388,"connected_time":24000000000,"state":"active","ping":47},{"user_id":414,"name":"WaspBoi123","steam_id":76561199208867417,"connected_time":615000000000,"state":"active","ping":104},{"user_id":416,"name":"deb","steam_id":76561198414336279,"connected_time":456000000000,"state":"active","ping":85},{"user_id":426,"name":"BopGnollEbon","steam_id":76561199013359318,"connected_time":79000000000,"state":"active","ping":61},{"user_id":372,"name":"Cheesi","steam_id":76561199417190840,"connected_time":3813000000000,"state":"active","ping":60},{"user_id":427,"name":"640x480","steam_id":76561198032008701,"connected_time":65000000000,"state":"active","ping":66},{"user_id":419,"name":"jackhillard83","steam_id":76561199057098390,"connected_time":194000000000,"state":"active","ping":89}]},{"server_id":402,"name":"Uncletopia | Chicago | 3 | All Maps","name_short":"chi-3","host":"chi-1.us.uncletopia.com","port":27035,"enabled":true,"region":"us-central","cc":"us","latitude":41.881832,"longitude":-87.62318,"reserved":0,"last_update":"0001-01-01T00:00:00Z","name_a2s":"Uncletopia | Chicago | 3 | All Maps","protocol":17,"map":"pl_upward","folder":"tf","game":"Team Fortress","app_id":440,"player_count":24,"max_players":24,"Bots":0,"server_type":"Dedicated","server_os":"Linux","password":true,"vac":true,"version":"7882260","steam_id":85568392924515191,"keywords":["nocrits","nodmgspread","payload","uncletopia"],"game_id":440,"stv_port":27036,"stv_name":"Uncletopia | Chicago | 3 | All Maps | STV","players":[{"user_id":378,"name":"Protato","steam_id":76561198061182563,"connected_time":587000000000,"state":"active","ping":74},{"user_id":348,"name":"LegendaryMister151","steam_id":76561198064890524,"connected_time":2534000000000,"state":"active","ping":84},{"user_id":379,"name":"Sergeant Joker #savetf2","steam_id":76561198854616604,"connected_time":529000000000,"state":"active","ping":74},{"user_id":298,"name":"shitass (Shrimp Arc)","steam_id":76561198210572481,"connected_time":6177000000000,"state":"active","ping":76},{"user_id":388,"name":"lifted tater","steam_id":76561198404564240,"connected_time":259000000000,"state":"active","ping":63},{"user_id":380,"name":"I am Gamer","steam_id":76561198047845399,"connected_time":511000000000,"state":"active","ping":71},{"user_id":333,"name":"Model of a Modern Major General","steam_id":76561198237304364,"connected_time":3850000000000,"state":"active","ping":103},{"user_id":349,"name":"RiverEgg","steam_id":76561198888913405,"connected_time":2528000000000,"state":"active","ping":55},{"user_id":350,"name":"Mister Rattlebones","steam_id":76561198065560157,"connected_time":2526000000000,"state":"active","ping":57},{"user_id":359,"name":"momomomomo","steam_id":76561199127423378,"connected_time":1764000000000,"state":"active","ping":109},{"user_id":381,"name":"hoodie","steam_id":76561198354284591,"connected_time":503000000000,"state":"active","ping":47},{"user_id":390,"name":"Ghost Lord","steam_id":76561198088956723,"connected_time":52000000000,"state":"active","ping":94},{"user_id":382,"name":"super_coder2","steam_id":76561198884063952,"connected_time":487000000000,"state":"active","ping":58},{"user_id":389,"name":"cokersworld","steam_id":76561198039731344,"connected_time":221000000000,"state":"active","ping":73},{"user_id":373,"name":"SIN K4RMA ringme","steam_id":76561198869287223,"connected_time":954000000000,"state":"active","ping":80},{"user_id":357,"name":"Rafl","steam_id":76561198055222756,"connected_time":1933000000000,"state":"active","ping":71},{"user_id":376,"name":"bladees saddest, realest verse","steam_id":76561198098099826,"connected_time":661000000000,"state":"active","ping":90},{"user_id":383,"name":"-=Bits=-Dinkleberg","steam_id":76561198080367616,"connected_time":484000000000,"state":"active","ping":73},{"user_id":362,"name":"Eros","steam_id":76561198071413833,"connected_time":1724000000000,"state":"active","ping":128},{"user_id":391,"name":"kyle","steam_id":76561198099970097,"connected_time":25000000000,"state":"active","ping":78},{"user_id":363,"name":"whimsical little creature","steam_id":76561198271710504,"connected_time":1707000000000,"state":"active","ping":57},{"user_id":385,"name":"eredyn lft rgb","steam_id":76561198868116439,"connected_time":455000000000,"state":"active","ping":46},{"user_id":368,"name":"Jack Celliers","steam_id":76561198060983357,"connected_time":1554000000000,"state":"active","ping":76},{"user_id":387,"name":"Blasterus","steam_id":76561198859486814,"connected_time":271000000000,"state":"active","ping":72}]},{"server_id":403,"name":"Uncletopia | Chicago | 4 | All Maps","name_short":"chi-4","host":"chi-1.us.uncletopia.com","port":27045,"enabled":true,"region":"us-central","cc":"us","latitude":41.881832,"longitude":-87.62318,"reserved":0,"last_update":"0001-01-01T00:00:00Z","name_a2s":"Uncletopia | Chicago | 4 | All Maps","protocol":17,"map":"pl_upward","folder":"tf","game":"Team Fortress","app_id":440,"player_count":23,"max_players":24,"Bots":0,"server_type":"Dedicated","server_os":"Linux","password":true,"vac":true,"version":"7882260","steam_id":85568392924515193,"keywords":["nocrits","nodmgspread","payload","uncletopia"],"game_id":440,"stv_port":27046,"stv_name":"Uncletopia | Chicago | 4 | All Maps | STV","players":[{"user_id":238,"name":"WhiteRabbit","steam_id":76561198027579538,"connected_time":4055000000000,"state":"active","ping":71},{"user_id":303,"name":"doog","steam_id":76561198136444198,"connected_time":364000000000,"state":"active","ping":68},{"user_id":307,"name":"Drapph","steam_id":76561199384213314,"connected_time":238000000000,"state":"active","ping":64},{"user_id":299,"name":"Adam (Cursed Confetti Creature)","steam_id":76561198317690197,"connected_time":886000000000,"state":"active","ping":45},{"user_id":304,"name":"jer bear","steam_id":76561198025559073,"connected_time":340000000000,"state":"active","ping":86},{"user_id":274,"name":"Shamrock Shake Oct.10.2020 @8pm","steam_id":76561198833313201,"connected_time":1759000000000,"state":"active","ping":137},{"user_id":300,"name":"EnergyBolt30","steam_id":76561198925178957,"connected_time":739000000000,"state":"active","ping":84},{"user_id":253,"name":"Copter_Boy","steam_id":76561198322921312,"connected_time":2913000000000,"state":"active","ping":71},{"user_id":266,"name":"Milluku","steam_id":76561197998408986,"connected_time":1914000000000,"state":"active","ping":78},{"user_id":204,"name":"lanoc","steam_id":76561198055415367,"connected_time":5342000000000,"state":"active","ping":59},{"user_id":309,"name":"Dragonofponies","steam_id":76561199016800803,"connected_time":66000000000,"state":"active","ping":80},{"user_id":301,"name":"AYAYA!!!","steam_id":76561198992102180,"connected_time":505000000000,"state":"active","ping":48},{"user_id":308,"name":"Riddle","steam_id":76561198892207399,"connected_time":188000000000,"state":"active","ping":64},{"user_id":256,"name":"Merchant","steam_id":76561198130468663,"connected_time":2313000000000,"state":"active","ping":61},{"user_id":270,"name":"King Col","steam_id":76561198033384990,"connected_time":1903000000000,"state":"active","ping":66},{"user_id":229,"name":"SlayAChicken","steam_id":76561198093787204,"connected_time":4517000000000,"state":"active","ping":56},{"user_id":267,"name":"nhbiker","steam_id":76561198081277675,"connected_time":1909000000000,"state":"active","ping":57},{"user_id":258,"name":"axalotly-gaming","steam_id":76561199131971501,"connected_time":2182000000000,"state":"active","ping":162},{"user_id":261,"name":"SirJellyRolls","steam_id":76561198119277244,"connected_time":2069000000000,"state":"active","ping":79},{"user_id":305,"name":"Floating Peasant","steam_id":76561198000183671,"connected_time":322000000000,"state":"active","ping":62},{"user_id":271,"name":"Also Known As Assteeth","steam_id":76561198049837377,"connected_time":1898000000000,"state":"active","ping":51},{"user_id":296,"name":"slashr","steam_id":76561198206515428,"connected_time":1225000000000,"state":"active","ping":104},{"user_id":247,"name":"ancestral drone operator","steam_id":76561198042848500,"connected_time":3440000000000,"state":"active","ping":57}]},{"server_id":36,"name":"Uncletopia | Chicago | 5 | All Maps","name_short":"chi-5","host":"chi-2.us.uncletopia.com","port":27015,"enabled":true,"region":"us-central","cc":"us","latitude":41.881832,"longitude":-87.62318,"reserved":0,"last_update":"0001-01-01T00:00:00Z","name_a2s":"Uncletopia | Chicago | 5 | All Maps","protocol":17,"map":"pl_snowycoast","folder":"tf","game":"Team Fortress","app_id":440,"player_count":24,"max_players":24,"Bots":0,"server_type":"Dedicated","server_os":"Linux","password":true,"vac":true,"version":"7882260","steam_id":85568392924866362,"keywords":["nocrits","nodmgspread","payload","uncletopia"],"game_id":440,"stv_port":27016,"stv_name":"Uncletopia | Chicago | 5 | All Maps | STV","players":[{"user_id":183,"name":"tobrehto","steam_id":76561198097544038,"connected_time":173000000000,"state":"active","ping":90},{"user_id":172,"name":"Cedric","steam_id":76561198072090580,"connected_time":691000000000,"state":"active","ping":82},{"user_id":167,"name":"Reed.Dook","steam_id":76561198046625664,"connected_time":891000000000,"state":"active","ping":68},{"user_id":184,"name":"Shylo","steam_id":76561199276858045,"connected_time":143000000000,"state":"active","ping":84},{"user_id":173,"name":"Furrio","steam_id":76561198174104607,"connected_time":676000000000,"state":"active","ping":68},{"user_id":154,"name":"Ghost","steam_id":76561198110914180,"connected_time":1893000000000,"state":"active","ping":175},{"user_id":158,"name":"cold bones","steam_id":76561198059665627,"connected_time":1616000000000,"state":"active","ping":58},{"user_id":124,"name":"J21","steam_id":76561198066590783,"connected_time":3247000000000,"state":"active","ping":68},{"user_id":127,"name":"Pablo Gonzales Over Heaven","steam_id":76561198415988881,"connected_time":3175000000000,"state":"active","ping":112},{"user_id":177,"name":"Slashes","steam_id":76561197968573499,"connected_time":521000000000,"state":"active","ping":58},{"user_id":171,"name":"derdds","steam_id":76561198034339940,"connected_time":760000000000,"state":"active","ping":59},{"user_id":178,"name":"terra","steam_id":76561198370466083,"connected_time":501000000000,"state":"active","ping":77},{"user_id":185,"name":"Qrow","steam_id":76561198410238166,"connected_time":135000000000,"state":"active","ping":70},{"user_id":179,"name":"Mellow Marshal","steam_id":76561198828607652,"connected_time":469000000000,"state":"active","ping":61},{"user_id":174,"name":"Quil","steam_id":76561197979972352,"connected_time":673000000000,"state":"active","ping":65},{"user_id":170,"name":"mineblast99","steam_id":76561199065648954,"connected_time":818000000000,"state":"active","ping":75},{"user_id":112,"name":"Beta_Male_Moments","steam_id":76561198060793081,"connected_time":4361000000000,"state":"active","ping":74},{"user_id":135,"name":"ayecodex","steam_id":76561199477598858,"connected_time":2800000000000,"state":"active","ping":62},{"user_id":180,"name":"Godmode","steam_id":76561198076240365,"connected_time":431000000000,"state":"active","ping":61},{"user_id":175,"name":"Bocchi the Cock","steam_id":76561198152455316,"connected_time":633000000000,"state":"active","ping":121},{"user_id":166,"name":"bogus binted","steam_id":76561198203329842,"connected_time":1093000000000,"state":"active","ping":98},{"user_id":186,"name":"Gunslinger Conagher","steam_id":76561198331864258,"connected_time":22000000000,"state":"spawning","ping":45},{"user_id":176,"name":"haxxorman","steam_id":76561199155156400,"connected_time":613000000000,"state":"active","ping":58},{"user_id":165,"name":"HYDRe","steam_id":76561198294341247,"connected_time":1247000000000,"state":"active","ping":86}]},{"server_id":37,"name":"Uncletopia | Chicago | 6 | All Maps","name_short":"chi-6","host":"chi-2.us.uncletopia.com","port":27025,"enabled":true,"region":"us-central","cc":"us","latitude":41.881832,"longitude":-87.62318,"reserved":0,"last_update":"0001-01-01T00:00:00Z","name_a2s":"Uncletopia | Chicago | 6 | All Maps","protocol":17,"map":"plr_hightower","folder":"tf","game":"Team Fortress","app_id":440,"player_count":0,"max_players":24,"Bots":0,"server_type":"Dedicated","server_os":"Linux","password":true,"vac":true,"version":"7882260","steam_id":85568392924866363,"keywords":["nocrits","nodmgspread","payload","uncletopia"],"game_id":440,"stv_port":27026,"stv_name":"Uncletopia | Chicago | 6 | All Maps | STV","players":null},{"server_id":38,"name":"Uncletopia | Chicago | 7 | Stopwatch Beta","name_short":"chi-7","host":"chi-2.us.uncletopia.com","port":27035,"enabled":true,"region":"us-central","cc":"us","latitude":41.881832,"longitude":-87.62318,"reserved":0,"last_update":"0001-01-01T00:00:00Z","name_a2s":"Uncletopia | Chicago | 7 | Stopwatch Beta","protocol":17,"map":"pl_upward","folder":"tf","game":"Team Fortress","app_id":440,"player_count":0,"max_players":24,"Bots":0,"server_type":"Dedicated","server_os":"Linux","password":true,"vac":true,"version":"7882260","steam_id":85568392924866364,"keywords":["nocrits","nodmgspread","payload","uncletopia"],"game_id":440,"stv_port":27036,"stv_name":"Uncletopia | Chicago | 7 | Stopwatch Beta | STV","players":null},{"server_id":39,"name":"Uncletopia | Chicago | 8 | Community","name_short":"chi-8","host":"chi-2.us.uncletopia.com","port":27045,"enabled":true,"region":"us-central","cc":"us","latitude":41.881832,"longitude":-87.62318,"reserved":0,"last_update":"0001-01-01T00:00:00Z","name_a2s":"Uncletopia | Chicago | 8 | Community","protocol":17,"map":"workshop/koth_ramjam_rc1.ugc459778887","folder":"tf","game":"Team Fortress","app_id":440,"player_count":0,"max_players":24,"Bots":0,"server_type":"Dedicated","server_os":"Linux","password":true,"vac":true,"version":"7882260","steam_id":85568392924866365,"keywords":["cp","nocrits","nodmgspread","uncletopia"],"game_id":440,"stv_port":27046,"stv_name":"Uncletopia | Chicago | 8 | Community | STV","players":null},{"server_id":8,"name":"Uncletopia | Dallas | 1 | All Maps","name_short":"dal-1","host":"dal-1.us.uncletopia.com","port":27015,"enabled":true,"region":"us-central","cc":"us","latitude":32.779167,"longitude":-96.80889,"reserved":0,"last_update":"0001-01-01T00:00:00Z","name_a2s":"Uncletopia | Dallas | 1 | All Maps","protocol":17,"map":"cp_5gorge","folder":"tf","game":"Team Fortress","app_id":440,"player_count":24,"max_players":24,"Bots":0,"server_type":"Dedicated","server_os":"Linux","password":true,"vac":true,"version":"7882260","steam_id":85568392924469986,"keywords":["cp","nocrits","nodmgspread","uncletopia"],"game_id":440,"stv_port":27016,"stv_name":"Uncletopia | Dallas | 1 | All Maps | STV","players":[{"user_id":492,"name":"berry nice","steam_id":76561198010173227,"connected_time":419000000000,"state":"active","ping":67},{"user_id":443,"name":"errant","steam_id":76561197961758410,"connected_time":4839000000000,"state":"active","ping":32},{"user_id":472,"name":"Doggo ♡","steam_id":76561198128341795,"connected_time":1301000000000,"state":"active","ping":97},{"user_id":479,"name":"Angry","steam_id":76561198862622760,"connected_time":1041000000000,"state":"active","ping":72},{"user_id":489,"name":"NOT Susie Deltarune (not real)","steam_id":76561199007365488,"connected_time":491000000000,"state":"active","ping":69},{"user_id":480,"name":"jeff_fan","steam_id":76561198086420687,"connected_time":1008000000000,"state":"active","ping":85},{"user_id":495,"name":"Ruskie Business","steam_id":76561198121787673,"connected_time":200000000000,"state":"active","ping":63},{"user_id":490,"name":"Blue⛧Melon","steam_id":76561197970926435,"connected_time":459000000000,"state":"active","ping":90},{"user_id":494,"name":"F_L Vision","steam_id":76561198095923905,"connected_time":227000000000,"state":"active","ping":75},{"user_id":493,"name":"Beer","steam_id":76561199371817235,"connected_time":269000000000,"state":"active","ping":91},{"user_id":464,"name":"who me?","steam_id":76561198381136912,"connected_time":2001000000000,"state":"active","ping":76},{"user_id":470,"name":"Clear Sights","steam_id":76561198006215683,"connected_time":1451000000000,"state":"active","ping":85},{"user_id":496,"name":"ErikG65USA","steam_id":76561199381735619,"connected_time":199000000000,"state":"active","ping":61},{"user_id":488,"name":"Pombley","steam_id":76561198141227263,"connected_time":573000000000,"state":"active","ping":60},{"user_id":471,"name":"Edd","steam_id":76561198095431781,"connected_time":1433000000000,"state":"active","ping":61},{"user_id":441,"name":"nekoknight tf2","steam_id":76561198400058665,"connected_time":5053000000000,"state":"active","ping":87},{"user_id":482,"name":"Yoru","steam_id":76561198119698950,"connected_time":1003000000000,"state":"active","ping":119},{"user_id":468,"name":"José","steam_id":76561199000982454,"connected_time":1677000000000,"state":"active","ping":143},{"user_id":459,"name":"dmdr1969","steam_id":76561198080469611,"connected_time":2589000000000,"state":"active","ping":73},{"user_id":447,"name":"Sneakinsed","steam_id":76561199102075970,"connected_time":3171000000000,"state":"active","ping":96},{"user_id":466,"name":"Carry-on cum critter","steam_id":76561198048476555,"connected_time":1909000000000,"state":"active","ping":73},{"user_id":483,"name":"JohnnyGitGud","steam_id":76561198401455467,"connected_time":1002000000000,"state":"active","ping":98},{"user_id":465,"name":"Pulp Free Fiction","steam_id":76561198095396514,"connected_time":1948000000000,"state":"active","ping":93},{"user_id":475,"name":"terrapieseven","steam_id":76561198072062415,"connected_time":1285000000000,"state":"active","ping":102}]},{"server_id":108,"name":"Uncletopia | Dallas | 2 | All Maps","name_short":"dal-2","host":"dal-1.us.uncletopia.com","port":27025,"enabled":true,"region":"us-central","cc":"us","latitude":32.779167,"longitude":-96.80889,"reserved":0,"last_update":"0001-01-01T00:00:00Z","name_a2s":"Uncletopia | Dallas | 2 | All Maps","protocol":17,"map":"pl_badwater","folder":"tf","game":"Team Fortress","app_id":440,"player_count":24,"max_players":24,"Bots":0,"server_type":"Dedicated","server_os":"Linux","password":true,"vac":true,"version":"7882260","steam_id":85568392924469988,"keywords":["nocrits","nodmgspread","payload","uncletopia"],"game_id":440,"stv_port":27026,"stv_name":"Uncletopia | Dallas | 2 | All Maps | STV","players":[{"user_id":324,"name":"milk master","steam_id":76561198127851014,"connected_time":8181000000000,"state":"active","ping":45},{"user_id":413,"name":"Jack from Jack in The Box","steam_id":76561199083594971,"connected_time":1705000000000,"state":"active","ping":66},{"user_id":436,"name":"Dairy Queen","steam_id":76561198285298576,"connected_time":44000000000,"state":"active","ping":79},{"user_id":414,"name":"Sean","steam_id":76561198011422340,"connected_time":1704000000000,"state":"active","ping":60},{"user_id":424,"name":"John16Mark","steam_id":76561198119445407,"connected_time":598000000000,"state":"active","ping":60},{"user_id":425,"name":"turbo feeder","steam_id":76561198057017027,"connected_time":586000000000,"state":"active","ping":75},{"user_id":400,"name":"TF2C | fac -AA-","steam_id":76561198009818412,"connected_time":2196000000000,"state":"active","ping":61},{"user_id":401,"name":"Middle Management Heavy","steam_id":76561198069735882,"connected_time":2195000000000,"state":"active","ping":75},{"user_id":431,"name":"ark","steam_id":76561198041066271,"connected_time":296000000000,"state":"active","ping":77},{"user_id":399,"name":"King of the Rats?","steam_id":76561199241666347,"connected_time":2216000000000,"state":"active","ping":101},{"user_id":389,"name":"RockMan","steam_id":76561199228684720,"connected_time":2533000000000,"state":"active","ping":48},{"user_id":416,"name":"Dylan Pulido","steam_id":76561198272681544,"connected_time":1417000000000,"state":"active","ping":92},{"user_id":426,"name":"gabaghoulio","steam_id":76561198013650292,"connected_time":581000000000,"state":"active","ping":107},{"user_id":392,"name":"ColbertDolbert?","steam_id":76561198299613842,"connected_time":2320000000000,"state":"active","ping":115},{"user_id":432,"name":"V!CT!M","steam_id":76561198962721502,"connected_time":291000000000,"state":"active","ping":95},{"user_id":408,"name":"god gamer","steam_id":76561198168149434,"connected_time":1954000000000,"state":"active","ping":127},{"user_id":433,"name":"Minlit","steam_id":76561198205832799,"connected_time":281000000000,"state":"active","ping":52},{"user_id":394,"name":"connie kins","steam_id":76561198074701151,"connected_time":2293000000000,"state":"active","ping":78},{"user_id":419,"name":"Cosmic sR","steam_id":76561198081738675,"connected_time":1049000000000,"state":"active","ping":80},{"user_id":395,"name":"Feel The Pressure","steam_id":76561199105386998,"connected_time":2280000000000,"state":"active","ping":51},{"user_id":434,"name":"kry lol","steam_id":76561199414292856,"connected_time":238000000000,"state":"active","ping":68},{"user_id":396,"name":"Keywest","steam_id":76561198266508363,"connected_time":2270000000000,"state":"active","ping":86},{"user_id":423,"name":"cloaker","steam_id":76561199453618642,"connected_time":625000000000,"state":"active","ping":92},{"user_id":430,"name":"BlueStar","steam_id":76561198214317468,"connected_time":342000000000,"state":"active","ping":69}]},{"server_id":5,"name":"Uncletopia | Frankfurt | 1 | All Maps","name_short":"frk-1","host":"frk-1.de.uncletopia.com","port":27015,"enabled":true,"region":"eu","cc":"de","latitude":50.110924,"longitude":8.682127,"reserved":0,"last_update":"0001-01-01T00:00:00Z","name_a2s":"Uncletopia | Frankfurt | 1 | All Maps","protocol":17,"map":"koth_cascade","folder":"tf","game":"Team Fortress","app_id":440,"player_count":0,"max_players":24,"Bots":0,"server_type":"Dedicated","server_os":"Linux","password":true,"vac":true,"version":"7882260","steam_id":85568392924469989,"keywords":["cp","nocrits","nodmgspread","uncletopia"],"game_id":440,"stv_port":27016,"stv_name":"Uncletopia | Frankfurt | 1 | All Maps | STV","players":null},{"server_id":110,"name":"Uncletopia | Frankfurt | 2 | All Maps","name_short":"frk-2","host":"frk-1.de.uncletopia.com","port":27025,"enabled":true,"region":"eu","cc":"de","latitude":50.110924,"longitude":8.682127,"reserved":0,"last_update":"0001-01-01T00:00:00Z","name_a2s":"Uncletopia | Frankfurt | 2 | All Maps","protocol":17,"map":"koth_lakeside_final","folder":"tf","game":"Team Fortress","app_id":440,"player_count":0,"max_players":24,"Bots":0,"server_type":"Dedicated","server_os":"Linux","password":true,"vac":true,"version":"7882260","steam_id":85568392924469990,"keywords":["cp","nocrits","nodmgspread","uncletopia"],"game_id":440,"stv_port":27026,"stv_name":"Uncletopia | Frankfurt | 2 | All Maps | STV","players":null},{"server_id":308,"name":"Uncletopia | Frankfurt | 3 | All Maps","name_short":"frk-3","host":"frk-1.de.uncletopia.com","port":27035,"enabled":true,"region":"eu","cc":"de","latitude":50.110924,"longitude":8.682127,"reserved":0,"last_update":"0001-01-01T00:00:00Z","name_a2s":"Uncletopia | Frankfurt | 3 | All Maps","protocol":17,"map":"cp_sunshine","folder":"tf","game":"Team Fortress","app_id":440,"player_count":22,"max_players":24,"Bots":0,"server_type":"Dedicated","server_os":"Linux","password":true,"vac":true,"version":"7882260","steam_id":85568392924504274,"keywords":["cp","nocrits","nodmgspread","uncletopia"],"game_id":440,"stv_port":27036,"stv_name":"Uncletopia | Frankfurt | 3 | All Maps | STV","players":[{"user_id":357,"name":"vadr","steam_id":76561198334528186,"connected_time":1494000000000,"state":"active","ping":55},{"user_id":376,"name":"zhern1337","steam_id":76561198027033926,"connected_time":15000000000,"state":"active","ping":62},{"user_id":359,"name":"Norbert Hallelujah","steam_id":76561198137876982,"connected_time":1476000000000,"state":"active","ping":60},{"user_id":369,"name":"Dora","steam_id":76561198072207649,"connected_time":843000000000,"state":"active","ping":61},{"user_id":373,"name":"ღᶫᵒᵛᵉᵧₒᵤღ","steam_id":76561199157289189,"connected_time":438000000000,"state":"active","ping":90},{"user_id":367,"name":"lead poisoning","steam_id":76561199095067571,"connected_time":1136000000000,"state":"active","ping":146},{"user_id":328,"name":"slippin jimmy","steam_id":76561198090788590,"connected_time":2869000000000,"state":"active","ping":59},{"user_id":375,"name":"R8N - Obismal","steam_id":76561198007482714,"connected_time":259000000000,"state":"active","ping":75},{"user_id":361,"name":"JujuBalu","steam_id":76561198207253071,"connected_time":1448000000000,"state":"active","ping":42},{"user_id":319,"name":"YAH","steam_id":76561198083249161,"connected_time":4096000000000,"state":"active","ping":52},{"user_id":344,"name":"Shearman360","steam_id":76561198193909685,"connected_time":1877000000000,"state":"active","ping":73},{"user_id":294,"name":"Mitrev","steam_id":76561198157124880,"connected_time":5307000000000,"state":"active","ping":61},{"user_id":353,"name":"StrikerlyEhy","steam_id":76561199217315420,"connected_time":1586000000000,"state":"active","ping":122},{"user_id":340,"name":"Holy f stewie, I am shitting.","steam_id":76561198147173457,"connected_time":2332000000000,"state":"active","ping":66},{"user_id":362,"name":"Providence","steam_id":76561198003920270,"connected_time":1412000000000,"state":"active","ping":85},{"user_id":370,"name":"skatie","steam_id":76561198169487380,"connected_time":751000000000,"state":"active","ping":75},{"user_id":333,"name":"killbind irl","steam_id":76561198180637374,"connected_time":2738000000000,"state":"active","ping":80},{"user_id":334,"name":"knavepunk","steam_id":76561198158631142,"connected_time":2693000000000,"state":"active","ping":59},{"user_id":289,"name":"M2rtRa","steam_id":76561198111036466,"connected_time":5919000000000,"state":"active","ping":62},{"user_id":335,"name":"Ketania","steam_id":76561198253326789,"connected_time":2683000000000,"state":"active","ping":78},{"user_id":368,"name":"Doctor Marijuana","steam_id":76561198288289879,"connected_time":1127000000000,"state":"active","ping":66},{"user_id":372,"name":"Pieczary Cenzura","steam_id":76561199029466196,"connected_time":503000000000,"state":"active","ping":74}]},{"server_id":309,"name":"Uncletopia | Frankfurt | 4 | All Maps","name_short":"frk-4","host":"frk-1.de.uncletopia.com","port":27045,"enabled":true,"region":"eu","cc":"de","latitude":50.110924,"longitude":8.682127,"reserved":0,"last_update":"0001-01-01T00:00:00Z","name_a2s":"Uncletopia | Frankfurt | 4 | All Maps","protocol":17,"map":"pl_swiftwater_final1","folder":"tf","game":"Team Fortress","app_id":440,"player_count":0,"max_players":24,"Bots":0,"server_type":"Dedicated","server_os":"Linux","password":true,"vac":true,"version":"7882260","steam_id":85568392924504275,"keywords":["nocrits","nodmgspread","payload","uncletopia"],"game_id":440,"stv_port":27046,"stv_name":"Uncletopia | Frankfurt | 4 | All Maps | STV","players":null},{"server_id":310,"name":"Uncletopia | Frankfurt | 5 | All Maps","name_short":"frk-5","host":"frk-1.de.uncletopia.com","port":27055,"enabled":true,"region":"eu","cc":"de","latitude":50.110924,"longitude":8.682127,"reserved":0,"last_update":"0001-01-01T00:00:00Z","name_a2s":"Uncletopia | Frankfurt | 5 | All Maps","protocol":17,"map":"pl_pier","folder":"tf","game":"Team Fortress","app_id":440,"player_count":24,"max_players":24,"Bots":0,"server_type":"Dedicated","server_os":"Linux","password":true,"vac":true,"version":"7882260","steam_id":85568392924504277,"keywords":["nocrits","nodmgspread","payload","uncletopia"],"game_id":440,"stv_port":27056,"stv_name":"Uncletopia | Frankfurt | 5 | All Maps | STV","players":[{"user_id":172,"name":"Phalcon","steam_id":76561197987051394,"connected_time":1462000000000,"state":"active","ping":69},{"user_id":173,"name":"DarthMurloc_OW","steam_id":76561198075577711,"connected_time":1441000000000,"state":"active","ping":99},{"user_id":194,"name":"Leozin Gostozin","steam_id":76561198209226665,"connected_time":89000000000,"state":"active","ping":96},{"user_id":148,"name":"Swegbanane","steam_id":76561198344218582,"connected_time":3044000000000,"state":"active","ping":45},{"user_id":181,"name":"Jora Ovosh","steam_id":76561198832305936,"connected_time":1212000000000,"state":"active","ping":64},{"user_id":188,"name":"alrs921","steam_id":76561199180508348,"connected_time":726000000000,"state":"active","ping":190},{"user_id":186,"name":":]","steam_id":76561198271892201,"connected_time":1002000000000,"state":"active","ping":59},{"user_id":146,"name":"Girlboy Theenie","steam_id":76561198029025500,"connected_time":3083000000000,"state":"active","ping":74},{"user_id":187,"name":"zen","steam_id":76561198358006442,"connected_time":918000000000,"state":"active","ping":52},{"user_id":179,"name":"SpaceDonut9","steam_id":76561199013502859,"connected_time":1247000000000,"state":"active","ping":153},{"user_id":77,"name":"sloppy transgirl toppy","steam_id":76561198057092208,"connected_time":7964000000000,"state":"active","ping":57},{"user_id":137,"name":"Portal2Player","steam_id":76561198062870114,"connected_time":3826000000000,"state":"active","ping":178},{"user_id":182,"name":"\u003c3","steam_id":76561199429407130,"connected_time":1188000000000,"state":"active","ping":93},{"user_id":158,"name":"dinorno","steam_id":76561198146276830,"connected_time":2051000000000,"state":"active","ping":75},{"user_id":193,"name":"HentaiEnjoyer","steam_id":76561198148361982,"connected_time":274000000000,"state":"active","ping":54},{"user_id":189,"name":"Coolyo X_X","steam_id":76561198309410266,"connected_time":687000000000,"state":"active","ping":77},{"user_id":153,"name":"froglids","steam_id":76561198045466919,"connected_time":2809000000000,"state":"active","ping":66},{"user_id":183,"name":"jbirdislive","steam_id":76561198013255521,"connected_time":1176000000000,"state":"active","ping":135},{"user_id":171,"name":"Plop_","steam_id":76561198112567921,"connected_time":1492000000000,"state":"active","ping":45},{"user_id":162,"name":"tone'","steam_id":76561198055552635,"connected_time":1837000000000,"state":"active","ping":57},{"user_id":147,"name":"BenteBent","steam_id":76561198297920637,"connected_time":3054000000000,"state":"active","ping":47},{"user_id":156,"name":"Dag!","steam_id":76561198030147941,"connected_time":2400000000000,"state":"active","ping":66},{"user_id":154,"name":"tone","steam_id":76561197975301462,"connected_time":2764000000000,"state":"active","ping":71},{"user_id":170,"name":"hichem","steam_id":76561198056197307,"connected_time":1493000000000,"state":"active","ping":60}]},{"server_id":311,"name":"Uncletopia | Frankfurt | 6 | All Maps","name_short":"frk-6","host":"frk-1.de.uncletopia.com","port":27065,"enabled":true,"region":"eu","cc":"de","latitude":50.110924,"longitude":8.682127,"reserved":0,"last_update":"0001-01-01T00:00:00Z","name_a2s":"Uncletopia | Frankfurt | 6 | All Maps","protocol":17,"map":"pl_snowycoast","folder":"tf","game":"Team Fortress","app_id":440,"player_count":0,"max_players":24,"Bots":0,"server_type":"Dedicated","server_os":"Linux","password":true,"vac":true,"version":"7882260","steam_id":85568392924504278,"keywords":["nocrits","nodmgspread","payload","uncletopia"],"game_id":440,"stv_port":27066,"stv_name":"Uncletopia | Frankfurt | 6 | All Maps | STV","players":null},{"server_id":23,"name":"Uncletopia | Frankfurt | 7 | Stopwatch Beta","name_short":"frk-7","host":"frk-1.de.uncletopia.com","port":27075,"enabled":true,"region":"eu","cc":"de","latitude":50.110924,"longitude":8.682127,"reserved":0,"last_update":"0001-01-01T00:00:00Z","name_a2s":"Uncletopia | Frankfurt | 7 | Stopwatch Beta","protocol":17,"map":"workshop/koth_ashville_final.ugc2130459942","folder":"tf","game":"Team Fortress","app_id":440,"player_count":0,"max_players":24,"Bots":0,"server_type":"Dedicated","server_os":"Linux","password":true,"vac":true,"version":"7882260","steam_id":85568392924742827,"keywords":["cp","nocrits","nodmgspread","uncletopia"],"game_id":440,"stv_port":27076,"stv_name":"Uncletopia | Frankfurt | 7 | Stopwatch Beta | STV","players":null},{"server_id":24,"name":"Uncletopia | Frankfurt | 8 | Community","name_short":"frk-8","host":"frk-1.de.uncletopia.com","port":27085,"enabled":true,"region":"eu","cc":"de","latitude":50.110924,"longitude":8.682127,"reserved":0,"last_update":"0001-01-01T00:00:00Z","name_a2s":"Uncletopia | Frankfurt | 8 | Community","protocol":17,"map":"koth_cascade","folder":"tf","game":"Team Fortress","app_id":440,"player_count":0,"max_players":24,"Bots":0,"server_type":"Dedicated","server_os":"Linux","password":true,"vac":true,"version":"7882260","steam_id":85568392924742828,"keywords":["cp","nocrits","nodmgspread","uncletopia"],"game_id":440,"stv_port":27086,"stv_name":"Uncletopia | Frankfurt | 8 | Community | STV","players":null},{"server_id":202,"name":"Uncletopia | Hong Kong | 1 | All Maps","name_short":"hgk-1","host":"hgk-1.hk.uncletopia.com","port":27015,"enabled":true,"region":"asia","cc":"hk","latitude":22.302711,"longitude":114.177216,"reserved":0,"last_update":"0001-01-01T00:00:00Z","name_a2s":"Uncletopia | Hong Kong | 1 | All Maps","protocol":17,"map":"cp_snakewater_final1","folder":"tf","game":"Team Fortress","app_id":440,"player_count":0,"max_players":24,"Bots":0,"server_type":"Dedicated","server_os":"Linux","password":true,"vac":true,"version":"7882260","steam_id":85568392924494504,"keywords":["cp","nocrits","nodmgspread","uncletopia"],"game_id":440,"stv_port":27016,"stv_name":"Uncletopia | Hong Kong | 1 | All Maps | STV","players":null},{"server_id":1,"name":"Uncletopia | Los Angeles | 1 | All Maps","name_short":"lax-1","host":"lax-1.us.uncletopia.com","port":27015,"enabled":true,"region":"us-west","cc":"us","latitude":33.94279,"longitude":-118.41004,"reserved":0,"last_update":"0001-01-01T00:00:00Z","name_a2s":"Uncletopia | Los Angeles | 1 | All Maps","protocol":17,"map":"pl_swiftwater_final1","folder":"tf","game":"Team Fortress","app_id":440,"player_count":2,"max_players":24,"Bots":0,"server_type":"Dedicated","server_os":"Linux","password":true,"vac":true,"version":"7882260","steam_id":85568392924469991,"keywords":["nocrits","nodmgspread","payload","uncletopia"],"game_id":440,"stv_port":27016,"stv_name":"Uncletopia | Los Angeles | 1 | All Maps | STV","players":[{"user_id":36,"name":"Hoovy #SaveTF2.0","steam_id":76561198970750946,"connected_time":631000000000,"state":"active","ping":84},{"user_id":38,"name":"mrthugpug1732","steam_id":76561198881200768,"connected_time":413000000000,"state":"active","ping":89}]},{"server_id":112,"name":"Uncletopia | Los Angeles | 2 | All Maps","name_short":"lax-2","host":"lax-1.us.uncletopia.com","port":27025,"enabled":true,"region":"us-west","cc":"us","latitude":33.94279,"longitude":-118.41004,"reserved":0,"last_update":"0001-01-01T00:00:00Z","name_a2s":"Uncletopia | Los Angeles | 2 | All Maps","protocol":17,"map":"ctf_2fort","folder":"tf","game":"Team Fortress","app_id":440,"player_count":0,"max_players":24,"Bots":0,"server_type":"Dedicated","server_os":"Linux","password":true,"vac":true,"version":"7882260","steam_id":85568392924469992,"keywords":["ctf","nocrits","nodmgspread","uncletopia"],"game_id":440,"stv_port":27026,"stv_name":"Uncletopia | Los Angeles | 2 | All Maps | STV","players":null},{"server_id":324,"name":"Uncletopia | Los Angeles | 3 | All Maps","name_short":"lax-3","host":"lax-1.us.uncletopia.com","port":27035,"enabled":true,"region":"us-west","cc":"us","latitude":33.94279,"longitude":-118.41004,"reserved":0,"last_update":"0001-01-01T00:00:00Z","name_a2s":"Uncletopia | Los Angeles | 3 | All Maps","protocol":17,"map":"koth_viaduct","folder":"tf","game":"Team Fortress","app_id":440,"player_count":24,"max_players":24,"Bots":0,"server_type":"Dedicated","server_os":"Linux","password":true,"vac":true,"version":"7882260","steam_id":85568392924510198,"keywords":["cp","nocrits","nodmgspread","uncletopia"],"game_id":440,"stv_port":27036,"stv_name":"Uncletopia | Los Angeles | 3 | All Maps | STV","players":[{"user_id":149,"name":"Drakon","steam_id":76561198078210822,"connected_time":3108000000000,"state":"active","ping":62},{"user_id":193,"name":"professional twelve year old","steam_id":76561198858796870,"connected_time":616000000000,"state":"active","ping":61},{"user_id":152,"name":"I pocket eboys *♥‧₊˚","steam_id":76561198048925904,"connected_time":2901000000000,"state":"active","ping":60},{"user_id":169,"name":"jokisilent","steam_id":76561198075458936,"connected_time":1580000000000,"state":"active","ping":74},{"user_id":166,"name":"Nivdy","steam_id":76561198119536246,"connected_time":1942000000000,"state":"active","ping":125},{"user_id":146,"name":"stboncho","steam_id":76561198172275301,"connected_time":3189000000000,"state":"active","ping":65},{"user_id":199,"name":"abdul hab-dic","steam_id":76561198340743816,"connected_time":22000000000,"state":"active","ping":50},{"user_id":197,"name":"DOPEam1ne","steam_id":76561198112204774,"connected_time":403000000000,"state":"active","ping":57},{"user_id":198,"name":"Re:Lie","steam_id":76561198125401588,"connected_time":391000000000,"state":"active","ping":62},{"user_id":195,"name":"Hobbes","steam_id":76561198087956236,"connected_time":475000000000,"state":"active","ping":47},{"user_id":187,"name":"Average 2fort Enjoyer","steam_id":76561199041245415,"connected_time":839000000000,"state":"active","ping":107},{"user_id":196,"name":"fish gaming","steam_id":76561198067029049,"connected_time":469000000000,"state":"active","ping":55},{"user_id":191,"name":"Destroyer1004","steam_id":76561199367685913,"connected_time":704000000000,"state":"active","ping":84},{"user_id":153,"name":"honked off the bobo","steam_id":76561198123287268,"connected_time":2897000000000,"state":"active","ping":98},{"user_id":154,"name":"Password is Taco","steam_id":76561198026092945,"connected_time":2875000000000,"state":"active","ping":95},{"user_id":177,"name":"Lowell","steam_id":76561198001794647,"connected_time":1347000000000,"state":"active","ping":55},{"user_id":168,"name":"stinky dick","steam_id":76561198042734428,"connected_time":1778000000000,"state":"active","ping":102},{"user_id":192,"name":"The Collective","steam_id":76561198170423483,"connected_time":693000000000,"state":"active","ping":107},{"user_id":134,"name":"squash","steam_id":76561198150281353,"connected_time":4247000000000,"state":"active","ping":89},{"user_id":102,"name":"DrunkOnChocolateMilk","steam_id":76561198036540528,"connected_time":6508000000000,"state":"active","ping":81},{"user_id":167,"name":"Moomin","steam_id":76561198072726213,"connected_time":1887000000000,"state":"active","ping":50},{"user_id":93,"name":"SolarusD","steam_id":76561198029279861,"connected_time":6712000000000,"state":"active","ping":60},{"user_id":158,"name":"mewswem","steam_id":76561198118644686,"connected_time":2572000000000,"state":"active","ping":47},{"user_id":190,"name":"Apprentice Pybro","steam_id":76561197996353534,"connected_time":782000000000,"state":"active","ping":48}]},{"server_id":25,"name":"Uncletopia | Los Angeles | 4 | Stopwatch Beta","name_short":"lax-4","host":"lax-1.us.uncletopia.com","port":27045,"enabled":true,"region":"us-west","cc":"us","latitude":33.94279,"longitude":-118.41004,"reserved":0,"last_update":"0001-01-01T00:00:00Z","name_a2s":"Uncletopia | Los Angeles | 4 | Stopwatch Beta","protocol":17,"map":"workshop/koth_ashville_final.ugc2130459942","folder":"tf","game":"Team Fortress","app_id":440,"player_count":0,"max_players":24,"Bots":0,"server_type":"Dedicated","server_os":"Linux","password":true,"vac":true,"version":"7882260","steam_id":85568392924510199,"keywords":["cp","nocrits","nodmgspread","uncletopia"],"game_id":440,"stv_port":27046,"stv_name":"Uncletopia | Los Angeles | 4 | Stopwatch Beta | STV","players":null},{"server_id":11,"name":"Uncletopia | London | 1 | All Maps","name_short":"lon-1","host":"lon-1.uk.uncletopia.com","port":27015,"enabled":true,"region":"eu","cc":"gb","latitude":51.509865,"longitude":-0.118092,"reserved":0,"last_update":"0001-01-01T00:00:00Z","name_a2s":"Uncletopia | London | 1 | All Maps","protocol":17,"map":"pl_frontier_final","folder":"tf","game":"Team Fortress","app_id":440,"player_count":24,"max_players":24,"Bots":0,"server_type":"Dedicated","server_os":"Linux","password":true,"vac":true,"version":"7882260","steam_id":85568392924367362,"keywords":["nocrits","nodmgspread","payload","uncletopia"],"game_id":440,"stv_port":27016,"stv_name":"Uncletopia | London | 1 | All Maps | STV","players":[{"user_id":747,"name":"Charles Darwin","steam_id":76561197973496139,"connected_time":1484000000000,"state":"active","ping":60},{"user_id":754,"name":"Homebound","steam_id":76561198531978435,"connected_time":844000000000,"state":"active","ping":64},{"user_id":749,"name":"Christmas Ham","steam_id":76561198119601623,"connected_time":1064000000000,"state":"active","ping":51},{"user_id":764,"name":"Mr. Frog","steam_id":76561198016568920,"connected_time":344000000000,"state":"active","ping":48},{"user_id":756,"name":"Salesman Doren","steam_id":76561198076098142,"connected_time":803000000000,"state":"active","ping":42},{"user_id":728,"name":"Robbie","steam_id":76561198017504503,"connected_time":2823000000000,"state":"active","ping":49},{"user_id":715,"name":"Aroo","steam_id":76561198132601368,"connected_time":4755000000000,"state":"active","ping":77},{"user_id":757,"name":"Jollywolly","steam_id":76561198347427918,"connected_time":768000000000,"state":"active","ping":61},{"user_id":735,"name":"Machine Gun Wizard","steam_id":76561198069214797,"connected_time":2688000000000,"state":"active","ping":82},{"user_id":758,"name":"Tom","steam_id":76561198008519979,"connected_time":766000000000,"state":"active","ping":64},{"user_id":751,"name":"ːmissingː","steam_id":76561198080541279,"connected_time":1050000000000,"state":"active","ping":94},{"user_id":753,"name":"MORRIGAN","steam_id":76561199098620972,"connected_time":926000000000,"state":"active","ping":63},{"user_id":770,"name":"LevSHa","steam_id":76561198246400378,"connected_time":25000000000,"state":"active","ping":227},{"user_id":743,"name":"Jonno","steam_id":76561198023443744,"connected_time":2448000000000,"state":"active","ping":53},{"user_id":759,"name":"JugoTopia","steam_id":76561197996067209,"connected_time":762000000000,"state":"active","ping":113},{"user_id":711,"name":"sora :3","steam_id":76561198096547662,"connected_time":5301000000000,"state":"active","ping":54},{"user_id":768,"name":"^9kniff","steam_id":76561197973733659,"connected_time":203000000000,"state":"active","ping":73},{"user_id":761,"name":"THIG","steam_id":76561198058056059,"connected_time":701000000000,"state":"active","ping":57},{"user_id":748,"name":"R0mulone","steam_id":76561198352513792,"connected_time":1263000000000,"state":"active","ping":62},{"user_id":721,"name":"glyph","steam_id":76561197980736364,"connected_time":4337000000000,"state":"active","ping":83},{"user_id":765,"name":"scott steiners strongest warrio","steam_id":76561198148888622,"connected_time":332000000000,"state":"active","ping":58},{"user_id":717,"name":"Minimi","steam_id":76561198873850443,"connected_time":4613000000000,"state":"active","ping":41},{"user_id":718,"name":"ksg","steam_id":76561198042894236,"connected_time":4573000000000,"state":"active","ping":73},{"user_id":740,"name":"Štěpán","steam_id":76561198275742101,"connected_time":2599000000000,"state":"active","ping":70}]},{"server_id":114,"name":"Uncletopia | London | 2 | All Maps","name_short":"lon-2","host":"lon-1.uk.uncletopia.com","port":27025,"enabled":true,"region":"eu","cc":"gb","latitude":51.509865,"longitude":-0.118092,"reserved":0,"last_update":"0001-01-01T00:00:00Z","name_a2s":"Uncletopia | London | 2 | All Maps","protocol":17,"map":"cp_dustbowl","folder":"tf","game":"Team Fortress","app_id":440,"player_count":24,"max_players":24,"Bots":0,"server_type":"Dedicated","server_os":"Linux","password":true,"vac":true,"version":"7882260","steam_id":85568392924470941,"keywords":["cp","nocrits","nodmgspread","uncletopia"],"game_id":440,"stv_port":27026,"stv_name":"Uncletopia | London | 2 | All Maps | STV","players":[{"user_id":427,"name":"DeanAdamFry","steam_id":76561198054153160,"connected_time":1094000000000,"state":"active","ping":54},{"user_id":400,"name":"ParussMan","steam_id":76561198446245146,"connected_time":2839000000000,"state":"active","ping":114},{"user_id":418,"name":"Kes","steam_id":76561198095288832,"connected_time":1552000000000,"state":"active","ping":53},{"user_id":402,"name":"Miya","steam_id":76561198041967141,"connected_time":2821000000000,"state":"active","ping":68},{"user_id":433,"name":"Sarii","steam_id":76561199155102111,"connected_time":934000000000,"state":"active","ping":78},{"user_id":413,"name":"ack","steam_id":76561198139796077,"connected_time":1894000000000,"state":"active","ping":59},{"user_id":423,"name":"Instituto Nacional de Empleo","steam_id":76561198317014067,"connected_time":1201000000000,"state":"active","ping":77},{"user_id":398,"name":"picoa3","steam_id":76561198064234546,"connected_time":3448000000000,"state":"active","ping":69},{"user_id":442,"name":"sock_vendor","steam_id":76561198059103865,"connected_time":238000000000,"state":"active","ping":119},{"user_id":421,"name":"Pepe El grillao","steam_id":76561198177855119,"connected_time":1213000000000,"state":"active","ping":67},{"user_id":381,"name":"Prof. Sex","steam_id":76561198236833426,"connected_time":4729000000000,"state":"active","ping":82},{"user_id":424,"name":"LIGHTWEIGHT BABY","steam_id":76561198002761980,"connected_time":1193000000000,"state":"active","ping":57},{"user_id":440,"name":"Sputnik","steam_id":76561198138660241,"connected_time":466000000000,"state":"active","ping":61},{"user_id":444,"name":"🦀AlgoAlgoso🦀","steam_id":76561198209342480,"connected_time":24000000000,"state":"active","ping":94},{"user_id":408,"name":"Critless","steam_id":76561198133968184,"connected_time":2459000000000,"state":"active","ping":47},{"user_id":435,"name":"Malsi","steam_id":76561199061284165,"connected_time":820000000000,"state":"active","ping":86},{"user_id":363,"name":"vehicle guy","steam_id":76561198860065033,"connected_time":6011000000000,"state":"active","ping":55},{"user_id":349,"name":"Dirty Joe","steam_id":76561198142418870,"connected_time":7310000000000,"state":"active","ping":44},{"user_id":422,"name":"Slifer the Sky Dragon","steam_id":76561198062255803,"connected_time":1211000000000,"state":"active","ping":67},{"user_id":411,"name":"Dr. Mike","steam_id":76561197991205793,"connected_time":2413000000000,"state":"active","ping":74},{"user_id":443,"name":"ldshwt","steam_id":76561198090364357,"connected_time":48000000000,"state":"active","ping":60},{"user_id":436,"name":"Vinnyboiler","steam_id":76561198048722825,"connected_time":809000000000,"state":"active","ping":33},{"user_id":412,"name":"dnljns","steam_id":76561198085091752,"connected_time":2412000000000,"state":"active","ping":84},{"user_id":432,"name":"Finn","steam_id":76561198179960193,"connected_time":963000000000,"state":"active","ping":44}]},{"server_id":320,"name":"Uncletopia | London | 3 | All Maps","name_short":"lon-3","host":"lon-1.uk.uncletopia.com","port":27035,"enabled":true,"region":"eu","cc":"gb","latitude":51.509865,"longitude":-0.118092,"reserved":0,"last_update":"0001-01-01T00:00:00Z","name_a2s":"Uncletopia | London | 3 | All Maps","protocol":17,"map":"pl_frontier_final","folder":"tf","game":"Team Fortress","app_id":440,"player_count":23,"max_players":24,"Bots":0,"server_type":"Dedicated","server_os":"Linux","password":true,"vac":true,"version":"7882260","steam_id":85568392924510192,"keywords":["nocrits","nodmgspread","payload","uncletopia"],"game_id":440,"stv_port":27036,"stv_name":"Uncletopia | London | 3 | All Maps | STV","players":[{"user_id":877,"name":"mespe","steam_id":76561198121530649,"connected_time":1172000000000,"state":"active","ping":76},{"user_id":812,"name":"Miss Bari","steam_id":76561198365286092,"connected_time":4829000000000,"state":"active","ping":39},{"user_id":844,"name":"Adrenaline","steam_id":76561197970852048,"connected_time":3343000000000,"state":"active","ping":75},{"user_id":842,"name":"elijah","steam_id":76561198093936708,"connected_time":3373000000000,"state":"active","ping":52},{"user_id":846,"name":"Bromoneto","steam_id":76561198876695014,"connected_time":3237000000000,"state":"active","ping":67},{"user_id":866,"name":"scarfweather","steam_id":76561198121331836,"connected_time":1731000000000,"state":"active","ping":58},{"user_id":836,"name":"Danelaw","steam_id":76561199380849468,"connected_time":3821000000000,"state":"active","ping":60},{"user_id":885,"name":"Majima Gaming HD","steam_id":76561198365750503,"connected_time":230000000000,"state":"active","ping":44},{"user_id":839,"name":"how","steam_id":76561199145480076,"connected_time":3537000000000,"state":"active","ping":55},{"user_id":883,"name":"♥ trixy ♥","steam_id":76561199474154775,"connected_time":414000000000,"state":"active","ping":53},{"user_id":874,"name":"frosty","steam_id":76561198094560834,"connected_time":1436000000000,"state":"active","ping":45},{"user_id":886,"name":"zozo","steam_id":76561198332612319,"connected_time":219000000000,"state":"active","ping":119},{"user_id":869,"name":"D_Ink","steam_id":76561198267716662,"connected_time":1697000000000,"state":"active","ping":32},{"user_id":860,"name":"bull","steam_id":76561199233979726,"connected_time":2357000000000,"state":"active","ping":91},{"user_id":855,"name":"av x","steam_id":76561198062699350,"connected_time":2616000000000,"state":"active","ping":71},{"user_id":803,"name":"cinny","steam_id":76561198832112629,"connected_time":5108000000000,"state":"active","ping":89},{"user_id":872,"name":"Blobbaz","steam_id":76561198031076278,"connected_time":1459000000000,"state":"active","ping":59},{"user_id":878,"name":"tango78","steam_id":76561198078481390,"connected_time":958000000000,"state":"active","ping":43},{"user_id":884,"name":"Cheshireycat","steam_id":76561198067204908,"connected_time":357000000000,"state":"active","ping":59},{"user_id":856,"name":"bagasser","steam_id":76561198051283300,"connected_time":2563000000000,"state":"active","ping":77},{"user_id":806,"name":"XL54M15Y","steam_id":76561198048250715,"connected_time":5095000000000,"state":"active","ping":60},{"user_id":871,"name":"shreddies 750g","steam_id":76561198188642265,"connected_time":1688000000000,"state":"active","ping":61},{"user_id":888,"name":"Bill Carr","steam_id":76561198110033943,"connected_time":38000000000,"state":"active","ping":38}]},{"server_id":321,"name":"Uncletopia | London | 4 | All Maps","name_short":"lon-4","host":"lon-1.uk.uncletopia.com","port":27045,"enabled":true,"region":"eu","cc":"gb","latitude":51.509865,"longitude":-0.118092,"reserved":0,"last_update":"0001-01-01T00:00:00Z","name_a2s":"Uncletopia | London | 4 | All Maps","protocol":17,"map":"pl_upward","folder":"tf","game":"Team Fortress","app_id":440,"player_count":1,"max_players":24,"Bots":0,"server_type":"Dedicated","server_os":"Linux","password":true,"vac":true,"version":"7882260","steam_id":85568392924510193,"keywords":["nocrits","nodmgspread","payload","uncletopia"],"game_id":440,"stv_port":27046,"stv_name":"Uncletopia | London | 4 | All Maps | STV","players":[{"user_id":463,"name":"Novice","steam_id":76561198958723156,"connected_time":277000000000,"state":"active","ping":204}]},{"server_id":21,"name":"Uncletopia | London | 5 | All Maps","name_short":"lon-5","host":"lon-1.uk.uncletopia.com","port":27055,"enabled":true,"region":"eu","cc":"gb","latitude":51.509865,"longitude":-0.118092,"reserved":0,"last_update":"0001-01-01T00:00:00Z","name_a2s":"Uncletopia | London | 5 | All Maps","protocol":17,"map":"pl_frontier_final","folder":"tf","game":"Team Fortress","app_id":440,"player_count":24,"max_players":24,"Bots":0,"server_type":"Dedicated","server_os":"Linux","password":true,"vac":true,"version":"7882260","steam_id":85568392924742829,"keywords":["nocrits","nodmgspread","payload","uncletopia"],"game_id":440,"stv_port":27056,"stv_name":"Uncletopia | London | 5 | All Maps | STV","players":[{"user_id":493,"name":"TimmiBlade","steam_id":76561199241852786,"connected_time":1437000000000,"state":"active","ping":81},{"user_id":495,"name":"ChPerette","steam_id":76561198060004887,"connected_time":1232000000000,"state":"active","ping":44},{"user_id":494,"name":"PaperPlay","steam_id":76561198046838964,"connected_time":1318000000000,"state":"active","ping":100},{"user_id":388,"name":"Black Sheep","steam_id":76561198042244701,"connected_time":6989000000000,"state":"active","ping":58},{"user_id":466,"name":"Pvt. Parts","steam_id":76561198372256154,"connected_time":2549000000000,"state":"active","ping":86},{"user_id":481,"name":"Rew","steam_id":76561198088209263,"connected_time":2164000000000,"state":"active","ping":46},{"user_id":468,"name":"orange","steam_id":76561198188460413,"connected_time":2497000000000,"state":"active","ping":82},{"user_id":463,"name":"df","steam_id":76561198448551449,"connected_time":2838000000000,"state":"active","ping":30},{"user_id":480,"name":"Limbless André","steam_id":76561198077283223,"connected_time":2214000000000,"state":"active","ping":83},{"user_id":473,"name":"Zina Tv","steam_id":76561198116530769,"connected_time":2287000000000,"state":"active","ping":94},{"user_id":474,"name":"ArmedWithWings","steam_id":76561198154615474,"connected_time":2285000000000,"state":"active","ping":97},{"user_id":498,"name":"dongus","steam_id":76561198042774930,"connected_time":1036000000000,"state":"active","ping":65},{"user_id":476,"name":"Stańczyk","steam_id":76561197998906563,"connected_time":2265000000000,"state":"active","ping":44},{"user_id":490,"name":"H-say","steam_id":76561198177400362,"connected_time":1947000000000,"state":"active","ping":100},{"user_id":499,"name":"joachym","steam_id":76561198428579761,"connected_time":912000000000,"state":"active","ping":69},{"user_id":500,"name":"MrVegasAguitar","steam_id":76561198084466946,"connected_time":702000000000,"state":"active","ping":159},{"user_id":479,"name":"Ar|es","steam_id":76561198819160313,"connected_time":2221000000000,"state":"active","ping":94},{"user_id":486,"name":"CJspellsfish","steam_id":76561198277342368,"connected_time":2077000000000,"state":"active","ping":155},{"user_id":487,"name":"A Succulent Chinese Meal","steam_id":76561198069472440,"connected_time":2073000000000,"state":"active","ping":67},{"user_id":484,"name":"Danube501","steam_id":76561198143222686,"connected_time":2138000000000,"state":"active","ping":105},{"user_id":485,"name":"gibb (official)","steam_id":76561198074097655,"connected_time":2126000000000,"state":"active","ping":44},{"user_id":492,"name":"Icaras","steam_id":76561198416724843,"connected_time":1734000000000,"state":"active","ping":42},{"user_id":464,"name":"dripstein","steam_id":76561198059598696,"connected_time":2742000000000,"state":"active","ping":60},{"user_id":420,"name":"Silent","steam_id":76561198344588858,"connected_time":5682000000000,"state":"active","ping":46}]},{"server_id":22,"name":"Uncletopia | London | 6 | All Maps","name_short":"lon-6","host":"lon-1.uk.uncletopia.com","port":27065,"enabled":true,"region":"eu","cc":"gb","latitude":51.509865,"longitude":-0.118092,"reserved":0,"last_update":"0001-01-01T00:00:00Z","name_a2s":"Uncletopia | London | 6 | All Maps","protocol":17,"map":"koth_highpass","folder":"tf","game":"Team Fortress","app_id":440,"player_count":0,"max_players":24,"Bots":0,"server_type":"Dedicated","server_os":"Linux","password":true,"vac":true,"version":"7882260","steam_id":85568392924742830,"keywords":["cp","nocrits","nodmgspread","uncletopia"],"game_id":440,"stv_port":27066,"stv_name":"Uncletopia | London | 6 | All Maps | STV","players":null},{"server_id":40,"name":"Uncletopia | London | 7 | No Payload","name_short":"lon-7","host":"lon-1.uk.uncletopia.com","port":27075,"enabled":true,"region":"eu","cc":"gb","latitude":51.509865,"longitude":-0.118092,"reserved":0,"last_update":"0001-01-01T00:00:00Z","name_a2s":"Uncletopia | London | 7 | No Payload","protocol":17,"map":"koth_highpass","folder":"tf","game":"Team Fortress","app_id":440,"player_count":0,"max_players":24,"Bots":0,"server_type":"Dedicated","server_os":"Linux","password":true,"vac":true,"version":"7882260","steam_id":85568392924964314,"keywords":["cp","nocrits","nodmgspread","uncletopia"],"game_id":440,"stv_port":27076,"stv_name":"Uncletopia | London | 7 | No Payload | STV","players":null},{"server_id":41,"name":"Uncletopia | London | 8 | Community","name_short":"lon-8","host":"lon-1.uk.uncletopia.com","port":27085,"enabled":true,"region":"eu","cc":"gb","latitude":51.509865,"longitude":-0.118092,"reserved":0,"last_update":"0001-01-01T00:00:00Z","name_a2s":"Uncletopia | London | 8 | Community","protocol":17,"map":"workshop/cp_snowbase_b18.ugc2081770490","folder":"tf","game":"Team Fortress","app_id":440,"player_count":0,"max_players":24,"Bots":0,"server_type":"Dedicated","server_os":"Linux","password":true,"vac":true,"version":"7882260","steam_id":85568392924964315,"keywords":["cp","nocrits","nodmgspread","uncletopia"],"game_id":440,"stv_port":27086,"stv_name":"Uncletopia | London | 8 | Community | STV","players":null},{"server_id":300,"name":"Uncletopia | Montréal | 1 | All Maps","name_short":"mtl-1","host":"mtl-1.ca.uncletopia.com","port":27015,"enabled":true,"region":"us-east","cc":"ca","latitude":45.50889,"longitude":-73.56167,"reserved":0,"last_update":"0001-01-01T00:00:00Z","name_a2s":"Uncletopia | Montréal | 1 | All Maps","protocol":17,"map":"pl_upward","folder":"tf","game":"Team Fortress","app_id":440,"player_count":24,"max_players":24,"Bots":0,"server_type":"Dedicated","server_os":"Linux","password":true,"vac":true,"version":"7882260","steam_id":85568392924500087,"keywords":["nocrits","nodmgspread","payload","uncletopia"],"game_id":440,"stv_port":27016,"stv_name":"Uncletopia | Montréal | 1 | All Maps | STV","players":[{"user_id":17,"name":"Codcruiser17","steam_id":76561199118698384,"connected_time":1838000000000,"state":"active","ping":56},{"user_id":9,"name":"Triple-Edged","steam_id":76561198308472155,"connected_time":4359000000000,"state":"active","ping":46},{"user_id":10,"name":"BEES","steam_id":76561198811545874,"connected_time":4271000000000,"state":"active","ping":45},{"user_id":23,"name":"Reza The Cool","steam_id":76561198372285506,"connected_time":1197000000000,"state":"active","ping":49},{"user_id":29,"name":"Goose of Wisdom","steam_id":76561198233465044,"connected_time":943000000000,"state":"active","ping":69},{"user_id":20,"name":"Matt","steam_id":76561198008108521,"connected_time":1749000000000,"state":"active","ping":72},{"user_id":25,"name":"Kedata","steam_id":76561198047750050,"connected_time":1099000000000,"state":"active","ping":60},{"user_id":21,"name":"Frank the Tank","steam_id":76561198014574925,"connected_time":1749000000000,"state":"active","ping":62},{"user_id":26,"name":"Malmart_Employee","steam_id":76561198320388704,"connected_time":1049000000000,"state":"active","ping":131},{"user_id":32,"name":"[ 7 ]","steam_id":76561199229668733,"connected_time":711000000000,"state":"active","ping":51},{"user_id":49,"name":"vacuum bag gaming","steam_id":76561199327596810,"connected_time":104000000000,"state":"active","ping":70},{"user_id":33,"name":"kat","steam_id":76561198121070295,"connected_time":646000000000,"state":"active","ping":105},{"user_id":34,"name":"sentry turret","steam_id":76561198327057433,"connected_time":644000000000,"state":"active","ping":135},{"user_id":35,"name":"MRbobbins","steam_id":76561198844356856,"connected_time":613000000000,"state":"active","ping":118},{"user_id":36,"name":"LemonZest","steam_id":76561199196369249,"connected_time":536000000000,"state":"active","ping":72},{"user_id":37,"name":"lolzfrdawin21","steam_id":76561199006665979,"connected_time":441000000000,"state":"active","ping":82},{"user_id":46,"name":"apple pie","steam_id":76561198073215150,"connected_time":244000000000,"state":"active","ping":61},{"user_id":39,"name":"Shuu","steam_id":76561199199180558,"connected_time":423000000000,"state":"active","ping":71},{"user_id":40,"name":"Elite_Friendly","steam_id":76561198819972127,"connected_time":350000000000,"state":"active","ping":136},{"user_id":47,"name":"burdllomu (no vac/buy lollichop","steam_id":76561199142477846,"connected_time":239000000000,"state":"active","ping":134},{"user_id":42,"name":"Alexthegreat","steam_id":76561197996796222,"connected_time":319000000000,"state":"active","ping":60},{"user_id":43,"name":"StrangeFace","steam_id":76561198821118643,"connected_time":274000000000,"state":"active","ping":59},{"user_id":44,"name":"wahooka","steam_id":76561197981211922,"connected_time":273000000000,"state":"active","ping":76},{"user_id":50,"name":"wake up","steam_id":76561198062763756,"connected_time":44000000000,"state":"active","ping":64}]},{"server_id":301,"name":"Uncletopia | Montréal | 2 | All Maps","name_short":"mtl-2","host":"mtl-1.ca.uncletopia.com","port":27025,"enabled":true,"region":"us-east","cc":"ca","latitude":45.50889,"longitude":-73.56167,"reserved":0,"last_update":"0001-01-01T00:00:00Z","name_a2s":"Uncletopia | Montréal | 2 | All Maps","protocol":17,"map":"koth_highpass","folder":"tf","game":"Team Fortress","app_id":440,"player_count":0,"max_players":24,"Bots":0,"server_type":"Dedicated","server_os":"Linux","password":true,"vac":true,"version":"7882260","steam_id":85568392924500088,"keywords":["cp","nocrits","nodmgspread","uncletopia"],"game_id":440,"stv_port":27026,"stv_name":"Uncletopia | Montréal | 2 | All Maps | STV","players":null},{"server_id":302,"name":"Uncletopia | Montréal | 3 | All Maps","name_short":"mtl-3","host":"mtl-1.ca.uncletopia.com","port":27035,"enabled":true,"region":"us-east","cc":"ca","latitude":45.50889,"longitude":-73.56167,"reserved":0,"last_update":"0001-01-01T00:00:00Z","name_a2s":"Uncletopia | Montréal | 3 | All Maps","protocol":17,"map":"cp_snakewater_final1","folder":"tf","game":"Team Fortress","app_id":440,"player_count":0,"max_players":24,"Bots":0,"server_type":"Dedicated","server_os":"Linux","password":true,"vac":true,"version":"7882260","steam_id":85568392924500089,"keywords":["cp","nocrits","nodmgspread","uncletopia"],"game_id":440,"stv_port":27036,"stv_name":"Uncletopia | Montréal | 3 | All Maps | STV","players":null},{"server_id":303,"name":"Uncletopia | Montréal | 4 | No Payload","name_short":"mtl-4","host":"mtl-1.ca.uncletopia.com","port":27045,"enabled":true,"region":"us-east","cc":"ca","latitude":45.50889,"longitude":-73.56167,"reserved":0,"last_update":"0001-01-01T00:00:00Z","name_a2s":"Uncletopia | Montréal | 4 | No Payload","protocol":17,"map":"cp_sunshine","folder":"tf","game":"Team Fortress","app_id":440,"player_count":0,"max_players":24,"Bots":0,"server_type":"Dedicated","server_os":"Linux","password":true,"vac":true,"version":"7882260","steam_id":85568392924500090,"keywords":["cp","nocrits","nodmgspread","uncletopia"],"game_id":440,"stv_port":27046,"stv_name":"Uncletopia | Montréal | 4 | No Payload | STV","players":null},{"server_id":13,"name":"Uncletopia | New York City | 1 | All Maps","name_short":"nyc-1","host":"nyc-1.us.uncletopia.com","port":27015,"enabled":true,"region":"us-east","cc":"us","latitude":40.73061,"longitude":-73.93524,"reserved":0,"last_update":"0001-01-01T00:00:00Z","name_a2s":"Uncletopia | New York City | 1 | All Maps","protocol":17,"map":"pl_barnblitz","folder":"tf","game":"Team Fortress","app_id":440,"player_count":24,"max_players":24,"Bots":0,"server_type":"Dedicated","server_os":"Linux","password":true,"vac":true,"version":"7882260","steam_id":85568392924469993,"keywords":["nocrits","nodmgspread","payload","uncletopia"],"game_id":440,"stv_port":27016,"stv_name":"Uncletopia | New York City | 1 | All Maps | STV","players":[{"user_id":334,"name":"Broadsword","steam_id":76561198011160411,"connected_time":836000000000,"state":"active","ping":82},{"user_id":332,"name":"DrMisteryous2","steam_id":76561198336307012,"connected_time":938000000000,"state":"active","ping":186},{"user_id":321,"name":"Zeebop","steam_id":76561198148332988,"connected_time":1375000000000,"state":"active","ping":65},{"user_id":338,"name":"Ian","steam_id":76561199078852180,"connected_time":562000000000,"state":"active","ping":82},{"user_id":283,"name":"♡Alyx♡","steam_id":76561198024303978,"connected_time":2990000000000,"state":"active","ping":52},{"user_id":329,"name":"King Baldski","steam_id":76561198359568400,"connected_time":1134000000000,"state":"active","ping":130},{"user_id":313,"name":"OOG_MAN","steam_id":76561198198056402,"connected_time":1585000000000,"state":"active","ping":42},{"user_id":285,"name":"stink","steam_id":76561198099318923,"connected_time":2974000000000,"state":"active","ping":68},{"user_id":307,"name":"rollo","steam_id":76561198993144931,"connected_time":2037000000000,"state":"active","ping":59},{"user_id":331,"name":"Pie™","steam_id":76561198158312625,"connected_time":986000000000,"state":"active","ping":119},{"user_id":297,"name":"stockhack","steam_id":76561198050220225,"connected_time":2741000000000,"state":"active","ping":52},{"user_id":293,"name":"WALL-E","steam_id":76561198154701370,"connected_time":2871000000000,"state":"active","ping":82},{"user_id":333,"name":"doodlenoodles","steam_id":76561199345823430,"connected_time":878000000000,"state":"active","ping":59},{"user_id":335,"name":"AllPantsNoSkill","steam_id":76561198049655464,"connected_time":790000000000,"state":"active","ping":93},{"user_id":299,"name":"Feleeg","steam_id":76561198452866612,"connected_time":2733000000000,"state":"active","ping":51},{"user_id":341,"name":"john \"gaslight\" dark soul","steam_id":76561198072826791,"connected_time":468000000000,"state":"active","ping":56},{"user_id":342,"name":"IlikeChowMien","steam_id":76561199466131782,"connected_time":338000000000,"state":"active","ping":67},{"user_id":316,"name":"ЯawrFatcat","steam_id":76561198017698926,"connected_time":1529000000000,"state":"active","ping":99},{"user_id":336,"name":"Lucille_Bluth","steam_id":76561198206133916,"connected_time":635000000000,"state":"active","ping":69},{"user_id":301,"name":"Crystron","steam_id":76561198880437428,"connected_time":2723000000000,"state":"active","ping":89},{"user_id":319,"name":"IronPainting","steam_id":76561198329389719,"connected_time":1463000000000,"state":"active","ping":48},{"user_id":304,"name":"LaserDog","steam_id":76561199088111891,"connected_time":2586000000000,"state":"active","ping":108},{"user_id":337,"name":"Joshua31704","steam_id":76561198125898714,"connected_time":635000000000,"state":"active","ping":69},{"user_id":326,"name":"sharkbyt3","steam_id":76561197985793803,"connected_time":1291000000000,"state":"active","ping":59}]},{"server_id":14,"name":"Uncletopia | New York City | 2 | All Maps","name_short":"nyc-2","host":"nyc-1.us.uncletopia.com","port":27025,"enabled":true,"region":"us-east","cc":"us","latitude":40.73061,"longitude":-73.93524,"reserved":0,"last_update":"0001-01-01T00:00:00Z","name_a2s":"Uncletopia | New York City | 2 | All Maps","protocol":17,"map":"cp_gravelpit","folder":"tf","game":"Team Fortress","app_id":440,"player_count":24,"max_players":24,"Bots":0,"server_type":"Dedicated","server_os":"Linux","password":true,"vac":true,"version":"7882260","steam_id":85568392924469994,"keywords":["cp","nocrits","nodmgspread","uncletopia"],"game_id":440,"stv_port":27026,"stv_name":"Uncletopia | New York City | 2 | All Maps | STV","players":[{"user_id":261,"name":"123","steam_id":76561198106308056,"connected_time":4207000000000,"state":"active","ping":105},{"user_id":323,"name":"Lonely Friendless Gamer","steam_id":76561198046728155,"connected_time":252000000000,"state":"active","ping":64},{"user_id":301,"name":"Pastel","steam_id":76561198147847673,"connected_time":2092000000000,"state":"active","ping":116},{"user_id":326,"name":"dirt","steam_id":76561198828036535,"connected_time":192000000000,"state":"active","ping":46},{"user_id":302,"name":"Mr.Bady","steam_id":76561199094651706,"connected_time":2084000000000,"state":"active","ping":64},{"user_id":328,"name":"The Fiend","steam_id":76561199229771413,"connected_time":72000000000,"state":"active","ping":84},{"user_id":315,"name":"geeWIZ","steam_id":76561198067909242,"connected_time":1228000000000,"state":"active","ping":100},{"user_id":327,"name":"sasharudzik","steam_id":76561199126617781,"connected_time":117000000000,"state":"active","ping":72},{"user_id":307,"name":"Rukh","steam_id":76561197999361315,"connected_time":1936000000000,"state":"active","ping":102},{"user_id":260,"name":"JD","steam_id":76561198202669250,"connected_time":4376000000000,"state":"active","ping":70},{"user_id":320,"name":"bojack from the show bojack hor","steam_id":76561198053006712,"connected_time":731000000000,"state":"active","ping":43},{"user_id":322,"name":"Bong Rips 4 Jesus","steam_id":76561198062678615,"connected_time":471000000000,"state":"active","ping":62},{"user_id":316,"name":"YourSeniorXO","steam_id":76561198806532719,"connected_time":1225000000000,"state":"active","ping":61},{"user_id":324,"name":"KrustyMusty","steam_id":76561199374788349,"connected_time":244000000000,"state":"active","ping":89},{"user_id":317,"name":"Super D Duper","steam_id":76561198078203677,"connected_time":1067000000000,"state":"active","ping":53},{"user_id":281,"name":"meat glasses","steam_id":76561198046742645,"connected_time":2556000000000,"state":"active","ping":60},{"user_id":286,"name":"tonybaloney","steam_id":76561199434233117,"connected_time":2467000000000,"state":"active","ping":91},{"user_id":310,"name":"Canadian","steam_id":76561199104281653,"connected_time":1702000000000,"state":"active","ping":59},{"user_id":329,"name":"Mecha","steam_id":76561198014927379,"connected_time":61000000000,"state":"active","ping":74},{"user_id":313,"name":"Wiffle","steam_id":76561198251951402,"connected_time":1466000000000,"state":"active","ping":108},{"user_id":243,"name":"Okpar","steam_id":76561199221067945,"connected_time":5458000000000,"state":"active","ping":85},{"user_id":254,"name":"♥Stacy•Psychosis♥","steam_id":76561198072439233,"connected_time":5177000000000,"state":"active","ping":69},{"user_id":290,"name":"glue sniffer","steam_id":76561198044689778,"connected_time":2338000000000,"state":"active","ping":47},{"user_id":291,"name":"Shellion","steam_id":76561198117936548,"connected_time":2338000000000,"state":"active","ping":58}]},{"server_id":15,"name":"Uncletopia | New York City | 3 | Stopwatch Beta","name_short":"nyc-3","host":"nyc-1.us.uncletopia.com","port":27035,"enabled":true,"region":"us-east","cc":"us","latitude":40.73061,"longitude":-73.93524,"reserved":0,"last_update":"0001-01-01T00:00:00Z","name_a2s":"Uncletopia | New York City | 3 | Stopwatch Beta","protocol":17,"map":"workshop/koth_bagel_rc6.ugc2514036946","folder":"tf","game":"Team Fortress","app_id":440,"player_count":0,"max_players":24,"Bots":0,"server_type":"Dedicated","server_os":"Linux","password":true,"vac":true,"version":"7882260","steam_id":85568392924742820,"keywords":["cp","nocrits","nodmgspread","uncletopia"],"game_id":440,"stv_port":27036,"stv_name":"Uncletopia | New York City | 3 | Stopwatch Beta | STV","players":null},{"server_id":16,"name":"Uncletopia | New York City | 4 | Community","name_short":"nyc-4","host":"nyc-1.us.uncletopia.com","port":27045,"enabled":true,"region":"us-east","cc":"us","latitude":40.73061,"longitude":-73.93524,"reserved":0,"last_update":"0001-01-01T00:00:00Z","name_a2s":"Uncletopia | New York City | 4 | Community","protocol":17,"map":"workshop/cp_glacier_rc6.ugc2905735376","folder":"tf","game":"Team Fortress","app_id":440,"player_count":12,"max_players":24,"Bots":0,"server_type":"Dedicated","server_os":"Linux","password":true,"vac":true,"version":"7882260","steam_id":85568392924742821,"keywords":["cp","nocrits","nodmgspread","uncletopia"],"game_id":440,"stv_port":27046,"stv_name":"Uncletopia | New York City | 4 | Community | STV","players":[{"user_id":33,"name":"dmsweatt","steam_id":76561197992298077,"connected_time":1651000000000,"state":"active","ping":54},{"user_id":37,"name":"CupcakeWarlock","steam_id":76561198179963697,"connected_time":933000000000,"state":"active","ping":65},{"user_id":43,"name":"Alaea WInters","steam_id":76561198116274337,"connected_time":266000000000,"state":"active","ping":84},{"user_id":44,"name":"Plunge (orange)","steam_id":76561198454673850,"connected_time":240000000000,"state":"active","ping":81},{"user_id":42,"name":"LABRAT","steam_id":76561199226732110,"connected_time":278000000000,"state":"active","ping":92},{"user_id":47,"name":"Logatron","steam_id":76561197981881397,"connected_time":156000000000,"state":"active","ping":80},{"user_id":32,"name":"evan.sweatt","steam_id":76561199229509692,"connected_time":1780000000000,"state":"active","ping":43},{"user_id":45,"name":"a 1930s robber","steam_id":76561198125237406,"connected_time":214000000000,"state":"active","ping":43},{"user_id":46,"name":"Lanecero","steam_id":76561198169864663,"connected_time":193000000000,"state":"active","ping":66},{"user_id":48,"name":"HankTheLazy","steam_id":76561199093836052,"connected_time":113000000000,"state":"active","ping":84},{"user_id":49,"name":"Scraggles98","steam_id":76561198354055910,"connected_time":82000000000,"state":"active","ping":83},{"user_id":50,"name":"John Fortnite Kennedy","steam_id":76561199198050797,"connected_time":78000000000,"state":"active","ping":73}]},{"server_id":142,"name":"Uncletopia | São Paulo | 1 | All Maps","name_short":"sao-1","host":"sao-1.br.uncletopia.com","port":27015,"enabled":true,"region":"sa","cc":"br","latitude":-23.533773,"longitude":-46.62529,"reserved":0,"last_update":"0001-01-01T00:00:00Z","name_a2s":"Uncletopia | São Paulo | 1 | All Maps","protocol":17,"map":"koth_lakeside_final","folder":"tf","game":"Team Fortress","app_id":440,"player_count":0,"max_players":24,"Bots":0,"server_type":"Dedicated","server_os":"Linux","password":true,"vac":true,"version":"7882260","steam_id":85568392924469996,"keywords":["cp","nocrits","nodmgspread","uncletopia"],"game_id":440,"stv_port":27016,"stv_name":"Uncletopia | São Paulo | 1 | All Maps | STV","players":null},{"server_id":143,"name":"Uncletopia | São Paulo | 2 | All Maps","name_short":"sao-2","host":"sao-2.br.uncletopia.com","port":27015,"enabled":true,"region":"sa","cc":"br","latitude":-23.533773,"longitude":-46.62529,"reserved":0,"last_update":"0001-01-01T00:00:00Z","name_a2s":"Uncletopia | São Paulo | 2 | All Maps","protocol":17,"map":"cp_dustbowl","folder":"tf","game":"Team Fortress","app_id":440,"player_count":21,"max_players":24,"Bots":0,"server_type":"Dedicated","server_os":"Linux","password":true,"vac":true,"version":"7882260","steam_id":85568392924485349,"keywords":["cp","nocrits","nodmgspread","uncletopia"],"game_id":440,"stv_port":27016,"stv_name":"Uncletopia | São Paulo | 2 | All Maps | STV","players":[{"user_id":25,"name":"stuwpid pyo maim","steam_id":76561199246901712,"connected_time":7429000000000,"state":"active","ping":45},{"user_id":172,"name":"red","steam_id":76561198172912625,"connected_time":558000000000,"state":"active","ping":72},{"user_id":170,"name":"Bellesi","steam_id":76561198056750369,"connected_time":642000000000,"state":"active","ping":57},{"user_id":28,"name":"Anthy is boipreggers","steam_id":76561198381380154,"connected_time":7083000000000,"state":"active","ping":61},{"user_id":165,"name":"The imortal snail","steam_id":76561198136181550,"connected_time":815000000000,"state":"active","ping":51},{"user_id":66,"name":"Samsara Speedrun","steam_id":76561198276113571,"connected_time":4672000000000,"state":"active","ping":36},{"user_id":169,"name":"cavaleiro no deserto","steam_id":76561198869886282,"connected_time":652000000000,"state":"active","ping":79},{"user_id":162,"name":"Fettel","steam_id":76561198046192251,"connected_time":917000000000,"state":"active","ping":52},{"user_id":176,"name":"Carnip","steam_id":76561198130005329,"connected_time":344000000000,"state":"active","ping":45},{"user_id":166,"name":"El Guasón","steam_id":76561198129640271,"connected_time":791000000000,"state":"active","ping":74},{"user_id":174,"name":"DiscoTraveler","steam_id":76561199240168088,"connected_time":500000000000,"state":"active","ping":163},{"user_id":152,"name":"HeadShotGamerBR","steam_id":76561198116856702,"connected_time":1347000000000,"state":"active","ping":67},{"user_id":168,"name":"selarom | trade.tf |","steam_id":76561199069219350,"connected_time":719000000000,"state":"active","ping":173},{"user_id":126,"name":"Stoopid","steam_id":76561198126485401,"connected_time":2125000000000,"state":"active","ping":53},{"user_id":177,"name":"ARK","steam_id":76561198253139686,"connected_time":338000000000,"state":"active","ping":88},{"user_id":179,"name":"Merlyn Manson","steam_id":76561198834987167,"connected_time":196000000000,"state":"active","ping":73},{"user_id":151,"name":"//hd","steam_id":76561199098715784,"connected_time":1363000000000,"state":"active","ping":63},{"user_id":133,"name":"O5","steam_id":76561198816442922,"connected_time":1926000000000,"state":"active","ping":176},{"user_id":155,"name":"zezin","steam_id":76561199116032943,"connected_time":1289000000000,"state":"active","ping":69},{"user_id":73,"name":"Pathetic","steam_id":76561198051056987,"connected_time":4320000000000,"state":"active","ping":60},{"user_id":181,"name":"Edge prince (a F2P)","steam_id":76561199076658868,"connected_time":133000000000,"state":"active","ping":56}]},{"server_id":7,"name":"Uncletopia | Seattle | 1 | All Maps","name_short":"sea-1","host":"sea-1.us.uncletopia.com","port":27015,"enabled":true,"region":"us-west","cc":"us","latitude":47.608013,"longitude":-122.33517,"reserved":0,"last_update":"0001-01-01T00:00:00Z","name_a2s":"Uncletopia | Seattle | 1 | All Maps","protocol":17,"map":"koth_harvest_final","folder":"tf","game":"Team Fortress","app_id":440,"player_count":24,"max_players":24,"Bots":0,"server_type":"Dedicated","server_os":"Linux","password":true,"vac":true,"version":"7882260","steam_id":85568392924469997,"keywords":["cp","nocrits","nodmgspread","uncletopia"],"game_id":440,"stv_port":27016,"stv_name":"Uncletopia | Seattle | 1 | All Maps | STV","players":[{"user_id":421,"name":"Ping","steam_id":76561199206514106,"connected_time":2002000000000,"state":"active","ping":114},{"user_id":422,"name":"TüCold(remote player)","steam_id":76561198111278197,"connected_time":1563000000000,"state":"active","ping":54},{"user_id":429,"name":"that cs cart got me bhopping","steam_id":76561198255827013,"connected_time":944000000000,"state":"active","ping":88},{"user_id":434,"name":"Skoad","steam_id":76561198104650528,"connected_time":293000000000,"state":"active","ping":63},{"user_id":432,"name":"Mignyanne :3","steam_id":76561198048754056,"connected_time":423000000000,"state":"active","ping":60},{"user_id":403,"name":"RoboCop Gaming","steam_id":76561198078378023,"connected_time":4467000000000,"state":"active","ping":76},{"user_id":343,"name":"V∆lume The 1rd","steam_id":76561198133260990,"connected_time":10774000000000,"state":"active","ping":57},{"user_id":397,"name":"mega","steam_id":76561198089520959,"connected_time":4791000000000,"state":"active","ping":97},{"user_id":413,"name":"Fh","steam_id":76561198000903511,"connected_time":2532000000000,"state":"active","ping":66},{"user_id":418,"name":"Peppy","steam_id":76561198866629645,"connected_time":2194000000000,"state":"active","ping":57},{"user_id":338,"name":"VerminKing","steam_id":76561198060887391,"connected_time":11304000000000,"state":"active","ping":58},{"user_id":378,"name":"p i n e ↟ ↟","steam_id":76561198058199952,"connected_time":6251000000000,"state":"active","ping":56},{"user_id":394,"name":"★ dane","steam_id":76561198354081121,"connected_time":4891000000000,"state":"active","ping":107},{"user_id":410,"name":"mike, freshly circed","steam_id":76561198225411004,"connected_time":3488000000000,"state":"active","ping":70},{"user_id":419,"name":"requiredtwitch","steam_id":76561199443285633,"connected_time":2194000000000,"state":"active","ping":122},{"user_id":436,"name":"Callahan","steam_id":76561197976928457,"connected_time":153000000000,"state":"active","ping":53},{"user_id":428,"name":"i'll be yr host","steam_id":76561198049258493,"connected_time":1119000000000,"state":"active","ping":53},{"user_id":414,"name":"Skabbety","steam_id":76561198168044257,"connected_time":2528000000000,"state":"active","ping":38},{"user_id":405,"name":"rat gets the cheese","steam_id":76561198031234032,"connected_time":3961000000000,"state":"active","ping":102},{"user_id":396,"name":"Fallen","steam_id":76561198206490352,"connected_time":4876000000000,"state":"active","ping":84},{"user_id":437,"name":"pap","steam_id":76561198880934377,"connected_time":13000000000,"state":"active","ping":111},{"user_id":423,"name":"I'mFromSpace","steam_id":76561198808969653,"connected_time":1548000000000,"state":"active","ping":61},{"user_id":424,"name":"yoshido","steam_id":76561198846313229,"connected_time":1518000000000,"state":"active","ping":102},{"user_id":427,"name":"Alpdhuez [✚]","steam_id":76561198013808837,"connected_time":1430000000000,"state":"active","ping":70}]},{"server_id":119,"name":"Uncletopia | Seattle | 2 | All Maps","name_short":"sea-2","host":"sea-1.us.uncletopia.com","port":27025,"enabled":true,"region":"us-west","cc":"us","latitude":47.608013,"longitude":-122.33517,"reserved":0,"last_update":"0001-01-01T00:00:00Z","name_a2s":"Uncletopia | Seattle | 2 | All Maps","protocol":17,"map":"pl_thundermountain","folder":"tf","game":"Team Fortress","app_id":440,"player_count":24,"max_players":24,"Bots":0,"server_type":"Dedicated","server_os":"Linux","password":true,"vac":true,"version":"7882260","steam_id":85568392924469998,"keywords":["nocrits","nodmgspread","payload","uncletopia"],"game_id":440,"stv_port":27026,"stv_name":"Uncletopia | Seattle | 2 | All Maps | STV","players":[{"user_id":49,"name":"DuskDragon911","steam_id":76561198996036702,"connected_time":5707000000000,"state":"active","ping":95},{"user_id":113,"name":"็","steam_id":76561198067666595,"connected_time":2884000000000,"state":"active","ping":45},{"user_id":148,"name":"Boyaredeen","steam_id":76561198880492636,"connected_time":852000000000,"state":"active","ping":54},{"user_id":152,"name":"no sir","steam_id":76561198151244565,"connected_time":310000000000,"state":"active","ping":76},{"user_id":146,"name":"nav","steam_id":76561198872608266,"connected_time":1116000000000,"state":"active","ping":123},{"user_id":147,"name":"Shugar Lumps","steam_id":76561198043854564,"connected_time":1110000000000,"state":"active","ping":114},{"user_id":143,"name":"greens beans","steam_id":76561198153611491,"connected_time":1378000000000,"state":"active","ping":45},{"user_id":115,"name":"SYMBOL_YT","steam_id":76561198848655517,"connected_time":2815000000000,"state":"active","ping":62},{"user_id":141,"name":"Jolly","steam_id":76561198116357972,"connected_time":1561000000000,"state":"active","ping":72},{"user_id":150,"name":"Frogzilla","steam_id":76561198077657538,"connected_time":643000000000,"state":"active","ping":73},{"user_id":153,"name":"DanceBunny","steam_id":76561198243610560,"connected_time":184000000000,"state":"active","ping":77},{"user_id":157,"name":"Noremac_","steam_id":76561198074701001,"connected_time":23000000000,"state":"active","ping":73},{"user_id":101,"name":"A UsedNom","steam_id":76561198402832756,"connected_time":3898000000000,"state":"active","ping":64},{"user_id":144,"name":"watrisntfruit","steam_id":76561199274595793,"connected_time":1226000000000,"state":"active","ping":62},{"user_id":155,"name":"Els","steam_id":76561198354718934,"connected_time":75000000000,"state":"active","ping":93},{"user_id":123,"name":"Hyguy","steam_id":76561198193608742,"connected_time":2614000000000,"state":"active","ping":82},{"user_id":134,"name":"Feldspaten","steam_id":76561199122059102,"connected_time":2014000000000,"state":"active","ping":70},{"user_id":132,"name":"SCOTLAND FOREVER","steam_id":76561199151371479,"connected_time":2102000000000,"state":"active","ping":120},{"user_id":133,"name":"CPTforever","steam_id":76561198237767198,"connected_time":2092000000000,"state":"active","ping":61},{"user_id":107,"name":"Chorizo","steam_id":76561198208080773,"connected_time":3216000000000,"state":"active","ping":89},{"user_id":129,"name":"Banzai","steam_id":76561198196503877,"connected_time":2536000000000,"state":"active","ping":46},{"user_id":158,"name":"Psych03","steam_id":76561198061753667,"connected_time":23000000000,"state":"active","ping":78},{"user_id":149,"name":"toknam","steam_id":76561198032024648,"connected_time":800000000000,"state":"active","ping":60},{"user_id":156,"name":"Dextersbrain","steam_id":76561198011831579,"connected_time":41000000000,"state":"active","ping":66}]},{"server_id":406,"name":"Uncletopia | Seattle | 3 | Stopwatch Beta","name_short":"sea-3","host":"sea-1.us.uncletopia.com","port":27035,"enabled":true,"region":"us-west","cc":"us","latitude":47.608013,"longitude":-122.33517,"reserved":0,"last_update":"0001-01-01T00:00:00Z","name_a2s":"Uncletopia | Seattle | 3 | Stopwatch Beta","protocol":17,"map":"cp_mountainlab","folder":"tf","game":"Team Fortress","app_id":440,"player_count":0,"max_players":24,"Bots":0,"server_type":"Dedicated","server_os":"Linux","password":true,"vac":true,"version":"7882260","steam_id":85568392924515217,"keywords":["cp","nocrits","nodmgspread","uncletopia"],"game_id":440,"stv_port":27036,"stv_name":"Uncletopia | Seattle | 3 | Stopwatch Beta | STV","players":null},{"server_id":17,"name":"Uncletopia | San Francisco | 1 | All Maps","name_short":"sfo-1","host":"sfo-1.us.uncletopia.com","port":27015,"enabled":true,"region":"us-west","cc":"us","latitude":37.77397,"longitude":-122.4313,"reserved":0,"last_update":"0001-01-01T00:00:00Z","name_a2s":"Uncletopia | San Francisco | 1 | All Maps","protocol":17,"map":"cp_process_final","folder":"tf","game":"Team Fortress","app_id":440,"player_count":0,"max_players":24,"Bots":0,"server_type":"Dedicated","server_os":"Linux","password":true,"vac":true,"version":"7757534","steam_id":85568392924469999,"keywords":["cp","nocrits","nodmgspread","uncletopia"],"game_id":440,"stv_port":27016,"stv_name":"Uncletopia | San Francisco | 1 | All Maps | STV","players":null},{"server_id":18,"name":"Uncletopia | San Francisco | 2 | All Maps","name_short":"sfo-2","host":"sfo-1.us.uncletopia.com","port":27025,"enabled":true,"region":"us-west","cc":"us","latitude":37.77397,"longitude":-122.4313,"reserved":0,"last_update":"0001-01-01T00:00:00Z","name_a2s":"Uncletopia | San Francisco | 2 | All Maps","protocol":17,"map":"koth_highpass","folder":"tf","game":"Team Fortress","app_id":440,"player_count":0,"max_players":24,"Bots":0,"server_type":"Dedicated","server_os":"Linux","password":true,"vac":true,"version":"7757534","steam_id":85568392924470000,"keywords":["cp","nocrits","nodmgspread","uncletopia"],"game_id":440,"stv_port":27026,"stv_name":"Uncletopia | San Francisco | 2 | All Maps | STV","players":null},{"server_id":19,"name":"Uncletopia | San Francisco | 3 | Stopwatch Beta","name_short":"sfo-3","host":"sfo-1.us.uncletopia.com","port":27035,"enabled":true,"region":"us-west","cc":"us","latitude":37.77397,"longitude":-122.4313,"reserved":0,"last_update":"0001-01-01T00:00:00Z","name_a2s":"Uncletopia | San Francisco | 3 | Stopwatch Beta","protocol":17,"map":"koth_lakeside_final","folder":"tf","game":"Team Fortress","app_id":440,"player_count":0,"max_players":24,"Bots":0,"server_type":"Dedicated","server_os":"Linux","password":true,"vac":true,"version":"7757534","steam_id":85568392924742824,"keywords":["cp","nocrits","nodmgspread","uncletopia"],"game_id":440,"stv_port":27036,"stv_name":"Uncletopia | San Francisco | 3 | Stopwatch Beta | STV","players":null},{"server_id":20,"name":"Uncletopia | San Francisco | 4 | Community","name_short":"sfo-4","host":"sfo-1.us.uncletopia.com","port":27045,"enabled":true,"region":"us-west","cc":"us","latitude":37.77397,"longitude":-122.4313,"reserved":0,"last_update":"0001-01-01T00:00:00Z","name_a2s":"Uncletopia | San Francisco | 4 | Community","protocol":17,"map":"cp_altitude","folder":"tf","game":"Team Fortress","app_id":440,"player_count":0,"max_players":24,"Bots":0,"server_type":"Dedicated","server_os":"Linux","password":true,"vac":true,"version":"7757534","steam_id":85568392924742826,"keywords":["cp","nocrits","nodmgspread","uncletopia"],"game_id":440,"stv_port":27046,"stv_name":"Uncletopia | San Francisco | 4 | Community | STV","players":null},{"server_id":141,"name":"Uncletopia | Sydney | 1 | All Maps","name_short":"syd-1","host":"syd-1.au.uncletopia.com","port":27015,"enabled":true,"region":"au","cc":"au","latitude":-33.865143,"longitude":151.2099,"reserved":0,"last_update":"0001-01-01T00:00:00Z","name_a2s":"Uncletopia | Sydney | 1 | All Maps","protocol":17,"map":"cp_snakewater_final1","folder":"tf","game":"Team Fortress","app_id":440,"player_count":0,"max_players":24,"Bots":0,"server_type":"Dedicated","server_os":"Linux","password":true,"vac":true,"version":"7882260","steam_id":85568392924470001,"keywords":["cp","nocrits","nodmgspread","uncletopia"],"game_id":440,"stv_port":27016,"stv_name":"Uncletopia | Sydney | 1 | All Maps | STV","players":null},{"server_id":123,"name":"Uncletopia | Sydney | 2 | All Maps","name_short":"syd-2","host":"syd-1.au.uncletopia.com","port":27025,"enabled":true,"region":"au","cc":"au","latitude":-33.865143,"longitude":151.2099,"reserved":0,"last_update":"0001-01-01T00:00:00Z","name_a2s":"Uncletopia | Sydney | 2 | All Maps","protocol":17,"map":"koth_viaduct","folder":"tf","game":"Team Fortress","app_id":440,"player_count":0,"max_players":24,"Bots":0,"server_type":"Dedicated","server_os":"Linux","password":true,"vac":true,"version":"7882260","steam_id":85568392924470002,"keywords":["cp","nocrits","nodmgspread","uncletopia"],"game_id":440,"stv_port":27026,"stv_name":"Uncletopia | Sydney | 2 | All Maps | STV","players":null},{"server_id":395,"name":"Uncletopia | Sydney | 3 | All Maps","name_short":"syd-3","host":"syd-1.au.uncletopia.com","port":27035,"enabled":true,"region":"au","cc":"au","latitude":-33.865143,"longitude":151.2099,"reserved":0,"last_update":"0001-01-01T00:00:00Z","name_a2s":"Uncletopia | Sydney | 3 | All Maps","protocol":17,"map":"koth_highpass","folder":"tf","game":"Team Fortress","app_id":440,"player_count":0,"max_players":24,"Bots":0,"server_type":"Dedicated","server_os":"Linux","password":true,"vac":true,"version":"7882260","steam_id":85568392925194467,"keywords":["cp","nocrits","nodmgspread","uncletopia"],"game_id":440,"stv_port":27036,"stv_name":"Uncletopia | Sydney | 3 | All Maps | STV","players":null},{"server_id":396,"name":"Uncletopia | Sydney | 4 | All Maps","name_short":"syd-4","host":"syd-1.au.uncletopia.com","port":27045,"enabled":true,"region":"au","cc":"au","latitude":-33.865143,"longitude":151.2099,"reserved":0,"last_update":"0001-01-01T00:00:00Z","name_a2s":"Uncletopia | Sydney | 4 | All Maps","protocol":17,"map":"cp_mountainlab","folder":"tf","game":"Team Fortress","app_id":440,"player_count":0,"max_players":24,"Bots":0,"server_type":"Dedicated","server_os":"Linux","password":true,"vac":true,"version":"7882260","steam_id":85568392925397958,"keywords":["cp","nocrits","nodmgspread","uncletopia"],"game_id":440,"stv_port":27046,"stv_name":"Uncletopia | Sydney | 4 | All Maps | STV","players":null},{"server_id":58,"name":"Uncletopia | Sydney | 5 | Stopwatch Beta","name_short":"syd-5","host":"syd-1.au.uncletopia.com","port":27055,"enabled":true,"region":"au","cc":"au","latitude":-33.865143,"longitude":151.2099,"reserved":0,"last_update":"0001-01-01T00:00:00Z","name_a2s":"Uncletopia | Sydney | 5 | Stopwatch Beta","protocol":17,"map":"cp_snakewater_final1","folder":"tf","game":"Team Fortress","app_id":440,"player_count":0,"max_players":24,"Bots":0,"server_type":"Dedicated","server_os":"Linux","password":true,"vac":true,"version":"7882260","steam_id":85568392925397959,"keywords":["cp","nocrits","nodmgspread","uncletopia"],"game_id":440,"stv_port":27056,"stv_name":"Uncletopia | Sydney | 5 | Stopwatch Beta | STV","players":null},{"server_id":59,"name":"Uncletopia | Sydney | 6 | Community","name_short":"syd-6","host":"syd-1.au.uncletopia.com","port":27065,"enabled":true,"region":"au","cc":"au","latitude":-33.865143,"longitude":151.2099,"reserved":0,"last_update":"0001-01-01T00:00:00Z","name_a2s":"Uncletopia | Sydney | 6 | Community","protocol":17,"map":"pl_snowycoast","folder":"tf","game":"Team Fortress","app_id":440,"player_count":0,"max_players":24,"Bots":0,"server_type":"Dedicated","server_os":"Linux","password":true,"vac":true,"version":"7882260","steam_id":85568392925397960,"keywords":["nocrits","nodmgspread","payload","uncletopia"],"game_id":440,"stv_port":27066,"stv_name":"Uncletopia | Sydney | 6 | Community | STV","players":null},{"server_id":49,"name":"Uncletopia | Warsaw | 1 | All Maps","name_short":"waw-1","host":"waw-1.pl.uncletopia.com","port":27015,"enabled":true,"region":"eu","cc":"pl","latitude":52.2297,"longitude":21.017532,"reserved":0,"last_update":"0001-01-01T00:00:00Z","name_a2s":"","protocol":0,"map":"","folder":"","game":"","app_id":0,"player_count":0,"max_players":0,"Bots":0,"server_type":"","server_os":"","password":false,"vac":false,"version":"","steam_id":0,"keywords":null,"game_id":0,"stv_port":0,"stv_name":"","players":null},{"server_id":50,"name":"Uncletopia | Warsaw | 2 | All Maps","name_short":"waw-2","host":"waw-1.pl.uncletopia.com","port":27025,"enabled":true,"region":"eu","cc":"pl","latitude":52.2297,"longitude":21.017532,"reserved":0,"last_update":"0001-01-01T00:00:00Z","name_a2s":"Uncletopia | Warsaw | 2 | All Maps","protocol":17,"map":"cp_dustbowl","folder":"tf","game":"Team Fortress","app_id":440,"player_count":1,"max_players":24,"Bots":0,"server_type":"Dedicated","server_os":"Linux","password":true,"vac":true,"version":"7882260","steam_id":85568392925397851,"keywords":["cp","nocrits","nodmgspread","uncletopia"],"game_id":440,"stv_port":27026,"stv_name":"Uncletopia | Warsaw | 2 | All Maps | STV","players":[{"user_id":218,"name":"Cpt.Slug","steam_id":76561198123654447,"connected_time":36000000000,"state":"active","ping":298}]},{"server_id":51,"name":"Uncletopia | Warsaw | 3 | All Maps","name_short":"waw-3","host":"waw-1.pl.uncletopia.com","port":27035,"enabled":true,"region":"eu","cc":"pl","latitude":52.2297,"longitude":21.017532,"reserved":0,"last_update":"0001-01-01T00:00:00Z","name_a2s":"Uncletopia | Warsaw | 3 | All Maps","protocol":17,"map":"cp_altitude","folder":"tf","game":"Team Fortress","app_id":440,"player_count":0,"max_players":24,"Bots":0,"server_type":"Dedicated","server_os":"Linux","password":true,"vac":true,"version":"7882260","steam_id":85568392925397852,"keywords":["cp","nocrits","nodmgspread","uncletopia"],"game_id":440,"stv_port":27036,"stv_name":"Uncletopia | Warsaw | 3 | All Maps | STV","players":null},{"server_id":52,"name":"Uncletopia | Warsaw | 4 | All Maps","name_short":"waw-4","host":"waw-1.pl.uncletopia.com","port":27045,"enabled":true,"region":"eu","cc":"pl","latitude":52.2297,"longitude":21.017532,"reserved":0,"last_update":"0001-01-01T00:00:00Z","name_a2s":"Uncletopia | Warsaw | 4 | All Maps","protocol":17,"map":"pl_frontier_final","folder":"tf","game":"Team Fortress","app_id":440,"player_count":0,"max_players":24,"Bots":0,"server_type":"Dedicated","server_os":"Linux","password":true,"vac":true,"version":"7882260","steam_id":85568392925397853,"keywords":["nocrits","nodmgspread","payload","uncletopia"],"game_id":440,"stv_port":27046,"stv_name":"Uncletopia | Warsaw | 4 | All Maps | STV","players":null},{"server_id":53,"name":"Uncletopia | Warsaw | 5 | Stopwatch Beta","name_short":"waw-5","host":"waw-1.pl.uncletopia.com","port":27055,"enabled":true,"region":"eu","cc":"pl","latitude":52.2297,"longitude":21.017532,"reserved":0,"last_update":"0001-01-01T00:00:00Z","name_a2s":"Uncletopia | Warsaw | 5 | Stopwatch Beta","protocol":17,"map":"workshop/koth_ramjam_rc1.ugc459778887","folder":"tf","game":"Team Fortress","app_id":440,"player_count":0,"max_players":24,"Bots":0,"server_type":"Dedicated","server_os":"Linux","password":true,"vac":true,"version":"7882260","steam_id":85568392925397854,"keywords":["cp","nocrits","nodmgspread","uncletopia"],"game_id":440,"stv_port":27056,"stv_name":"Uncletopia | Warsaw | 5 | Stopwatch Beta | STV","players":null},{"server_id":54,"name":"Uncletopia | Warsaw | 6 | Community","name_short":"waw-6","host":"waw-1.pl.uncletopia.com","port":27065,"enabled":true,"region":"eu","cc":"pl","latitude":52.2297,"longitude":21.017532,"reserved":0,"last_update":"0001-01-01T00:00:00Z","name_a2s":"Uncletopia | Warsaw | 6 | Community","protocol":17,"map":"koth_viaduct","folder":"tf","game":"Team Fortress","app_id":440,"player_count":0,"max_players":24,"Bots":0,"server_type":"Dedicated","server_os":"Linux","password":true,"vac":true,"version":"7882260","steam_id":85568392925397856,"keywords":["cp","nocrits","nodmgspread","uncletopia"],"game_id":440,"stv_port":27066,"stv_name":"Uncletopia | Warsaw | 6 | Community | STV","players":null}]}