{"status":true,"message":"","result":[{"server_id":9,"name":"Uncletopia | Atlanta | 1 | All Maps","name_short":"atl-1","host":"atl-1.us.uncletopia.com","port":27015,"enabled":true,"region":"us-east","cc":"us","latitude":33.753746,"longitude":-84.38633,"reserved":0,"last_update":"0001-01-01T00:00:00Z","name_a2s":"Uncletopia | Atlanta | 1 | All Maps","protocol":17,"map":"pl_pier","folder":"tf","game":"Team Fortress","app_id":440,"player_count":20,"max_players":24,"Bots":0,"server_type":"Dedicated","server_os":"Linux","password":true,"vac":true,"version":"7882260","steam_id":85568392924469982,"keywords":["nocrits","nodmgspread","payload","uncletopia"],"game_id":440,"stv_port":27016,"stv_name":"Uncletopia | Atlanta | 1 | All Maps | STV","players":[{"user_id":67,"name":"KBoneski ♡","steam_id":76561198307409065,"connected_time":3787000000000,"state":"active","ping":130},{"user_id":93,"name":"jay","steam_id":76561199474493516,"connected_time":1704000000000,"state":"active","ping":110},{"user_id":92,"name":"Dr. Twa","steam_id":76561198295529541,"connected_time":2032000000000,"state":"active","ping":72},{"user_id":71,"name":"cola","steam_id":76561198374390458,"connected_time":3767000000000,"state":"active","ping":52},{"user_id":110,"name":"armando godbody","steam_id":76561197996819313,"connected_time":311000000000,"state":"active","ping":54},{"user_id":99,"name":"Hector Salamanca","steam_id":76561199103213955,"connected_time":1543000000000,"state":"active","ping":119},{"user_id":103,"name":"The Last Aedavarian","steam_id":76561198035432250,"connected_time":1014000000000,"state":"active","ping":106},{"user_id":111,"name":"Copper","steam_id":76561198858209214,"connected_time":310000000000,"state":"active","ping":97},{"user_id":32,"name":"eish","steam_id":76561198089463603,"connected_time":7839000000000,"state":"active","ping":118},{"user_id":112,"name":"pr1me","steam_id":76561197998103691,"connected_time":284000000000,"state":"active","ping":112},{"user_id":117,"name":"BroBama","steam_id":76561198203732587,"connected_time":107000000000,"state":"connecting","ping":0},{"user_id":68,"name":"Messy_","steam_id":76561199095580664,"connected_time":3785000000000,"state":"active","ping":129},{"user_id":106,"name":"Gary Budussy","steam_id":76561197969793969,"connected_time":882000000000,"state":"active","ping":71},{"user_id":118,"name":"Rex","steam_id":76561198138365053,"connected_time":80000000000,"state":"active","ping":310},{"user_id":94,"name":"Terror","steam_id":76561198188685728,"connected_time":1638000000000,"state":"active","ping":60},{"user_id":95,"name":"SLOPPY BLOWJOB DEVIL","steam_id":76561198819545533,"connected_time":1635000000000,"state":"active","ping":76},{"user_id":105,"name":"Duckywinner","steam_id":76561198254828139,"connected_time":969000000000,"state":"active","ping":58},{"user_id":116,"name":"SteelTuff","steam_id":76561198279969439,"connected_time":224000000000,"state":"active","ping":129},{"user_id":53,"name":"DuckMann","steam_id":76561198197058638,"connected_time":5570000000000,"state":"active","ping":43},{"user_id":91,"name":"Save your wifi","steam_id":76561198286147372,"connected_time":2166000000000,"state":"active","ping":60}]},{"server_id":104,"name":"Uncletopia | Atlanta | 2 | All Maps","name_short":"atl-2","host":"atl-1.us.uncletopia.com","port":27025,"enabled":true,"region":"us-east","cc":"us","latitude":33.753746,"longitude":-84.38633,"reserved":0,"last_update":"0001-01-01T00:00:00Z","name_a2s":"Uncletopia | Atlanta | 2 | All Maps","protocol":17,"map":"pl_barnblitz","folder":"tf","game":"Team Fortress","app_id":440,"player_count":22,"max_players":24,"Bots":0,"server_type":"Dedicated","server_os":"Linux","password":true,"vac":true,"version":"7882260","steam_id":85568392924469983,"keywords":["nocrits","nodmgspread","payload","uncletopia"],"game_id":440,"stv_port":27026,"stv_name":"Uncletopia | Atlanta | 2 | All Maps | STV","players":[{"user_id":92,"name":"bunny girl bimbo!","steam_id":76561198122027532,"connected_time":4067000000000,"state":"active","ping":62},{"user_id":140,"name":"allenr200415","steam_id":76561198950845093,"connected_time":1136000000000,"state":"active","ping":86},{"user_id":73,"name":"Q47","steam_id":76561198087128341,"connected_time":6517000000000,"state":"active","ping":111},{"user_id":90,"name":"Mr. DeLarge","steam_id":76561198336820066,"connected_time":4090000000000,"state":"active","ping":113},{"user_id":116,"name":"YASAI JUICE","steam_id":76561198131971992,"connected_time":2751000000000,"state":"active","ping":59},{"user_id":75,"name":"illious","steam_id":76561198169925494,"connected_time":6427000000000,"state":"active","ping":59},{"user_id":148,"name":"BreadGod","steam_id":76561198050665205,"connected_time":695000000000,"state":"active","ping":60},{"user_id":105,"name":"Big Mike","steam_id":76561198035359685,"connected_time":3621000000000,"state":"active","ping":57},{"user_id":143,"name":"bengineer","steam_id":76561198171912174,"connected_time":822000000000,"state":"active","ping":109},{"user_id":65,"name":"xFactr","steam_id":76561198129007422,"connected_time":7045000000000,"state":"active","ping":75},{"user_id":136,"name":"girthmilk","steam_id":76561198054799782,"connected_time":1488000000000,"state":"active","ping":64},{"user_id":137,"name":"lazer_tazer123","steam_id":76561198136411038,"connected_time":1392000000000,"state":"active","ping":88},{"user_id":91,"name":"Gugomo","steam_id":76561198121428316,"connected_time":4088000000000,"state":"active","ping":84},{"user_id":142,"name":"Pitch Stick","steam_id":76561198800287853,"connected_time":902000000000,"state":"active","ping":100},{"user_id":128,"name":"Crystal Mongoose","steam_id":76561198001585325,"connected_time":2146000000000,"state":"active","ping":46},{"user_id":144,"name":"Professionally Braindead ツ","steam_id":76561198276714220,"connected_time":821000000000,"state":"active","ping":59},{"user_id":132,"name":"Architect","steam_id":76561198015242016,"connected_time":1947000000000,"state":"active","ping":78},{"user_id":141,"name":"SadVeggie","steam_id":76561198163430099,"connected_time":1116000000000,"state":"active","ping":135},{"user_id":139,"name":"supcupman","steam_id":76561198051513866,"connected_time":1323000000000,"state":"active","ping":115},{"user_id":149,"name":"Chhaam","steam_id":76561198058508132,"connected_time":651000000000,"state":"active","ping":53},{"user_id":150,"name":"Tan_Rat","steam_id":76561198313629344,"connected_time":594000000000,"state":"active","ping":95},{"user_id":146,"name":"pipis","steam_id":76561198140971525,"connected_time":810000000000,"state":"active","ping":84}]},{"server_id":400,"name":"Uncletopia | Atlanta | 3 | Community","name_short":"atl-3","host":"atl-1.us.uncletopia.com","port":27035,"enabled":true,"region":"us-east","cc":"us","latitude":33.753746,"longitude":-84.38633,"reserved":0,"last_update":"0001-01-01T00:00:00Z","name_a2s":"Uncletopia | Atlanta | 3 | Community","protocol":17,"map":"workshop/pl_divulgence_b4b.ugc2884808746","folder":"tf","game":"Team Fortress","app_id":440,"player_count":23,"max_players":24,"Bots":0,"server_type":"Dedicated","server_os":"Linux","password":true,"vac":true,"version":"7882260","steam_id":85568392924515187,"keywords":["nocrits","nodmgspread","payload","uncletopia"],"game_id":440,"stv_port":27036,"stv_name":"Uncletopia | Atlanta | 3 | Community | STV","players":[{"user_id":97,"name":"GIGAHAXX","steam_id":76561197993714726,"connected_time":1553000000000,"state":"active","ping":94},{"user_id":84,"name":"ᕕ( ᐛ )ᕗ Wakko","steam_id":76561198049850471,"connected_time":2093000000000,"state":"active","ping":63},{"user_id":5,"name":"Aeonspassed","steam_id":76561198014016451,"connected_time":9296000000000,"state":"active","ping":91},{"user_id":104,"name":"Captain Zyrin","steam_id":76561197983121824,"connected_time":808000000000,"state":"active","ping":90},{"user_id":7,"name":"Ritzy","steam_id":76561198381955342,"connected_time":9292000000000,"state":"active","ping":142},{"user_id":99,"name":"Huey","steam_id":76561198972816386,"connected_time":1409000000000,"state":"active","ping":63},{"user_id":87,"name":"exotic.luke","steam_id":76561198126466112,"connected_time":2023000000000,"state":"active","ping":79},{"user_id":85,"name":"arkona","steam_id":76561198368556572,"connected_time":2072000000000,"state":"active","ping":166},{"user_id":102,"name":"Comfy Monkey","steam_id":76561197998434936,"connected_time":1025000000000,"state":"active","ping":51},{"user_id":12,"name":"Shadow WIZARD MoneyGang","steam_id":76561197986051713,"connected_time":9275000000000,"state":"active","ping":115},{"user_id":53,"name":"dog","steam_id":76561198263873491,"connected_time":6185000000000,"state":"active","ping":57},{"user_id":105,"name":"Peter McKay","steam_id":76561198842221188,"connected_time":754000000000,"state":"active","ping":76},{"user_id":88,"name":"Truly Cryo","steam_id":76561198347497484,"connected_time":2021000000000,"state":"active","ping":111},{"user_id":16,"name":"Atlas","steam_id":76561198127975050,"connected_time":9263000000000,"state":"active","ping":55},{"user_id":103,"name":"IFong","steam_id":76561198047571208,"connected_time":987000000000,"state":"active","ping":96},{"user_id":77,"name":"Help! I'm Underwater!","steam_id":76561198030291655,"connected_time":2752000000000,"state":"active","ping":62},{"user_id":90,"name":"Goldensliv","steam_id":76561198161673891,"connected_time":1792000000000,"state":"active","ping":90},{"user_id":31,"name":"Sprit ♥","steam_id":76561198268780781,"connected_time":8839000000000,"state":"active","ping":59},{"user_id":21,"name":"Ostrich","steam_id":76561198068553779,"connected_time":9245000000000,"state":"active","ping":63},{"user_id":71,"name":"Kirbo","steam_id":76561199185303303,"connected_time":3416000000000,"state":"active","ping":80},{"user_id":106,"name":"Gun","steam_id":76561198170110783,"connected_time":739000000000,"state":"active","ping":79},{"user_id":108,"name":"BroBama","steam_id":76561198203732587,"connected_time":57000000000,"state":"active","ping":113},{"user_id":107,"name":"Fart McPenis","steam_id":76561198068084099,"connected_time":723000000000,"state":"active","ping":87}]},{"server_id":401,"name":"Uncletopia | Atlanta | 4 | No Payload","name_short":"atl-4","host":"atl-1.us.uncletopia.com","port":27045,"enabled":true,"region":"us-east","cc":"us","latitude":33.753746,"longitude":-84.38633,"reserved":0,"last_update":"0001-01-01T00:00:00Z","name_a2s":"","protocol":0,"map":"","folder":"","game":"","app_id":0,"player_count":0,"max_players":0,"Bots":0,"server_type":"","server_os":"","password":false,"vac":false,"version":"","steam_id":0,"keywords":null,"game_id":0,"stv_port":0,"stv_name":"","players":null},{"server_id":2,"name":"Uncletopia | Chicago | 1 | All Maps","name_short":"chi-1","host":"chi-1.us.uncletopia.com","port":27015,"enabled":true,"region":"us-central","cc":"us","latitude":41.881832,"longitude":-87.62318,"reserved":0,"last_update":"0001-01-01T00:00:00Z","name_a2s":"Uncletopia | Chicago | 1 | All Maps","protocol":17,"map":"pl_pier","folder":"tf","game":"Team Fortress","app_id":440,"player_count":24,"max_players":24,"Bots":0,"server_type":"Dedicated","server_os":"Linux","password":true,"vac":true,"version":"7882260","steam_id":85568392924469984,"keywords":["nocrits","nodmgspread","payload","uncletopia"],"game_id":440,"stv_port":27016,"stv_name":"Uncletopia | Chicago | 1 | All Maps | STV","players":[{"user_id":109,"name":"team foolery 2","steam_id":76561199118049168,"connected_time":1718000000000,"state":"active","ping":98},{"user_id":111,"name":"Rajakz","steam_id":76561198220741160,"connected_time":1371000000000,"state":"active","ping":60},{"user_id":113,"name":"-W3E- grim10465","steam_id":76561198045698581,"connected_time":1232000000000,"state":"active","ping":45},{"user_id":57,"name":"Horrizan","steam_id":76561197965028480,"connected_time":7183000000000,"state":"active","ping":88},{"user_id":123,"name":"Aedaxe","steam_id":76561198036555143,"connected_time":379000000000,"state":"active","ping":75},{"user_id":114,"name":"Wizard Raccoon","steam_id":76561198072562591,"connected_time":1223000000000,"state":"active","ping":83},{"user_id":71,"name":"Ademar","steam_id":76561199391802581,"connected_time":6496000000000,"state":"active","ping":50},{"user_id":115,"name":"Praise_to_the_Flashlight!","steam_id":76561199001728789,"connected_time":1216000000000,"state":"active","ping":62},{"user_id":11,"name":"Doublebagel47","steam_id":76561198832021744,"connected_time":9340000000000,"state":"active","ping":72},{"user_id":77,"name":"Provocator","steam_id":76561197961830410,"connected_time":5690000000000,"state":"active","ping":72},{"user_id":102,"name":"Rick Yeti","steam_id":76561198025462553,"connected_time":2866000000000,"state":"active","ping":64},{"user_id":116,"name":"MaDeuce","steam_id":76561198110732835,"connected_time":1149000000000,"state":"active","ping":123},{"user_id":97,"name":"Thundermonkey (SMOKE)","steam_id":76561198017631728,"connected_time":3658000000000,"state":"active","ping":60},{"user_id":117,"name":"VidzCMC","steam_id":76561198848142973,"connected_time":1085000000000,"state":"active","ping":49},{"user_id":101,"name":"BackToSchoolAds","steam_id":76561198870281128,"connected_time":3472000000000,"state":"active","ping":89},{"user_id":91,"name":"eat Pant","steam_id":76561197974965536,"connected_time":4794000000000,"state":"active","ping":59},{"user_id":38,"name":"jpuzza","steam_id":76561198035535731,"connected_time":8620000000000,"state":"active","ping":752},{"user_id":105,"name":"ElectronX","steam_id":76561198116034988,"connected_time":2707000000000,"state":"active","ping":103},{"user_id":100,"name":"The_Pacific_gamer","steam_id":76561198089491446,"connected_time":3549000000000,"state":"active","ping":98},{"user_id":110,"name":"Astoriae!","steam_id":76561199090168858,"connected_time":1660000000000,"state":"active","ping":67},{"user_id":118,"name":"OUTER DEAD POOL","steam_id":76561198394197414,"connected_time":1083000000000,"state":"active","ping":85},{"user_id":82,"name":"donatello ツ","steam_id":76561198091157081,"connected_time":5239000000000,"state":"active","ping":54},{"user_id":119,"name":"Shystie","steam_id":76561198025371440,"connected_time":1043000000000,"state":"active","ping":72},{"user_id":120,"name":"ᴿᴺᴳ Grimvibes","steam_id":76561198065621941,"connected_time":1038000000000,"state":"active","ping":95}]},{"server_id":106,"name":"Uncletopia | Chicago | 2 | All Maps","name_short":"chi-2","host":"chi-1.us.uncletopia.com","port":27025,"enabled":true,"region":"us-central","cc":"us","latitude":41.881832,"longitude":-87.62318,"reserved":0,"last_update":"0001-01-01T00:00:00Z","name_a2s":"Uncletopia | Chicago | 2 | All Maps","protocol":17,"map":"pl_upward","folder":"tf","game":"Team Fortress","app_id":440,"player_count":22,"max_players":24,"Bots":0,"server_type":"Dedicated","server_os":"Linux","password":true,"vac":true,"version":"7882260","steam_id":85568392924469985,"keywords":["nocrits","nodmgspread","payload","uncletopia"],"game_id":440,"stv_port":27026,"stv_name":"Uncletopia | Chicago | 2 | All Maps | STV","players":[{"user_id":3,"name":"TheGhostThatWas","steam_id":76561198055836483,"connected_time":9345000000000,"state":"active","ping":59},{"user_id":146,"name":"0","steam_id":76561198994761483,"connected_time":198000000000,"state":"active","ping":89},{"user_id":142,"name":"tighty walter whities","steam_id":76561199122915452,"connected_time":906000000000,"state":"active","ping":99},{"user_id":125,"name":"A Puppy","steam_id":76561198828184456,"connected_time":1815000000000,"state":"active","ping":59},{"user_id":124,"name":"Jango","steam_id":76561198084589742,"connected_time":1893000000000,"state":"active","ping":77},{"user_id":126,"name":"Bomb pearl harbour again","steam_id":76561198330105602,"connected_time":1694000000000,"state":"active","ping":110},{"user_id":131,"name":"Giggles™","steam_id":76561198058708019,"connected_time":1252000000000,"state":"active","ping":55},{"user_id":91,"name":"mai","steam_id":76561198117237068,"connected_time":5096000000000,"state":"active","ping":75},{"user_id":127,"name":"raya","steam_id":76561198051504581,"connected_time":1608000000000,"state":"active","ping":83},{"user_id":132,"name":"Sarbanes-Oxley","steam_id":76561197975898479,"connected_time":1169000000000,"state":"active","ping":75},{"user_id":134,"name":"Ann Ziegler (No Sound)","steam_id":76561198052249401,"connected_time":1033000000000,"state":"active","ping":45},{"user_id":92,"name":"TheXenoKing","steam_id":76561198127424141,"connected_time":5095000000000,"state":"active","ping":98},{"user_id":135,"name":"Minermarcus7","steam_id":76561199099397537,"connected_time":1032000000000,"state":"active","ping":65},{"user_id":136,"name":"TheRealJoeRogan","steam_id":76561198283860203,"connected_time":1023000000000,"state":"active","ping":99},{"user_id":137,"name":"Ryan","steam_id":76561198046600383,"connected_time":1017000000000,"state":"active","ping":86},{"user_id":113,"name":"frank","steam_id":76561198137777483,"connected_time":3434000000000,"state":"active","ping":61},{"user_id":140,"name":"ParzavalTheFirst","steam_id":76561198832046269,"connected_time":947000000000,"state":"active","ping":83},{"user_id":141,"name":"Dunkle","steam_id":76561198041903573,"connected_time":935000000000,"state":"active","ping":91},{"user_id":145,"name":"BruteForceLK","steam_id":76561198043922524,"connected_time":553000000000,"state":"active","ping":73},{"user_id":120,"name":"mos","steam_id":76561197995777973,"connected_time":2575000000000,"state":"active","ping":72},{"user_id":117,"name":"I'mWillow","steam_id":76561198229691912,"connected_time":2671000000000,"state":"active","ping":62},{"user_id":148,"name":"Pongallow","steam_id":76561198146876078,"connected_time":89000000000,"state":"active","ping":45}]},{"server_id":402,"name":"Uncletopia | Chicago | 3 | All Maps","name_short":"chi-3","host":"chi-1.us.uncletopia.com","port":27035,"enabled":true,"region":"us-central","cc":"us","latitude":41.881832,"longitude":-87.62318,"reserved":0,"last_update":"0001-01-01T00:00:00Z","name_a2s":"Uncletopia | Chicago | 3 | All Maps","protocol":17,"map":"cp_dustbowl","folder":"tf","game":"Team Fortress","app_id":440,"player_count":24,"max_players":24,"Bots":0,"server_type":"Dedicated","server_os":"Linux","password":true,"vac":true,"version":"7882260","steam_id":85568392924515191,"keywords":["cp","nocrits","nodmgspread","uncletopia"],"game_id":440,"stv_port":27036,"stv_name":"Uncletopia | Chicago | 3 | All Maps | STV","players":[{"user_id":93,"name":"A Can of Arizona Green Tea","steam_id":76561198062481133,"connected_time":4675000000000,"state":"active","ping":82},{"user_id":150,"name":"God (horny)","steam_id":76561198131089513,"connected_time":1707000000000,"state":"active","ping":45},{"user_id":158,"name":"Spud","steam_id":76561197998053634,"connected_time":795000000000,"state":"active","ping":51},{"user_id":143,"name":"Daithi de Nogla","steam_id":76561198391995981,"connected_time":2259000000000,"state":"active","ping":78},{"user_id":159,"name":"mcjuice","steam_id":76561198087730829,"connected_time":773000000000,"state":"active","ping":68},{"user_id":144,"name":"Marion Moseby","steam_id":76561198052477319,"connected_time":2250000000000,"state":"active","ping":48},{"user_id":169,"name":"Suspicious Daycare Employee","steam_id":76561198053602791,"connected_time":161000000000,"state":"active","ping":97},{"user_id":156,"name":"Buckethead","steam_id":76561198210181296,"connected_time":1068000000000,"state":"active","ping":100},{"user_id":43,"name":"seldom","steam_id":76561198166193756,"connected_time":7722000000000,"state":"active","ping":56},{"user_id":151,"name":"Felwo3","steam_id":76561199217352978,"connected_time":1471000000000,"state":"active","ping":186},{"user_id":134,"name":"Skeleton Dad","steam_id":76561198021489595,"connected_time":2484000000000,"state":"active","ping":76},{"user_id":166,"name":"chilis baby back ribs","steam_id":76561198813516435,"connected_time":304000000000,"state":"active","ping":92},{"user_id":155,"name":"Ypuoi","steam_id":76561198170203261,"connected_time":1101000000000,"state":"active","ping":114},{"user_id":161,"name":"Skeleton Hotel","steam_id":76561198041704727,"connected_time":693000000000,"state":"active","ping":56},{"user_id":135,"name":"Styx","steam_id":76561198158334494,"connected_time":2469000000000,"state":"active","ping":55},{"user_id":121,"name":"♥ L U N A R ♥","steam_id":76561199010112750,"connected_time":3531000000000,"state":"active","ping":53},{"user_id":167,"name":"im swag","steam_id":76561199215943081,"connected_time":181000000000,"state":"active","ping":45},{"user_id":116,"name":"blunderly","steam_id":76561198131915334,"connected_time":3730000000000,"state":"active","ping":61},{"user_id":136,"name":"captainskullet","steam_id":76561198314597170,"connected_time":2469000000000,"state":"active","ping":67},{"user_id":163,"name":"Homunculus Gambino","steam_id":76561198158433378,"connected_time":640000000000,"state":"active","ping":68},{"user_id":164,"name":"daviszombie","steam_id":76561199085146329,"connected_time":636000000000,"state":"active","ping":67},{"user_id":120,"name":"Enron Hubbard","steam_id":76561198012951411,"connected_time":3559000000000,"state":"active","ping":53},{"user_id":165,"name":"lazyderg","steam_id":76561198244920070,"connected_time":529000000000,"state":"active","ping":170},{"user_id":146,"name":"MoonWolf","steam_id":76561198095735033,"connected_time":2152000000000,"state":"active","ping":69}]},{"server_id":403,"name":"Uncletopia | Chicago | 4 | All Maps","name_short":"chi-4","host":"chi-1.us.uncletopia.com","port":27045,"enabled":true,"region":"us-central","cc":"us","latitude":41.881832,"longitude":-87.62318,"reserved":0,"last_update":"0001-01-01T00:00:00Z","name_a2s":"Uncletopia | Chicago | 4 | All Maps","protocol":17,"map":"pl_barnblitz","folder":"tf","game":"Team Fortress","app_id":440,"player_count":11,"max_players":24,"Bots":0,"server_type":"Dedicated","server_os":"Linux","password":true,"vac":true,"version":"7882260","steam_id":85568392924515193,"keywords":["nocrits","nodmgspread","payload","uncletopia"],"game_id":440,"stv_port":27046,"stv_name":"Uncletopia | Chicago | 4 | All Maps | STV","players":[{"user_id":173,"name":"Pestilence","steam_id":76561198272327629,"connected_time":290000000000,"state":"active","ping":94},{"user_id":138,"name":"MeAmJosh","steam_id":76561198064983436,"connected_time":1861000000000,"state":"active","ping":73},{"user_id":169,"name":"Jet Jaguar","steam_id":76561198034881137,"connected_time":332000000000,"state":"active","ping":97},{"user_id":162,"name":"Goober","steam_id":76561198988863807,"connected_time":991000000000,"state":"active","ping":73},{"user_id":170,"name":"Onlinemph","steam_id":76561198036896388,"connected_time":328000000000,"state":"active","ping":69},{"user_id":140,"name":"meisNate","steam_id":76561198215261695,"connected_time":1803000000000,"state":"active","ping":122},{"user_id":141,"name":"gonk","steam_id":76561198061206732,"connected_time":1801000000000,"state":"active","ping":76},{"user_id":147,"name":"Pizza the Hut","steam_id":76561197970450546,"connected_time":1654000000000,"state":"active","ping":111},{"user_id":158,"name":"Karrman","steam_id":76561198859737700,"connected_time":1164000000000,"state":"active","ping":74},{"user_id":165,"name":"Euroclydon","steam_id":76561198279006965,"connected_time":907000000000,"state":"active","ping":56},{"user_id":172,"name":"Jaded","steam_id":76561198272575611,"connected_time":297000000000,"state":"active","ping":119}]},{"server_id":36,"name":"Uncletopia | Chicago | 5 | All Maps","name_short":"chi-5","host":"chi-2.us.uncletopia.com","port":27015,"enabled":true,"region":"us-central","cc":"us","latitude":41.881832,"longitude":-87.62318,"reserved":0,"last_update":"0001-01-01T00:00:00Z","name_a2s":"Uncletopia | Chicago | 5 | All Maps","protocol":17,"map":"pl_swiftwater_final1","folder":"tf","game":"Team Fortress","app_id":440,"player_count":19,"max_players":24,"Bots":0,"server_type":"Dedicated","server_os":"Linux","password":true,"vac":true,"version":"7882260","steam_id":85568392924866362,"keywords":["nocrits","nodmgspread","payload","uncletopia"],"game_id":440,"stv_port":27016,"stv_name":"Uncletopia | Chicago | 5 | All Maps | STV","players":[{"user_id":120,"name":"soupy","steam_id":76561197974283797,"connected_time":242000000000,"state":"active","ping":41},{"user_id":122,"name":"floofy","steam_id":76561198389769098,"connected_time":71000000000,"state":"spawning","ping":79},{"user_id":114,"name":"b3afy","steam_id":76561198084208649,"connected_time":577000000000,"state":"active","ping":88},{"user_id":96,"name":"-=|FYG|=- Mr. Generous","steam_id":76561198047350765,"connected_time":1697000000000,"state":"active","ping":47},{"user_id":88,"name":"Where The F**K I Am?","steam_id":76561197986530028,"connected_time":2733000000000,"state":"active","ping":111},{"user_id":123,"name":"dankman","steam_id":76561198977064186,"connected_time":60000000000,"state":"active","ping":55},{"user_id":108,"name":"CheeseCake488","steam_id":76561199407617942,"connected_time":924000000000,"state":"active","ping":184},{"user_id":91,"name":"๖ۣۜTavi","steam_id":76561198088228946,"connected_time":2361000000000,"state":"active","ping":125},{"user_id":109,"name":"dave.","steam_id":76561198112350449,"connected_time":864000000000,"state":"active","ping":69},{"user_id":124,"name":"Battery Acid Slurper","steam_id":76561198439793697,"connected_time":35000000000,"state":"active","ping":78},{"user_id":125,"name":"Greasy Garmadon","steam_id":76561198142416272,"connected_time":5000000000,"state":"spawning","ping":63},{"user_id":87,"name":"Gildedire","steam_id":76561198063959574,"connected_time":2761000000000,"state":"active","ping":74},{"user_id":82,"name":"Talvisota","steam_id":76561199190574223,"connected_time":3534000000000,"state":"active","ping":60},{"user_id":40,"name":"The Mayo Man","steam_id":76561197995377425,"connected_time":8579000000000,"state":"active","ping":72},{"user_id":116,"name":"AgenT BendeR RodrigueZ","steam_id":76561197962498428,"connected_time":509000000000,"state":"active","ping":70},{"user_id":61,"name":"1TheExterminator","steam_id":76561198972879727,"connected_time":6179000000000,"state":"active","ping":83},{"user_id":81,"name":"chiswola","steam_id":76561198046920142,"connected_time":3662000000000,"state":"active","ping":78},{"user_id":117,"name":"wraith","steam_id":76561198429979731,"connected_time":509000000000,"state":"active","ping":113},{"user_id":113,"name":"Anax Alter","steam_id":76561198110249546,"connected_time":819000000000,"state":"active","ping":64}]},{"server_id":37,"name":"Uncletopia | Chicago | 6 | All Maps","name_short":"chi-6","host":"chi-2.us.uncletopia.com","port":27025,"enabled":true,"region":"us-central","cc":"us","latitude":41.881832,"longitude":-87.62318,"reserved":0,"last_update":"0001-01-01T00:00:00Z","name_a2s":"Uncletopia | Chicago | 6 | All Maps","protocol":17,"map":"pl_upward","folder":"tf","game":"Team Fortress","app_id":440,"player_count":23,"max_players":24,"Bots":0,"server_type":"Dedicated","server_os":"Linux","password":true,"vac":true,"version":"7882260","steam_id":85568392924866363,"keywords":["nocrits","nodmgspread","payload","uncletopia"],"game_id":440,"stv_port":27026,"stv_name":"Uncletopia | Chicago | 6 | All Maps | STV","players":[{"user_id":133,"name":"the \"Goofy Giggler\"","steam_id":76561198083175190,"connected_time":395000000000,"state":"active","ping":60},{"user_id":107,"name":"papi Chulo","steam_id":76561198126274984,"connected_time":3574000000000,"state":"active","ping":116},{"user_id":114,"name":"ZestyNoodle","steam_id":76561198322634321,"connected_time":2243000000000,"state":"active","ping":90},{"user_id":120,"name":"Kaaru","steam_id":76561199210711711,"connected_time":1850000000000,"state":"active","ping":156},{"user_id":116,"name":"Goose","steam_id":76561198954362046,"connected_time":2204000000000,"state":"active","ping":86},{"user_id":125,"name":"gromit","steam_id":76561198037746805,"connected_time":1191000000000,"state":"active","ping":63},{"user_id":124,"name":"bot_tracer","steam_id":76561199034131978,"connected_time":1362000000000,"state":"active","ping":153},{"user_id":134,"name":"Lore","steam_id":76561198098407538,"connected_time":335000000000,"state":"active","ping":46},{"user_id":106,"name":"tools","steam_id":76561199010542612,"connected_time":3637000000000,"state":"active","ping":48},{"user_id":121,"name":"Muhloik","steam_id":76561198026155588,"connected_time":1819000000000,"state":"active","ping":60},{"user_id":135,"name":"Thingy","steam_id":76561198140161202,"connected_time":181000000000,"state":"active","ping":98},{"user_id":98,"name":"Daehypeels","steam_id":76561198268981599,"connected_time":4697000000000,"state":"active","ping":62},{"user_id":112,"name":"Average Caber Fan","steam_id":76561199451299044,"connected_time":2900000000000,"state":"active","ping":76},{"user_id":97,"name":"OldManHan (タオ)","steam_id":76561198095104288,"connected_time":4729000000000,"state":"active","ping":49},{"user_id":128,"name":"Artic_Ryuu","steam_id":76561198182194918,"connected_time":1112000000000,"state":"active","ping":90},{"user_id":93,"name":"Apricot","steam_id":76561198355699935,"connected_time":4942000000000,"state":"active","ping":72},{"user_id":79,"name":"Frank.","steam_id":76561198225910596,"connected_time":5456000000000,"state":"active","ping":54},{"user_id":119,"name":"Theforcemothafukadousenseit","steam_id":76561198241213104,"connected_time":2115000000000,"state":"active","ping":118},{"user_id":136,"name":"Pxls_","steam_id":76561198151150175,"connected_time":144000000000,"state":"active","ping":49},{"user_id":129,"name":"germ !!!","steam_id":76561198064526459,"connected_time":1105000000000,"state":"active","ping":101},{"user_id":96,"name":"8bean","steam_id":76561198239138132,"connected_time":4899000000000,"state":"active","ping":71},{"user_id":137,"name":"SharkBearGator","steam_id":76561198071233739,"connected_time":43000000000,"state":"active","ping":60},{"user_id":105,"name":"CFGU || RAWRWAFL","steam_id":76561198032118386,"connected_time":3875000000000,"state":"active","ping":85}]},{"server_id":38,"name":"Uncletopia | Chicago | 7 | Stopwatch Beta","name_short":"chi-7","host":"chi-2.us.uncletopia.com","port":27035,"enabled":true,"region":"us-central","cc":"us","latitude":41.881832,"longitude":-87.62318,"reserved":0,"last_update":"0001-01-01T00:00:00Z","name_a2s":"Uncletopia | Chicago | 7 | Stopwatch Beta","protocol":17,"map":"pl_upward","folder":"tf","game":"Team Fortress","app_id":440,"player_count":0,"max_players":24,"Bots":0,"server_type":"Dedicated","server_os":"Linux","password":true,"vac":true,"version":"7882260","steam_id":85568392924866364,"keywords":["nocrits","nodmgspread","payload","uncletopia"],"game_id":440,"stv_port":27036,"stv_name":"Uncletopia | Chicago | 7 | Stopwatch Beta | STV","players":null},{"server_id":39,"name":"Uncletopia | Chicago | 8 | Community","name_short":"chi-8","host":"chi-2.us.uncletopia.com","port":27045,"enabled":true,"region":"us-central","cc":"us","latitude":41.881832,"longitude":-87.62318,"reserved":0,"last_update":"0001-01-01T00:00:00Z","name_a2s":"Uncletopia | Chicago | 8 | Community","protocol":17,"map":"workshop/gg_dust2_dmvm.ugc2942103642","folder":"tf","game":"Team Fortress","app_id":440,"player_count":0,"max_players":24,"Bots":0,"server_type":"Dedicated","server_os":"Linux","password":true,"vac":true,"version":"7882260","steam_id":85568392924866365,"keywords":["friendlyfire","nocrits","nodmgspread","norespawntime","uncletopia"],"game_id":440,"stv_port":27046,"stv_name":"Uncletopia | Chicago | 8 | Community | STV","players":null},{"server_id":8,"name":"Uncletopia | Dallas | 1 | All Maps","name_short":"dal-1","host":"dal-1.us.uncletopia.com","port":27015,"enabled":true,"region":"us-central","cc":"us","latitude":32.779167,"longitude":-96.80889,"reserved":0,"last_update":"0001-01-01T00:00:00Z","name_a2s":"Uncletopia | Dallas | 1 | All Maps","protocol":17,"map":"pl_swiftwater_final1","folder":"tf","game":"Team Fortress","app_id":440,"player_count":24,"max_players":24,"Bots":0,"server_type":"Dedicated","server_os":"Linux","password":true,"vac":true,"version":"7882260","steam_id":85568392924469986,"keywords":["nocrits","nodmgspread","payload","uncletopia"],"game_id":440,"stv_port":27016,"stv_name":"Uncletopia | Dallas | 1 | All Maps | STV","players":[{"user_id":103,"name":"golia","steam_id":76561198000264266,"connected_time":2950000000000,"state":"active","ping":88},{"user_id":149,"name":"Not a Gamer","steam_id":76561198032114539,"connected_time":533000000000,"state":"active","ping":94},{"user_id":108,"name":"Dr. Wario","steam_id":76561198901238861,"connected_time":1938000000000,"state":"active","ping":75},{"user_id":163,"name":"Shabzoo","steam_id":76561198037638775,"connected_time":300000000000,"state":"active","ping":84},{"user_id":146,"name":"self sufficient kitten","steam_id":76561197960592612,"connected_time":557000000000,"state":"active","ping":91},{"user_id":151,"name":"DragonHeart","steam_id":76561198013245625,"connected_time":518000000000,"state":"active","ping":68},{"user_id":10,"name":"Pizza","steam_id":76561198118748364,"connected_time":9230000000000,"state":"active","ping":75},{"user_id":110,"name":"Fluff","steam_id":76561198255399052,"connected_time":1575000000000,"state":"active","ping":45},{"user_id":111,"name":"Tree45","steam_id":76561198143698408,"connected_time":1568000000000,"state":"active","ping":93},{"user_id":94,"name":"Jezzus","steam_id":76561199289676387,"connected_time":3372000000000,"state":"active","ping":65},{"user_id":147,"name":"DiscoTraveler","steam_id":76561199240168088,"connected_time":555000000000,"state":"active","ping":76},{"user_id":137,"name":"❤ Ashley ❤","steam_id":76561198056428303,"connected_time":689000000000,"state":"active","ping":76},{"user_id":152,"name":"Dirt Mammal","steam_id":76561198040781653,"connected_time":507000000000,"state":"active","ping":103},{"user_id":96,"name":"Manchurian Bandit","steam_id":76561198072410042,"connected_time":3369000000000,"state":"active","ping":80},{"user_id":165,"name":"Clump","steam_id":76561198049690860,"connected_time":121000000000,"state":"active","ping":105},{"user_id":113,"name":"A Silent One","steam_id":76561198239009910,"connected_time":1443000000000,"state":"active","ping":62},{"user_id":164,"name":"white woman","steam_id":76561199116679777,"connected_time":138000000000,"state":"active","ping":75},{"user_id":84,"name":"PlugFromBehind","steam_id":76561198143283800,"connected_time":4292000000000,"state":"active","ping":48},{"user_id":45,"name":"Grimm","steam_id":76561199242664677,"connected_time":7704000000000,"state":"active","ping":63},{"user_id":98,"name":"Nibareaux","steam_id":76561198322044169,"connected_time":3326000000000,"state":"active","ping":62},{"user_id":114,"name":"Can You Feel It Mr.Krabs","steam_id":76561198128302414,"connected_time":1441000000000,"state":"active","ping":69},{"user_id":116,"name":"TrOgDoR o==[]:::::::::::\u003e ^.=.^","steam_id":76561198041079607,"connected_time":1366000000000,"state":"active","ping":74},{"user_id":122,"name":"ky jelly packing","steam_id":76561198240906222,"connected_time":953000000000,"state":"active","ping":107},{"user_id":33,"name":"Makina","steam_id":76561198057475567,"connected_time":8775000000000,"state":"active","ping":89}]},{"server_id":108,"name":"Uncletopia | Dallas | 2 | All Maps","name_short":"dal-2","host":"dal-1.us.uncletopia.com","port":27025,"enabled":true,"region":"us-central","cc":"us","latitude":32.779167,"longitude":-96.80889,"reserved":0,"last_update":"0001-01-01T00:00:00Z","name_a2s":"Uncletopia | Dallas | 2 | All Maps","protocol":17,"map":"pl_pier","folder":"tf","game":"Team Fortress","app_id":440,"player_count":24,"max_players":24,"Bots":0,"server_type":"Dedicated","server_os":"Linux","password":true,"vac":true,"version":"7882260","steam_id":85568392924469988,"keywords":["nocrits","nodmgspread","payload","uncletopia"],"game_id":440,"stv_port":27026,"stv_name":"Uncletopia | Dallas | 2 | All Maps | STV","players":[{"user_id":130,"name":"Acolyte of Goatse","steam_id":76561198046526036,"connected_time":1274000000000,"state":"active","ping":82},{"user_id":146,"name":"ErikG65USA","steam_id":76561199381735619,"connected_time":731000000000,"state":"active","ping":60},{"user_id":148,"name":"Faraday","steam_id":76561198089928357,"connected_time":680000000000,"state":"active","ping":50},{"user_id":133,"name":"Amar Asja Bosnia","steam_id":76561198321321928,"connected_time":1221000000000,"state":"active","ping":38},{"user_id":154,"name":"nim chimps","steam_id":76561198012093637,"connected_time":458000000000,"state":"active","ping":47},{"user_id":105,"name":"IonizedAtom","steam_id":76561198381463568,"connected_time":2735000000000,"state":"active","ping":98},{"user_id":134,"name":"the man","steam_id":76561199103120314,"connected_time":1218000000000,"state":"active","ping":84},{"user_id":106,"name":"Sticky","steam_id":76561198031581547,"connected_time":2730000000000,"state":"active","ping":72},{"user_id":11,"name":"shitass (Fat Tits arc)","steam_id":76561198210572481,"connected_time":9267000000000,"state":"active","ping":63},{"user_id":150,"name":"Snoopy","steam_id":76561198273735974,"connected_time":600000000000,"state":"active","ping":66},{"user_id":135,"name":"reptar","steam_id":76561198070164185,"connected_time":1144000000000,"state":"active","ping":66},{"user_id":151,"name":"ChottoAMinute","steam_id":76561198873157775,"connected_time":568000000000,"state":"active","ping":40},{"user_id":156,"name":"DragonHunter994","steam_id":76561199076203907,"connected_time":396000000000,"state":"active","ping":66},{"user_id":90,"name":"hppd","steam_id":76561199001918194,"connected_time":3825000000000,"state":"active","ping":96},{"user_id":116,"name":"hihohe","steam_id":76561197987823936,"connected_time":2321000000000,"state":"active","ping":65},{"user_id":129,"name":"leopardo123atl","steam_id":76561198872648238,"connected_time":1505000000000,"state":"active","ping":70},{"user_id":125,"name":"Grape Sauce","steam_id":76561198140136651,"connected_time":1918000000000,"state":"active","ping":77},{"user_id":118,"name":"Dua Ligma","steam_id":76561198329087915,"connected_time":2306000000000,"state":"active","ping":85},{"user_id":152,"name":"JZ","steam_id":76561198377029198,"connected_time":508000000000,"state":"active","ping":67},{"user_id":153,"name":"gordonz88","steam_id":76561198020241395,"connected_time":491000000000,"state":"active","ping":101},{"user_id":138,"name":"Lezabel","steam_id":76561198970753261,"connected_time":1104000000000,"state":"active","ping":75},{"user_id":110,"name":"Just_Bland","steam_id":76561198403482191,"connected_time":2581000000000,"state":"active","ping":85},{"user_id":158,"name":"tyg","steam_id":76561198056246867,"connected_time":157000000000,"state":"active","ping":91},{"user_id":122,"name":"clopherite","steam_id":76561198860351700,"connected_time":2110000000000,"state":"active","ping":68}]},{"server_id":5,"name":"Uncletopia | Frankfurt | 1 | All Maps","name_short":"frk-1","host":"frk-1.de.uncletopia.com","port":27015,"enabled":true,"region":"eu","cc":"de","latitude":50.110924,"longitude":8.682127,"reserved":0,"last_update":"0001-01-01T00:00:00Z","name_a2s":"Uncletopia | Frankfurt | 1 | All Maps","protocol":17,"map":"pl_snowycoast","folder":"tf","game":"Team Fortress","app_id":440,"player_count":0,"max_players":24,"Bots":0,"server_type":"Dedicated","server_os":"Linux","password":true,"vac":true,"version":"7882260","steam_id":85568392924469989,"keywords":["nocrits","nodmgspread","payload","uncletopia"],"game_id":440,"stv_port":27016,"stv_name":"Uncletopia | Frankfurt | 1 | All Maps | STV","players":null},{"server_id":110,"name":"Uncletopia | Frankfurt | 2 | All Maps","name_short":"frk-2","host":"frk-1.de.uncletopia.com","port":27025,"enabled":true,"region":"eu","cc":"de","latitude":50.110924,"longitude":8.682127,"reserved":0,"last_update":"0001-01-01T00:00:00Z","name_a2s":"Uncletopia | Frankfurt | 2 | All Maps","protocol":17,"map":"pl_upward","folder":"tf","game":"Team Fortress","app_id":440,"player_count":0,"max_players":24,"Bots":0,"server_type":"Dedicated","server_os":"Linux","password":true,"vac":true,"version":"7882260","steam_id":85568392924469990,"keywords":["nocrits","nodmgspread","payload","uncletopia"],"game_id":440,"stv_port":27026,"stv_name":"Uncletopia | Frankfurt | 2 | All Maps | STV","players":null},{"server_id":308,"name":"Uncletopia | Frankfurt | 3 | All Maps","name_short":"frk-3","host":"frk-1.de.uncletopia.com","port":27035,"enabled":true,"region":"eu","cc":"de","latitude":50.110924,"longitude":8.682127,"reserved":0,"last_update":"0001-01-01T00:00:00Z","name_a2s":"Uncletopia | Frankfurt | 3 | All Maps","protocol":17,"map":"cp_process_final","folder":"tf","game":"Team Fortress","app_id":440,"player_count":0,"max_players":24,"Bots":0,"server_type":"Dedicated","server_os":"Linux","password":true,"vac":true,"version":"7882260","steam_id":85568392924504274,"keywords":["cp","nocrits","nodmgspread","uncletopia"],"game_id":440,"stv_port":27036,"stv_name":"Uncletopia | Frankfurt | 3 | All Maps | STV","players":null},{"server_id":309,"name":"Uncletopia | Frankfurt | 4 | All Maps","name_short":"frk-4","host":"frk-1.de.uncletopia.com","port":27045,"enabled":true,"region":"eu","cc":"de","latitude":50.110924,"longitude":8.682127,"reserved":0,"last_update":"0001-01-01T00:00:00Z","name_a2s":"Uncletopia | Frankfurt | 4 | All Maps","protocol":17,"map":"pl_swiftwater_final1","folder":"tf","game":"Team Fortress","app_id":440,"player_count":0,"max_players":24,"Bots":0,"server_type":"Dedicated","server_os":"Linux","password":true,"vac":true,"version":"7882260","steam_id":85568392924504275,"keywords":["nocrits","nodmgspread","payload","uncletopia"],"game_id":440,"stv_port":27046,"stv_name":"Uncletopia | Frankfurt | 4 | All Maps | STV","players":null},{"server_id":310,"name":"Uncletopia | Frankfurt | 5 | All Maps","name_short":"frk-5","host":"frk-1.de.uncletopia.com","port":27055,"enabled":true,"region":"eu","cc":"de","latitude":50.110924,"longitude":8.682127,"reserved":0,"last_update":"0001-01-01T00:00:00Z","name_a2s":"Uncletopia | Frankfurt | 5 | All Maps","protocol":17,"map":"pl_borneo","folder":"tf","game":"Team Fortress","app_id":440,"player_count":0,"max_players":24,"Bots":0,"server_type":"Dedicated","server_os":"Linux","password":true,"vac":true,"version":"7882260","steam_id":85568392924504277,"keywords":["nocrits","nodmgspread","payload","uncletopia"],"game_id":440,"stv_port":27056,"stv_name":"Uncletopia | Frankfurt | 5 | All Maps | STV","players":null},{"server_id":311,"name":"Uncletopia | Frankfurt | 6 | All Maps","name_short":"frk-6","host":"frk-1.de.uncletopia.com","port":27065,"enabled":true,"region":"eu","cc":"de","latitude":50.110924,"longitude":8.682127,"reserved":0,"last_update":"0001-01-01T00:00:00Z","name_a2s":"Uncletopia | Frankfurt | 6 | All Maps","protocol":17,"map":"pl_swiftwater_final1","folder":"tf","game":"Team Fortress","app_id":440,"player_count":0,"max_players":24,"Bots":0,"server_type":"Dedicated","server_os":"Linux","password":true,"vac":true,"version":"7882260","steam_id":85568392924504278,"keywords":["nocrits","nodmgspread","payload","uncletopia"],"game_id":440,"stv_port":27066,"stv_name":"Uncletopia | Frankfurt | 6 | All Maps | STV","players":null},{"server_id":23,"name":"Uncletopia | Frankfurt | 7 | Stopwatch Beta","name_short":"frk-7","host":"frk-1.de.uncletopia.com","port":27075,"enabled":true,"region":"eu","cc":"de","latitude":50.110924,"longitude":8.682127,"reserved":0,"last_update":"0001-01-01T00:00:00Z","name_a2s":"Uncletopia | Frankfurt | 7 | Stopwatch Beta","protocol":17,"map":"workshop/koth_bagel_rc6.ugc2514036946","folder":"tf","game":"Team Fortress","app_id":440,"player_count":0,"max_players":24,"Bots":0,"server_type":"Dedicated","server_os":"Linux","password":true,"vac":true,"version":"7882260","steam_id":85568392924742827,"keywords":["cp","nocrits","nodmgspread","uncletopia"],"game_id":440,"stv_port":27076,"stv_name":"Uncletopia | Frankfurt | 7 | Stopwatch Beta | STV","players":null},{"server_id":24,"name":"Uncletopia | Frankfurt | 8 | Community","name_short":"frk-8","host":"frk-1.de.uncletopia.com","port":27085,"enabled":true,"region":"eu","cc":"de","latitude":50.110924,"longitude":8.682127,"reserved":0,"last_update":"0001-01-01T00:00:00Z","name_a2s":"Uncletopia | Frankfurt | 8 | Community","protocol":17,"map":"cp_mountainlab","folder":"tf","game":"Team Fortress","app_id":440,"player_count":0,"max_players":24,"Bots":0,"server_type":"Dedicated","server_os":"Linux","password":true,"vac":true,"version":"7882260","steam_id":85568392924742828,"keywords":["cp","nocrits","nodmgspread","uncletopia"],"game_id":440,"stv_port":27086,"stv_name":"Uncletopia | Frankfurt | 8 | Community | STV","players":null},{"server_id":202,"name":"Uncletopia | Hong Kong | 1 | All Maps","name_short":"hgk-1","host":"hgk-1.hk.uncletopia.com","port":27015,"enabled":true,"region":"asia","cc":"hk","latitude":22.302711,"longitude":114.177216,"reserved":0,"last_update":"0001-01-01T00:00:00Z","name_a2s":"Uncletopia | Hong Kong | 1 | All Maps","protocol":17,"map":"koth_highpass","folder":"tf","game":"Team Fortress","app_id":440,"player_count":0,"max_players":24,"Bots":0,"server_type":"Dedicated","server_os":"Linux","password":true,"vac":true,"version":"7882260","steam_id":85568392924494504,"keywords":["cp","nocrits","nodmgspread","uncletopia"],"game_id":440,"stv_port":27016,"stv_name":"Uncletopia | Hong Kong | 1 | All Maps | STV","players":null},{"server_id":1,"name":"Uncletopia | Los Angeles | 1 | All Maps","name_short":"lax-1","host":"lax-1.us.uncletopia.com","port":27015,"enabled":true,"region":"us-west","cc":"us","latitude":33.94279,"longitude":-118.41004,"reserved":0,"last_update":"0001-01-01T00:00:00Z","name_a2s":"Uncletopia | Los Angeles | 1 | All Maps","protocol":17,"map":"cp_steel","folder":"tf","game":"Team Fortress","app_id":440,"player_count":21,"max_players":24,"Bots":0,"server_type":"Dedicated","server_os":"Linux","password":true,"vac":true,"version":"7882260","steam_id":85568392924469991,"keywords":["cp","nocrits","nodmgspread","uncletopia"],"game_id":440,"stv_port":27016,"stv_name":"Uncletopia | Los Angeles | 1 | All Maps | STV","players":[{"user_id":189,"name":"Dr. Bubs","steam_id":76561198011696595,"connected_time":1603000000000,"state":"active","ping":68},{"user_id":104,"name":"matt_rolltide","steam_id":76561198796727164,"connected_time":3732000000000,"state":"active","ping":37},{"user_id":178,"name":"Frosted Lighted Ornament","steam_id":76561197971250619,"connected_time":1997000000000,"state":"active","ping":54},{"user_id":65,"name":"Bagoool","steam_id":76561198065368286,"connected_time":6397000000000,"state":"active","ping":98},{"user_id":272,"name":"Whisper!","steam_id":76561198119609795,"connected_time":231000000000,"state":"active","ping":47},{"user_id":274,"name":"Gm_Trash","steam_id":76561199445091548,"connected_time":92000000000,"state":"active","ping":72},{"user_id":255,"name":"josie","steam_id":76561198170848553,"connected_time":703000000000,"state":"active","ping":69},{"user_id":275,"name":"Life Grips","steam_id":76561198082089317,"connected_time":21000000000,"state":"spawning","ping":65},{"user_id":108,"name":"EleventhGoose","steam_id":76561198912390211,"connected_time":3615000000000,"state":"active","ping":57},{"user_id":276,"name":"The Muffin Man","steam_id":76561199088286427,"connected_time":3000000000,"state":"spawning","ping":68},{"user_id":110,"name":"Mr. FancyNarwhal","steam_id":76561198056125837,"connected_time":3513000000000,"state":"spawning","ping":85},{"user_id":112,"name":"diggyhazard","steam_id":76561198206506481,"connected_time":3403000000000,"state":"active","ping":45},{"user_id":68,"name":"lite","steam_id":76561198041535914,"connected_time":6386000000000,"state":"active","ping":105},{"user_id":113,"name":"flo rida","steam_id":76561198226169704,"connected_time":3384000000000,"state":"spawning","ping":65},{"user_id":114,"name":"big car","steam_id":76561198067082350,"connected_time":3372000000000,"state":"active","ping":46},{"user_id":115,"name":"Aspa","steam_id":76561199048815630,"connected_time":3369000000000,"state":"active","ping":92},{"user_id":260,"name":"Bad Bitch Fumbler","steam_id":76561199093733603,"connected_time":631000000000,"state":"active","ping":47},{"user_id":270,"name":"millerbv14","steam_id":76561198453908595,"connected_time":299000000000,"state":"active","ping":50},{"user_id":100,"name":"Sammy!","steam_id":76561198184171743,"connected_time":4716000000000,"state":"active","ping":65},{"user_id":93,"name":"Cookie","steam_id":76561199096182392,"connected_time":4966000000000,"state":"active","ping":97},{"user_id":265,"name":"Axelfreeze14","steam_id":76561198436383913,"connected_time":477000000000,"state":"active","ping":46}]},{"server_id":112,"name":"Uncletopia | Los Angeles | 2 | All Maps","name_short":"lax-2","host":"lax-1.us.uncletopia.com","port":27025,"enabled":true,"region":"us-west","cc":"us","latitude":33.94279,"longitude":-118.41004,"reserved":0,"last_update":"0001-01-01T00:00:00Z","name_a2s":"Uncletopia | Los Angeles | 2 | All Maps","protocol":17,"map":"cp_snakewater_final1","folder":"tf","game":"Team Fortress","app_id":440,"player_count":24,"max_players":24,"Bots":0,"server_type":"Dedicated","server_os":"Linux","password":true,"vac":true,"version":"7882260","steam_id":85568392924469992,"keywords":["cp","nocrits","nodmgspread","uncletopia"],"game_id":440,"stv_port":27026,"stv_name":"Uncletopia | Los Angeles | 2 | All Maps | STV","players":[{"user_id":114,"name":"Squatter1","steam_id":76561198078987734,"connected_time":1962000000000,"state":"active","ping":86},{"user_id":92,"name":"FROYO b4nny","steam_id":76561197970669109,"connected_time":3047000000000,"state":"active","ping":45},{"user_id":149,"name":"Uluyo","steam_id":76561198065857148,"connected_time":480000000000,"state":"active","ping":71},{"user_id":153,"name":"cream team","steam_id":76561198139043953,"connected_time":208000000000,"state":"active","ping":74},{"user_id":140,"name":"Proto","steam_id":76561198218129193,"connected_time":1355000000000,"state":"active","ping":79},{"user_id":150,"name":"TüCold","steam_id":76561198111278197,"connected_time":379000000000,"state":"active","ping":60},{"user_id":118,"name":"Aztea","steam_id":76561198982089893,"connected_time":1944000000000,"state":"active","ping":91},{"user_id":143,"name":"smeasly","steam_id":76561198028718812,"connected_time":925000000000,"state":"active","ping":75},{"user_id":121,"name":"MR DADDY","steam_id":76561198350794663,"connected_time":1886000000000,"state":"active","ping":101},{"user_id":152,"name":"Nez","steam_id":76561197963109059,"connected_time":242000000000,"state":"active","ping":63},{"user_id":154,"name":"ed","steam_id":76561198080475712,"connected_time":160000000000,"state":"active","ping":64},{"user_id":145,"name":"pyrotechnic","steam_id":76561198043558709,"connected_time":822000000000,"state":"active","ping":68},{"user_id":142,"name":"Drakon","steam_id":76561198078210822,"connected_time":1330000000000,"state":"active","ping":70},{"user_id":123,"name":"jorts","steam_id":76561199041179985,"connected_time":1853000000000,"state":"active","ping":85},{"user_id":67,"name":"Bullwinkle J. Moose","steam_id":76561198075977196,"connected_time":4639000000000,"state":"active","ping":88},{"user_id":157,"name":"NovusOrdoDux","steam_id":76561198271936289,"connected_time":56000000000,"state":"active","ping":117},{"user_id":156,"name":"pirate pete","steam_id":76561198151048590,"connected_time":125000000000,"state":"active","ping":114},{"user_id":100,"name":"juju","steam_id":76561199473801131,"connected_time":2965000000000,"state":"active","ping":115},{"user_id":139,"name":"Schnitz","steam_id":76561198265484253,"connected_time":1377000000000,"state":"active","ping":58},{"user_id":137,"name":"roryisonamobilehotspot","steam_id":76561198065825165,"connected_time":1466000000000,"state":"active","ping":110},{"user_id":133,"name":"swaglord1738420litty","steam_id":76561198062870880,"connected_time":1680000000000,"state":"active","ping":45},{"user_id":134,"name":"Teanna Trump","steam_id":76561198059476610,"connected_time":1679000000000,"state":"active","ping":116},{"user_id":138,"name":"idk how to aim with this","steam_id":76561198301598124,"connected_time":1455000000000,"state":"active","ping":108},{"user_id":148,"name":"the killer","steam_id":76561198300167622,"connected_time":581000000000,"state":"active","ping":64}]},{"server_id":324,"name":"Uncletopia | Los Angeles | 3 | All Maps","name_short":"lax-3","host":"lax-1.us.uncletopia.com","port":27035,"enabled":true,"region":"us-west","cc":"us","latitude":33.94279,"longitude":-118.41004,"reserved":0,"last_update":"0001-01-01T00:00:00Z","name_a2s":"Uncletopia | Los Angeles | 3 | All Maps","protocol":17,"map":"cp_process_final","folder":"tf","game":"Team Fortress","app_id":440,"player_count":24,"max_players":24,"Bots":0,"server_type":"Dedicated","server_os":"Linux","password":true,"vac":true,"version":"7882260","steam_id":85568392924510198,"keywords":["cp","nocrits","nodmgspread","uncletopia"],"game_id":440,"stv_port":27036,"stv_name":"Uncletopia | Los Angeles | 3 | All Maps | STV","players":[{"user_id":57,"name":"CreativeUsername","steam_id":76561198186045503,"connected_time":2049000000000,"state":"active","ping":104},{"user_id":73,"name":"MegaBron James","steam_id":76561198066091050,"connected_time":316000000000,"state":"active","ping":64},{"user_id":42,"name":"pencil champion","steam_id":76561198871758639,"connected_time":3027000000000,"state":"active","ping":123},{"user_id":67,"name":"NotThatGuyPal","steam_id":76561199127607812,"connected_time":1016000000000,"state":"active","ping":107},{"user_id":64,"name":"Rich Homie Rob","steam_id":76561198046570914,"connected_time":1166000000000,"state":"active","ping":54},{"user_id":12,"name":"dairy delinquent","steam_id":76561198971552734,"connected_time":4402000000000,"state":"active","ping":44},{"user_id":13,"name":"beeble!","steam_id":76561198219538525,"connected_time":4340000000000,"state":"active","ping":92},{"user_id":74,"name":"lol","steam_id":76561198026491738,"connected_time":292000000000,"state":"active","ping":59},{"user_id":49,"name":"Scoober","steam_id":76561199157558586,"connected_time":2828000000000,"state":"active","ping":112},{"user_id":75,"name":"Qみどり","steam_id":76561198304166877,"connected_time":209000000000,"state":"active","ping":44},{"user_id":72,"name":"josh | R\u0026M.tf","steam_id":76561198111565081,"connected_time":575000000000,"state":"active","ping":56},{"user_id":62,"name":"bigman1","steam_id":76561198050225055,"connected_time":1256000000000,"state":"active","ping":45},{"user_id":29,"name":"Perri002","steam_id":76561199227901389,"connected_time":3983000000000,"state":"active","ping":70},{"user_id":69,"name":"[S]Mr. X [No Monitor]","steam_id":76561197963746035,"connected_time":781000000000,"state":"active","ping":128},{"user_id":56,"name":"Zobozo","steam_id":76561198028954297,"connected_time":2123000000000,"state":"active","ping":49},{"user_id":50,"name":"Cheeseburglar","steam_id":76561198880267007,"connected_time":2826000000000,"state":"active","ping":60},{"user_id":47,"name":"Pickle","steam_id":76561199238364591,"connected_time":2907000000000,"state":"active","ping":114},{"user_id":54,"name":"Grug","steam_id":76561198069031652,"connected_time":2301000000000,"state":"active","ping":69},{"user_id":60,"name":"Geisha Larper","steam_id":76561199407580843,"connected_time":1266000000000,"state":"active","ping":69},{"user_id":27,"name":"R1verz","steam_id":76561198056087178,"connected_time":3998000000000,"state":"active","ping":86},{"user_id":59,"name":"Tuba","steam_id":76561198209166329,"connected_time":1283000000000,"state":"active","ping":75},{"user_id":68,"name":"Ichibanprofen","steam_id":76561199192132061,"connected_time":887000000000,"state":"active","ping":64},{"user_id":63,"name":"i cant aim","steam_id":76561198065873462,"connected_time":1249000000000,"state":"active","ping":45},{"user_id":70,"name":"ChefBunny","steam_id":76561198243610560,"connected_time":622000000000,"state":"active","ping":110}]},{"server_id":25,"name":"Uncletopia | Los Angeles | 4 | Stopwatch Beta","name_short":"lax-4","host":"lax-1.us.uncletopia.com","port":27045,"enabled":true,"region":"us-west","cc":"us","latitude":33.94279,"longitude":-118.41004,"reserved":0,"last_update":"0001-01-01T00:00:00Z","name_a2s":"Uncletopia | Los Angeles | 4 | Stopwatch Beta","protocol":17,"map":"koth_viaduct","folder":"tf","game":"Team Fortress","app_id":440,"player_count":0,"max_players":24,"Bots":0,"server_type":"Dedicated","server_os":"Linux","password":true,"vac":true,"version":"7882260","steam_id":85568392924510199,"keywords":["cp","nocrits","nodmgspread","uncletopia"],"game_id":440,"stv_port":27046,"stv_name":"Uncletopia | Los Angeles | 4 | Stopwatch Beta | STV","players":null},{"server_id":11,"name":"Uncletopia | London | 1 | All Maps","name_short":"lon-1","host":"lon-1.uk.uncletopia.com","port":27015,"enabled":true,"region":"eu","cc":"gb","latitude":51.509865,"longitude":-0.118092,"reserved":0,"last_update":"0001-01-01T00:00:00Z","name_a2s":"Uncletopia | London | 1 | All Maps","protocol":17,"map":"pl_badwater","folder":"tf","game":"Team Fortress","app_id":440,"player_count":24,"max_players":24,"Bots":0,"server_type":"Dedicated","server_os":"Linux","password":true,"vac":true,"version":"7882260","steam_id":85568392924367362,"keywords":["nocrits","nodmgspread","payload","uncletopia"],"game_id":440,"stv_port":27016,"stv_name":"Uncletopia | London | 1 | All Maps | STV","players":[{"user_id":125,"name":"depression","steam_id":76561198257334931,"connected_time":604000000000,"state":"active","ping":71},{"user_id":123,"name":"Young Cat","steam_id":76561198157369919,"connected_time":887000000000,"state":"active","ping":99},{"user_id":120,"name":"jonbob","steam_id":76561197963506620,"connected_time":1141000000000,"state":"active","ping":50},{"user_id":98,"name":"Zlyron","steam_id":76561198951447833,"connected_time":3334000000000,"state":"active","ping":99},{"user_id":118,"name":"Live gave me lemons.","steam_id":76561199101935057,"connected_time":1312000000000,"state":"active","ping":101},{"user_id":88,"name":"Wesker's plaything","steam_id":76561198040230078,"connected_time":3975000000000,"state":"active","ping":98},{"user_id":79,"name":"Snoogs","steam_id":76561198444880931,"connected_time":4345000000000,"state":"active","ping":130},{"user_id":126,"name":"Souris Marine","steam_id":76561199143334415,"connected_time":406000000000,"state":"active","ping":46},{"user_id":46,"name":"Acbh","steam_id":76561198158271672,"connected_time":6597000000000,"state":"active","ping":75},{"user_id":40,"name":"CumbustiblePunda","steam_id":76561197974274677,"connected_time":7142000000000,"state":"active","ping":58},{"user_id":115,"name":"Lazuli","steam_id":76561198058636964,"connected_time":1931000000000,"state":"active","ping":45},{"user_id":119,"name":"SoupER","steam_id":76561198063056668,"connected_time":1271000000000,"state":"active","ping":47},{"user_id":99,"name":"CalThePal","steam_id":76561198084842126,"connected_time":3328000000000,"state":"active","ping":42},{"user_id":127,"name":"gman borat","steam_id":76561198041051148,"connected_time":403000000000,"state":"active","ping":48},{"user_id":100,"name":"minn","steam_id":76561198099101232,"connected_time":3311000000000,"state":"active","ping":58},{"user_id":122,"name":"7th Pain bayi monyet","steam_id":76561198057780531,"connected_time":907000000000,"state":"active","ping":60},{"user_id":124,"name":"Canis[Magnus]Pectus","steam_id":76561198363775072,"connected_time":652000000000,"state":"active","ping":127},{"user_id":110,"name":"Winter","steam_id":76561198134805479,"connected_time":2703000000000,"state":"active","ping":54},{"user_id":114,"name":"ted","steam_id":76561198119568042,"connected_time":2040000000000,"state":"active","ping":39},{"user_id":85,"name":"sSolle","steam_id":76561198085269924,"connected_time":4140000000000,"state":"active","ping":61},{"user_id":104,"name":"SirDirtbag","steam_id":76561198091890855,"connected_time":3056000000000,"state":"active","ping":75},{"user_id":113,"name":"snowycoast","steam_id":76561198346638308,"connected_time":2284000000000,"state":"active","ping":56},{"user_id":128,"name":"Greg","steam_id":76561198014131702,"connected_time":401000000000,"state":"active","ping":116},{"user_id":116,"name":"✧ Ghosty ✧","steam_id":76561198312022168,"connected_time":1869000000000,"state":"active","ping":56}]},{"server_id":114,"name":"Uncletopia | London | 2 | All Maps","name_short":"lon-2","host":"lon-1.uk.uncletopia.com","port":27025,"enabled":true,"region":"eu","cc":"gb","latitude":51.509865,"longitude":-0.118092,"reserved":0,"last_update":"0001-01-01T00:00:00Z","name_a2s":"Uncletopia | London | 2 | All Maps","protocol":17,"map":"koth_highpass","folder":"tf","game":"Team Fortress","app_id":440,"player_count":0,"max_players":24,"Bots":0,"server_type":"Dedicated","server_os":"Linux","password":true,"vac":true,"version":"7882260","steam_id":85568392924470941,"keywords":["cp","nocrits","nodmgspread","uncletopia"],"game_id":440,"stv_port":27026,"stv_name":"Uncletopia | London | 2 | All Maps | STV","players":null},{"server_id":320,"name":"Uncletopia | London | 3 | All Maps","name_short":"lon-3","host":"lon-1.uk.uncletopia.com","port":27035,"enabled":true,"region":"eu","cc":"gb","latitude":51.509865,"longitude":-0.118092,"reserved":0,"last_update":"0001-01-01T00:00:00Z","name_a2s":"Uncletopia | London | 3 | All Maps","protocol":17,"map":"pl_upward","folder":"tf","game":"Team Fortress","app_id":440,"player_count":0,"max_players":24,"Bots":0,"server_type":"Dedicated","server_os":"Linux","password":true,"vac":true,"version":"7882260","steam_id":85568392924510192,"keywords":["nocrits","nodmgspread","payload","uncletopia"],"game_id":440,"stv_port":27036,"stv_name":"Uncletopia | London | 3 | All Maps | STV","players":null},{"server_id":321,"name":"Uncletopia | London | 4 | All Maps","name_short":"lon-4","host":"lon-1.uk.uncletopia.com","port":27045,"enabled":true,"region":"eu","cc":"gb","latitude":51.509865,"longitude":-0.118092,"reserved":0,"last_update":"0001-01-01T00:00:00Z","name_a2s":"Uncletopia | London | 4 | All Maps","protocol":17,"map":"cp_dustbowl","folder":"tf","game":"Team Fortress","app_id":440,"player_count":0,"max_players":24,"Bots":0,"server_type":"Dedicated","server_os":"Linux","password":true,"vac":true,"version":"7882260","steam_id":85568392924510193,"keywords":["cp","nocrits","nodmgspread","uncletopia"],"game_id":440,"stv_port":27046,"stv_name":"Uncletopia | London | 4 | All Maps | STV","players":null},{"server_id":21,"name":"Uncletopia | London | 5 | All Maps","name_short":"lon-5","host":"lon-1.uk.uncletopia.com","port":27055,"enabled":true,"region":"eu","cc":"gb","latitude":51.509865,"longitude":-0.118092,"reserved":0,"last_update":"0001-01-01T00:00:00Z","name_a2s":"Uncletopia | London | 5 | All Maps","protocol":17,"map":"koth_viaduct","folder":"tf","game":"Team Fortress","app_id":440,"player_count":0,"max_players":24,"Bots":0,"server_type":"Dedicated","server_os":"Linux","password":true,"vac":true,"version":"7882260","steam_id":85568392924742829,"keywords":["cp","nocrits","nodmgspread","uncletopia"],"game_id":440,"stv_port":27056,"stv_name":"Uncletopia | London | 5 | All Maps | STV","players":null},{"server_id":22,"name":"Uncletopia | London | 6 | All Maps","name_short":"lon-6","host":"lon-1.uk.uncletopia.com","port":27065,"enabled":true,"region":"eu","cc":"gb","latitude":51.509865,"longitude":-0.118092,"reserved":0,"last_update":"0001-01-01T00:00:00Z","name_a2s":"Uncletopia | London | 6 | All Maps","protocol":17,"map":"koth_lakeside_final","folder":"tf","game":"Team Fortress","app_id":440,"player_count":0,"max_players":24,"Bots":0,"server_type":"Dedicated","server_os":"Linux","password":true,"vac":true,"version":"7882260","steam_id":85568392924742830,"keywords":["cp","nocrits","nodmgspread","uncletopia"],"game_id":440,"stv_port":27066,"stv_name":"Uncletopia | London | 6 | All Maps | STV","players":null},{"server_id":40,"name":"Uncletopia | London | 7 | No Payload","name_short":"lon-7","host":"lon-1.uk.uncletopia.com","port":27075,"enabled":true,"region":"eu","cc":"gb","latitude":51.509865,"longitude":-0.118092,"reserved":0,"last_update":"0001-01-01T00:00:00Z","name_a2s":"Uncletopia | London | 7 | No Payload","protocol":17,"map":"pl_upward","folder":"tf","game":"Team Fortress","app_id":440,"player_count":0,"max_players":24,"Bots":0,"server_type":"Dedicated","server_os":"Linux","password":true,"vac":true,"version":"7882260","steam_id":85568392924964314,"keywords":["nocrits","nodmgspread","payload","uncletopia"],"game_id":440,"stv_port":27076,"stv_name":"Uncletopia | London | 7 | No Payload | STV","players":null},{"server_id":41,"name":"Uncletopia | London | 8 | Community","name_short":"lon-8","host":"lon-1.uk.uncletopia.com","port":27085,"enabled":true,"region":"eu","cc":"gb","latitude":51.509865,"longitude":-0.118092,"reserved":0,"last_update":"0001-01-01T00:00:00Z","name_a2s":"Uncletopia | London | 8 | Community","protocol":17,"map":"pl_upward","folder":"tf","game":"Team Fortress","app_id":440,"player_count":0,"max_players":24,"Bots":0,"server_type":"Dedicated","server_os":"Linux","password":true,"vac":true,"version":"7882260","steam_id":85568392924964315,"keywords":["nocrits","nodmgspread","payload","uncletopia"],"game_id":440,"stv_port":27086,"stv_name":"Uncletopia | London | 8 | Community | STV","players":null},{"server_id":300,"name":"Uncletopia | Montréal | 1 | All Maps","name_short":"mtl-1","host":"mtl-1.ca.uncletopia.com","port":27015,"enabled":true,"region":"us-east","cc":"ca","latitude":45.50889,"longitude":-73.56167,"reserved":0,"last_update":"0001-01-01T00:00:00Z","name_a2s":"Uncletopia | Montréal | 1 | All Maps","protocol":17,"map":"cp_dustbowl","folder":"tf","game":"Team Fortress","app_id":440,"player_count":0,"max_players":24,"Bots":0,"server_type":"Dedicated","server_os":"Linux","password":true,"vac":true,"version":"7882260","steam_id":85568392924500087,"keywords":["cp","nocrits","nodmgspread","uncletopia"],"game_id":440,"stv_port":27016,"stv_name":"Uncletopia | Montréal | 1 | All Maps | STV","players":null},{"server_id":301,"name":"Uncletopia | Montréal | 2 | All Maps","name_short":"mtl-2","host":"mtl-1.ca.uncletopia.com","port":27025,"enabled":true,"region":"us-east","cc":"ca","latitude":45.50889,"longitude":-73.56167,"reserved":0,"last_update":"0001-01-01T00:00:00Z","name_a2s":"Uncletopia | Montréal | 2 | All Maps","protocol":17,"map":"koth_highpass","folder":"tf","game":"Team Fortress","app_id":440,"player_count":0,"max_players":24,"Bots":0,"server_type":"Dedicated","server_os":"Linux","password":true,"vac":true,"version":"7882260","steam_id":85568392924500088,"keywords":["cp","nocrits","nodmgspread","uncletopia"],"game_id":440,"stv_port":27026,"stv_name":"Uncletopia | Montréal | 2 | All Maps | STV","players":null},{"server_id":302,"name":"Uncletopia | Montréal | 3 | All Maps","name_short":"mtl-3","host":"mtl-1.ca.uncletopia.com","port":27035,"enabled":true,"region":"us-east","cc":"ca","latitude":45.50889,"longitude":-73.56167,"reserved":0,"last_update":"0001-01-01T00:00:00Z","name_a2s":"Uncletopia | Montréal | 3 | All Maps","protocol":17,"map":"koth_highpass","folder":"tf","game":"Team Fortress","app_id":440,"player_count":0,"max_players":24,"Bots":0,"server_type":"Dedicated","server_os":"Linux","password":true,"vac":true,"version":"7882260","steam_id":85568392924500089,"keywords":["cp","nocrits","nodmgspread","uncletopia"],"game_id":440,"stv_port":27036,"stv_name":"Uncletopia | Montréal | 3 | All Maps | STV","players":null},{"server_id":303,"name":"Uncletopia | Montréal | 4 | No Payload","name_short":"mtl-4","host":"mtl-1.ca.uncletopia.com","port":27045,"enabled":true,"region":"us-east","cc":"ca","latitude":45.50889,"longitude":-73.56167,"reserved":0,"last_update":"0001-01-01T00:00:00Z","name_a2s":"Uncletopia | Montréal | 4 | No Payload","protocol":17,"map":"koth_highpass","folder":"tf","game":"Team Fortress","app_id":440,"player_count":0,"max_players":24,"Bots":0,"server_type":"Dedicated","server_os":"Linux","password":true,"vac":true,"version":"7882260","steam_id":85568392924500090,"keywords":["cp","nocrits","nodmgspread","uncletopia"],"game_id":440,"stv_port":27046,"stv_name":"Uncletopia | Montréal | 4 | No Payload | STV","players":null},{"server_id":13,"name":"Uncletopia | New York City | 1 | All Maps","name_short":"nyc-1","host":"nyc-1.us.uncletopia.com","port":27015,"enabled":true,"region":"us-east","cc":"us","latitude":40.73061,"longitude":-73.93524,"reserved":0,"last_update":"0001-01-01T00:00:00Z","name_a2s":"Uncletopia | New York City | 1 | All Maps","protocol":17,"map":"pl_borneo","folder":"tf","game":"Team Fortress","app_id":440,"player_count":17,"max_players":24,"Bots":0,"server_type":"Dedicated","server_os":"Linux","password":true,"vac":true,"version":"7882260","steam_id":85568392924469993,"keywords":["nocrits","nodmgspread","payload","uncletopia"],"game_id":440,"stv_port":27016,"stv_name":"Uncletopia | New York City | 1 | All Maps | STV","players":[{"user_id":145,"name":"scarecrow (evil)","steam_id":76561198082979347,"connected_time":54000000000,"state":"spawning","ping":328},{"user_id":116,"name":"Smooky","steam_id":76561198191435451,"connected_time":2851000000000,"state":"active","ping":73},{"user_id":132,"name":"tesa","steam_id":76561198154546773,"connected_time":1877000000000,"state":"active","ping":76},{"user_id":114,"name":"wise","steam_id":76561198030066204,"connected_time":2969000000000,"state":"active","ping":33},{"user_id":113,"name":"Ukes","steam_id":76561198055508999,"connected_time":3083000000000,"state":"active","ping":62},{"user_id":142,"name":"pipepeepi","steam_id":76561198845905873,"connected_time":944000000000,"state":"active","ping":61},{"user_id":140,"name":"playguy carter","steam_id":76561198080679337,"connected_time":1094000000000,"state":"active","ping":62},{"user_id":135,"name":"agentdaffy007","steam_id":76561198000283251,"connected_time":1591000000000,"state":"active","ping":57},{"user_id":129,"name":"blekk","steam_id":76561198000082101,"connected_time":2235000000000,"state":"active","ping":78},{"user_id":136,"name":"Vladikr1","steam_id":76561198401495362,"connected_time":1308000000000,"state":"active","ping":75},{"user_id":141,"name":"echo","steam_id":76561199411724732,"connected_time":1091000000000,"state":"active","ping":41},{"user_id":122,"name":"trappy (washed)","steam_id":76561198402801140,"connected_time":2564000000000,"state":"active","ping":79},{"user_id":123,"name":"Fraudulent Tuna","steam_id":76561197972268728,"connected_time":2489000000000,"state":"active","ping":85},{"user_id":144,"name":"I'll eat you without warning","steam_id":76561198329104604,"connected_time":428000000000,"state":"active","ping":53},{"user_id":137,"name":"drdoofus123","steam_id":76561198016826181,"connected_time":1300000000000,"state":"active","ping":62},{"user_id":143,"name":"Virtual Zorua","steam_id":76561198196180302,"connected_time":787000000000,"state":"active","ping":64},{"user_id":121,"name":"Periculosum PhD in Funny","steam_id":76561198123370914,"connected_time":2713000000000,"state":"active","ping":88}]},{"server_id":14,"name":"Uncletopia | New York City | 2 | All Maps","name_short":"nyc-2","host":"nyc-1.us.uncletopia.com","port":27025,"enabled":true,"region":"us-east","cc":"us","latitude":40.73061,"longitude":-73.93524,"reserved":0,"last_update":"0001-01-01T00:00:00Z","name_a2s":"Uncletopia | New York City | 2 | All Maps","protocol":17,"map":"cp_dustbowl","folder":"tf","game":"Team Fortress","app_id":440,"player_count":24,"max_players":24,"Bots":0,"server_type":"Dedicated","server_os":"Linux","password":true,"vac":true,"version":"7882260","steam_id":85568392924469994,"keywords":["cp","nocrits","nodmgspread","uncletopia"],"game_id":440,"stv_port":27026,"stv_name":"Uncletopia | New York City | 2 | All Maps | STV","players":[{"user_id":128,"name":"GodandTitans","steam_id":76561198070070155,"connected_time":713000000000,"state":"active","ping":89},{"user_id":99,"name":"crayonnipple","steam_id":76561198070253331,"connected_time":3389000000000,"state":"active","ping":81},{"user_id":124,"name":"EverythingIsRed","steam_id":76561198000147208,"connected_time":1287000000000,"state":"active","ping":62},{"user_id":6,"name":"SHADY SWEATER SALESMAN","steam_id":76561198014616865,"connected_time":9344000000000,"state":"active","ping":56},{"user_id":125,"name":"UNDERSHEETS IN-BED its:late[bro","steam_id":76561198294013916,"connected_time":1287000000000,"state":"active","ping":44},{"user_id":97,"name":"Parth Makeo","steam_id":76561198002516581,"connected_time":3516000000000,"state":"active","ping":48},{"user_id":43,"name":"SoaringPhoenix","steam_id":76561198445103637,"connected_time":7128000000000,"state":"active","ping":56},{"user_id":129,"name":"BRAINfreeze","steam_id":76561198028928300,"connected_time":91000000000,"state":"active","ping":80},{"user_id":123,"name":":/","steam_id":76561199058469259,"connected_time":1355000000000,"state":"active","ping":60},{"user_id":119,"name":"Issun","steam_id":76561197979737157,"connected_time":1716000000000,"state":"active","ping":132},{"user_id":122,"name":"LF listentogether?","steam_id":76561198044443985,"connected_time":1432000000000,"state":"active","ping":99},{"user_id":102,"name":"ttv/lilirouxxx","steam_id":76561198000522179,"connected_time":3302000000000,"state":"active","ping":70},{"user_id":63,"name":"CheeseLikeSubstance","steam_id":76561197977170646,"connected_time":6349000000000,"state":"active","ping":62},{"user_id":126,"name":"Colin102004","steam_id":76561198202384334,"connected_time":1250000000000,"state":"active","ping":44},{"user_id":114,"name":"dubspol","steam_id":76561198114845137,"connected_time":2124000000000,"state":"active","ping":62},{"user_id":127,"name":"Genuine","steam_id":76561198253471115,"connected_time":1241000000000,"state":"active","ping":58},{"user_id":73,"name":"NoExit","steam_id":76561198065725996,"connected_time":5527000000000,"state":"active","ping":99},{"user_id":91,"name":"feurolant","steam_id":76561198050929765,"connected_time":3785000000000,"state":"active","ping":57},{"user_id":61,"name":"ElBentz","steam_id":76561199059582221,"connected_time":6537000000000,"state":"active","ping":116},{"user_id":92,"name":"BooceMaster","steam_id":76561198148520318,"connected_time":3767000000000,"state":"active","ping":53},{"user_id":67,"name":"You Don't Nomi.","steam_id":76561197969137836,"connected_time":6190000000000,"state":"active","ping":51},{"user_id":112,"name":"ashely miami","steam_id":76561197993236478,"connected_time":2352000000000,"state":"active","ping":90},{"user_id":121,"name":"Satan-2","steam_id":76561199231742764,"connected_time":1689000000000,"state":"active","ping":57},{"user_id":130,"name":"turtis cai","steam_id":76561198038825302,"connected_time":1000000000,"state":"spawning","ping":44}]},{"server_id":15,"name":"Uncletopia | New York City | 3 | Stopwatch Beta","name_short":"nyc-3","host":"nyc-1.us.uncletopia.com","port":27035,"enabled":true,"region":"us-east","cc":"us","latitude":40.73061,"longitude":-73.93524,"reserved":0,"last_update":"0001-01-01T00:00:00Z","name_a2s":"Uncletopia | New York City | 3 | Stopwatch Beta","protocol":17,"map":"workshop/koth_clearcut_b15.ugc2107050255","folder":"tf","game":"Team Fortress","app_id":440,"player_count":0,"max_players":24,"Bots":0,"server_type":"Dedicated","server_os":"Linux","password":true,"vac":true,"version":"7882260","steam_id":85568392924742820,"keywords":["cp","nocrits","nodmgspread","uncletopia"],"game_id":440,"stv_port":27036,"stv_name":"Uncletopia | New York City | 3 | Stopwatch Beta | STV","players":null},{"server_id":16,"name":"Uncletopia | New York City | 4 | Community","name_short":"nyc-4","host":"nyc-1.us.uncletopia.com","port":27045,"enabled":true,"region":"us-east","cc":"us","latitude":40.73061,"longitude":-73.93524,"reserved":0,"last_update":"0001-01-01T00:00:00Z","name_a2s":"Uncletopia | New York City | 4 | Community","protocol":17,"map":"workshop/cp_croissant_final.ugc458840209","folder":"tf","game":"Team Fortress","app_id":440,"player_count":25,"max_players":24,"Bots":0,"server_type":"Dedicated","server_os":"Linux","password":true,"vac":true,"version":"7882260","steam_id":85568392924742821,"keywords":["cp","nocrits","nodmgspread","uncletopia"],"game_id":440,"stv_port":27046,"stv_name":"Uncletopia | New York City | 4 | Community | STV","players":[{"user_id":21,"name":"Happy Yaoi Sunday","steam_id":76561198111290441,"connected_time":5734000000000,"state":"active","ping":44},{"user_id":106,"name":"President William Howard Taft","steam_id":76561198047691108,"connected_time":961000000000,"state":"active","ping":47},{"user_id":107,"name":"IKOVKY/TTV","steam_id":76561198138035040,"connected_time":950000000000,"state":"active","ping":59},{"user_id":108,"name":"ShiverShock","steam_id":76561198994768522,"connected_time":941000000000,"state":"active","ping":108},{"user_id":87,"name":"thai","steam_id":76561198052462287,"connected_time":1980000000000,"state":"active","ping":105},{"user_id":88,"name":"Viennetta","steam_id":76561198044088335,"connected_time":1935000000000,"state":"active","ping":72},{"user_id":60,"name":"🅜🅔🅔🅚🅢🅣🅔\ufffd\ufffd\ufffd","steam_id":76561197999748343,"connected_time":3979000000000,"state":"active","ping":85},{"user_id":61,"name":"Blitzy","steam_id":76561198149472890,"connected_time":3978000000000,"state":"active","ping":91},{"user_id":30,"name":"bojack from the show bojack hor","steam_id":76561198053006712,"connected_time":5439000000000,"state":"active","ping":42},{"user_id":115,"name":"Sychke","steam_id":76561198067144055,"connected_time":609000000000,"state":"active","ping":75},{"user_id":96,"name":"Gruncle PUXXY's MeatyTales","steam_id":76561197995465137,"connected_time":1426000000000,"state":"active","ping":85},{"user_id":116,"name":"gerg","steam_id":76561197997127387,"connected_time":511000000000,"state":"active","ping":115},{"user_id":117,"name":"engie","steam_id":76561199229629045,"connected_time":510000000000,"state":"active","ping":130},{"user_id":100,"name":"Model CHP-3Y","steam_id":76561198107806145,"connected_time":1175000000000,"state":"active","ping":67},{"user_id":52,"name":"OffKey","steam_id":76561198017660927,"connected_time":4484000000000,"state":"active","ping":60},{"user_id":118,"name":"social distance warrior","steam_id":76561198128992994,"connected_time":506000000000,"state":"active","ping":104},{"user_id":119,"name":"Chiaki Nanami","steam_id":76561198164782653,"connected_time":504000000000,"state":"active","ping":46},{"user_id":120,"name":"erf","steam_id":76561198078203677,"connected_time":368000000000,"state":"active","ping":56},{"user_id":123,"name":"Ghworg","steam_id":76561198324891401,"connected_time":136000000000,"state":"active","ping":76},{"user_id":124,"name":"Wan Shi Tong","steam_id":76561198076441225,"connected_time":101000000000,"state":"active","ping":47},{"user_id":121,"name":"Phonky Monk_","steam_id":76561198061810085,"connected_time":287000000000,"state":"active","ping":47},{"user_id":62,"name":"Olive","steam_id":76561198003474783,"connected_time":3930000000000,"state":"active","ping":79},{"user_id":125,"name":"MagikarpEX","steam_id":76561198166172279,"connected_time":92000000000,"state":"active","ping":55},{"user_id":128,"name":"The Mug Man","steam_id":76561198283468122,"connected_time":2000000000,"state":"spawning","ping":41},{"user_id":76,"name":"BB Lorexav","steam_id":76561198207565988,"connected_time":2735000000000,"state":"active","ping":71}]},{"server_id":142,"name":"Uncletopia | São Paulo | 1 | All Maps","name_short":"sao-1","host":"sao-1.br.uncletopia.com","port":27015,"enabled":true,"region":"sa","cc":"br","latitude":-23.533773,"longitude":-46.62529,"reserved":0,"last_update":"0001-01-01T00:00:00Z","name_a2s":"Uncletopia | São Paulo | 1 | All Maps","protocol":17,"map":"pl_upward","folder":"tf","game":"Team Fortress","app_id":440,"player_count":0,"max_players":24,"Bots":0,"server_type":"Dedicated","server_os":"Linux","password":true,"vac":true,"version":"7882260","steam_id":85568392924469996,"keywords":["nocrits","nodmgspread","payload","uncletopia"],"game_id":440,"stv_port":27016,"stv_name":"Uncletopia | São Paulo | 1 | All Maps | STV","players":null},{"server_id":143,"name":"Uncletopia | São Paulo | 2 | All Maps","name_short":"sao-2","host":"sao-2.br.uncletopia.com","port":27015,"enabled":true,"region":"sa","cc":"br","latitude":-23.533773,"longitude":-46.62529,"reserved":0,"last_update":"0001-01-01T00:00:00Z","name_a2s":"Uncletopia | São Paulo | 2 | All Maps","protocol":17,"map":"koth_lakeside_final","folder":"tf","game":"Team Fortress","app_id":440,"player_count":0,"max_players":24,"Bots":0,"server_type":"Dedicated","server_os":"Linux","password":true,"vac":true,"version":"7882260","steam_id":85568392924485349,"keywords":["cp","nocrits","nodmgspread","uncletopia"],"game_id":440,"stv_port":27016,"stv_name":"Uncletopia | São Paulo | 2 | All Maps | STV","players":null},{"server_id":7,"name":"Uncletopia | Seattle | 1 | All Maps","name_short":"sea-1","host":"sea-1.us.uncletopia.com","port":27015,"enabled":true,"region":"us-west","cc":"us","latitude":47.608013,"longitude":-122.33517,"reserved":0,"last_update":"0001-01-01T00:00:00Z","name_a2s":"Uncletopia | Seattle | 1 | All Maps","protocol":17,"map":"pl_snowycoast","folder":"tf","game":"Team Fortress","app_id":440,"player_count":24,"max_players":24,"Bots":0,"server_type":"Dedicated","server_os":"Linux","password":true,"vac":true,"version":"7882260","steam_id":85568392924469997,"keywords":["nocrits","nodmgspread","payload","uncletopia"],"game_id":440,"stv_port":27016,"stv_name":"Uncletopia | Seattle | 1 | All Maps | STV","players":[{"user_id":3,"name":"evilOlive","steam_id":76561198106222025,"connected_time":9282000000000,"state":"active","ping":79},{"user_id":94,"name":"Shochu Fiend","steam_id":76561198055193376,"connected_time":746000000000,"state":"active","ping":86},{"user_id":41,"name":"Sweatpants","steam_id":76561198097188001,"connected_time":8073000000000,"state":"active","ping":45},{"user_id":64,"name":"soup","steam_id":76561198043209046,"connected_time":5331000000000,"state":"active","ping":72},{"user_id":95,"name":"Stev the Prurient Oxymoron","steam_id":76561197999442625,"connected_time":112000000000,"state":"active","ping":56},{"user_id":58,"name":"SadFapping","steam_id":76561198076651049,"connected_time":6410000000000,"state":"active","ping":58},{"user_id":9,"name":"Ayayayayayahuasca","steam_id":76561199002906056,"connected_time":9274000000000,"state":"active","ping":48},{"user_id":10,"name":"Arsonist Goose","steam_id":76561198147441830,"connected_time":9273000000000,"state":"active","ping":66},{"user_id":53,"name":"General Fisticuffs","steam_id":76561198255721392,"connected_time":7499000000000,"state":"active","ping":106},{"user_id":78,"name":"spenca","steam_id":76561198025371154,"connected_time":1837000000000,"state":"active","ping":66},{"user_id":92,"name":"Skabbety","steam_id":76561198168044257,"connected_time":769000000000,"state":"active","ping":31},{"user_id":93,"name":"omg an opossum!!","steam_id":76561198010230351,"connected_time":765000000000,"state":"active","ping":48},{"user_id":72,"name":"Mignyanne :3","steam_id":76561198048754056,"connected_time":3011000000000,"state":"active","ping":66},{"user_id":36,"name":"chloé (more like gay!)","steam_id":76561198858926895,"connected_time":8729000000000,"state":"active","ping":36},{"user_id":76,"name":"lox","steam_id":76561198288531493,"connected_time":2688000000000,"state":"active","ping":51},{"user_id":66,"name":"PopcornBucketGames","steam_id":76561199089562026,"connected_time":5001000000000,"state":"active","ping":52},{"user_id":80,"name":"lavender","steam_id":76561199069518286,"connected_time":1814000000000,"state":"active","ping":68},{"user_id":56,"name":"Baltimore CA-68","steam_id":76561198313517179,"connected_time":6813000000000,"state":"active","ping":91},{"user_id":88,"name":"cheeto dorito","steam_id":76561198107941274,"connected_time":1069000000000,"state":"active","ping":78},{"user_id":84,"name":"NotAWeeb","steam_id":76561198165530739,"connected_time":1490000000000,"state":"active","ping":60},{"user_id":89,"name":"Grill Skills","steam_id":76561198053575147,"connected_time":908000000000,"state":"active","ping":61},{"user_id":67,"name":"NEBULA","steam_id":76561198086878595,"connected_time":4859000000000,"state":"active","ping":74},{"user_id":77,"name":"Ducks","steam_id":76561198130038345,"connected_time":2687000000000,"state":"active","ping":59},{"user_id":29,"name":"♥haunti","steam_id":76561199235580556,"connected_time":9244000000000,"state":"active","ping":45}]},{"server_id":119,"name":"Uncletopia | Seattle | 2 | All Maps","name_short":"sea-2","host":"sea-1.us.uncletopia.com","port":27025,"enabled":true,"region":"us-west","cc":"us","latitude":47.608013,"longitude":-122.33517,"reserved":0,"last_update":"0001-01-01T00:00:00Z","name_a2s":"Uncletopia | Seattle | 2 | All Maps","protocol":17,"map":"pl_snowycoast","folder":"tf","game":"Team Fortress","app_id":440,"player_count":23,"max_players":24,"Bots":0,"server_type":"Dedicated","server_os":"Linux","password":true,"vac":true,"version":"7882260","steam_id":85568392924469998,"keywords":["nocrits","nodmgspread","payload","uncletopia"],"game_id":440,"stv_port":27026,"stv_name":"Uncletopia | Seattle | 2 | All Maps | STV","players":[{"user_id":149,"name":"heisenberg","steam_id":76561198075341060,"connected_time":726000000000,"state":"active","ping":88},{"user_id":145,"name":"ฅ^•ﻌ•^ฅ","steam_id":76561198326987939,"connected_time":826000000000,"state":"active","ping":115},{"user_id":107,"name":"O","steam_id":76561198450073779,"connected_time":3138000000000,"state":"active","ping":45},{"user_id":150,"name":"Mormon Discoball","steam_id":76561198028006216,"connected_time":552000000000,"state":"active","ping":66},{"user_id":59,"name":"ilun","steam_id":76561198042913843,"connected_time":5850000000000,"state":"active","ping":60},{"user_id":153,"name":"so close","steam_id":76561198289696924,"connected_time":53000000000,"state":"active","ping":90},{"user_id":124,"name":"Peter, what are you doing?","steam_id":76561198066452726,"connected_time":2063000000000,"state":"active","ping":78},{"user_id":120,"name":"MisterManne","steam_id":76561198106598600,"connected_time":2277000000000,"state":"active","ping":55},{"user_id":135,"name":"ur so pro | add me \u003c3","steam_id":76561198166827208,"connected_time":897000000000,"state":"active","ping":46},{"user_id":133,"name":"Bingleton","steam_id":76561197998930473,"connected_time":910000000000,"state":"active","ping":38},{"user_id":148,"name":"iggybones (girl with balls)","steam_id":76561198101610291,"connected_time":782000000000,"state":"active","ping":93},{"user_id":126,"name":"Harley [Ramiel]","steam_id":76561198079510840,"connected_time":1919000000000,"state":"active","ping":49},{"user_id":139,"name":"TwT#savetf2","steam_id":76561198432226673,"connected_time":866000000000,"state":"active","ping":96},{"user_id":106,"name":"BurdBrain","steam_id":76561197962097737,"connected_time":3441000000000,"state":"active","ping":88},{"user_id":117,"name":"Ira","steam_id":76561198855586261,"connected_time":2454000000000,"state":"active","ping":87},{"user_id":114,"name":"Petrivus","steam_id":76561198202152453,"connected_time":2694000000000,"state":"active","ping":56},{"user_id":146,"name":"Buakaw","steam_id":76561199067143694,"connected_time":808000000000,"state":"active","ping":75},{"user_id":147,"name":"+EsC|Kevinator","steam_id":76561198008475674,"connected_time":791000000000,"state":"active","ping":86},{"user_id":141,"name":"Optimore","steam_id":76561198047662990,"connected_time":862000000000,"state":"active","ping":73},{"user_id":128,"name":"srmoore 103","steam_id":76561198300291415,"connected_time":1782000000000,"state":"active","ping":48},{"user_id":131,"name":"Keamy","steam_id":76561199471434875,"connected_time":1453000000000,"state":"active","ping":41},{"user_id":144,"name":"Tranq","steam_id":76561197967250757,"connected_time":844000000000,"state":"active","ping":104},{"user_id":118,"name":"Big Dick Swinging","steam_id":76561198053819929,"connected_time":2423000000000,"state":"active","ping":82}]},{"server_id":406,"name":"Uncletopia | Seattle | 3 | Stopwatch Beta","name_short":"sea-3","host":"sea-1.us.uncletopia.com","port":27035,"enabled":true,"region":"us-west","cc":"us","latitude":47.608013,"longitude":-122.33517,"reserved":0,"last_update":"0001-01-01T00:00:00Z","name_a2s":"Uncletopia | Seattle | 3 | Stopwatch Beta","protocol":17,"map":"pl_swiftwater_final1","folder":"tf","game":"Team Fortress","app_id":440,"player_count":0,"max_players":24,"Bots":0,"server_type":"Dedicated","server_os":"Linux","password":true,"vac":true,"version":"7882260","steam_id":85568392924515217,"keywords":["nocrits","nodmgspread","payload","uncletopia"],"game_id":440,"stv_port":27036,"stv_name":"Uncletopia | Seattle | 3 | Stopwatch Beta | STV","players":null},{"server_id":17,"name":"Uncletopia | San Francisco | 1 | All Maps","name_short":"sfo-1","host":"sfo-1.us.uncletopia.com","port":27015,"enabled":true,"region":"us-west","cc":"us","latitude":37.77397,"longitude":-122.4313,"reserved":0,"last_update":"0001-01-01T00:00:00Z","name_a2s":"Uncletopia | San Francisco | 1 | All Maps","protocol":17,"map":"cp_snakewater_final1","folder":"tf","game":"Team Fortress","app_id":440,"player_count":0,"max_players":24,"Bots":0,"server_type":"Dedicated","server_os":"Linux","password":true,"vac":true,"version":"7882260","steam_id":85568392924469999,"keywords":["cp","nocrits","nodmgspread","uncletopia"],"game_id":440,"stv_port":27016,"stv_name":"Uncletopia | San Francisco | 1 | All Maps | STV","players":null},{"server_id":18,"name":"Uncletopia | San Francisco | 2 | All Maps","name_short":"sfo-2","host":"sfo-1.us.uncletopia.com","port":27025,"enabled":true,"region":"us-west","cc":"us","latitude":37.77397,"longitude":-122.4313,"reserved":0,"last_update":"0001-01-01T00:00:00Z","name_a2s":"Uncletopia | San Francisco | 2 | All Maps","protocol":17,"map":"cp_mountainlab","folder":"tf","game":"Team Fortress","app_id":440,"player_count":0,"max_players":24,"Bots":0,"server_type":"Dedicated","server_os":"Linux","password":true,"vac":true,"version":"7882260","steam_id":85568392924470000,"keywords":["cp","nocrits","nodmgspread","uncletopia"],"game_id":440,"stv_port":27026,"stv_name":"Uncletopia | San Francisco | 2 | All Maps | STV","players":null},{"server_id":19,"name":"Uncletopia | San Francisco | 3 | Stopwatch Beta","name_short":"sfo-3","host":"sfo-1.us.uncletopia.com","port":27035,"enabled":true,"region":"us-west","cc":"us","latitude":37.77397,"longitude":-122.4313,"reserved":0,"last_update":"0001-01-01T00:00:00Z","name_a2s":"Uncletopia | San Francisco | 3 | Stopwatch Beta","protocol":17,"map":"pl_snowycoast","folder":"tf","game":"Team Fortress","app_id":440,"player_count":0,"max_players":24,"Bots":0,"server_type":"Dedicated","server_os":"Linux","password":true,"vac":true,"version":"7882260","steam_id":85568392924742824,"keywords":["nocrits","nodmgspread","payload","uncletopia"],"game_id":440,"stv_port":27036,"stv_name":"Uncletopia | San Francisco | 3 | Stopwatch Beta | STV","players":null},{"server_id":20,"name":"Uncletopia | San Francisco | 4 | Community","name_short":"sfo-4","host":"sfo-1.us.uncletopia.com","port":27045,"enabled":true,"region":"us-west","cc":"us","latitude":37.77397,"longitude":-122.4313,"reserved":0,"last_update":"0001-01-01T00:00:00Z","name_a2s":"Uncletopia | San Francisco | 4 | Community","protocol":17,"map":"workshop/pl_vigil_rc9.ugc1266210012","folder":"tf","game":"Team Fortress","app_id":440,"player_count":23,"max_players":24,"Bots":0,"server_type":"Dedicated","server_os":"Linux","password":true,"vac":true,"version":"7882260","steam_id":85568392924742826,"keywords":["nocrits","nodmgspread","payload","uncletopia"],"game_id":440,"stv_port":27046,"stv_name":"Uncletopia | San Francisco | 4 | Community | STV","players":[{"user_id":162,"name":"cozmo","steam_id":76561198043167542,"connected_time":688000000000,"state":"active","ping":60},{"user_id":153,"name":"Flyingcat9000","steam_id":76561198179561797,"connected_time":1247000000000,"state":"active","ping":34},{"user_id":132,"name":"boo!!!","steam_id":76561198284805448,"connected_time":3237000000000,"state":"active","ping":46},{"user_id":167,"name":"dee","steam_id":76561198174355381,"connected_time":386000000000,"state":"active","ping":87},{"user_id":150,"name":"Zom_Named_Zam","steam_id":76561198328066203,"connected_time":1816000000000,"state":"active","ping":72},{"user_id":154,"name":"freyja","steam_id":76561198012480197,"connected_time":1231000000000,"state":"active","ping":43},{"user_id":155,"name":"Willowl","steam_id":76561198074612980,"connected_time":1218000000000,"state":"active","ping":146},{"user_id":104,"name":"Cypress [ +/- ] ✔","steam_id":76561198067164431,"connected_time":4520000000000,"state":"active","ping":46},{"user_id":168,"name":"Grizzakk","steam_id":76561198115821923,"connected_time":369000000000,"state":"active","ping":72},{"user_id":146,"name":"Mr Twitchy","steam_id":76561197995985499,"connected_time":2029000000000,"state":"active","ping":65},{"user_id":147,"name":"Carthage (TRANSRIGHTS)","steam_id":76561198049001571,"connected_time":1998000000000,"state":"active","ping":94},{"user_id":163,"name":"Argancalas","steam_id":76561198005989915,"connected_time":496000000000,"state":"active","ping":70},{"user_id":130,"name":"SpringIvan","steam_id":76561199133179509,"connected_time":3266000000000,"state":"active","ping":66},{"user_id":169,"name":"Scrampled Aigs","steam_id":76561198014526583,"connected_time":250000000000,"state":"active","ping":97},{"user_id":170,"name":"RaTtYc","steam_id":76561198954419354,"connected_time":231000000000,"state":"active","ping":82},{"user_id":122,"name":"YouAreReadingThis","steam_id":76561198367831600,"connected_time":4034000000000,"state":"active","ping":71},{"user_id":156,"name":"Ahten Xevious","steam_id":76561198075469828,"connected_time":1204000000000,"state":"active","ping":113},{"user_id":164,"name":"bad boss bitch","steam_id":76561198125694577,"connected_time":493000000000,"state":"active","ping":67},{"user_id":158,"name":"They could be starlings","steam_id":76561198441020995,"connected_time":1176000000000,"state":"active","ping":55},{"user_id":171,"name":"Belvidere","steam_id":76561198121336953,"connected_time":192000000000,"state":"active","ping":121},{"user_id":173,"name":"Dambranlui16","steam_id":76561198984729069,"connected_time":41000000000,"state":"active","ping":267},{"user_id":141,"name":"Kozaky","steam_id":76561198047144993,"connected_time":2633000000000,"state":"active","ping":50},{"user_id":161,"name":"Chud Monkey","steam_id":76561199092840401,"connected_time":1103000000000,"state":"active","ping":98}]},{"server_id":141,"name":"Uncletopia | Sydney | 1 | All Maps","name_short":"syd-1","host":"syd-1.au.uncletopia.com","port":27015,"enabled":true,"region":"au","cc":"au","latitude":-33.865143,"longitude":151.2099,"reserved":0,"last_update":"0001-01-01T00:00:00Z","name_a2s":"Uncletopia | Sydney | 1 | All Maps","protocol":17,"map":"koth_lakeside_final","folder":"tf","game":"Team Fortress","app_id":440,"player_count":24,"max_players":24,"Bots":0,"server_type":"Dedicated","server_os":"Linux","password":true,"vac":true,"version":"7882260","steam_id":85568392924470001,"keywords":["cp","nocrits","nodmgspread","uncletopia"],"game_id":440,"stv_port":27016,"stv_name":"Uncletopia | Sydney | 1 | All Maps | STV","players":[{"user_id":118,"name":"no teles 4 u","steam_id":76561198018478297,"connected_time":1004000000000,"state":"active","ping":75},{"user_id":44,"name":"Micromuffin","steam_id":76561198209370423,"connected_time":4999000000000,"state":"active","ping":60},{"user_id":76,"name":"Hippity_Hoppity","steam_id":76561198861050395,"connected_time":4127000000000,"state":"active","ping":61},{"user_id":121,"name":"sav","steam_id":76561198058760041,"connected_time":566000000000,"state":"active","ping":70},{"user_id":101,"name":"dog","steam_id":76561198073933737,"connected_time":2012000000000,"state":"active","ping":34},{"user_id":117,"name":"Tempered","steam_id":76561198074409552,"connected_time":1018000000000,"state":"active","ping":45},{"user_id":119,"name":"Sinister80s","steam_id":76561198343540472,"connected_time":879000000000,"state":"active","ping":67},{"user_id":124,"name":"[ѵƇity] it has been ages","steam_id":76561198016686295,"connected_time":313000000000,"state":"active","ping":74},{"user_id":104,"name":"Zepi","steam_id":76561198018887052,"connected_time":1899000000000,"state":"active","ping":51},{"user_id":83,"name":"krandlez` (Any/All)","steam_id":76561198044839726,"connected_time":3639000000000,"state":"active","ping":44},{"user_id":81,"name":"Arcueid Brunestud","steam_id":76561199016592990,"connected_time":3804000000000,"state":"active","ping":72},{"user_id":123,"name":"Madgoat01","steam_id":76561198438429996,"connected_time":409000000000,"state":"active","ping":141},{"user_id":43,"name":"FrOStY","steam_id":76561198088155805,"connected_time":5011000000000,"state":"active","ping":92},{"user_id":112,"name":"dumbvent","steam_id":76561198190062810,"connected_time":1382000000000,"state":"active","ping":62},{"user_id":80,"name":"weezer","steam_id":76561199439508788,"connected_time":3819000000000,"state":"active","ping":67},{"user_id":105,"name":"Sentry Gun (EpicGuy4227)","steam_id":76561198094132328,"connected_time":1876000000000,"state":"active","ping":72},{"user_id":46,"name":"Kremmen","steam_id":76561198051368641,"connected_time":4928000000000,"state":"active","ping":70},{"user_id":120,"name":"absolute schmeater","steam_id":76561198048064049,"connected_time":629000000000,"state":"active","ping":78},{"user_id":47,"name":"Bigfluffy","steam_id":76561198196339186,"connected_time":4924000000000,"state":"active","ping":61},{"user_id":113,"name":"asfhauobfege","steam_id":76561198186339670,"connected_time":1381000000000,"state":"active","ping":41},{"user_id":87,"name":"{Azura Sarah}","steam_id":76561197989210208,"connected_time":3512000000000,"state":"active","ping":50},{"user_id":99,"name":"Shark Noises","steam_id":76561198051386589,"connected_time":2039000000000,"state":"active","ping":58},{"user_id":56,"name":"Arro","steam_id":76561198084990929,"connected_time":4714000000000,"state":"active","ping":112},{"user_id":100,"name":"the poo man | trade.tf","steam_id":76561198173322978,"connected_time":2038000000000,"state":"active","ping":71}]},{"server_id":123,"name":"Uncletopia | Sydney | 2 | All Maps","name_short":"syd-2","host":"syd-1.au.uncletopia.com","port":27025,"enabled":true,"region":"au","cc":"au","latitude":-33.865143,"longitude":151.2099,"reserved":0,"last_update":"0001-01-01T00:00:00Z","name_a2s":"Uncletopia | Sydney | 2 | All Maps","protocol":17,"map":"pl_pier","folder":"tf","game":"Team Fortress","app_id":440,"player_count":6,"max_players":24,"Bots":0,"server_type":"Dedicated","server_os":"Linux","password":true,"vac":true,"version":"7882260","steam_id":85568392924470002,"keywords":["nocrits","nodmgspread","payload","uncletopia"],"game_id":440,"stv_port":27026,"stv_name":"Uncletopia | Sydney | 2 | All Maps | STV","players":[{"user_id":12,"name":"vroomvroom","steam_id":76561199219207799,"connected_time":263000000000,"state":"active","ping":101},{"user_id":13,"name":"Svet","steam_id":76561198152210509,"connected_time":168000000000,"state":"active","ping":44},{"user_id":14,"name":"Haste","steam_id":76561198173155142,"connected_time":168000000000,"state":"active","ping":60},{"user_id":6,"name":"Sir Bigg","steam_id":76561199080759165,"connected_time":3093000000000,"state":"active","ping":64},{"user_id":9,"name":"Lord Oink","steam_id":76561198125237921,"connected_time":1553000000000,"state":"active","ping":41},{"user_id":10,"name":"clown (cool and funny)","steam_id":76561198822420253,"connected_time":1291000000000,"state":"active","ping":63}]},{"server_id":395,"name":"Uncletopia | Sydney | 3 | All Maps","name_short":"syd-3","host":"syd-1.au.uncletopia.com","port":27035,"enabled":true,"region":"au","cc":"au","latitude":-33.865143,"longitude":151.2099,"reserved":0,"last_update":"0001-01-01T00:00:00Z","name_a2s":"Uncletopia | Sydney | 3 | All Maps","protocol":17,"map":"pl_badwater","folder":"tf","game":"Team Fortress","app_id":440,"player_count":0,"max_players":24,"Bots":0,"server_type":"Dedicated","server_os":"Linux","password":true,"vac":true,"version":"7882260","steam_id":85568392925194467,"keywords":["nocrits","nodmgspread","payload","uncletopia"],"game_id":440,"stv_port":27036,"stv_name":"Uncletopia | Sydney | 3 | All Maps | STV","players":null},{"server_id":396,"name":"Uncletopia | Sydney | 4 | All Maps","name_short":"syd-4","host":"syd-1.au.uncletopia.com","port":27045,"enabled":true,"region":"au","cc":"au","latitude":-33.865143,"longitude":151.2099,"reserved":0,"last_update":"0001-01-01T00:00:00Z","name_a2s":"Uncletopia | Sydney | 4 | All Maps","protocol":17,"map":"cp_altitude","folder":"tf","game":"Team Fortress","app_id":440,"player_count":0,"max_players":24,"Bots":0,"server_type":"Dedicated","server_os":"Linux","password":true,"vac":true,"version":"7882260","steam_id":85568392925397958,"keywords":["cp","nocrits","nodmgspread","uncletopia"],"game_id":440,"stv_port":27046,"stv_name":"Uncletopia | Sydney | 4 | All Maps | STV","players":null},{"server_id":58,"name":"Uncletopia | Sydney | 5 | Stopwatch Beta","name_short":"syd-5","host":"syd-1.au.uncletopia.com","port":27055,"enabled":true,"region":"au","cc":"au","latitude":-33.865143,"longitude":151.2099,"reserved":0,"last_update":"0001-01-01T00:00:00Z","name_a2s":"Uncletopia | Sydney | 5 | Stopwatch Beta","protocol":17,"map":"koth_viaduct","folder":"tf","game":"Team Fortress","app_id":440,"player_count":0,"max_players":24,"Bots":0,"server_type":"Dedicated","server_os":"Linux","password":true,"vac":true,"version":"7882260","steam_id":85568392925397959,"keywords":["cp","nocrits","nodmgspread","uncletopia"],"game_id":440,"stv_port":27056,"stv_name":"Uncletopia | Sydney | 5 | Stopwatch Beta | STV","players":null},{"server_id":59,"name":"Uncletopia | Sydney | 6 | Community","name_short":"syd-6","host":"syd-1.au.uncletopia.com","port":27065,"enabled":true,"region":"au","cc":"au","latitude":-33.865143,"longitude":151.2099,"reserved":0,"last_update":"0001-01-01T00:00:00Z","name_a2s":"Uncletopia | Sydney | 6 | Community","protocol":17,"map":"workshop/pl_boundary_final1.ugc456799153","folder":"tf","game":"Team Fortress","app_id":440,"player_count":0,"max_players":24,"Bots":0,"server_type":"Dedicated","server_os":"Linux","password":true,"vac":true,"version":"7882260","steam_id":85568392925397960,"keywords":["nocrits","nodmgspread","payload","uncletopia"],"game_id":440,"stv_port":27066,"stv_name":"Uncletopia | Sydney | 6 | Community | STV","players":null},{"server_id":49,"name":"Uncletopia | Warsaw | 1 | All Maps","name_short":"waw-1","host":"waw-1.pl.uncletopia.com","port":27015,"enabled":true,"region":"eu","cc":"pl","latitude":52.2297,"longitude":21.017532,"reserved":0,"last_update":"0001-01-01T00:00:00Z","name_a2s":"","protocol":0,"map":"","folder":"","game":"","app_id":0,"player_count":0,"max_players":0,"Bots":0,"server_type":"","server_os":"","password":false,"vac":false,"version":"","steam_id":0,"keywords":null,"game_id":0,"stv_port":0,"stv_name":"","players":null},{"server_id":50,"name":"Uncletopia | Warsaw | 2 | All Maps","name_short":"waw-2","host":"waw-1.pl.uncletopia.com","port":27025,"enabled":true,"region":"eu","cc":"pl","latitude":52.2297,"longitude":21.017532,"reserved":0,"last_update":"0001-01-01T00:00:00Z","name_a2s":"Uncletopia | Warsaw | 2 | All Maps","protocol":17,"map":"koth_viaduct","folder":"tf","game":"Team Fortress","app_id":440,"player_count":0,"max_players":24,"Bots":0,"server_type":"Dedicated","server_os":"Linux","password":true,"vac":true,"version":"7882260","steam_id":85568392925397851,"keywords":["cp","nocrits","nodmgspread","uncletopia"],"game_id":440,"stv_port":27026,"stv_name":"Uncletopia | Warsaw | 2 | All Maps | STV","players":null},{"server_id":51,"name":"Uncletopia | Warsaw | 3 | All Maps","name_short":"waw-3","host":"waw-1.pl.uncletopia.com","port":27035,"enabled":true,"region":"eu","cc":"pl","latitude":52.2297,"longitude":21.017532,"reserved":0,"last_update":"0001-01-01T00:00:00Z","name_a2s":"Uncletopia | Warsaw | 3 | All Maps","protocol":17,"map":"pl_badwater","folder":"tf","game":"Team Fortress","app_id":440,"player_count":0,"max_players":24,"Bots":0,"server_type":"Dedicated","server_os":"Linux","password":true,"vac":true,"version":"7882260","steam_id":85568392925397852,"keywords":["nocrits","nodmgspread","payload","uncletopia"],"game_id":440,"stv_port":27036,"stv_name":"Uncletopia | Warsaw | 3 | All Maps | STV","players":null},{"server_id":52,"name":"Uncletopia | Warsaw | 4 | All Maps","name_short":"waw-4","host":"waw-1.pl.uncletopia.com","port":27045,"enabled":true,"region":"eu","cc":"pl","latitude":52.2297,"longitude":21.017532,"reserved":0,"last_update":"0001-01-01T00:00:00Z","name_a2s":"Uncletopia | Warsaw | 4 | All Maps","protocol":17,"map":"koth_cascade","folder":"tf","game":"Team Fortress","app_id":440,"player_count":0,"max_players":24,"Bots":0,"server_type":"Dedicated","server_os":"Linux","password":true,"vac":true,"version":"7882260","steam_id":85568392925397853,"keywords":["cp","nocrits","nodmgspread","uncletopia"],"game_id":440,"stv_port":27046,"stv_name":"Uncletopia | Warsaw | 4 | All Maps | STV","players":null},{"server_id":53,"name":"Uncletopia | Warsaw | 5 | Stopwatch Beta","name_short":"waw-5","host":"waw-1.pl.uncletopia.com","port":27055,"enabled":true,"region":"eu","cc":"pl","latitude":52.2297,"longitude":21.017532,"reserved":0,"last_update":"0001-01-01T00:00:00Z","name_a2s":"Uncletopia | Warsaw | 5 | Stopwatch Beta","protocol":17,"map":"cp_dustbowl","folder":"tf","game":"Team Fortress","app_id":440,"player_count":0,"max_players":24,"Bots":0,"server_type":"Dedicated","server_os":"Linux","password":true,"vac":true,"version":"7882260","steam_id":85568392925397854,"keywords":["cp","nocrits","nodmgspread","uncletopia"],"game_id":440,"stv_port":27056,"stv_name":"Uncletopia | Warsaw | 5 | Stopwatch Beta | STV","players":null},{"server_id":54,"name":"Uncletopia | Warsaw | 6 | Community","name_short":"waw-6","host":"waw-1.pl.uncletopia.com","port":27065,"enabled":true,"region":"eu","cc":"pl","latitude":52.2297,"longitude":21.017532,"reserved":0,"last_update":"0001-01-01T00:00:00Z","name_a2s":"Uncletopia | Warsaw | 6 | Community","protocol":17,"map":"cp_dustbowl","folder":"tf","game":"Team Fortress","app_id":440,"player_count":0,"max_players":24,"Bots":0,"server_type":"Dedicated","server_os":"Linux","password":true,"vac":true,"version":"7882260","steam_id":85568392925397856,"keywords":["cp","nocrits","nodmgspread","uncletopia"],"game_id":440,"stv_port":27066,"stv_name":"Uncletopia | Warsaw | 6 | Community | STV","players":null}]}