{"status":true,"message":"","result":[{"server_id":9,"name":"Uncletopia | Atlanta | 1 | All Maps","name_short":"atl-1","host":"atl-1.us.uncletopia.com","port":27015,"enabled":true,"region":"us-east","cc":"us","latitude":33.753746,"longitude":-84.38633,"reserved":0,"last_update":"0001-01-01T00:00:00Z","name_a2s":"Uncletopia | Atlanta | 1 | All Maps","protocol":17,"map":"plr_hightower","folder":"tf","game":"Team Fortress","app_id":440,"player_count":24,"max_players":24,"Bots":0,"server_type":"Dedicated","server_os":"Linux","password":true,"vac":true,"version":"7961495","steam_id":85568392924469982,"keywords":["nocrits","nodmgspread","payload","uncletopia"],"game_id":440,"stv_port":27016,"stv_name":"Uncletopia | Atlanta | 1 | All Maps | STV","players":[{"user_id":358,"name":"Boneless Blithen","steam_id":76561197989955619,"connected_time":2504000000000,"state":"active","ping":130},{"user_id":359,"name":"Humwrecker","steam_id":76561199003607331,"connected_time":2310000000000,"state":"active","ping":119},{"user_id":189,"name":"Okpar","steam_id":76561199221067945,"connected_time":11845000000000,"state":"active","ping":84},{"user_id":325,"name":"Chernov","steam_id":76561198014463424,"connected_time":4405000000000,"state":"active","ping":60},{"user_id":360,"name":"Oddball","steam_id":76561198040440984,"connected_time":2010000000000,"state":"active","ping":92},{"user_id":378,"name":"Lucario1331","steam_id":76561198170187361,"connected_time":106000000000,"state":"active","ping":47},{"user_id":375,"name":"Lylith!!!","steam_id":76561198386687546,"connected_time":505000000000,"state":"active","ping":45},{"user_id":351,"name":"Koala Bear","steam_id":76561198118025990,"connected_time":3015000000000,"state":"active","ping":85},{"user_id":372,"name":"Im High","steam_id":76561198049954886,"connected_time":691000000000,"state":"active","ping":71},{"user_id":379,"name":"Le√≥n","steam_id":76561198056520268,"connected_time":93000000000,"state":"active","ping":62},{"user_id":373,"name":"Le4n!!!","steam_id":76561198045522596,"connected_time":675000000000,"state":"active","ping":67},{"user_id":357,"name":"Ashes!","steam_id":76561197998475441,"connected_time":2686000000000,"state":"active","ping":80},{"user_id":376,"name":"joe","steam_id":76561198045781320,"connected_time":375000000000,"state":"active","ping":65},{"user_id":377,"name":"lu","steam_id":76561198080731872,"connected_time":362000000000,"state":"active","ping":74},{"user_id":367,"name":"Xavibite","steam_id":76561198209380493,"connected_time":1140000000000,"state":"active","ping":61},{"user_id":363,"name":"barfunkle","steam_id":76561198927517471,"connected_time":1613000000000,"state":"active","ping":56},{"user_id":265,"name":"Poo","steam_id":76561198265144507,"connected_time":6566000000000,"state":"active","ping":78},{"user_id":344,"name":"Tay1Qr","steam_id":76561198082809935,"connected_time":3495000000000,"state":"active","ping":66},{"user_id":269,"name":"e0e0","steam_id":76561198293839750,"connected_time":6394000000000,"state":"active","ping":63},{"user_id":381,"name":"Notsocreative","steam_id":76561198236372202,"connected_time":48000000000,"state":"active","ping":78},{"user_id":294,"name":"BLOW UP NEW JERSEY","steam_id":76561198364439575,"connected_time":5962000000000,"state":"active","ping":73},{"user_id":361,"name":"Heathcliff","steam_id":76561198044288534,"connected_time":1861000000000,"state":"active","ping":77},{"user_id":364,"name":"Lilith","steam_id":76561198125102885,"connected_time":1159000000000,"state":"active","ping":89},{"user_id":347,"name":"napstagbo","steam_id":76561198119378766,"connected_time":3212000000000,"state":"active","ping":146}]},{"server_id":104,"name":"Uncletopia | Atlanta | 2 | All Maps","name_short":"atl-2","host":"atl-1.us.uncletopia.com","port":27025,"enabled":true,"region":"us-east","cc":"us","latitude":33.753746,"longitude":-84.38633,"reserved":0,"last_update":"0001-01-01T00:00:00Z","name_a2s":"Uncletopia | Atlanta | 2 | All Maps","protocol":17,"map":"pl_snowycoast","folder":"tf","game":"Team Fortress","app_id":440,"player_count":21,"max_players":24,"Bots":0,"server_type":"Dedicated","server_os":"Linux","password":true,"vac":true,"version":"7961495","steam_id":85568392924469983,"keywords":["nocrits","nodmgspread","payload","uncletopia"],"game_id":440,"stv_port":27026,"stv_name":"Uncletopia | Atlanta | 2 | All Maps | STV","players":[{"user_id":31,"name":"101_the_Robot","steam_id":76561198331039848,"connected_time":1887000000000,"state":"active","ping":146},{"user_id":38,"name":"Slovarthin","steam_id":76561198271711536,"connected_time":1193000000000,"state":"active","ping":60},{"user_id":54,"name":"who ate the cheese","steam_id":76561198275408467,"connected_time":74000000000,"state":"active","ping":46},{"user_id":43,"name":"TJ","steam_id":76561198045177514,"connected_time":735000000000,"state":"active","ping":70},{"user_id":34,"name":"feeple murphy","steam_id":76561199069482101,"connected_time":1497000000000,"state":"active","ping":114},{"user_id":35,"name":"mz.maggie4","steam_id":76561198866614956,"connected_time":1484000000000,"state":"active","ping":66},{"user_id":44,"name":"Luglige","steam_id":76561198094827948,"connected_time":648000000000,"state":"active","ping":76},{"user_id":39,"name":"deji","steam_id":76561198808784678,"connected_time":1169000000000,"state":"active","ping":70},{"user_id":40,"name":"Toomey","steam_id":76561198012214023,"connected_time":1133000000000,"state":"active","ping":96},{"user_id":46,"name":"PrivateBattery","steam_id":76561198199124362,"connected_time":608000000000,"state":"active","ping":99},{"user_id":42,"name":"Shibo","steam_id":76561198168517216,"connected_time":1115000000000,"state":"active","ping":187},{"user_id":47,"name":"Lemon","steam_id":76561199001451079,"connected_time":561000000000,"state":"active","ping":76},{"user_id":48,"name":"JtsRes","steam_id":76561197994809241,"connected_time":455000000000,"state":"active","ping":69},{"user_id":49,"name":"Gustavo Fring","steam_id":76561198132807405,"connected_time":420000000000,"state":"active","ping":89},{"user_id":51,"name":"Cole Boye","steam_id":76561198282449106,"connected_time":169000000000,"state":"active","ping":67},{"user_id":52,"name":"8bitprick","steam_id":76561199474825993,"connected_time":159000000000,"state":"active","ping":92},{"user_id":58,"name":"whycameback","steam_id":76561198222556872,"connected_time":26000000000,"state":"spawning","ping":73},{"user_id":55,"name":"BubbyBoy27","steam_id":76561199102009679,"connected_time":73000000000,"state":"active","ping":83},{"user_id":56,"name":"bdkaine1","steam_id":76561198133545467,"connected_time":58000000000,"state":"active","ping":48},{"user_id":57,"name":"Shy","steam_id":76561198394890836,"connected_time":34000000000,"state":"spawning","ping":55},{"user_id":59,"name":"Gordon Ramsay","steam_id":76561198123893900,"connected_time":4000000000,"state":"spawning","ping":72}]},{"server_id":400,"name":"Uncletopia | Atlanta | 3 | Stopwatch","name_short":"atl-3","host":"atl-1.us.uncletopia.com","port":27035,"enabled":true,"region":"us-east","cc":"us","latitude":33.753746,"longitude":-84.38633,"reserved":0,"last_update":"0001-01-01T00:00:00Z","name_a2s":"Uncletopia | Atlanta | 3 | Stopwatch","protocol":17,"map":"koth_lakeside_final","folder":"tf","game":"Team Fortress","app_id":440,"player_count":0,"max_players":24,"Bots":0,"server_type":"Dedicated","server_os":"Linux","password":true,"vac":true,"version":"7961495","steam_id":85568392924515187,"keywords":["cp","nocrits","nodmgspread","uncletopia"],"game_id":440,"stv_port":27036,"stv_name":"Uncletopia | Atlanta | 3 | Stopwatch | STV","players":null},{"server_id":401,"name":"Uncletopia | Atlanta | 4 | Community","name_short":"atl-4","host":"atl-1.us.uncletopia.com","port":27045,"enabled":true,"region":"us-east","cc":"us","latitude":33.753746,"longitude":-84.38633,"reserved":0,"last_update":"0001-01-01T00:00:00Z","name_a2s":"Uncletopia | Atlanta | 4 | Community","protocol":17,"map":"workshop/koth_product_final.ugc454272353","folder":"tf","game":"Team Fortress","app_id":440,"player_count":24,"max_players":24,"Bots":0,"server_type":"Dedicated","server_os":"Linux","password":true,"vac":true,"version":"7961495","steam_id":85568392924515188,"keywords":["cp","nocrits","nodmgspread","uncletopia"],"game_id":440,"stv_port":27046,"stv_name":"Uncletopia | Atlanta | 4 | Community | STV","players":[{"user_id":258,"name":"--_Cook_--","steam_id":76561198080855748,"connected_time":1667000000000,"state":"active","ping":46},{"user_id":240,"name":"Inevitable","steam_id":76561198210050169,"connected_time":2506000000000,"state":"active","ping":74},{"user_id":250,"name":"Lamb Chopper","steam_id":76561198851872554,"connected_time":2162000000000,"state":"active","ping":91},{"user_id":273,"name":"makr","steam_id":76561198124137989,"connected_time":955000000000,"state":"active","ping":40},{"user_id":267,"name":"gideon nav my beloved","steam_id":76561198259092181,"connected_time":1087000000000,"state":"active","ping":80},{"user_id":284,"name":"eryn üó∫","steam_id":76561198004433070,"connected_time":637000000000,"state":"active","ping":88},{"user_id":245,"name":"mild mannered mystery man","steam_id":76561198072095399,"connected_time":2248000000000,"state":"active","ping":48},{"user_id":277,"name":"trianamarco780","steam_id":76561199084319677,"connected_time":878000000000,"state":"active","ping":100},{"user_id":181,"name":"creeeeeee","steam_id":76561198392539722,"connected_time":6525000000000,"state":"active","ping":85},{"user_id":217,"name":"freyja 2","steam_id":76561198249206656,"connected_time":3817000000000,"state":"active","ping":84},{"user_id":256,"name":"GH578","steam_id":76561199493262585,"connected_time":1758000000000,"state":"active","ping":116},{"user_id":242,"name":"Heir","steam_id":76561198350772943,"connected_time":2359000000000,"state":"active","ping":50},{"user_id":268,"name":"'mungus","steam_id":76561198022358379,"connected_time":1084000000000,"state":"active","ping":61},{"user_id":270,"name":"DanFango","steam_id":76561198078300753,"connected_time":1044000000000,"state":"active","ping":61},{"user_id":289,"name":"Boom 13","steam_id":76561198126796502,"connected_time":102000000000,"state":"active","ping":65},{"user_id":288,"name":"Womanwer","steam_id":76561198194760222,"connected_time":251000000000,"state":"active","ping":95},{"user_id":278,"name":"neet","steam_id":76561197968115168,"connected_time":827000000000,"state":"active","ping":60},{"user_id":274,"name":"Iron Argus","steam_id":76561198181088245,"connected_time":942000000000,"state":"active","ping":92},{"user_id":275,"name":"Dobbitz","steam_id":76561198798234267,"connected_time":924000000000,"state":"active","ping":74},{"user_id":290,"name":"CyMeryy","steam_id":76561197984986540,"connected_time":40000000000,"state":"active","ping":89},{"user_id":281,"name":"Jurassicsteel24","steam_id":76561199019369817,"connected_time":787000000000,"state":"active","ping":82},{"user_id":287,"name":"green bean","steam_id":76561198113099204,"connected_time":400000000000,"state":"active","ping":99},{"user_id":205,"name":"sloth (be nice im cringe)","steam_id":76561198047098172,"connected_time":5293000000000,"state":"active","ping":89},{"user_id":233,"name":"ht","steam_id":76561198160455073,"connected_time":2991000000000,"state":"active","ping":74}]},{"server_id":2,"name":"Uncletopia | Chicago | 1 | All Maps","name_short":"chi-1","host":"chi-1.us.uncletopia.com","port":27015,"enabled":true,"region":"us-central","cc":"us","latitude":41.881832,"longitude":-87.62318,"reserved":0,"last_update":"0001-01-01T00:00:00Z","name_a2s":"Uncletopia | Chicago | 1 | All Maps","protocol":17,"map":"pl_upward","folder":"tf","game":"Team Fortress","app_id":440,"player_count":24,"max_players":24,"Bots":0,"server_type":"Dedicated","server_os":"Linux","password":true,"vac":true,"version":"7961495","steam_id":85568392924469984,"keywords":["nocrits","nodmgspread","payload","uncletopia"],"game_id":440,"stv_port":27016,"stv_name":"Uncletopia | Chicago | 1 | All Maps | STV","players":[{"user_id":314,"name":"Maxpowi","steam_id":76561198095558036,"connected_time":264000000000,"state":"active","ping":59},{"user_id":306,"name":"playguy carter","steam_id":76561198080679337,"connected_time":519000000000,"state":"active","ping":47},{"user_id":297,"name":"XeroDollars","steam_id":76561198137858047,"connected_time":1100000000000,"state":"active","ping":68},{"user_id":282,"name":"Wolf_Of_IcyMoon","steam_id":76561198383771693,"connected_time":3481000000000,"state":"active","ping":103},{"user_id":277,"name":"Stacks63bs","steam_id":76561198067797130,"connected_time":3991000000000,"state":"active","ping":83},{"user_id":275,"name":"ThePatheticMedic","steam_id":76561198873083105,"connected_time":4141000000000,"state":"active","ping":57},{"user_id":299,"name":"DinkleBerg","steam_id":76561198891626233,"connected_time":921000000000,"state":"active","ping":60},{"user_id":307,"name":"bluetooth pizza","steam_id":76561198799256522,"connected_time":519000000000,"state":"active","ping":48},{"user_id":310,"name":"WhrSkr","steam_id":76561198845227751,"connected_time":351000000000,"state":"active","ping":47},{"user_id":312,"name":"flamingcookies","steam_id":76561198280864779,"connected_time":296000000000,"state":"active","ping":65},{"user_id":290,"name":"oog","steam_id":76561199089730744,"connected_time":2461000000000,"state":"active","ping":116},{"user_id":302,"name":"Arthur SSJ2","steam_id":76561198043678479,"connected_time":614000000000,"state":"active","ping":46},{"user_id":267,"name":"Window Licker #pride","steam_id":76561198386717007,"connected_time":4695000000000,"state":"active","ping":52},{"user_id":285,"name":"Praise_to_the_Flashlight!","steam_id":76561199001728789,"connected_time":2940000000000,"state":"active","ping":56},{"user_id":304,"name":"HOMIE","steam_id":76561198057325155,"connected_time":555000000000,"state":"active","ping":62},{"user_id":283,"name":"Mysterious Stranger","steam_id":76561198212044371,"connected_time":3317000000000,"state":"active","ping":71},{"user_id":292,"name":"‚ô•Bunny‚ô•Slut‚ô•","steam_id":76561198206376851,"connected_time":2436000000000,"state":"active","ping":88},{"user_id":251,"name":"Gay Porn Stuntman","steam_id":76561198844362758,"connected_time":6333000000000,"state":"active","ping":64},{"user_id":294,"name":"Silence","steam_id":76561197965880569,"connected_time":2368000000000,"state":"active","ping":63},{"user_id":280,"name":"rat eater","steam_id":76561199216874750,"connected_time":3590000000000,"state":"active","ping":57},{"user_id":291,"name":"the ovipositron","steam_id":76561198063064857,"connected_time":2459000000000,"state":"active","ping":77},{"user_id":273,"name":"Harbor Seal","steam_id":76561198162631724,"connected_time":4455000000000,"state":"active","ping":76},{"user_id":308,"name":"Berb","steam_id":76561198193911899,"connected_time":518000000000,"state":"active","ping":117}]},{"server_id":106,"name":"Uncletopia | Chicago | 2 | All Maps","name_short":"chi-2","host":"chi-1.us.uncletopia.com","port":27025,"enabled":true,"region":"us-central","cc":"us","latitude":41.881832,"longitude":-87.62318,"reserved":0,"last_update":"0001-01-01T00:00:00Z","name_a2s":"Uncletopia | Chicago | 2 | All Maps","protocol":17,"map":"cp_granary","folder":"tf","game":"Team Fortress","app_id":440,"player_count":24,"max_players":24,"Bots":0,"server_type":"Dedicated","server_os":"Linux","password":true,"vac":true,"version":"7961495","steam_id":85568392924469985,"keywords":["cp","nocrits","nodmgspread","uncletopia"],"game_id":440,"stv_port":27026,"stv_name":"Uncletopia | Chicago | 2 | All Maps | STV","players":[{"user_id":230,"name":"Shaper Loks","steam_id":76561198207958144,"connected_time":6529000000000,"state":"active","ping":96},{"user_id":300,"name":"frim le yousse","steam_id":76561198107765260,"connected_time":2211000000000,"state":"active","ping":95},{"user_id":319,"name":"turnip","steam_id":76561197999375941,"connected_time":1598000000000,"state":"active","ping":75},{"user_id":355,"name":"2.5 Oz of Paprika","steam_id":76561198174647666,"connected_time":87000000000,"state":"active","ping":78},{"user_id":356,"name":"thecal","steam_id":76561198307893384,"connected_time":71000000000,"state":"active","ping":48},{"user_id":346,"name":"Trade Mark","steam_id":76561198063064137,"connected_time":513000000000,"state":"active","ping":56},{"user_id":303,"name":"ONE PUNCH HEAVY","steam_id":76561198050232416,"connected_time":2107000000000,"state":"active","ping":73},{"user_id":304,"name":"Gramzon the Dragon","steam_id":76561198049780793,"connected_time":2090000000000,"state":"active","ping":73},{"user_id":328,"name":"Andrestor","steam_id":76561198005934930,"connected_time":1469000000000,"state":"active","ping":135},{"user_id":348,"name":"dark souls boss","steam_id":76561198316610724,"connected_time":486000000000,"state":"active","ping":93},{"user_id":357,"name":"LittleFieryOne","steam_id":76561198107463724,"connected_time":23000000000,"state":"spawning","ping":46},{"user_id":336,"name":"Owl Pacino","steam_id":76561197979970666,"connected_time":892000000000,"state":"active","ping":53},{"user_id":354,"name":"Strangelove","steam_id":76561198353773611,"connected_time":272000000000,"state":"active","ping":84},{"user_id":345,"name":"WhoIsFrosty","steam_id":76561198880588117,"connected_time":520000000000,"state":"active","ping":50},{"user_id":332,"name":"Jon Arbuckle","steam_id":76561198153295874,"connected_time":1164000000000,"state":"active","ping":109},{"user_id":341,"name":"Tokey","steam_id":76561198825943127,"connected_time":552000000000,"state":"active","ping":98},{"user_id":320,"name":"Sir Arthur Monkeynuts","steam_id":76561198143615215,"connected_time":1570000000000,"state":"active","ping":66},{"user_id":349,"name":"YummerBummer","steam_id":76561198094773987,"connected_time":465000000000,"state":"active","ping":73},{"user_id":322,"name":"shalankawanak","steam_id":76561198987719376,"connected_time":1549000000000,"state":"active","ping":58},{"user_id":351,"name":"IGOR","steam_id":76561199128786637,"connected_time":448000000000,"state":"active","ping":94},{"user_id":352,"name":"Comrade","steam_id":76561199056721863,"connected_time":435000000000,"state":"active","ping":84},{"user_id":327,"name":"._.","steam_id":76561198300316801,"connected_time":1502000000000,"state":"active","ping":59},{"user_id":324,"name":"Megatron G","steam_id":76561198168864083,"connected_time":1514000000000,"state":"active","ping":86},{"user_id":334,"name":"TheGerg","steam_id":76561198257099217,"connected_time":1122000000000,"state":"active","ping":85}]},{"server_id":402,"name":"Uncletopia | Chicago | 3 | All Maps","name_short":"chi-3","host":"chi-1.us.uncletopia.com","port":27035,"enabled":true,"region":"us-central","cc":"us","latitude":41.881832,"longitude":-87.62318,"reserved":0,"last_update":"0001-01-01T00:00:00Z","name_a2s":"Uncletopia | Chicago | 3 | All Maps","protocol":17,"map":"cp_steel","folder":"tf","game":"Team Fortress","app_id":440,"player_count":24,"max_players":24,"Bots":0,"server_type":"Dedicated","server_os":"Linux","password":true,"vac":true,"version":"7961495","steam_id":85568392924515191,"keywords":["cp","nocrits","nodmgspread","uncletopia"],"game_id":440,"stv_port":27036,"stv_name":"Uncletopia | Chicago | 3 | All Maps | STV","players":[{"user_id":494,"name":"eaglesfan609","steam_id":76561198151032242,"connected_time":453000000000,"state":"active","ping":74},{"user_id":485,"name":"Eiss","steam_id":76561198343183806,"connected_time":1358000000000,"state":"active","ping":71},{"user_id":467,"name":"DeepDive","steam_id":76561198140542184,"connected_time":2040000000000,"state":"active","ping":60},{"user_id":492,"name":"cozy","steam_id":76561199044037628,"connected_time":542000000000,"state":"active","ping":98},{"user_id":495,"name":"bread","steam_id":76561199374550366,"connected_time":423000000000,"state":"active","ping":85},{"user_id":475,"name":"Xx_Savage_Twerks_xX","steam_id":76561198011665915,"connected_time":1911000000000,"state":"active","ping":64},{"user_id":496,"name":"James K. Polk","steam_id":76561198069735882,"connected_time":418000000000,"state":"active","ping":76},{"user_id":483,"name":"Joculatrix","steam_id":76561198012795457,"connected_time":1491000000000,"state":"active","ping":65},{"user_id":476,"name":"custodian","steam_id":76561198058793778,"connected_time":1870000000000,"state":"active","ping":71},{"user_id":486,"name":"Pib","steam_id":76561197994926573,"connected_time":1354000000000,"state":"active","ping":84},{"user_id":497,"name":"Swimps","steam_id":76561199095494639,"connected_time":382000000000,"state":"active","ping":99},{"user_id":502,"name":"Hashmere","steam_id":76561198002797253,"connected_time":252000000000,"state":"active","ping":80},{"user_id":506,"name":"VisibleForce","steam_id":76561198104178938,"connected_time":186000000000,"state":"active","ping":82},{"user_id":499,"name":"rickyrickyricky","steam_id":76561198041765918,"connected_time":349000000000,"state":"active","ping":83},{"user_id":455,"name":"anotherl2","steam_id":76561198354418895,"connected_time":3924000000000,"state":"active","ping":91},{"user_id":479,"name":"I have no idea what I am doing?","steam_id":76561198093152207,"connected_time":1797000000000,"state":"active","ping":59},{"user_id":500,"name":"Turbulence","steam_id":76561198173172369,"connected_time":309000000000,"state":"active","ping":158},{"user_id":501,"name":"CupFruit","steam_id":76561198983993193,"connected_time":287000000000,"state":"active","ping":72},{"user_id":503,"name":"oog","steam_id":76561198272986152,"connected_time":240000000000,"state":"active","ping":83},{"user_id":504,"name":"Pattar","steam_id":76561198146276146,"connected_time":214000000000,"state":"active","ping":57},{"user_id":512,"name":"Pop","steam_id":76561199012562851,"connected_time":68000000000,"state":"active","ping":89},{"user_id":508,"name":"AndrewNursh","steam_id":76561199155538700,"connected_time":178000000000,"state":"active","ping":73},{"user_id":509,"name":"Xocolatl È≠îÈêò","steam_id":76561198007405067,"connected_time":170000000000,"state":"active","ping":48},{"user_id":488,"name":"Dave Davidson","steam_id":76561198010802812,"connected_time":1263000000000,"state":"active","ping":69}]},{"server_id":403,"name":"Uncletopia | Chicago | 4 | All Maps","name_short":"chi-4","host":"chi-1.us.uncletopia.com","port":27045,"enabled":true,"region":"us-central","cc":"us","latitude":41.881832,"longitude":-87.62318,"reserved":0,"last_update":"0001-01-01T00:00:00Z","name_a2s":"Uncletopia | Chicago | 4 | All Maps","protocol":17,"map":"pl_upward","folder":"tf","game":"Team Fortress","app_id":440,"player_count":24,"max_players":24,"Bots":0,"server_type":"Dedicated","server_os":"Linux","password":true,"vac":true,"version":"7961495","steam_id":85568392924515193,"keywords":["nocrits","nodmgspread","payload","uncletopia"],"game_id":440,"stv_port":27046,"stv_name":"Uncletopia | Chicago | 4 | All Maps | STV","players":[{"user_id":308,"name":"Xlander","steam_id":76561199345823430,"connected_time":75000000000,"state":"spawning","ping":70},{"user_id":301,"name":"fruitslicer","steam_id":76561198100015794,"connected_time":810000000000,"state":"active","ping":60},{"user_id":304,"name":"Murrdogg","steam_id":76561198210491188,"connected_time":297000000000,"state":"active","ping":57},{"user_id":292,"name":"Yellow","steam_id":76561199240738365,"connected_time":1317000000000,"state":"active","ping":120},{"user_id":293,"name":"Shirm","steam_id":76561198068455981,"connected_time":1311000000000,"state":"active","ping":74},{"user_id":171,"name":"Arcane Flame","steam_id":76561198360024422,"connected_time":7983000000000,"state":"active","ping":115},{"user_id":264,"name":"TheMadHattah","steam_id":76561198066587266,"connected_time":2786000000000,"state":"active","ping":73},{"user_id":310,"name":"Jesus","steam_id":76561198018890911,"connected_time":49000000000,"state":"active","ping":64},{"user_id":283,"name":"SaltyManok","steam_id":76561198160082948,"connected_time":1759000000000,"state":"active","ping":48},{"user_id":282,"name":"lil EGG","steam_id":76561198361321253,"connected_time":1781000000000,"state":"active","ping":69},{"user_id":300,"name":"Sirebellum","steam_id":76561199012778952,"connected_time":867000000000,"state":"active","ping":59},{"user_id":273,"name":"Frank The Fragger","steam_id":76561198088767519,"connected_time":2366000000000,"state":"active","ping":88},{"user_id":306,"name":"kritik","steam_id":76561198075216115,"connected_time":285000000000,"state":"active","ping":150},{"user_id":230,"name":"Mythic","steam_id":76561198028616665,"connected_time":5046000000000,"state":"active","ping":66},{"user_id":294,"name":"ramrod","steam_id":76561197972297003,"connected_time":1245000000000,"state":"active","ping":76},{"user_id":309,"name":"frid","steam_id":76561198005806915,"connected_time":57000000000,"state":"active","ping":58},{"user_id":307,"name":"mariopasta6","steam_id":76561199073184183,"connected_time":152000000000,"state":"active","ping":70},{"user_id":243,"name":"dulg","steam_id":76561198127640309,"connected_time":4054000000000,"state":"active","ping":78},{"user_id":272,"name":"CumBoy","steam_id":76561198121411970,"connected_time":2447000000000,"state":"active","ping":88},{"user_id":311,"name":"Alice in Rubberland","steam_id":76561198087328346,"connected_time":24000000000,"state":"active","ping":40},{"user_id":303,"name":"[NAME-REDACTED]","steam_id":76561198035682975,"connected_time":456000000000,"state":"active","ping":62},{"user_id":261,"name":"Spyfall","steam_id":76561198081729993,"connected_time":2994000000000,"state":"active","ping":69},{"user_id":297,"name":"BrendenMad","steam_id":76561198031250581,"connected_time":1087000000000,"state":"active","ping":47},{"user_id":299,"name":"Mr Struggle","steam_id":76561198320434551,"connected_time":1026000000000,"state":"active","ping":98}]},{"server_id":36,"name":"Uncletopia | Chicago | 5 | All Maps","name_short":"chi-5","host":"chi-2.us.uncletopia.com","port":27015,"enabled":true,"region":"us-central","cc":"us","latitude":41.881832,"longitude":-87.62318,"reserved":0,"last_update":"0001-01-01T00:00:00Z","name_a2s":"Uncletopia | Chicago | 5 | All Maps","protocol":17,"map":"cp_dustbowl","folder":"tf","game":"Team Fortress","app_id":440,"player_count":24,"max_players":24,"Bots":0,"server_type":"Dedicated","server_os":"Linux","password":true,"vac":true,"version":"7961495","steam_id":85568392924866362,"keywords":["cp","nocrits","nodmgspread","uncletopia"],"game_id":440,"stv_port":27016,"stv_name":"Uncletopia | Chicago | 5 | All Maps | STV","players":[{"user_id":154,"name":"Bdog1092","steam_id":76561199228923100,"connected_time":2088000000000,"state":"active","ping":85},{"user_id":208,"name":"bingus :3","steam_id":76561199198633203,"connected_time":212000000000,"state":"active","ping":103},{"user_id":128,"name":"SIN K4RMA","steam_id":76561198869287223,"connected_time":3441000000000,"state":"active","ping":78},{"user_id":143,"name":"K O T","steam_id":76561198179360022,"connected_time":2374000000000,"state":"active","ping":174},{"user_id":157,"name":"Doctor Marijuana","steam_id":76561198288289879,"connected_time":1937000000000,"state":"active","ping":139},{"user_id":209,"name":"Thrasher","steam_id":76561197977801547,"connected_time":111000000000,"state":"active","ping":77},{"user_id":141,"name":"StormyBoyo","steam_id":76561198273482774,"connected_time":2449000000000,"state":"active","ping":94},{"user_id":135,"name":"Conibun","steam_id":76561198066389567,"connected_time":3300000000000,"state":"active","ping":75},{"user_id":139,"name":"Don't Fuckle with Shuckle","steam_id":76561199020102367,"connected_time":2694000000000,"state":"active","ping":83},{"user_id":147,"name":"NUt","steam_id":76561198031007966,"connected_time":2329000000000,"state":"active","ping":61},{"user_id":122,"name":"Le mont","steam_id":76561198059796593,"connected_time":4062000000000,"state":"active","ping":64},{"user_id":146,"name":"antiphonuss","steam_id":76561199495362273,"connected_time":2330000000000,"state":"active","ping":65},{"user_id":184,"name":"mike penis","steam_id":76561198159339442,"connected_time":980000000000,"state":"active","ping":79},{"user_id":161,"name":"healing bitch (real)","steam_id":76561198411292601,"connected_time":1766000000000,"state":"active","ping":84},{"user_id":126,"name":"garypiss","steam_id":76561198066790131,"connected_time":3692000000000,"state":"active","ping":70},{"user_id":150,"name":"bakkhertz","steam_id":76561198046745579,"connected_time":2290000000000,"state":"active","ping":101},{"user_id":164,"name":"yomommasabitch","steam_id":76561198323217150,"connected_time":1677000000000,"state":"active","ping":60},{"user_id":152,"name":"Vaudeville Villain","steam_id":76561197991063996,"connected_time":2264000000000,"state":"active","ping":53},{"user_id":35,"name":"really hot pocket","steam_id":76561198239297686,"connected_time":10298000000000,"state":"active","ping":68},{"user_id":153,"name":"bonk man","steam_id":76561198386542309,"connected_time":2222000000000,"state":"active","ping":103},{"user_id":193,"name":"Gravity Bomb","steam_id":76561198190417719,"connected_time":670000000000,"state":"active","ping":49},{"user_id":123,"name":"Servaos","steam_id":76561198113244990,"connected_time":4004000000000,"state":"active","ping":76},{"user_id":127,"name":"Nexusuxen","steam_id":76561198117547131,"connected_time":3670000000000,"state":"active","ping":73},{"user_id":134,"name":"MaineGameBoy","steam_id":76561198278698726,"connected_time":3343000000000,"state":"active","ping":161}]},{"server_id":37,"name":"Uncletopia | Chicago | 6 | All Maps","name_short":"chi-6","host":"chi-2.us.uncletopia.com","port":27025,"enabled":true,"region":"us-central","cc":"us","latitude":41.881832,"longitude":-87.62318,"reserved":0,"last_update":"0001-01-01T00:00:00Z","name_a2s":"Uncletopia | Chicago | 6 | All Maps","protocol":17,"map":"pl_pier","folder":"tf","game":"Team Fortress","app_id":440,"player_count":24,"max_players":24,"Bots":0,"server_type":"Dedicated","server_os":"Linux","password":true,"vac":true,"version":"7961495","steam_id":85568392924866363,"keywords":["nocrits","nodmgspread","payload","uncletopia"],"game_id":440,"stv_port":27026,"stv_name":"Uncletopia | Chicago | 6 | All Maps | STV","players":[{"user_id":163,"name":"GoN","steam_id":76561198346543276,"connected_time":197000000000,"state":"active","ping":80},{"user_id":146,"name":"MrMacMundy","steam_id":76561198835230572,"connected_time":1231000000000,"state":"active","ping":55},{"user_id":132,"name":"Bob D. Builder","steam_id":76561198257109863,"connected_time":2139000000000,"state":"active","ping":70},{"user_id":118,"name":"moe","steam_id":76561198929586245,"connected_time":3491000000000,"state":"active","ping":100},{"user_id":110,"name":"LegitKimboltsquid","steam_id":76561198029578959,"connected_time":3817000000000,"state":"active","ping":84},{"user_id":160,"name":"Fanatic","steam_id":76561197998548387,"connected_time":595000000000,"state":"active","ping":63},{"user_id":164,"name":"brotalium","steam_id":76561198055439054,"connected_time":191000000000,"state":"active","ping":83},{"user_id":122,"name":"Torensz64(But weezer)","steam_id":76561198239036482,"connected_time":3105000000000,"state":"active","ping":55},{"user_id":156,"name":"=Silver=","steam_id":76561198292307127,"connected_time":859000000000,"state":"active","ping":94},{"user_id":158,"name":"Bombsgamer","steam_id":76561198350009050,"connected_time":757000000000,"state":"active","ping":76},{"user_id":139,"name":"YoshiGaming64","steam_id":76561199396299350,"connected_time":1492000000000,"state":"active","ping":193},{"user_id":137,"name":"slowdance","steam_id":76561198097427947,"connected_time":1593000000000,"state":"active","ping":146},{"user_id":150,"name":"Crescent","steam_id":76561198095124633,"connected_time":1161000000000,"state":"active","ping":63},{"user_id":65,"name":"Bippums","steam_id":76561198366406729,"connected_time":6718000000000,"state":"active","ping":90},{"user_id":133,"name":"Ya viene...ü•µ","steam_id":76561198298364415,"connected_time":1961000000000,"state":"active","ping":118},{"user_id":157,"name":"Mana_Kaktus","steam_id":76561198110468307,"connected_time":798000000000,"state":"active","ping":84},{"user_id":116,"name":"Doey","steam_id":76561198356353805,"connected_time":3609000000000,"state":"active","ping":76},{"user_id":147,"name":"SHADOW","steam_id":76561198207768148,"connected_time":1208000000000,"state":"active","ping":115},{"user_id":141,"name":"rock raiders enjoyer","steam_id":76561198139718219,"connected_time":1482000000000,"state":"active","ping":94},{"user_id":145,"name":"Toast","steam_id":76561198401995265,"connected_time":1329000000000,"state":"active","ping":64},{"user_id":159,"name":"fresco","steam_id":76561199101199477,"connected_time":757000000000,"state":"active","ping":68},{"user_id":161,"name":"Carpet enthusiast","steam_id":76561198024040142,"connected_time":572000000000,"state":"active","ping":99},{"user_id":151,"name":"guy","steam_id":76561198163306561,"connected_time":956000000000,"state":"active","ping":76},{"user_id":154,"name":"crispylego_","steam_id":76561199453679719,"connected_time":911000000000,"state":"active","ping":157}]},{"server_id":38,"name":"Uncletopia | Chicago | 7 | Stopwatch","name_short":"chi-7","host":"chi-2.us.uncletopia.com","port":27035,"enabled":true,"region":"us-central","cc":"us","latitude":41.881832,"longitude":-87.62318,"reserved":0,"last_update":"0001-01-01T00:00:00Z","name_a2s":"Uncletopia | Chicago | 7 | Stopwatch","protocol":17,"map":"koth_lakeside_final","folder":"tf","game":"Team Fortress","app_id":440,"player_count":18,"max_players":24,"Bots":0,"server_type":"Dedicated","server_os":"Linux","password":true,"vac":true,"version":"7961495","steam_id":85568392924866364,"keywords":["cp","nocrits","nodmgspread","uncletopia"],"game_id":440,"stv_port":27036,"stv_name":"Uncletopia | Chicago | 7 | Stopwatch | STV","players":[{"user_id":103,"name":"crazy CHEAPwm1CRITS","steam_id":76561198061502797,"connected_time":234000000000,"state":"active","ping":75},{"user_id":72,"name":"Ich Bin Doge","steam_id":76561198880653063,"connected_time":2404000000000,"state":"active","ping":167},{"user_id":97,"name":"mini boss","steam_id":76561198062763756,"connected_time":798000000000,"state":"active","ping":45},{"user_id":74,"name":"DistantJragon","steam_id":76561198117563641,"connected_time":2358000000000,"state":"active","ping":42},{"user_id":87,"name":"peanut butter","steam_id":76561198117839474,"connected_time":1589000000000,"state":"active","ping":56},{"user_id":98,"name":"Calvin?","steam_id":76561198034069587,"connected_time":553000000000,"state":"active","ping":71},{"user_id":102,"name":"David Deluise School of Acting","steam_id":76561198062360755,"connected_time":383000000000,"state":"active","ping":50},{"user_id":93,"name":"White","steam_id":76561198305863331,"connected_time":1124000000000,"state":"active","ping":78},{"user_id":108,"name":"Banjo","steam_id":76561198004652853,"connected_time":68000000000,"state":"active","ping":90},{"user_id":107,"name":"DELTRON ZERO","steam_id":76561198081123470,"connected_time":82000000000,"state":"active","ping":64},{"user_id":78,"name":"Rhutebeer","steam_id":76561198018302761,"connected_time":2184000000000,"state":"active","ping":100},{"user_id":30,"name":"Spare(8)Ball","steam_id":76561197982432995,"connected_time":4688000000000,"state":"active","ping":101},{"user_id":94,"name":"Varth Dader","steam_id":76561198134195099,"connected_time":1099000000000,"state":"active","ping":64},{"user_id":109,"name":"hitchuwithdawork","steam_id":76561198074687094,"connected_time":49000000000,"state":"active","ping":72},{"user_id":70,"name":"LetsWinCarlos2012","steam_id":76561199084826822,"connected_time":2576000000000,"state":"active","ping":81},{"user_id":85,"name":"otwtomarsoffdabars(spacecore)","steam_id":76561199085974120,"connected_time":1866000000000,"state":"active","ping":73},{"user_id":95,"name":"jajaren24680","steam_id":76561199499246778,"connected_time":916000000000,"state":"active","ping":75},{"user_id":91,"name":"CheeseCake488","steam_id":76561199407617942,"connected_time":1238000000000,"state":"active","ping":151}]},{"server_id":39,"name":"Uncletopia | Chicago | 8 | Community","name_short":"chi-8","host":"chi-2.us.uncletopia.com","port":27045,"enabled":true,"region":"us-central","cc":"us","latitude":41.881832,"longitude":-87.62318,"reserved":0,"last_update":"0001-01-01T00:00:00Z","name_a2s":"Uncletopia | Chicago | 8 | Community","protocol":17,"map":"pl_pier","folder":"tf","game":"Team Fortress","app_id":440,"player_count":0,"max_players":24,"Bots":0,"server_type":"Dedicated","server_os":"Linux","password":true,"vac":true,"version":"7961495","steam_id":85568392924866365,"keywords":["nocrits","nodmgspread","payload","uncletopia"],"game_id":440,"stv_port":27046,"stv_name":"Uncletopia | Chicago | 8 | Community | STV","players":null},{"server_id":8,"name":"Uncletopia | Dallas | 1 | All Maps","name_short":"dal-1","host":"dal-1.us.uncletopia.com","port":27015,"enabled":true,"region":"us-central","cc":"us","latitude":32.779167,"longitude":-96.80889,"reserved":0,"last_update":"0001-01-01T00:00:00Z","name_a2s":"Uncletopia | Dallas | 1 | All Maps","protocol":17,"map":"cp_process_final","folder":"tf","game":"Team Fortress","app_id":440,"player_count":24,"max_players":24,"Bots":0,"server_type":"Dedicated","server_os":"Linux","password":true,"vac":true,"version":"7961495","steam_id":85568392924469986,"keywords":["cp","nocrits","nodmgspread","uncletopia"],"game_id":440,"stv_port":27016,"stv_name":"Uncletopia | Dallas | 1 | All Maps | STV","players":[{"user_id":379,"name":"BL√òRG","steam_id":76561198036126673,"connected_time":2778000000000,"state":"active","ping":72},{"user_id":393,"name":"Kng","steam_id":76561198993248203,"connected_time":1623000000000,"state":"active","ping":90},{"user_id":398,"name":"BoxOfStaples","steam_id":76561198834773017,"connected_time":955000000000,"state":"active","ping":95},{"user_id":402,"name":"Scrambled Eggs","steam_id":76561198169915227,"connected_time":835000000000,"state":"active","ping":86},{"user_id":391,"name":"ChillinSquare","steam_id":76561198023745593,"connected_time":1687000000000,"state":"active","ping":75},{"user_id":410,"name":"biggamehntr887","steam_id":76561198999431215,"connected_time":83000000000,"state":"active","ping":79},{"user_id":401,"name":"xbox record that","steam_id":76561198150117455,"connected_time":877000000000,"state":"active","ping":73},{"user_id":395,"name":"MooMoo ( ^ ≈µ ^ ‚úø)","steam_id":76561198009150851,"connected_time":1576000000000,"state":"active","ping":85},{"user_id":332,"name":"A Straw","steam_id":76561199367935846,"connected_time":5581000000000,"state":"active","ping":73},{"user_id":352,"name":"GlingGlop95","steam_id":76561198386865528,"connected_time":5066000000000,"state":"active","ping":83},{"user_id":366,"name":"9mm rod in your urethra","steam_id":76561199389283507,"connected_time":3995000000000,"state":"active","ping":116},{"user_id":408,"name":"FatSweatyBlackMan","steam_id":76561199020244051,"connected_time":134000000000,"state":"active","ping":114},{"user_id":404,"name":"gyat","steam_id":76561198043684960,"connected_time":822000000000,"state":"active","ping":52},{"user_id":378,"name":"hyaz, +rep.","steam_id":76561199100342013,"connected_time":2792000000000,"state":"active","ping":76},{"user_id":399,"name":"Fyr","steam_id":76561198048507556,"connected_time":925000000000,"state":"active","ping":45},{"user_id":383,"name":"when you smell that zaza","steam_id":76561198985220521,"connected_time":2705000000000,"state":"active","ping":67},{"user_id":409,"name":"GGreenHeart","steam_id":76561198004628594,"connected_time":98000000000,"state":"active","ping":87},{"user_id":369,"name":"The Sorrow of Dandy","steam_id":76561198005551894,"connected_time":3965000000000,"state":"active","ping":98},{"user_id":370,"name":"Cargo","steam_id":76561198065535025,"connected_time":3941000000000,"state":"active","ping":96},{"user_id":407,"name":"Woody","steam_id":76561198020308956,"connected_time":271000000000,"state":"active","ping":66},{"user_id":400,"name":"Estrogenizing Burger King Burge","steam_id":76561198083882597,"connected_time":889000000000,"state":"active","ping":44},{"user_id":373,"name":"Frank Horrigan","steam_id":76561198066504831,"connected_time":3192000000000,"state":"active","ping":89},{"user_id":406,"name":"Dr. Bobo","steam_id":76561198271696761,"connected_time":456000000000,"state":"active","ping":61},{"user_id":360,"name":"TheGFG","steam_id":76561198166150556,"connected_time":4576000000000,"state":"active","ping":66}]},{"server_id":108,"name":"Uncletopia | Dallas | 2 | All Maps","name_short":"dal-2","host":"dal-1.us.uncletopia.com","port":27025,"enabled":true,"region":"us-central","cc":"us","latitude":32.779167,"longitude":-96.80889,"reserved":0,"last_update":"0001-01-01T00:00:00Z","name_a2s":"Uncletopia | Dallas | 2 | All Maps","protocol":17,"map":"pl_pier","folder":"tf","game":"Team Fortress","app_id":440,"player_count":24,"max_players":24,"Bots":0,"server_type":"Dedicated","server_os":"Linux","password":true,"vac":true,"version":"7961495","steam_id":85568392924469988,"keywords":["nocrits","nodmgspread","payload","uncletopia"],"game_id":440,"stv_port":27026,"stv_name":"Uncletopia | Dallas | 2 | All Maps | STV","players":[{"user_id":68,"name":"CompactedOhio21","steam_id":76561198283196939,"connected_time":1207000000000,"state":"active","ping":46},{"user_id":86,"name":"The Angel of Death","steam_id":76561198026079349,"connected_time":63000000000,"state":"active","ping":123},{"user_id":70,"name":"MonkeyNobody","steam_id":76561199451266605,"connected_time":1143000000000,"state":"active","ping":86},{"user_id":17,"name":"Jurls","steam_id":76561198138077990,"connected_time":4198000000000,"state":"active","ping":51},{"user_id":83,"name":"MachineOfMachinesOfMachinesOf$\u0026","steam_id":76561198258143103,"connected_time":565000000000,"state":"active","ping":51},{"user_id":71,"name":"Kamin","steam_id":76561198255299559,"connected_time":1102000000000,"state":"active","ping":68},{"user_id":72,"name":"menonamed","steam_id":76561198199564382,"connected_time":1093000000000,"state":"active","ping":87},{"user_id":73,"name":"Thug shaker","steam_id":76561198840484105,"connected_time":1035000000000,"state":"active","ping":86},{"user_id":22,"name":"Sup m8","steam_id":76561198081659121,"connected_time":3674000000000,"state":"active","ping":44},{"user_id":52,"name":"Asfedia","steam_id":76561199386836351,"connected_time":2213000000000,"state":"active","ping":184},{"user_id":74,"name":"damiankiller1243","steam_id":76561198868885090,"connected_time":1021000000000,"state":"active","ping":68},{"user_id":25,"name":"shellaa","steam_id":76561198044124102,"connected_time":3494000000000,"state":"active","ping":45},{"user_id":66,"name":"Howell at the Moon","steam_id":76561198060827426,"connected_time":1344000000000,"state":"active","ping":77},{"user_id":75,"name":"chrissweep","steam_id":76561198072826791,"connected_time":1007000000000,"state":"active","ping":88},{"user_id":31,"name":"LOVEDRAGON","steam_id":76561198089908485,"connected_time":3241000000000,"state":"active","ping":94},{"user_id":84,"name":"Alchemist","steam_id":76561198094238189,"connected_time":125000000000,"state":"active","ping":74},{"user_id":38,"name":"CloakedString17","steam_id":76561198443573586,"connected_time":2940000000000,"state":"active","ping":92},{"user_id":81,"name":"sleepy‚äπ","steam_id":76561199200969139,"connected_time":931000000000,"state":"active","ping":115},{"user_id":85,"name":"leumas","steam_id":76561198240408540,"connected_time":120000000000,"state":"active","ping":74},{"user_id":41,"name":"SoldMyKidneyForCollege","steam_id":76561198096329559,"connected_time":2895000000000,"state":"active","ping":88},{"user_id":64,"name":"Mediocre Gaming","steam_id":76561199230467980,"connected_time":1480000000000,"state":"active","ping":83},{"user_id":79,"name":"portzebie","steam_id":76561197990658763,"connected_time":975000000000,"state":"active","ping":82},{"user_id":80,"name":"theconqueror","steam_id":76561199229806456,"connected_time":969000000000,"state":"active","ping":71},{"user_id":82,"name":"Xx_UrineEnjoyer_xX","steam_id":76561198397991402,"connected_time":930000000000,"state":"active","ping":94}]},{"server_id":404,"name":"Uncletopia | Dallas | 3 | All Maps","name_short":"dal-3","host":"dal-1.us.uncletopia.com","port":27035,"enabled":true,"region":"us-central","cc":"us","latitude":32.779167,"longitude":-96.80889,"reserved":0,"last_update":"0001-01-01T00:00:00Z","name_a2s":"Uncletopia | Dallas | 3 | All Maps","protocol":17,"map":"cp_gorge","folder":"tf","game":"Team Fortress","app_id":440,"player_count":21,"max_players":24,"Bots":0,"server_type":"Dedicated","server_os":"Linux","password":true,"vac":true,"version":"7961495","steam_id":85568392924515219,"keywords":["cp","nocrits","nodmgspread","uncletopia"],"game_id":440,"stv_port":27036,"stv_name":"Uncletopia | Dallas | 3 | All Maps | STV","players":[{"user_id":17,"name":"Dougtherouge","steam_id":76561198211300573,"connected_time":4935000000000,"state":"active","ping":81},{"user_id":104,"name":"Cheese","steam_id":76561198100810604,"connected_time":126000000000,"state":"active","ping":82},{"user_id":82,"name":"fast","steam_id":76561199199975880,"connected_time":1156000000000,"state":"active","ping":45},{"user_id":83,"name":"sheep","steam_id":76561198172943006,"connected_time":919000000000,"state":"active","ping":62},{"user_id":74,"name":"dad playing in between naps","steam_id":76561198009425458,"connected_time":2341000000000,"state":"active","ping":113},{"user_id":95,"name":"god's cutest warrior","steam_id":76561198058574934,"connected_time":526000000000,"state":"active","ping":88},{"user_id":85,"name":"artemisjackson2","steam_id":76561199094686268,"connected_time":894000000000,"state":"active","ping":94},{"user_id":102,"name":"asm_ghost","steam_id":76561199205363547,"connected_time":241000000000,"state":"active","ping":96},{"user_id":87,"name":"Juan Solo","steam_id":76561198018688536,"connected_time":805000000000,"state":"active","ping":102},{"user_id":105,"name":"adapt","steam_id":76561198156181017,"connected_time":112000000000,"state":"active","ping":85},{"user_id":106,"name":"mkl","steam_id":76561197986401685,"connected_time":101000000000,"state":"active","ping":51},{"user_id":107,"name":"Lyricalnoot","steam_id":76561199164905065,"connected_time":94000000000,"state":"active","ping":55},{"user_id":63,"name":"Sentry Gun Main Man","steam_id":76561198327938247,"connected_time":2862000000000,"state":"active","ping":93},{"user_id":103,"name":"flipndipit","steam_id":76561199113009325,"connected_time":225000000000,"state":"active","ping":109},{"user_id":108,"name":"Cliffigriff","steam_id":76561198121924499,"connected_time":70000000000,"state":"active","ping":46},{"user_id":93,"name":"maximusbabaximus","steam_id":76561198419378913,"connected_time":555000000000,"state":"active","ping":100},{"user_id":94,"name":"McSwingset","steam_id":76561198040417409,"connected_time":531000000000,"state":"active","ping":55},{"user_id":39,"name":"Karma","steam_id":76561198320530905,"connected_time":4367000000000,"state":"active","ping":47},{"user_id":100,"name":"femboy =Ôºæ‚óè ‚ãè ‚óèÔºæ=","steam_id":76561199052450127,"connected_time":399000000000,"state":"active","ping":75},{"user_id":56,"name":"Frank Accardi","steam_id":76561198017275707,"connected_time":3513000000000,"state":"active","ping":78},{"user_id":99,"name":"Wiggs is the Shiggs","steam_id":76561198078379719,"connected_time":455000000000,"state":"active","ping":87}]},{"server_id":405,"name":"Uncletopia | Dallas | 4 | Community","name_short":"dal-4","host":"dal-1.us.uncletopia.com","port":27045,"enabled":true,"region":"us-central","cc":"us","latitude":32.779167,"longitude":-96.80889,"reserved":0,"last_update":"0001-01-01T00:00:00Z","name_a2s":"Uncletopia | Dallas | 4 | Community","protocol":17,"map":"workshop/pl_corrode_rc2.ugc546577989","folder":"tf","game":"Team Fortress","app_id":440,"player_count":0,"max_players":24,"Bots":0,"server_type":"Dedicated","server_os":"Linux","password":true,"vac":true,"version":"7961495","steam_id":85568392924515220,"keywords":["nocrits","nodmgspread","payload","uncletopia"],"game_id":440,"stv_port":27046,"stv_name":"Uncletopia | Dallas | 4 | Community | STV","players":null},{"server_id":5,"name":"Uncletopia | Frankfurt | 1 | All Maps","name_short":"frk-1","host":"frk-1.de.uncletopia.com","port":27015,"enabled":true,"region":"eu","cc":"de","latitude":50.110924,"longitude":8.682127,"reserved":0,"last_update":"0001-01-01T00:00:00Z","name_a2s":"Uncletopia | Frankfurt | 1 | All Maps","protocol":17,"map":"koth_highpass","folder":"tf","game":"Team Fortress","app_id":440,"player_count":0,"max_players":24,"Bots":0,"server_type":"Dedicated","server_os":"Linux","password":true,"vac":true,"version":"7961495","steam_id":85568392924469989,"keywords":["cp","nocrits","nodmgspread","uncletopia"],"game_id":440,"stv_port":27016,"stv_name":"Uncletopia | Frankfurt | 1 | All Maps | STV","players":null},{"server_id":110,"name":"Uncletopia | Frankfurt | 2 | All Maps","name_short":"frk-2","host":"frk-1.de.uncletopia.com","port":27025,"enabled":true,"region":"eu","cc":"de","latitude":50.110924,"longitude":8.682127,"reserved":0,"last_update":"0001-01-01T00:00:00Z","name_a2s":"Uncletopia | Frankfurt | 2 | All Maps","protocol":17,"map":"pl_frontier_final","folder":"tf","game":"Team Fortress","app_id":440,"player_count":24,"max_players":24,"Bots":0,"server_type":"Dedicated","server_os":"Linux","password":true,"vac":true,"version":"7961495","steam_id":85568392924469990,"keywords":["nocrits","nodmgspread","payload","uncletopia"],"game_id":440,"stv_port":27026,"stv_name":"Uncletopia | Frankfurt | 2 | All Maps | STV","players":[{"user_id":652,"name":"Phalcon","steam_id":76561197987051394,"connected_time":2901000000000,"state":"active","ping":68},{"user_id":641,"name":"! Grizzly‚Ñ¢ CaseOpening.com","steam_id":76561198429481953,"connected_time":3784000000000,"state":"active","ping":65},{"user_id":650,"name":"Sunbro_·õâ","steam_id":76561197997453676,"connected_time":3274000000000,"state":"active","ping":90},{"user_id":683,"name":"Anzu","steam_id":76561198043953503,"connected_time":516000000000,"state":"active","ping":75},{"user_id":669,"name":"Ziemniaczki","steam_id":76561198061866742,"connected_time":1958000000000,"state":"active","ping":71},{"user_id":653,"name":"DarthMurloc_OW","steam_id":76561198075577711,"connected_time":2895000000000,"state":"active","ping":73},{"user_id":684,"name":"Dag!","steam_id":76561198030147941,"connected_time":422000000000,"state":"active","ping":58},{"user_id":655,"name":"sad monkey","steam_id":76561198116530769,"connected_time":2700000000000,"state":"active","ping":84},{"user_id":643,"name":"Lizard","steam_id":76561197995201183,"connected_time":3521000000000,"state":"active","ping":64},{"user_id":682,"name":"JujuBalu","steam_id":76561198207253071,"connected_time":552000000000,"state":"active","ping":41},{"user_id":668,"name":"dirty rascal","steam_id":76561198000871038,"connected_time":2034000000000,"state":"active","ping":60},{"user_id":656,"name":"syms","steam_id":76561198066679812,"connected_time":2700000000000,"state":"active","ping":64},{"user_id":679,"name":"Gab Hazno","steam_id":76561198095856983,"connected_time":1096000000000,"state":"active","ping":69},{"user_id":657,"name":"goblin","steam_id":76561198170334258,"connected_time":2677000000000,"state":"active","ping":80},{"user_id":688,"name":"Kringleberg","steam_id":76561198154904107,"connected_time":17000000000,"state":"active","ping":85},{"user_id":675,"name":"oreoezi","steam_id":76561198285738780,"connected_time":1767000000000,"state":"active","ping":72},{"user_id":681,"name":"Wiverny","steam_id":76561198061954999,"connected_time":764000000000,"state":"active","ping":42},{"user_id":583,"name":"Enjoyer","steam_id":76561198147399855,"connected_time":8570000000000,"state":"active","ping":132},{"user_id":662,"name":"Littleyoshifan","steam_id":76561198445491045,"connected_time":2604000000000,"state":"active","ping":54},{"user_id":676,"name":"Yelowchy","steam_id":76561198199416121,"connected_time":1764000000000,"state":"active","ping":60},{"user_id":663,"name":"speedy-heavy","steam_id":76561198124991468,"connected_time":2582000000000,"state":"active","ping":66},{"user_id":686,"name":"Rakiru","steam_id":76561198334097259,"connected_time":286000000000,"state":"active","ping":99},{"user_id":670,"name":"Gugu gaga","steam_id":76561198161822358,"connected_time":1952000000000,"state":"active","ping":64},{"user_id":678,"name":"etc","steam_id":76561197998394797,"connected_time":1652000000000,"state":"active","ping":52}]},{"server_id":308,"name":"Uncletopia | Frankfurt | 3 | All Maps","name_short":"frk-3","host":"frk-1.de.uncletopia.com","port":27035,"enabled":true,"region":"eu","cc":"de","latitude":50.110924,"longitude":8.682127,"reserved":0,"last_update":"0001-01-01T00:00:00Z","name_a2s":"Uncletopia | Frankfurt | 3 | All Maps","protocol":17,"map":"pl_borneo","folder":"tf","game":"Team Fortress","app_id":440,"player_count":18,"max_players":24,"Bots":0,"server_type":"Dedicated","server_os":"Linux","password":true,"vac":true,"version":"7961495","steam_id":85568392924504274,"keywords":["nocrits","nodmgspread","payload","uncletopia"],"game_id":440,"stv_port":27036,"stv_name":"Uncletopia | Frankfurt | 3 | All Maps | STV","players":[{"user_id":723,"name":"Eidolon","steam_id":76561198043919565,"connected_time":278000000000,"state":"active","ping":80},{"user_id":716,"name":"bryophyta","steam_id":76561197968945306,"connected_time":829000000000,"state":"active","ping":75},{"user_id":724,"name":"Gordon","steam_id":76561198303652059,"connected_time":110000000000,"state":"active","ping":69},{"user_id":708,"name":"d0gger","steam_id":76561198054902449,"connected_time":1610000000000,"state":"active","ping":56},{"user_id":725,"name":"Kal-Blansh","steam_id":76561198193882203,"connected_time":41000000000,"state":"active","ping":97},{"user_id":726,"name":"mentt","steam_id":76561198091555183,"connected_time":28000000000,"state":"active","ping":79},{"user_id":727,"name":"lili's boy","steam_id":76561198162873354,"connected_time":26000000000,"state":"active","ping":90},{"user_id":709,"name":"Benstar279","steam_id":76561198077775783,"connected_time":1557000000000,"state":"active","ping":54},{"user_id":696,"name":"overman","steam_id":76561198038348301,"connected_time":2337000000000,"state":"active","ping":61},{"user_id":713,"name":"Ye","steam_id":76561198354719262,"connected_time":1078000000000,"state":"active","ping":68},{"user_id":681,"name":"Le epic gamer","steam_id":76561198016657120,"connected_time":3169000000000,"state":"active","ping":104},{"user_id":721,"name":"Grey","steam_id":76561198187190267,"connected_time":508000000000,"state":"active","ping":46},{"user_id":702,"name":"tuna","steam_id":76561198121590248,"connected_time":2092000000000,"state":"active","ping":82},{"user_id":703,"name":"Cosmonaut","steam_id":76561198086803330,"connected_time":2091000000000,"state":"active","ping":74},{"user_id":710,"name":"z3","steam_id":76561198165028946,"connected_time":1532000000000,"state":"active","ping":56},{"user_id":711,"name":"Mammut","steam_id":76561198056773933,"connected_time":1459000000000,"state":"active","ping":48},{"user_id":654,"name":"Jussukka","steam_id":76561198122894683,"connected_time":4696000000000,"state":"active","ping":100},{"user_id":616,"name":"hananamanna","steam_id":76561198006570285,"connected_time":7345000000000,"state":"active","ping":119}]},{"server_id":309,"name":"Uncletopia | Frankfurt | 4 | All Maps","name_short":"frk-4","host":"frk-1.de.uncletopia.com","port":27045,"enabled":true,"region":"eu","cc":"de","latitude":50.110924,"longitude":8.682127,"reserved":0,"last_update":"0001-01-01T00:00:00Z","name_a2s":"Uncletopia | Frankfurt | 4 | All Maps","protocol":17,"map":"koth_highpass","folder":"tf","game":"Team Fortress","app_id":440,"player_count":0,"max_players":24,"Bots":0,"server_type":"Dedicated","server_os":"Linux","password":true,"vac":true,"version":"7961495","steam_id":85568392924504275,"keywords":["cp","nocrits","nodmgspread","uncletopia"],"game_id":440,"stv_port":27046,"stv_name":"Uncletopia | Frankfurt | 4 | All Maps | STV","players":null},{"server_id":310,"name":"Uncletopia | Frankfurt | 5 | All Maps","name_short":"frk-5","host":"frk-1.de.uncletopia.com","port":27055,"enabled":true,"region":"eu","cc":"de","latitude":50.110924,"longitude":8.682127,"reserved":0,"last_update":"0001-01-01T00:00:00Z","name_a2s":"Uncletopia | Frankfurt | 5 | All Maps","protocol":17,"map":"pl_barnblitz","folder":"tf","game":"Team Fortress","app_id":440,"player_count":0,"max_players":24,"Bots":0,"server_type":"Dedicated","server_os":"Linux","password":true,"vac":true,"version":"7961495","steam_id":85568392924504277,"keywords":["nocrits","nodmgspread","payload","uncletopia"],"game_id":440,"stv_port":27056,"stv_name":"Uncletopia | Frankfurt | 5 | All Maps | STV","players":null},{"server_id":311,"name":"Uncletopia | Frankfurt | 6 | All Maps","name_short":"frk-6","host":"frk-1.de.uncletopia.com","port":27065,"enabled":true,"region":"eu","cc":"de","latitude":50.110924,"longitude":8.682127,"reserved":0,"last_update":"0001-01-01T00:00:00Z","name_a2s":"Uncletopia | Frankfurt | 6 | All Maps","protocol":17,"map":"pl_badwater","folder":"tf","game":"Team Fortress","app_id":440,"player_count":0,"max_players":24,"Bots":0,"server_type":"Dedicated","server_os":"Linux","password":true,"vac":true,"version":"7961495","steam_id":85568392924504278,"keywords":["nocrits","nodmgspread","payload","uncletopia"],"game_id":440,"stv_port":27066,"stv_name":"Uncletopia | Frankfurt | 6 | All Maps | STV","players":null},{"server_id":23,"name":"Uncletopia | Frankfurt | 7 | Stopwatch","name_short":"frk-7","host":"frk-1.de.uncletopia.com","port":27075,"enabled":true,"region":"eu","cc":"de","latitude":50.110924,"longitude":8.682127,"reserved":0,"last_update":"0001-01-01T00:00:00Z","name_a2s":"Uncletopia | Frankfurt | 7 | Stopwatch","protocol":17,"map":"koth_lakeside_final","folder":"tf","game":"Team Fortress","app_id":440,"player_count":0,"max_players":24,"Bots":0,"server_type":"Dedicated","server_os":"Linux","password":true,"vac":true,"version":"7961495","steam_id":85568392924742827,"keywords":["cp","nocrits","nodmgspread","uncletopia"],"game_id":440,"stv_port":27076,"stv_name":"Uncletopia | Frankfurt | 7 | Stopwatch | STV","players":null},{"server_id":24,"name":"Uncletopia | Frankfurt | 8 | Community","name_short":"frk-8","host":"frk-1.de.uncletopia.com","port":27085,"enabled":true,"region":"eu","cc":"de","latitude":50.110924,"longitude":8.682127,"reserved":0,"last_update":"0001-01-01T00:00:00Z","name_a2s":"Uncletopia | Frankfurt | 8 | Community","protocol":17,"map":"workshop/cp_coilblaze_rc7.ugc1272700588","folder":"tf","game":"Team Fortress","app_id":440,"player_count":0,"max_players":24,"Bots":0,"server_type":"Dedicated","server_os":"Linux","password":true,"vac":true,"version":"7961495","steam_id":85568392924742828,"keywords":["cp","nocrits","nodmgspread","uncletopia"],"game_id":440,"stv_port":27086,"stv_name":"Uncletopia | Frankfurt | 8 | Community | STV","players":null},{"server_id":202,"name":"Uncletopia | Hong Kong | 1 | All Maps","name_short":"hgk-1","host":"hgk-1.hk.uncletopia.com","port":27015,"enabled":true,"region":"asia","cc":"hk","latitude":22.302711,"longitude":114.177216,"reserved":0,"last_update":"0001-01-01T00:00:00Z","name_a2s":"Uncletopia | Hong Kong | 1 | All Maps","protocol":17,"map":"pl_frontier_final","folder":"tf","game":"Team Fortress","app_id":440,"player_count":0,"max_players":24,"Bots":0,"server_type":"Dedicated","server_os":"Linux","password":true,"vac":true,"version":"7961495","steam_id":85568392924494504,"keywords":["nocrits","nodmgspread","payload","uncletopia"],"game_id":440,"stv_port":27016,"stv_name":"Uncletopia | Hong Kong | 1 | All Maps | STV","players":null},{"server_id":1,"name":"Uncletopia | Los Angeles | 1 | All Maps","name_short":"lax-1","host":"lax-1.us.uncletopia.com","port":27015,"enabled":true,"region":"us-west","cc":"us","latitude":33.94279,"longitude":-118.41004,"reserved":0,"last_update":"0001-01-01T00:00:00Z","name_a2s":"Uncletopia | Los Angeles | 1 | All Maps","protocol":17,"map":"koth_viaduct","folder":"tf","game":"Team Fortress","app_id":440,"player_count":0,"max_players":24,"Bots":0,"server_type":"Dedicated","server_os":"Linux","password":true,"vac":true,"version":"7961495","steam_id":85568392924469991,"keywords":["cp","nocrits","nodmgspread","uncletopia"],"game_id":440,"stv_port":27016,"stv_name":"Uncletopia | Los Angeles | 1 | All Maps | STV","players":null},{"server_id":112,"name":"Uncletopia | Los Angeles | 2 | All Maps","name_short":"lax-2","host":"lax-1.us.uncletopia.com","port":27025,"enabled":true,"region":"us-west","cc":"us","latitude":33.94279,"longitude":-118.41004,"reserved":0,"last_update":"0001-01-01T00:00:00Z","name_a2s":"Uncletopia | Los Angeles | 2 | All Maps","protocol":17,"map":"cp_altitude","folder":"tf","game":"Team Fortress","app_id":440,"player_count":0,"max_players":24,"Bots":0,"server_type":"Dedicated","server_os":"Linux","password":true,"vac":true,"version":"7961495","steam_id":85568392924469992,"keywords":["cp","nocrits","nodmgspread","uncletopia"],"game_id":440,"stv_port":27026,"stv_name":"Uncletopia | Los Angeles | 2 | All Maps | STV","players":null},{"server_id":324,"name":"Uncletopia | Los Angeles | 3 | All Maps","name_short":"lax-3","host":"lax-1.us.uncletopia.com","port":27035,"enabled":true,"region":"us-west","cc":"us","latitude":33.94279,"longitude":-118.41004,"reserved":0,"last_update":"0001-01-01T00:00:00Z","name_a2s":"Uncletopia | Los Angeles | 3 | All Maps","protocol":17,"map":"koth_viaduct","folder":"tf","game":"Team Fortress","app_id":440,"player_count":0,"max_players":24,"Bots":0,"server_type":"Dedicated","server_os":"Linux","password":true,"vac":true,"version":"7961495","steam_id":85568392924510198,"keywords":["cp","nocrits","nodmgspread","uncletopia"],"game_id":440,"stv_port":27036,"stv_name":"Uncletopia | Los Angeles | 3 | All Maps | STV","players":null},{"server_id":25,"name":"Uncletopia | Los Angeles | 4 | Stopwatch","name_short":"lax-4","host":"lax-1.us.uncletopia.com","port":27045,"enabled":true,"region":"us-west","cc":"us","latitude":33.94279,"longitude":-118.41004,"reserved":0,"last_update":"0001-01-01T00:00:00Z","name_a2s":"Uncletopia | Los Angeles | 4 | Stopwatch","protocol":17,"map":"workshop/cp_process_f12.ugc2302948105","folder":"tf","game":"Team Fortress","app_id":440,"player_count":0,"max_players":24,"Bots":0,"server_type":"Dedicated","server_os":"Linux","password":true,"vac":true,"version":"7961495","steam_id":85568392924510199,"keywords":["cp","nocrits","nodmgspread","uncletopia"],"game_id":440,"stv_port":27046,"stv_name":"Uncletopia | Los Angeles | 4 | Stopwatch | STV","players":null},{"server_id":11,"name":"Uncletopia | London | 1 | All Maps","name_short":"lon-1","host":"lon-1.uk.uncletopia.com","port":27015,"enabled":true,"region":"eu","cc":"gb","latitude":51.509865,"longitude":-0.118092,"reserved":0,"last_update":"0001-01-01T00:00:00Z","name_a2s":"Uncletopia | London | 1 | All Maps","protocol":17,"map":"cp_dustbowl","folder":"tf","game":"Team Fortress","app_id":440,"player_count":9,"max_players":24,"Bots":0,"server_type":"Dedicated","server_os":"Linux","password":true,"vac":true,"version":"7961495","steam_id":85568392924367362,"keywords":["cp","nocrits","nodmgspread","uncletopia"],"game_id":440,"stv_port":27016,"stv_name":"Uncletopia | London | 1 | All Maps | STV","players":[{"user_id":849,"name":"yuno appreciator","steam_id":76561198083286511,"connected_time":2477000000000,"state":"active","ping":42},{"user_id":868,"name":"whimsy.","steam_id":76561198878171763,"connected_time":542000000000,"state":"active","ping":48},{"user_id":865,"name":"MORI JAH ‚òÖ","steam_id":76561198112816541,"connected_time":1009000000000,"state":"active","ping":60},{"user_id":869,"name":"some girl","steam_id":76561198890391967,"connected_time":293000000000,"state":"active","ping":85},{"user_id":870,"name":"Minismog","steam_id":76561198823757240,"connected_time":52000000000,"state":"active","ping":40},{"user_id":855,"name":"Bert","steam_id":76561198070206096,"connected_time":2280000000000,"state":"active","ping":50},{"user_id":859,"name":"horrors within my comprehension","steam_id":76561198363841749,"connected_time":2001000000000,"state":"active","ping":85},{"user_id":862,"name":"nero","steam_id":76561199104782664,"connected_time":1179000000000,"state":"active","ping":77},{"user_id":867,"name":"WillDragonangel","steam_id":76561198258025259,"connected_time":867000000000,"state":"active","ping":145}]},{"server_id":114,"name":"Uncletopia | London | 2 | All Maps","name_short":"lon-2","host":"lon-1.uk.uncletopia.com","port":27025,"enabled":true,"region":"eu","cc":"gb","latitude":51.509865,"longitude":-0.118092,"reserved":0,"last_update":"0001-01-01T00:00:00Z","name_a2s":"Uncletopia | London | 2 | All Maps","protocol":17,"map":"pl_snowycoast","folder":"tf","game":"Team Fortress","app_id":440,"player_count":0,"max_players":24,"Bots":0,"server_type":"Dedicated","server_os":"Linux","password":true,"vac":true,"version":"7961495","steam_id":85568392924470941,"keywords":["nocrits","nodmgspread","payload","uncletopia"],"game_id":440,"stv_port":27026,"stv_name":"Uncletopia | London | 2 | All Maps | STV","players":null},{"server_id":320,"name":"Uncletopia | London | 3 | All Maps","name_short":"lon-3","host":"lon-1.uk.uncletopia.com","port":27035,"enabled":true,"region":"eu","cc":"gb","latitude":51.509865,"longitude":-0.118092,"reserved":0,"last_update":"0001-01-01T00:00:00Z","name_a2s":"Uncletopia | London | 3 | All Maps","protocol":17,"map":"pl_swiftwater_final1","folder":"tf","game":"Team Fortress","app_id":440,"player_count":0,"max_players":24,"Bots":0,"server_type":"Dedicated","server_os":"Linux","password":true,"vac":true,"version":"7961495","steam_id":85568392924510192,"keywords":["nocrits","nodmgspread","payload","uncletopia"],"game_id":440,"stv_port":27036,"stv_name":"Uncletopia | London | 3 | All Maps | STV","players":null},{"server_id":321,"name":"Uncletopia | London | 4 | All Maps","name_short":"lon-4","host":"lon-1.uk.uncletopia.com","port":27045,"enabled":true,"region":"eu","cc":"gb","latitude":51.509865,"longitude":-0.118092,"reserved":0,"last_update":"0001-01-01T00:00:00Z","name_a2s":"Uncletopia | London | 4 | All Maps","protocol":17,"map":"koth_viaduct","folder":"tf","game":"Team Fortress","app_id":440,"player_count":0,"max_players":24,"Bots":0,"server_type":"Dedicated","server_os":"Linux","password":true,"vac":true,"version":"7961495","steam_id":85568392924510193,"keywords":["cp","nocrits","nodmgspread","uncletopia"],"game_id":440,"stv_port":27046,"stv_name":"Uncletopia | London | 4 | All Maps | STV","players":null},{"server_id":21,"name":"Uncletopia | London | 5 | All Maps","name_short":"lon-5","host":"lon-1.uk.uncletopia.com","port":27055,"enabled":true,"region":"eu","cc":"gb","latitude":51.509865,"longitude":-0.118092,"reserved":0,"last_update":"0001-01-01T00:00:00Z","name_a2s":"Uncletopia | London | 5 | All Maps","protocol":17,"map":"pl_badwater","folder":"tf","game":"Team Fortress","app_id":440,"player_count":24,"max_players":24,"Bots":0,"server_type":"Dedicated","server_os":"Linux","password":true,"vac":true,"version":"7961495","steam_id":85568392924742829,"keywords":["nocrits","nodmgspread","payload","uncletopia"],"game_id":440,"stv_port":27056,"stv_name":"Uncletopia | London | 5 | All Maps | STV","players":[{"user_id":260,"name":"ÿ∑ŸÜ ŸÖŸÜ ÿßŸÑÿ£ŸÖŸàÿßŸÑ ÿßŸÑŸÖ","steam_id":76561198164806677,"connected_time":3244000000000,"state":"active","ping":87},{"user_id":226,"name":"Neeeiks","steam_id":76561198009156801,"connected_time":5797000000000,"state":"active","ping":81},{"user_id":199,"name":"‚≠êWylenn‚≠ç","steam_id":76561198024292352,"connected_time":6965000000000,"state":"active","ping":71},{"user_id":200,"name":"ORACLE Apollo","steam_id":76561198079585009,"connected_time":6938000000000,"state":"active","ping":39},{"user_id":228,"name":"lexi ‚òÖ","steam_id":76561198988695461,"connected_time":5505000000000,"state":"active","ping":38},{"user_id":248,"name":"Borat","steam_id":76561198122226417,"connected_time":3880000000000,"state":"active","ping":39},{"user_id":246,"name":"Bootylicious42069","steam_id":76561199380849468,"connected_time":4322000000000,"state":"active","ping":61},{"user_id":244,"name":"tomyjoh","steam_id":76561198077421906,"connected_time":4513000000000,"state":"active","ping":46},{"user_id":249,"name":"Bill Carr","steam_id":76561198110033943,"connected_time":3762000000000,"state":"active","ping":35},{"user_id":266,"name":"‚∏∏aura‚∏∏","steam_id":76561198066258544,"connected_time":2806000000000,"state":"active","ping":56},{"user_id":250,"name":"sussy melon","steam_id":76561198062075870,"connected_time":3700000000000,"state":"active","ping":71},{"user_id":220,"name":"Sandshee","steam_id":76561198088574666,"connected_time":6227000000000,"state":"active","ping":47},{"user_id":280,"name":"‚ìà ‚òÖ","steam_id":76561198001235783,"connected_time":1042000000000,"state":"active","ping":75},{"user_id":247,"name":"frosty","steam_id":76561198094560834,"connected_time":3938000000000,"state":"active","ping":45},{"user_id":273,"name":"Catdog32","steam_id":76561198113364714,"connected_time":2066000000000,"state":"active","ping":121},{"user_id":284,"name":"Cabbch","steam_id":76561198045955679,"connected_time":70000000000,"state":"active","ping":46},{"user_id":274,"name":"CiVillain","steam_id":76561198059617732,"connected_time":2050000000000,"state":"active","ping":74},{"user_id":271,"name":"Bubsy 3D","steam_id":76561197988942314,"connected_time":2436000000000,"state":"active","ping":36},{"user_id":277,"name":"the","steam_id":76561198161070639,"connected_time":1609000000000,"state":"active","ping":53},{"user_id":279,"name":"Black Tom","steam_id":76561198335730273,"connected_time":1434000000000,"state":"active","ping":60},{"user_id":278,"name":"nordstream bomber","steam_id":76561199401283123,"connected_time":1476000000000,"state":"active","ping":50},{"user_id":269,"name":"pezza","steam_id":76561197995173247,"connected_time":2750000000000,"state":"active","ping":56},{"user_id":216,"name":"MOMLUVR alice","steam_id":76561198180361759,"connected_time":6604000000000,"state":"active","ping":39},{"user_id":282,"name":"Mircoxi","steam_id":76561199407632710,"connected_time":301000000000,"state":"active","ping":54}]},{"server_id":22,"name":"Uncletopia | London | 6 | All Maps","name_short":"lon-6","host":"lon-1.uk.uncletopia.com","port":27065,"enabled":true,"region":"eu","cc":"gb","latitude":51.509865,"longitude":-0.118092,"reserved":0,"last_update":"0001-01-01T00:00:00Z","name_a2s":"Uncletopia | London | 6 | All Maps","protocol":17,"map":"pl_upward","folder":"tf","game":"Team Fortress","app_id":440,"player_count":24,"max_players":24,"Bots":0,"server_type":"Dedicated","server_os":"Linux","password":true,"vac":true,"version":"7961495","steam_id":85568392924742830,"keywords":["nocrits","nodmgspread","payload","uncletopia"],"game_id":440,"stv_port":27066,"stv_name":"Uncletopia | London | 6 | All Maps | STV","players":[{"user_id":314,"name":"the rat","steam_id":76561198079101313,"connected_time":1528000000000,"state":"active","ping":62},{"user_id":308,"name":"Kavary","steam_id":76561198024792146,"connected_time":1798000000000,"state":"active","ping":79},{"user_id":337,"name":"CRIKI","steam_id":76561198069968711,"connected_time":290000000000,"state":"active","ping":43},{"user_id":310,"name":"Saken","steam_id":76561198049075295,"connected_time":1693000000000,"state":"active","ping":62},{"user_id":311,"name":"lark","steam_id":76561198091724522,"connected_time":1677000000000,"state":"active","ping":49},{"user_id":312,"name":"King Nugget","steam_id":76561198134037464,"connected_time":1590000000000,"state":"active","ping":56},{"user_id":339,"name":"tm`","steam_id":76561197993580412,"connected_time":281000000000,"state":"active","ping":65},{"user_id":277,"name":"Donac Dum","steam_id":76561198064089294,"connected_time":4469000000000,"state":"active","ping":54},{"user_id":340,"name":"heuji","steam_id":76561197971067828,"connected_time":273000000000,"state":"active","ping":56},{"user_id":335,"name":"dre","steam_id":76561198252628006,"connected_time":352000000000,"state":"active","ping":45},{"user_id":322,"name":"SKY_","steam_id":76561198080980508,"connected_time":1168000000000,"state":"active","ping":67},{"user_id":319,"name":"spooby","steam_id":76561198168114366,"connected_time":1277000000000,"state":"active","ping":143},{"user_id":341,"name":"Valen","steam_id":76561198049614521,"connected_time":268000000000,"state":"active","ping":75},{"user_id":343,"name":"TomNoSocks","steam_id":76561198114071046,"connected_time":143000000000,"state":"active","ping":60},{"user_id":320,"name":"jjkun786","steam_id":76561199438517484,"connected_time":1249000000000,"state":"active","ping":77},{"user_id":333,"name":"jimmy gaming","steam_id":76561198424044541,"connected_time":619000000000,"state":"active","ping":56},{"user_id":331,"name":"brakka","steam_id":76561198154208358,"connected_time":766000000000,"state":"active","ping":45},{"user_id":329,"name":"Ahmed abdullah","steam_id":76561198343776759,"connected_time":1020000000000,"state":"active","ping":76},{"user_id":326,"name":"SanitysEdge","steam_id":76561198130732813,"connected_time":1087000000000,"state":"active","ping":183},{"user_id":342,"name":"Skarp","steam_id":76561198034398376,"connected_time":261000000000,"state":"active","ping":61},{"user_id":327,"name":"Infantile Pillock","steam_id":76561198283851362,"connected_time":1085000000000,"state":"active","ping":71},{"user_id":328,"name":"CordyBrush","steam_id":76561198009379749,"connected_time":1047000000000,"state":"active","ping":50},{"user_id":268,"name":"tsubonyan‚òÖ","steam_id":76561198120653445,"connected_time":4930000000000,"state":"active","ping":68},{"user_id":292,"name":"SG2x [FR]","steam_id":76561198001620401,"connected_time":3279000000000,"state":"active","ping":59}]},{"server_id":40,"name":"Uncletopia | London | 7 | Stopwatch","name_short":"lon-7","host":"lon-1.uk.uncletopia.com","port":27075,"enabled":true,"region":"eu","cc":"gb","latitude":51.509865,"longitude":-0.118092,"reserved":0,"last_update":"0001-01-01T00:00:00Z","name_a2s":"Uncletopia | London | 7 | Stopwatch","protocol":17,"map":"pl_swiftwater_final1","folder":"tf","game":"Team Fortress","app_id":440,"player_count":0,"max_players":24,"Bots":0,"server_type":"Dedicated","server_os":"Linux","password":true,"vac":true,"version":"7961495","steam_id":85568392924964314,"keywords":["nocrits","nodmgspread","payload","uncletopia"],"game_id":440,"stv_port":27076,"stv_name":"Uncletopia | London | 7 | Stopwatch | STV","players":null},{"server_id":41,"name":"Uncletopia | London | 8 | Community","name_short":"lon-8","host":"lon-1.uk.uncletopia.com","port":27085,"enabled":true,"region":"eu","cc":"gb","latitude":51.509865,"longitude":-0.118092,"reserved":0,"last_update":"0001-01-01T00:00:00Z","name_a2s":"Uncletopia | London | 8 | Community","protocol":17,"map":"workshop/koth_ashville_final.ugc2130459942","folder":"tf","game":"Team Fortress","app_id":440,"player_count":0,"max_players":24,"Bots":0,"server_type":"Dedicated","server_os":"Linux","password":true,"vac":true,"version":"7961495","steam_id":85568392924964315,"keywords":["cp","nocrits","nodmgspread","uncletopia"],"game_id":440,"stv_port":27086,"stv_name":"Uncletopia | London | 8 | Community | STV","players":null},{"server_id":300,"name":"Uncletopia | Montr√©al | 1 | One Thousand Uncles","name_short":"mtl-1","host":"mtl-1.ca.uncletopia.com","port":27015,"enabled":true,"region":"us-east","cc":"ca","latitude":45.50889,"longitude":-73.56167,"reserved":0,"last_update":"0001-01-01T00:00:00Z","name_a2s":"","protocol":0,"map":"","folder":"","game":"","app_id":0,"player_count":0,"max_players":0,"Bots":0,"server_type":"","server_os":"","password":false,"vac":false,"version":"","steam_id":0,"keywords":null,"game_id":0,"stv_port":0,"stv_name":"","players":null},{"server_id":301,"name":"Uncletopia | Montr√©al | 2 | One Thousand Uncles","name_short":"mtl-2","host":"mtl-1.ca.uncletopia.com","port":27025,"enabled":true,"region":"us-east","cc":"ca","latitude":45.50889,"longitude":-73.56167,"reserved":0,"last_update":"0001-01-01T00:00:00Z","name_a2s":"","protocol":0,"map":"","folder":"","game":"","app_id":0,"player_count":0,"max_players":0,"Bots":0,"server_type":"","server_os":"","password":false,"vac":false,"version":"","steam_id":0,"keywords":null,"game_id":0,"stv_port":0,"stv_name":"","players":null},{"server_id":302,"name":"Uncletopia | Montr√©al | 3 | One Thousand Uncles","name_short":"mtl-3","host":"mtl-1.ca.uncletopia.com","port":27035,"enabled":true,"region":"us-east","cc":"ca","latitude":45.50889,"longitude":-73.56167,"reserved":0,"last_update":"0001-01-01T00:00:00Z","name_a2s":"","protocol":0,"map":"","folder":"","game":"","app_id":0,"player_count":0,"max_players":0,"Bots":0,"server_type":"","server_os":"","password":false,"vac":false,"version":"","steam_id":0,"keywords":null,"game_id":0,"stv_port":0,"stv_name":"","players":null},{"server_id":13,"name":"Uncletopia | New York City | 1 | All Maps","name_short":"nyc-1","host":"nyc-1.us.uncletopia.com","port":27015,"enabled":true,"region":"us-east","cc":"us","latitude":40.73061,"longitude":-73.93524,"reserved":0,"last_update":"0001-01-01T00:00:00Z","name_a2s":"Uncletopia | New York City | 1 | All Maps","protocol":17,"map":"cp_altitude","folder":"tf","game":"Team Fortress","app_id":440,"player_count":24,"max_players":24,"Bots":0,"server_type":"Dedicated","server_os":"Linux","password":true,"vac":true,"version":"7961495","steam_id":85568392924469993,"keywords":["cp","nocrits","nodmgspread","uncletopia"],"game_id":440,"stv_port":27016,"stv_name":"Uncletopia | New York City | 1 | All Maps | STV","players":[{"user_id":563,"name":"Lovedaddy","steam_id":76561198006569710,"connected_time":2741000000000,"state":"active","ping":74},{"user_id":558,"name":"Paradon","steam_id":76561198242214772,"connected_time":3142000000000,"state":"active","ping":110},{"user_id":582,"name":"Drake the Pixel","steam_id":76561198131824401,"connected_time":963000000000,"state":"active","ping":37},{"user_id":581,"name":"Anamm","steam_id":76561198328762510,"connected_time":973000000000,"state":"active","ping":51},{"user_id":528,"name":"DYGIILYIAHSPJTOS (she/her)","steam_id":76561198042177809,"connected_time":5640000000000,"state":"active","ping":73},{"user_id":562,"name":"GummybearKillr","steam_id":76561198031235750,"connected_time":2954000000000,"state":"active","ping":57},{"user_id":559,"name":"Nephi","steam_id":76561198031525122,"connected_time":3121000000000,"state":"active","ping":81},{"user_id":591,"name":"Rozar","steam_id":76561197973921780,"connected_time":62000000000,"state":"active","ping":88},{"user_id":578,"name":"1-800-GHOST-DANCE","steam_id":76561198835430429,"connected_time":1079000000000,"state":"active","ping":65},{"user_id":572,"name":"Mome","steam_id":76561198082542004,"connected_time":1883000000000,"state":"active","ping":60},{"user_id":544,"name":"ancientfunland","steam_id":76561199220174291,"connected_time":4234000000000,"state":"active","ping":68},{"user_id":565,"name":"Bald Vegeta","steam_id":76561198844143746,"connected_time":2700000000000,"state":"active","ping":76},{"user_id":583,"name":"prospike","steam_id":76561199491903111,"connected_time":952000000000,"state":"active","ping":72},{"user_id":576,"name":"yeah","steam_id":76561199034560505,"connected_time":1205000000000,"state":"active","ping":60},{"user_id":553,"name":"backwoods","steam_id":76561198328109873,"connected_time":3361000000000,"state":"active","ping":57},{"user_id":584,"name":"GardenOfStone","steam_id":76561199069870534,"connected_time":937000000000,"state":"active","ping":101},{"user_id":579,"name":"Applesauce","steam_id":76561198252487758,"connected_time":1046000000000,"state":"active","ping":55},{"user_id":585,"name":"ThiccNicc","steam_id":76561198236828842,"connected_time":916000000000,"state":"active","ping":60},{"user_id":567,"name":"Rocket Lanterns","steam_id":76561198969116777,"connected_time":2684000000000,"state":"active","ping":76},{"user_id":586,"name":"Zebulaun","steam_id":76561197965160251,"connected_time":845000000000,"state":"active","ping":77},{"user_id":456,"name":"Naffu","steam_id":76561198036945403,"connected_time":10809000000000,"state":"active","ping":48},{"user_id":590,"name":"Nerrrd_","steam_id":76561198870129960,"connected_time":374000000000,"state":"active","ping":45},{"user_id":587,"name":"Azuknow","steam_id":76561199229518180,"connected_time":750000000000,"state":"active","ping":78},{"user_id":405,"name":"ndvr","steam_id":76561199379200102,"connected_time":15207000000000,"state":"active","ping":48}]},{"server_id":14,"name":"Uncletopia | New York City | 2 | All Maps","name_short":"nyc-2","host":"nyc-1.us.uncletopia.com","port":27025,"enabled":true,"region":"us-east","cc":"us","latitude":40.73061,"longitude":-73.93524,"reserved":0,"last_update":"0001-01-01T00:00:00Z","name_a2s":"Uncletopia | New York City | 2 | All Maps","protocol":17,"map":"cp_snakewater_final1","folder":"tf","game":"Team Fortress","app_id":440,"player_count":24,"max_players":24,"Bots":0,"server_type":"Dedicated","server_os":"Linux","password":true,"vac":true,"version":"7961495","steam_id":85568392924469994,"keywords":["cp","nocrits","nodmgspread","uncletopia"],"game_id":440,"stv_port":27026,"stv_name":"Uncletopia | New York City | 2 | All Maps | STV","players":[{"user_id":211,"name":"Yoshimelon","steam_id":76561198253054325,"connected_time":2411000000000,"state":"active","ping":76},{"user_id":135,"name":"H0wlr","steam_id":76561198012332824,"connected_time":7939000000000,"state":"active","ping":54},{"user_id":183,"name":"Shemply","steam_id":76561198193658910,"connected_time":4311000000000,"state":"active","ping":93},{"user_id":216,"name":"OKAY","steam_id":76561198091980659,"connected_time":2305000000000,"state":"active","ping":58},{"user_id":101,"name":"BarrowBaron","steam_id":76561198013633236,"connected_time":10121000000000,"state":"active","ping":66},{"user_id":205,"name":"Nukem","steam_id":76561198166236574,"connected_time":2543000000000,"state":"active","ping":61},{"user_id":145,"name":"BigPapaBrogan","steam_id":76561199012814165,"connected_time":6647000000000,"state":"active","ping":69},{"user_id":232,"name":"GoldtoothFour","steam_id":76561198055529332,"connected_time":1146000000000,"state":"active","ping":70},{"user_id":220,"name":"Young-OG","steam_id":76561198058800479,"connected_time":2012000000000,"state":"active","ping":76},{"user_id":236,"name":"studioÛ†Å≥‚Åß‚ÅßÛ†Ä°Û†Ä°Û†Å≥","steam_id":76561198199258353,"connected_time":83000000000,"state":"active","ping":35},{"user_id":230,"name":"Rummy the Blargh-gineer","steam_id":76561197997192800,"connected_time":1296000000000,"state":"active","ping":66},{"user_id":189,"name":"breakcore enjoyer","steam_id":76561198031400151,"connected_time":3781000000000,"state":"active","ping":57},{"user_id":142,"name":"Grandpapi Yolpapi","steam_id":76561198010748612,"connected_time":6732000000000,"state":"active","ping":72},{"user_id":175,"name":"StretchySnail59","steam_id":76561198073535005,"connected_time":4937000000000,"state":"active","ping":74},{"user_id":227,"name":"Pancakes","steam_id":76561198129482145,"connected_time":1527000000000,"state":"active","ping":88},{"user_id":229,"name":"John Fortress","steam_id":76561198999712284,"connected_time":1439000000000,"state":"active","ping":82},{"user_id":182,"name":"Ssefseff","steam_id":76561198110495978,"connected_time":4321000000000,"state":"active","ping":75},{"user_id":235,"name":"Degree","steam_id":76561198059812393,"connected_time":329000000000,"state":"active","ping":60},{"user_id":222,"name":"The Stallion","steam_id":76561198005301468,"connected_time":1847000000000,"state":"active","ping":90},{"user_id":172,"name":"BeerPowder","steam_id":76561198058129400,"connected_time":5010000000000,"state":"active","ping":54},{"user_id":228,"name":"Phocae :3","steam_id":76561199317584594,"connected_time":1499000000000,"state":"active","ping":56},{"user_id":231,"name":"Argo","steam_id":76561198353725622,"connected_time":1241000000000,"state":"active","ping":67},{"user_id":224,"name":"Chicken Burger","steam_id":76561198358529311,"connected_time":1684000000000,"state":"active","ping":94},{"user_id":221,"name":"AlmondMilk","steam_id":76561198151229725,"connected_time":2005000000000,"state":"active","ping":58}]},{"server_id":15,"name":"Uncletopia | New York City | 3 | Stopwatch","name_short":"nyc-3","host":"nyc-1.us.uncletopia.com","port":27035,"enabled":true,"region":"us-east","cc":"us","latitude":40.73061,"longitude":-73.93524,"reserved":0,"last_update":"0001-01-01T00:00:00Z","name_a2s":"Uncletopia | New York City | 3 | Stopwatch","protocol":17,"map":"workshop/koth_bagel_rc6.ugc2514036946","folder":"tf","game":"Team Fortress","app_id":440,"player_count":2,"max_players":24,"Bots":0,"server_type":"Dedicated","server_os":"Linux","password":true,"vac":true,"version":"7961495","steam_id":85568392924742820,"keywords":["cp","nocrits","nodmgspread","uncletopia"],"game_id":440,"stv_port":27036,"stv_name":"Uncletopia | New York City | 3 | Stopwatch | STV","players":[{"user_id":19,"name":"battlepuppy592","steam_id":76561199390201854,"connected_time":3115000000000,"state":"active","ping":58},{"user_id":21,"name":"underworn-toast","steam_id":76561199359474701,"connected_time":2896000000000,"state":"active","ping":85}]},{"server_id":16,"name":"Uncletopia | New York City | 4 | Community","name_short":"nyc-4","host":"nyc-1.us.uncletopia.com","port":27045,"enabled":true,"region":"us-east","cc":"us","latitude":40.73061,"longitude":-73.93524,"reserved":0,"last_update":"0001-01-01T00:00:00Z","name_a2s":"Uncletopia | New York City | 4 | Community","protocol":17,"map":"cp_altitude","folder":"tf","game":"Team Fortress","app_id":440,"player_count":0,"max_players":24,"Bots":0,"server_type":"Dedicated","server_os":"Linux","password":true,"vac":true,"version":"7961495","steam_id":85568392924742821,"keywords":["cp","nocrits","nodmgspread","uncletopia"],"game_id":440,"stv_port":27046,"stv_name":"Uncletopia | New York City | 4 | Community | STV","players":null},{"server_id":142,"name":"Uncletopia | S√£o Paulo | 1 | All Maps","name_short":"sao-1","host":"sao-1.br.uncletopia.com","port":27015,"enabled":true,"region":"sa","cc":"br","latitude":-23.533773,"longitude":-46.62529,"reserved":0,"last_update":"0001-01-01T00:00:00Z","name_a2s":"Uncletopia | S√£o Paulo | 1 | All Maps","protocol":17,"map":"pl_pier","folder":"tf","game":"Team Fortress","app_id":440,"player_count":0,"max_players":24,"Bots":0,"server_type":"Dedicated","server_os":"Linux","password":true,"vac":true,"version":"7961495","steam_id":85568392924469996,"keywords":["nocrits","nodmgspread","payload","uncletopia"],"game_id":440,"stv_port":27016,"stv_name":"Uncletopia | S√£o Paulo | 1 | All Maps | STV","players":null},{"server_id":143,"name":"Uncletopia | S√£o Paulo | 2 | Community","name_short":"sao-2","host":"sao-2.br.uncletopia.com","port":27015,"enabled":true,"region":"sa","cc":"br","latitude":-23.533773,"longitude":-46.62529,"reserved":0,"last_update":"0001-01-01T00:00:00Z","name_a2s":"Uncletopia | S√£o Paulo | 2 | Community","protocol":17,"map":"workshop/koth_synthetic_rc6a.ugc1549817316","folder":"tf","game":"Team Fortress","app_id":440,"player_count":0,"max_players":24,"Bots":0,"server_type":"Dedicated","server_os":"Linux","password":true,"vac":true,"version":"7961495","steam_id":85568392924485349,"keywords":["cp","nocrits","nodmgspread","uncletopia"],"game_id":440,"stv_port":27016,"stv_name":"Uncletopia | S√£o Paulo | 2 | Community | STV","players":null},{"server_id":7,"name":"Uncletopia | Seattle | 1 | All Maps","name_short":"sea-1","host":"sea-1.us.uncletopia.com","port":27015,"enabled":true,"region":"us-west","cc":"us","latitude":47.608013,"longitude":-122.33517,"reserved":0,"last_update":"0001-01-01T00:00:00Z","name_a2s":"Uncletopia | Seattle | 1 | All Maps","protocol":17,"map":"pl_upward","folder":"tf","game":"Team Fortress","app_id":440,"player_count":24,"max_players":24,"Bots":0,"server_type":"Dedicated","server_os":"Linux","password":true,"vac":true,"version":"7961495","steam_id":85568392924469997,"keywords":["nocrits","nodmgspread","payload","uncletopia"],"game_id":440,"stv_port":27016,"stv_name":"Uncletopia | Seattle | 1 | All Maps | STV","players":[{"user_id":484,"name":"Ginnunga","steam_id":76561198000320083,"connected_time":165000000000,"state":"active","ping":85},{"user_id":473,"name":"Streamline","steam_id":76561198031098638,"connected_time":940000000000,"state":"active","ping":102},{"user_id":457,"name":"cream team","steam_id":76561198139043953,"connected_time":2636000000000,"state":"active","ping":95},{"user_id":452,"name":"Nom Skirrett","steam_id":76561198014600788,"connected_time":3235000000000,"state":"active","ping":65},{"user_id":427,"name":"LX-24","steam_id":76561198016168993,"connected_time":5477000000000,"state":"active","ping":113},{"user_id":459,"name":"CraftOfDoom","steam_id":76561198856919544,"connected_time":2387000000000,"state":"active","ping":62},{"user_id":462,"name":"ISimpForShinomiya","steam_id":76561198998311855,"connected_time":1841000000000,"state":"active","ping":83},{"user_id":433,"name":"you just got dyked on","steam_id":76561198018977723,"connected_time":5346000000000,"state":"active","ping":51},{"user_id":477,"name":"vfa","steam_id":76561198055729118,"connected_time":852000000000,"state":"active","ping":60},{"user_id":481,"name":"Meepster","steam_id":76561198146305159,"connected_time":725000000000,"state":"active","ping":60},{"user_id":476,"name":"drank baby","steam_id":76561199483723843,"connected_time":899000000000,"state":"active","ping":78},{"user_id":475,"name":"MrYadaization","steam_id":76561198050770818,"connected_time":903000000000,"state":"active","ping":45},{"user_id":483,"name":"MerkZ","steam_id":76561198047620432,"connected_time":365000000000,"state":"active","ping":72},{"user_id":480,"name":"shia'dyne","steam_id":76561198271939793,"connected_time":774000000000,"state":"active","ping":49},{"user_id":458,"name":"RainboomCrash","steam_id":76561198065612273,"connected_time":2625000000000,"state":"active","ping":53},{"user_id":418,"name":"lesbiowned","steam_id":76561197989933601,"connected_time":5975000000000,"state":"active","ping":43},{"user_id":464,"name":"DUNKS","steam_id":76561198130701643,"connected_time":1515000000000,"state":"active","ping":53},{"user_id":468,"name":"Lily Thorn","steam_id":76561198305488625,"connected_time":1299000000000,"state":"active","ping":54},{"user_id":478,"name":"Silverstar","steam_id":76561198399525329,"connected_time":833000000000,"state":"active","ping":127},{"user_id":450,"name":"chheesse","steam_id":76561198926982316,"connected_time":3778000000000,"state":"active","ping":83},{"user_id":417,"name":":(){ :|:\u0026 };:","steam_id":76561198115242460,"connected_time":6053000000000,"state":"active","ping":60},{"user_id":381,"name":"Owls = Government Drones","steam_id":76561198439793697,"connected_time":8916000000000,"state":"active","ping":120},{"user_id":482,"name":"Kryptonite253","steam_id":76561198019919891,"connected_time":378000000000,"state":"active","ping":46},{"user_id":466,"name":"hop","steam_id":76561198027785965,"connected_time":1505000000000,"state":"active","ping":68}]},{"server_id":119,"name":"Uncletopia | Seattle | 2 | All Maps","name_short":"sea-2","host":"sea-1.us.uncletopia.com","port":27025,"enabled":true,"region":"us-west","cc":"us","latitude":47.608013,"longitude":-122.33517,"reserved":0,"last_update":"0001-01-01T00:00:00Z","name_a2s":"Uncletopia | Seattle | 2 | All Maps","protocol":17,"map":"pl_thundermountain","folder":"tf","game":"Team Fortress","app_id":440,"player_count":24,"max_players":24,"Bots":0,"server_type":"Dedicated","server_os":"Linux","password":true,"vac":true,"version":"7961495","steam_id":85568392924469998,"keywords":["nocrits","nodmgspread","payload","uncletopia"],"game_id":440,"stv_port":27026,"stv_name":"Uncletopia | Seattle | 2 | All Maps | STV","players":[{"user_id":67,"name":"Villchip","steam_id":76561198198599982,"connected_time":1097000000000,"state":"active","ping":48},{"user_id":68,"name":"De_Bones","steam_id":76561198064459088,"connected_time":969000000000,"state":"active","ping":91},{"user_id":73,"name":"Mexican Hippo","steam_id":76561199133475495,"connected_time":923000000000,"state":"active","ping":47},{"user_id":24,"name":"Sgt_Rathbone","steam_id":76561198171705397,"connected_time":3781000000000,"state":"active","ping":68},{"user_id":87,"name":"Phrog","steam_id":76561198072975322,"connected_time":371000000000,"state":"active","ping":52},{"user_id":76,"name":"sirFrost","steam_id":76561198072267177,"connected_time":822000000000,"state":"active","ping":48},{"user_id":51,"name":"MacchuPeachu","steam_id":76561199093242587,"connected_time":2106000000000,"state":"active","ping":65},{"user_id":71,"name":"Rock under the sun","steam_id":76561198881093314,"connected_time":932000000000,"state":"active","ping":53},{"user_id":85,"name":"FIRESTORM","steam_id":76561199385222289,"connected_time":481000000000,"state":"active","ping":58},{"user_id":86,"name":"Eden","steam_id":76561198081284664,"connected_time":462000000000,"state":"active","ping":85},{"user_id":80,"name":"choochoo","steam_id":76561199122075275,"connected_time":717000000000,"state":"active","ping":43},{"user_id":34,"name":"Myr1ad","steam_id":76561198072795505,"connected_time":2754000000000,"state":"active","ping":98},{"user_id":75,"name":"raphiehayes97","steam_id":76561199499106535,"connected_time":867000000000,"state":"active","ping":94},{"user_id":77,"name":"mafia is mafia","steam_id":76561198042574722,"connected_time":800000000000,"state":"active","ping":56},{"user_id":65,"name":"Gamekiller839","steam_id":76561199475400469,"connected_time":1297000000000,"state":"active","ping":30},{"user_id":39,"name":"nuts swangin in da wind","steam_id":76561198125947844,"connected_time":2477000000000,"state":"active","ping":72},{"user_id":81,"name":"Vrita","steam_id":76561198059483641,"connected_time":717000000000,"state":"active","ping":71},{"user_id":41,"name":"Vincent Van Bro","steam_id":76561197966919802,"connected_time":2435000000000,"state":"active","ping":42},{"user_id":88,"name":"Aglovail","steam_id":76561198276988844,"connected_time":337000000000,"state":"active","ping":60},{"user_id":83,"name":"Fiji Water Drinking Otter","steam_id":76561198079958260,"connected_time":647000000000,"state":"active","ping":131},{"user_id":44,"name":"The_Pacific_gamer","steam_id":76561198089491446,"connected_time":2366000000000,"state":"active","ping":50},{"user_id":54,"name":"Beta Fish","steam_id":76561198073504861,"connected_time":2052000000000,"state":"active","ping":123},{"user_id":89,"name":"rf","steam_id":76561198195359229,"connected_time":76000000000,"state":"active","ping":42},{"user_id":47,"name":"YouR dad","steam_id":76561198044013623,"connected_time":2302000000000,"state":"active","ping":136}]},{"server_id":406,"name":"Uncletopia | Seattle | 3 | Stopwatch","name_short":"sea-3","host":"sea-1.us.uncletopia.com","port":27035,"enabled":true,"region":"us-west","cc":"us","latitude":47.608013,"longitude":-122.33517,"reserved":0,"last_update":"0001-01-01T00:00:00Z","name_a2s":"Uncletopia | Seattle | 3 | Stopwatch","protocol":17,"map":"workshop/cp_process_f12.ugc2302948105","folder":"tf","game":"Team Fortress","app_id":440,"player_count":0,"max_players":24,"Bots":0,"server_type":"Dedicated","server_os":"Linux","password":true,"vac":true,"version":"7961495","steam_id":85568392924515217,"keywords":["cp","nocrits","nodmgspread","uncletopia"],"game_id":440,"stv_port":27036,"stv_name":"Uncletopia | Seattle | 3 | Stopwatch | STV","players":null},{"server_id":17,"name":"Uncletopia | San Francisco | 1 | All Maps","name_short":"sfo-1","host":"sfo-1.us.uncletopia.com","port":27015,"enabled":true,"region":"us-west","cc":"us","latitude":37.77397,"longitude":-122.4313,"reserved":0,"last_update":"0001-01-01T00:00:00Z","name_a2s":"Uncletopia | San Francisco | 1 | All Maps","protocol":17,"map":"pl_badwater","folder":"tf","game":"Team Fortress","app_id":440,"player_count":24,"max_players":24,"Bots":0,"server_type":"Dedicated","server_os":"Linux","password":true,"vac":true,"version":"7961495","steam_id":85568392924469999,"keywords":["nocrits","nodmgspread","payload","uncletopia"],"game_id":440,"stv_port":27016,"stv_name":"Uncletopia | San Francisco | 1 | All Maps | STV","players":[{"user_id":384,"name":"Lambchop","steam_id":76561198043900363,"connected_time":3500000000000,"state":"active","ping":60},{"user_id":412,"name":"no vc no c","steam_id":76561197989503095,"connected_time":1531000000000,"state":"active","ping":150},{"user_id":407,"name":"CampinCarl","steam_id":76561197997373624,"connected_time":1786000000000,"state":"active","ping":51},{"user_id":397,"name":"Caspian","steam_id":76561199041466962,"connected_time":2615000000000,"state":"active","ping":45},{"user_id":405,"name":"Ethanol Buttchugger","steam_id":76561199127590316,"connected_time":1811000000000,"state":"active","ping":66},{"user_id":370,"name":"Schmupp","steam_id":76561198150928115,"connected_time":4796000000000,"state":"active","ping":53},{"user_id":411,"name":"magunyamu","steam_id":76561198823083676,"connected_time":1558000000000,"state":"active","ping":73},{"user_id":415,"name":"jc71777","steam_id":76561199124210364,"connected_time":901000000000,"state":"active","ping":60},{"user_id":261,"name":"Sudsen","steam_id":76561198370603787,"connected_time":11617000000000,"state":"active","ping":90},{"user_id":392,"name":"mossyDoomhead","steam_id":76561198237954578,"connected_time":3291000000000,"state":"active","ping":76},{"user_id":312,"name":"K-2","steam_id":76561198322606535,"connected_time":9105000000000,"state":"active","ping":84},{"user_id":416,"name":"Brody Yukin","steam_id":76561198084712019,"connected_time":882000000000,"state":"active","ping":61},{"user_id":417,"name":"S O U N D W A V E","steam_id":76561198093417449,"connected_time":873000000000,"state":"active","ping":54},{"user_id":396,"name":"giveit5","steam_id":76561198030815437,"connected_time":2669000000000,"state":"active","ping":60},{"user_id":375,"name":"bottom pride burger","steam_id":76561198322247602,"connected_time":4308000000000,"state":"active","ping":61},{"user_id":372,"name":"Whimsy!","steam_id":76561197989578836,"connected_time":4671000000000,"state":"active","ping":47},{"user_id":410,"name":"Lucas","steam_id":76561198399704604,"connected_time":1673000000000,"state":"active","ping":64},{"user_id":401,"name":"spiderland","steam_id":76561198335992132,"connected_time":2223000000000,"state":"active","ping":64},{"user_id":418,"name":"Yoi Ishiya","steam_id":76561198041639985,"connected_time":500000000000,"state":"active","ping":71},{"user_id":314,"name":"tass","steam_id":76561199254321874,"connected_time":9082000000000,"state":"active","ping":134},{"user_id":406,"name":"rilby","steam_id":76561198132755619,"connected_time":1805000000000,"state":"active","ping":39},{"user_id":394,"name":"Complete Dental Failure","steam_id":76561198083293321,"connected_time":3148000000000,"state":"active","ping":111},{"user_id":391,"name":"FredTheGreater4","steam_id":76561198046542305,"connected_time":3384000000000,"state":"active","ping":77},{"user_id":393,"name":"Aradia","steam_id":76561198255575892,"connected_time":3283000000000,"state":"active","ping":98}]},{"server_id":18,"name":"Uncletopia | San Francisco | 2 | All Maps","name_short":"sfo-2","host":"sfo-1.us.uncletopia.com","port":27025,"enabled":true,"region":"us-west","cc":"us","latitude":37.77397,"longitude":-122.4313,"reserved":0,"last_update":"0001-01-01T00:00:00Z","name_a2s":"Uncletopia | San Francisco | 2 | All Maps","protocol":17,"map":"koth_viaduct","folder":"tf","game":"Team Fortress","app_id":440,"player_count":0,"max_players":24,"Bots":0,"server_type":"Dedicated","server_os":"Linux","password":true,"vac":true,"version":"7961495","steam_id":85568392924470000,"keywords":["cp","nocrits","nodmgspread","uncletopia"],"game_id":440,"stv_port":27026,"stv_name":"Uncletopia | San Francisco | 2 | All Maps | STV","players":null},{"server_id":19,"name":"Uncletopia | San Francisco | 3 | Stopwatch","name_short":"sfo-3","host":"sfo-1.us.uncletopia.com","port":27035,"enabled":true,"region":"us-west","cc":"us","latitude":37.77397,"longitude":-122.4313,"reserved":0,"last_update":"0001-01-01T00:00:00Z","name_a2s":"Uncletopia | San Francisco | 3 | Stopwatch","protocol":17,"map":"pl_pier","folder":"tf","game":"Team Fortress","app_id":440,"player_count":0,"max_players":24,"Bots":0,"server_type":"Dedicated","server_os":"Linux","password":true,"vac":true,"version":"7961495","steam_id":85568392924742824,"keywords":["nocrits","nodmgspread","payload","uncletopia"],"game_id":440,"stv_port":27036,"stv_name":"Uncletopia | San Francisco | 3 | Stopwatch | STV","players":null},{"server_id":20,"name":"Uncletopia | San Francisco | 4 | Community","name_short":"sfo-4","host":"sfo-1.us.uncletopia.com","port":27045,"enabled":true,"region":"us-west","cc":"us","latitude":37.77397,"longitude":-122.4313,"reserved":0,"last_update":"0001-01-01T00:00:00Z","name_a2s":"Uncletopia | San Francisco | 4 | Community","protocol":17,"map":"workshop/cp_propaganda_b18.ugc1603743849","folder":"tf","game":"Team Fortress","app_id":440,"player_count":0,"max_players":24,"Bots":0,"server_type":"Dedicated","server_os":"Linux","password":true,"vac":true,"version":"7961495","steam_id":85568392924742826,"keywords":["cp","nocrits","nodmgspread","uncletopia"],"game_id":440,"stv_port":27046,"stv_name":"Uncletopia | San Francisco | 4 | Community | STV","players":null},{"server_id":141,"name":"Uncletopia | Sydney | 1 | All Maps","name_short":"syd-1","host":"syd-1.au.uncletopia.com","port":27015,"enabled":true,"region":"au","cc":"au","latitude":-33.865143,"longitude":151.2099,"reserved":0,"last_update":"0001-01-01T00:00:00Z","name_a2s":"Uncletopia | Sydney | 1 | All Maps","protocol":17,"map":"koth_viaduct","folder":"tf","game":"Team Fortress","app_id":440,"player_count":0,"max_players":24,"Bots":0,"server_type":"Dedicated","server_os":"Linux","password":true,"vac":true,"version":"7961495","steam_id":85568392924470001,"keywords":["cp","nocrits","nodmgspread","uncletopia"],"game_id":440,"stv_port":27016,"stv_name":"Uncletopia | Sydney | 1 | All Maps | STV","players":null},{"server_id":123,"name":"Uncletopia | Sydney | 2 | All Maps","name_short":"syd-2","host":"syd-1.au.uncletopia.com","port":27025,"enabled":true,"region":"au","cc":"au","latitude":-33.865143,"longitude":151.2099,"reserved":0,"last_update":"0001-01-01T00:00:00Z","name_a2s":"Uncletopia | Sydney | 2 | All Maps","protocol":17,"map":"koth_lakeside_final","folder":"tf","game":"Team Fortress","app_id":440,"player_count":0,"max_players":24,"Bots":0,"server_type":"Dedicated","server_os":"Linux","password":true,"vac":true,"version":"7961495","steam_id":85568392924470002,"keywords":["cp","nocrits","nodmgspread","uncletopia"],"game_id":440,"stv_port":27026,"stv_name":"Uncletopia | Sydney | 2 | All Maps | STV","players":null},{"server_id":395,"name":"Uncletopia | Sydney | 3 | All Maps","name_short":"syd-3","host":"syd-1.au.uncletopia.com","port":27035,"enabled":true,"region":"au","cc":"au","latitude":-33.865143,"longitude":151.2099,"reserved":0,"last_update":"0001-01-01T00:00:00Z","name_a2s":"Uncletopia | Sydney | 3 | All Maps","protocol":17,"map":"pl_frontier_final","folder":"tf","game":"Team Fortress","app_id":440,"player_count":0,"max_players":24,"Bots":0,"server_type":"Dedicated","server_os":"Linux","password":true,"vac":true,"version":"7961495","steam_id":85568392925194467,"keywords":["nocrits","nodmgspread","payload","uncletopia"],"game_id":440,"stv_port":27036,"stv_name":"Uncletopia | Sydney | 3 | All Maps | STV","players":null},{"server_id":396,"name":"Uncletopia | Sydney | 4 | All Maps","name_short":"syd-4","host":"syd-1.au.uncletopia.com","port":27045,"enabled":true,"region":"au","cc":"au","latitude":-33.865143,"longitude":151.2099,"reserved":0,"last_update":"0001-01-01T00:00:00Z","name_a2s":"Uncletopia | Sydney | 4 | All Maps","protocol":17,"map":"cp_process_final","folder":"tf","game":"Team Fortress","app_id":440,"player_count":0,"max_players":24,"Bots":0,"server_type":"Dedicated","server_os":"Linux","password":true,"vac":true,"version":"7961495","steam_id":85568392925397958,"keywords":["cp","nocrits","nodmgspread","uncletopia"],"game_id":440,"stv_port":27046,"stv_name":"Uncletopia | Sydney | 4 | All Maps | STV","players":null},{"server_id":58,"name":"Uncletopia | Sydney | 5 | Stopwatch","name_short":"syd-5","host":"syd-1.au.uncletopia.com","port":27055,"enabled":true,"region":"au","cc":"au","latitude":-33.865143,"longitude":151.2099,"reserved":0,"last_update":"0001-01-01T00:00:00Z","name_a2s":"Uncletopia | Sydney | 5 | Stopwatch","protocol":17,"map":"pl_frontier_final","folder":"tf","game":"Team Fortress","app_id":440,"player_count":0,"max_players":24,"Bots":0,"server_type":"Dedicated","server_os":"Linux","password":true,"vac":true,"version":"7961495","steam_id":85568392925397959,"keywords":["nocrits","nodmgspread","payload","uncletopia"],"game_id":440,"stv_port":27056,"stv_name":"Uncletopia | Sydney | 5 | Stopwatch | STV","players":null},{"server_id":59,"name":"Uncletopia | Sydney | 6 | Community","name_short":"syd-6","host":"syd-1.au.uncletopia.com","port":27065,"enabled":true,"region":"au","cc":"au","latitude":-33.865143,"longitude":151.2099,"reserved":0,"last_update":"0001-01-01T00:00:00Z","name_a2s":"Uncletopia | Sydney | 6 | Community","protocol":17,"map":"cp_sunshine","folder":"tf","game":"Team Fortress","app_id":440,"player_count":0,"max_players":24,"Bots":0,"server_type":"Dedicated","server_os":"Linux","password":true,"vac":true,"version":"7961495","steam_id":85568392925397960,"keywords":["cp","nocrits","nodmgspread","uncletopia"],"game_id":440,"stv_port":27066,"stv_name":"Uncletopia | Sydney | 6 | Community | STV","players":null},{"server_id":49,"name":"Uncletopia | Warsaw | 1 | One Thousand Uncles","name_short":"waw-1","host":"waw-1.pl.uncletopia.com","port":27015,"enabled":true,"region":"eu","cc":"pl","latitude":52.2297,"longitude":21.017532,"reserved":0,"last_update":"0001-01-01T00:00:00Z","name_a2s":"Uncletopia | Warsaw | 1 | One Thousand Uncles","protocol":17,"map":"pl_thundermountain","folder":"tf","game":"Team Fortress","app_id":440,"player_count":0,"max_players":32,"Bots":0,"server_type":"Dedicated","server_os":"Linux","password":true,"vac":true,"version":"7961495","steam_id":85568392925397850,"keywords":["alltalk","danepve","increased_maxplayers","nocrits","norespawntime","payload","uncletopia"],"game_id":440,"stv_port":0,"stv_name":"","players":null},{"server_id":50,"name":"Uncletopia | Warsaw | 2 | One Thousand Uncles","name_short":"waw-2","host":"waw-1.pl.uncletopia.com","port":27025,"enabled":true,"region":"eu","cc":"pl","latitude":52.2297,"longitude":21.017532,"reserved":0,"last_update":"0001-01-01T00:00:00Z","name_a2s":"Uncletopia | Warsaw | 2 | One Thousand Uncles","protocol":17,"map":"pl_upward","folder":"tf","game":"Team Fortress","app_id":440,"player_count":0,"max_players":32,"Bots":0,"server_type":"Dedicated","server_os":"Linux","password":true,"vac":true,"version":"7961495","steam_id":85568392925397851,"keywords":["alltalk","danepve","increased_maxplayers","nocrits","norespawntime","payload","uncletopia"],"game_id":440,"stv_port":0,"stv_name":"","players":null},{"server_id":51,"name":"Uncletopia | Warsaw | 3 | All Maps","name_short":"waw-3","host":"waw-1.pl.uncletopia.com","port":27035,"enabled":true,"region":"eu","cc":"pl","latitude":52.2297,"longitude":21.017532,"reserved":0,"last_update":"0001-01-01T00:00:00Z","name_a2s":"Uncletopia | Warsaw | 3 | All Maps","protocol":17,"map":"pl_snowycoast","folder":"tf","game":"Team Fortress","app_id":440,"player_count":0,"max_players":24,"Bots":0,"server_type":"Dedicated","server_os":"Linux","password":true,"vac":true,"version":"7961495","steam_id":85568392925397852,"keywords":["nocrits","nodmgspread","payload","uncletopia"],"game_id":440,"stv_port":27036,"stv_name":"Uncletopia | Warsaw | 3 | All Maps | STV","players":null},{"server_id":52,"name":"Uncletopia | Warsaw | 4 | All Maps","name_short":"waw-4","host":"waw-1.pl.uncletopia.com","port":27045,"enabled":true,"region":"eu","cc":"pl","latitude":52.2297,"longitude":21.017532,"reserved":0,"last_update":"0001-01-01T00:00:00Z","name_a2s":"Uncletopia | Warsaw | 4 | All Maps","protocol":17,"map":"cp_mountainlab","folder":"tf","game":"Team Fortress","app_id":440,"player_count":0,"max_players":24,"Bots":0,"server_type":"Dedicated","server_os":"Linux","password":true,"vac":true,"version":"7961495","steam_id":85568392925397853,"keywords":["cp","nocrits","nodmgspread","uncletopia"],"game_id":440,"stv_port":27046,"stv_name":"Uncletopia | Warsaw | 4 | All Maps | STV","players":null},{"server_id":53,"name":"Uncletopia | Warsaw | 5 | Stopwatch","name_short":"waw-5","host":"waw-1.pl.uncletopia.com","port":27055,"enabled":true,"region":"eu","cc":"pl","latitude":52.2297,"longitude":21.017532,"reserved":0,"last_update":"0001-01-01T00:00:00Z","name_a2s":"Uncletopia | Warsaw | 5 | Stopwatch","protocol":17,"map":"koth_lakeside_final","folder":"tf","game":"Team Fortress","app_id":440,"player_count":0,"max_players":24,"Bots":0,"server_type":"Dedicated","server_os":"Linux","password":true,"vac":true,"version":"7961495","steam_id":85568392925397854,"keywords":["cp","nocrits","nodmgspread","uncletopia"],"game_id":440,"stv_port":27056,"stv_name":"Uncletopia | Warsaw | 5 | Stopwatch | STV","players":null},{"server_id":54,"name":"Uncletopia | Warsaw | 6 | Community","name_short":"waw-6","host":"waw-1.pl.uncletopia.com","port":27065,"enabled":true,"region":"eu","cc":"pl","latitude":52.2297,"longitude":21.017532,"reserved":0,"last_update":"0001-01-01T00:00:00Z","name_a2s":"Uncletopia | Warsaw | 6 | Community","protocol":17,"map":"workshop/cp_caldera_rc3.ugc2834196889","folder":"tf","game":"Team Fortress","app_id":440,"player_count":0,"max_players":24,"Bots":0,"server_type":"Dedicated","server_os":"Linux","password":true,"vac":true,"version":"7961495","steam_id":85568392925397856,"keywords":["cp","nocrits","nodmgspread","uncletopia"],"game_id":440,"stv_port":27066,"stv_name":"Uncletopia | Warsaw | 6 | Community | STV","players":null}]}