{"status":true,"message":"","result":[{"server_id":9,"name":"Uncletopia | Atlanta | 1 | All Maps","name_short":"atl-1","host":"atl-1.us.uncletopia.com","port":27015,"enabled":true,"region":"us-east","cc":"us","latitude":33.753746,"longitude":-84.38633,"reserved":0,"last_update":"0001-01-01T00:00:00Z","name_a2s":"Uncletopia | Atlanta | 1 | All Maps","protocol":17,"map":"pl_badwater","folder":"tf","game":"Team Fortress","app_id":440,"player_count":24,"max_players":24,"Bots":0,"server_type":"Dedicated","server_os":"Linux","password":true,"vac":true,"version":"7882260","steam_id":85568392924469982,"keywords":["nocrits","nodmgspread","payload","uncletopia"],"game_id":440,"stv_port":27016,"stv_name":"Uncletopia | Atlanta | 1 | All Maps | STV","players":[{"user_id":503,"name":"Albino Jellyfish","steam_id":76561198208561097,"connected_time":2612000000000,"state":"active","ping":62},{"user_id":512,"name":"bkiller","steam_id":76561198029265697,"connected_time":820000000000,"state":"active","ping":65},{"user_id":376,"name":"Intro Bonito","steam_id":76561198119478838,"connected_time":10502000000000,"state":"active","ping":45},{"user_id":508,"name":"evilstuntman","steam_id":76561198056911537,"connected_time":1204000000000,"state":"active","ping":60},{"user_id":498,"name":"kite","steam_id":76561198346516392,"connected_time":3176000000000,"state":"active","ping":77},{"user_id":499,"name":"Galactamarx","steam_id":76561198028065755,"connected_time":3161000000000,"state":"active","ping":83},{"user_id":424,"name":"bogginwater","steam_id":76561198155547142,"connected_time":7795000000000,"state":"active","ping":70},{"user_id":497,"name":"tr_denial_v2","steam_id":76561198092135570,"connected_time":3201000000000,"state":"active","ping":60},{"user_id":518,"name":"Tue","steam_id":76561198181668501,"connected_time":229000000000,"state":"active","ping":61},{"user_id":504,"name":"Winston","steam_id":76561198050204475,"connected_time":2247000000000,"state":"active","ping":51},{"user_id":502,"name":"Pumbloom","steam_id":76561198024481281,"connected_time":2981000000000,"state":"active","ping":45},{"user_id":473,"name":"Save your wifi","steam_id":76561198286147372,"connected_time":4327000000000,"state":"active","ping":60},{"user_id":513,"name":"Wheat Box","steam_id":76561198203443358,"connected_time":783000000000,"state":"active","ping":87},{"user_id":379,"name":"cola","steam_id":76561198374390458,"connected_time":10486000000000,"state":"active","ping":63},{"user_id":516,"name":"Drapph","steam_id":76561199384213314,"connected_time":234000000000,"state":"active","ping":79},{"user_id":459,"name":"Bocchi the Cock","steam_id":76561198152455316,"connected_time":5803000000000,"state":"active","ping":99},{"user_id":494,"name":"lil hog","steam_id":76561199230929836,"connected_time":3836000000000,"state":"active","ping":85},{"user_id":475,"name":"Jabawakai","steam_id":76561198088881254,"connected_time":4267000000000,"state":"active","ping":75},{"user_id":491,"name":"tr_rocket_shooting2","steam_id":76561198249206656,"connected_time":4018000000000,"state":"active","ping":76},{"user_id":493,"name":"morphine","steam_id":76561198072124799,"connected_time":3912000000000,"state":"active","ping":93},{"user_id":511,"name":"getchoo","steam_id":76561198185764418,"connected_time":998000000000,"state":"active","ping":75},{"user_id":505,"name":"[Janitor] SuperFlexMan","steam_id":76561198075382445,"connected_time":2147000000000,"state":"active","ping":71},{"user_id":496,"name":"fortnite streamer god","steam_id":76561198079416036,"connected_time":3299000000000,"state":"active","ping":75},{"user_id":514,"name":"Toonice","steam_id":76561198402994885,"connected_time":666000000000,"state":"active","ping":82}]},{"server_id":104,"name":"Uncletopia | Atlanta | 2 | All Maps","name_short":"atl-2","host":"atl-1.us.uncletopia.com","port":27025,"enabled":true,"region":"us-east","cc":"us","latitude":33.753746,"longitude":-84.38633,"reserved":0,"last_update":"0001-01-01T00:00:00Z","name_a2s":"Uncletopia | Atlanta | 2 | All Maps","protocol":17,"map":"koth_sawmill","folder":"tf","game":"Team Fortress","app_id":440,"player_count":24,"max_players":24,"Bots":0,"server_type":"Dedicated","server_os":"Linux","password":true,"vac":true,"version":"7882260","steam_id":85568392924469983,"keywords":["cp","nocrits","nodmgspread","uncletopia"],"game_id":440,"stv_port":27026,"stv_name":"Uncletopia | Atlanta | 2 | All Maps | STV","players":[{"user_id":440,"name":"Disability Haver","steam_id":76561198072879485,"connected_time":4681000000000,"state":"active","ping":116},{"user_id":494,"name":"ALB","steam_id":76561198041496496,"connected_time":1016000000000,"state":"active","ping":82},{"user_id":425,"name":"Gamerdude313","steam_id":76561198869211435,"connected_time":5988000000000,"state":"active","ping":75},{"user_id":466,"name":"vastrobotmax","steam_id":76561198417110724,"connected_time":2644000000000,"state":"active","ping":87},{"user_id":504,"name":"boy from the rafters","steam_id":76561198042926224,"connected_time":774000000000,"state":"active","ping":60},{"user_id":476,"name":"Literally Printer Jesus","steam_id":76561198093687962,"connected_time":1665000000000,"state":"active","ping":106},{"user_id":449,"name":"Nova","steam_id":76561198421340963,"connected_time":3508000000000,"state":"active","ping":89},{"user_id":509,"name":"Elite_Friendly","steam_id":76561198819972127,"connected_time":33000000000,"state":"active","ping":116},{"user_id":507,"name":"Careca zap","steam_id":76561198026944396,"connected_time":424000000000,"state":"active","ping":165},{"user_id":482,"name":"mashallah","steam_id":76561198075111427,"connected_time":1608000000000,"state":"active","ping":84},{"user_id":469,"name":"MiKE","steam_id":76561198115112269,"connected_time":2624000000000,"state":"active","ping":86},{"user_id":452,"name":"Punkin","steam_id":76561198334301755,"connected_time":3408000000000,"state":"active","ping":56},{"user_id":447,"name":"highschool drop-out","steam_id":76561198366299848,"connected_time":3767000000000,"state":"active","ping":52},{"user_id":501,"name":"fisherman","steam_id":76561198157435832,"connected_time":783000000000,"state":"active","ping":88},{"user_id":505,"name":"seashark","steam_id":76561198104540367,"connected_time":731000000000,"state":"active","ping":119},{"user_id":508,"name":"orange","steam_id":76561198272694642,"connected_time":114000000000,"state":"active","ping":60},{"user_id":454,"name":"StraySheep","steam_id":76561198256003811,"connected_time":3396000000000,"state":"active","ping":56},{"user_id":486,"name":"gorf?","steam_id":76561198142286417,"connected_time":1244000000000,"state":"active","ping":72},{"user_id":484,"name":"tux","steam_id":76561198167746330,"connected_time":1478000000000,"state":"active","ping":47},{"user_id":502,"name":"MapleSyrup","steam_id":76561199222442855,"connected_time":783000000000,"state":"active","ping":108},{"user_id":463,"name":"Leviathan","steam_id":76561197997528907,"connected_time":3049000000000,"state":"active","ping":57},{"user_id":448,"name":"al-Kohol","steam_id":76561197998530400,"connected_time":3732000000000,"state":"active","ping":115},{"user_id":503,"name":"toastman","steam_id":76561198207073088,"connected_time":780000000000,"state":"active","ping":98},{"user_id":493,"name":"wunkem","steam_id":76561198055948497,"connected_time":1045000000000,"state":"active","ping":87}]},{"server_id":400,"name":"Uncletopia | Atlanta | 3 | Community","name_short":"atl-3","host":"atl-1.us.uncletopia.com","port":27035,"enabled":true,"region":"us-east","cc":"us","latitude":33.753746,"longitude":-84.38633,"reserved":0,"last_update":"0001-01-01T00:00:00Z","name_a2s":"Uncletopia | Atlanta | 3 | Community","protocol":17,"map":"workshop/koth_trenchfoot_b1a.ugc731436616","folder":"tf","game":"Team Fortress","app_id":440,"player_count":0,"max_players":24,"Bots":0,"server_type":"Dedicated","server_os":"Linux","password":true,"vac":true,"version":"7882260","steam_id":85568392924515187,"keywords":["cp","nocrits","nodmgspread","uncletopia"],"game_id":440,"stv_port":27036,"stv_name":"Uncletopia | Atlanta | 3 | Community | STV","players":null},{"server_id":401,"name":"Uncletopia | Atlanta | 4 | No Payload","name_short":"atl-4","host":"atl-1.us.uncletopia.com","port":27045,"enabled":true,"region":"us-east","cc":"us","latitude":33.753746,"longitude":-84.38633,"reserved":0,"last_update":"0001-01-01T00:00:00Z","name_a2s":"","protocol":0,"map":"","folder":"","game":"","app_id":0,"player_count":0,"max_players":0,"Bots":0,"server_type":"","server_os":"","password":false,"vac":false,"version":"","steam_id":0,"keywords":null,"game_id":0,"stv_port":0,"stv_name":"","players":null},{"server_id":2,"name":"Uncletopia | Chicago | 1 | All Maps","name_short":"chi-1","host":"chi-1.us.uncletopia.com","port":27015,"enabled":true,"region":"us-central","cc":"us","latitude":41.881832,"longitude":-87.62318,"reserved":0,"last_update":"0001-01-01T00:00:00Z","name_a2s":"Uncletopia | Chicago | 1 | All Maps","protocol":17,"map":"pl_pier","folder":"tf","game":"Team Fortress","app_id":440,"player_count":24,"max_players":24,"Bots":0,"server_type":"Dedicated","server_os":"Linux","password":true,"vac":true,"version":"7882260","steam_id":85568392924469984,"keywords":["nocrits","nodmgspread","payload","uncletopia"],"game_id":440,"stv_port":27016,"stv_name":"Uncletopia | Chicago | 1 | All Maps | STV","players":[{"user_id":529,"name":"Gorgon Freeman","steam_id":76561198000367036,"connected_time":5812000000000,"state":"active","ping":55},{"user_id":576,"name":"ottoman","steam_id":76561198407056645,"connected_time":2903000000000,"state":"active","ping":76},{"user_id":623,"name":"Monty","steam_id":76561197993567253,"connected_time":124000000000,"state":"active","ping":103},{"user_id":586,"name":"HOTA","steam_id":76561199002778841,"connected_time":2084000000000,"state":"active","ping":75},{"user_id":568,"name":"tidal47","steam_id":76561198219084819,"connected_time":3146000000000,"state":"active","ping":81},{"user_id":518,"name":"Snoogs","steam_id":76561198444880931,"connected_time":6756000000000,"state":"active","ping":69},{"user_id":512,"name":"Iceman10a","steam_id":76561198171922098,"connected_time":6979000000000,"state":"active","ping":112},{"user_id":622,"name":"Arty","steam_id":76561198064047186,"connected_time":135000000000,"state":"active","ping":61},{"user_id":587,"name":"Astoriae!","steam_id":76561199090168858,"connected_time":2083000000000,"state":"active","ping":76},{"user_id":598,"name":"GIGAHAXX","steam_id":76561197993714726,"connected_time":1577000000000,"state":"active","ping":61},{"user_id":605,"name":"Sableye","steam_id":76561198061247147,"connected_time":999000000000,"state":"active","ping":68},{"user_id":614,"name":"tools","steam_id":76561199010542612,"connected_time":918000000000,"state":"active","ping":52},{"user_id":616,"name":"Mifee","steam_id":76561198069991093,"connected_time":789000000000,"state":"active","ping":74},{"user_id":504,"name":"Takyon","steam_id":76561198172075186,"connected_time":8286000000000,"state":"active","ping":170},{"user_id":612,"name":"pauldog","steam_id":76561198966277057,"connected_time":940000000000,"state":"active","ping":111},{"user_id":617,"name":":3","steam_id":76561198326987939,"connected_time":713000000000,"state":"active","ping":82},{"user_id":619,"name":"IronGiant","steam_id":76561198062139190,"connected_time":414000000000,"state":"active","ping":119},{"user_id":621,"name":"FutureWingEmilia","steam_id":76561199432006843,"connected_time":143000000000,"state":"active","ping":72},{"user_id":620,"name":"goose","steam_id":76561198367551668,"connected_time":408000000000,"state":"active","ping":57},{"user_id":575,"name":"my money washed like george","steam_id":76561198115458307,"connected_time":2924000000000,"state":"active","ping":105},{"user_id":604,"name":"SauceQue","steam_id":76561198119693669,"connected_time":1029000000000,"state":"active","ping":118},{"user_id":597,"name":"Sho' Nuff, the Shogun of Harlem","steam_id":76561198010708247,"connected_time":1710000000000,"state":"active","ping":69},{"user_id":595,"name":"donatello ツ","steam_id":76561198091157081,"connected_time":1800000000000,"state":"active","ping":59},{"user_id":600,"name":"Goblin Mode","steam_id":76561198064870076,"connected_time":1391000000000,"state":"active","ping":105}]},{"server_id":106,"name":"Uncletopia | Chicago | 2 | All Maps","name_short":"chi-2","host":"chi-1.us.uncletopia.com","port":27025,"enabled":true,"region":"us-central","cc":"us","latitude":41.881832,"longitude":-87.62318,"reserved":0,"last_update":"0001-01-01T00:00:00Z","name_a2s":"Uncletopia | Chicago | 2 | All Maps","protocol":17,"map":"pl_pier","folder":"tf","game":"Team Fortress","app_id":440,"player_count":23,"max_players":24,"Bots":0,"server_type":"Dedicated","server_os":"Linux","password":true,"vac":true,"version":"7882260","steam_id":85568392924469985,"keywords":["nocrits","nodmgspread","payload","uncletopia"],"game_id":440,"stv_port":27026,"stv_name":"Uncletopia | Chicago | 2 | All Maps | STV","players":[{"user_id":311,"name":"Bliztank | RGL.gg","steam_id":76561198019252798,"connected_time":4844000000000,"state":"active","ping":54},{"user_id":365,"name":"crayonnipple","steam_id":76561198070253331,"connected_time":395000000000,"state":"active","ping":72},{"user_id":349,"name":"Lulo","steam_id":76561198200617911,"connected_time":1810000000000,"state":"active","ping":60},{"user_id":348,"name":"BiggFoot","steam_id":76561197998605599,"connected_time":1911000000000,"state":"active","ping":83},{"user_id":339,"name":"jinzo","steam_id":76561198000564263,"connected_time":3106000000000,"state":"active","ping":74},{"user_id":333,"name":"Terror","steam_id":76561198188685728,"connected_time":3460000000000,"state":"active","ping":44},{"user_id":326,"name":"Lohskyl","steam_id":76561199193237621,"connected_time":3951000000000,"state":"active","ping":59},{"user_id":350,"name":"Rose","steam_id":76561198955581861,"connected_time":1792000000000,"state":"active","ping":100},{"user_id":364,"name":"im terrified","steam_id":76561198072179483,"connected_time":419000000000,"state":"active","ping":89},{"user_id":352,"name":"Keirb","steam_id":76561198027031567,"connected_time":1747000000000,"state":"active","ping":112},{"user_id":368,"name":"Metapod","steam_id":76561198008725465,"connected_time":170000000000,"state":"active","ping":78},{"user_id":361,"name":"HolyHitbox","steam_id":76561198071723763,"connected_time":1238000000000,"state":"active","ping":54},{"user_id":369,"name":"Frontier Psychiatrist","steam_id":76561198038689088,"connected_time":7000000000,"state":"spawning","ping":112},{"user_id":362,"name":"G_Bob","steam_id":76561198098133233,"connected_time":1228000000000,"state":"active","ping":70},{"user_id":363,"name":"Sean Bae","steam_id":76561198036909521,"connected_time":1109000000000,"state":"active","ping":64},{"user_id":322,"name":"lanoc","steam_id":76561198055415367,"connected_time":4276000000000,"state":"active","ping":59},{"user_id":316,"name":"java","steam_id":76561198030276792,"connected_time":4646000000000,"state":"active","ping":59},{"user_id":366,"name":"objective permanence","steam_id":76561198050393061,"connected_time":383000000000,"state":"active","ping":77},{"user_id":331,"name":"juzzert","steam_id":76561198010019214,"connected_time":3507000000000,"state":"active","ping":46},{"user_id":356,"name":"Dinero","steam_id":76561198408922663,"connected_time":1709000000000,"state":"active","ping":109},{"user_id":367,"name":"Lore","steam_id":76561198098407538,"connected_time":381000000000,"state":"active","ping":54},{"user_id":360,"name":"Tree","steam_id":76561198195445331,"connected_time":1278000000000,"state":"active","ping":117},{"user_id":327,"name":"jizzawitz","steam_id":76561198042444734,"connected_time":3790000000000,"state":"active","ping":66}]},{"server_id":402,"name":"Uncletopia | Chicago | 3 | All Maps","name_short":"chi-3","host":"chi-1.us.uncletopia.com","port":27035,"enabled":true,"region":"us-central","cc":"us","latitude":41.881832,"longitude":-87.62318,"reserved":0,"last_update":"0001-01-01T00:00:00Z","name_a2s":"Uncletopia | Chicago | 3 | All Maps","protocol":17,"map":"pl_thundermountain","folder":"tf","game":"Team Fortress","app_id":440,"player_count":24,"max_players":24,"Bots":0,"server_type":"Dedicated","server_os":"Linux","password":true,"vac":true,"version":"7882260","steam_id":85568392924515191,"keywords":["nocrits","nodmgspread","payload","uncletopia"],"game_id":440,"stv_port":27036,"stv_name":"Uncletopia | Chicago | 3 | All Maps | STV","players":[{"user_id":289,"name":"Biosock Infiknit","steam_id":76561198072693794,"connected_time":6857000000000,"state":"active","ping":53},{"user_id":358,"name":"Xpiredd","steam_id":76561198449525437,"connected_time":2743000000000,"state":"active","ping":66},{"user_id":384,"name":"BBOSensei","steam_id":76561198071548190,"connected_time":731000000000,"state":"active","ping":71},{"user_id":359,"name":"The Foolish Samurai","steam_id":76561198094494945,"connected_time":2736000000000,"state":"active","ping":109},{"user_id":360,"name":"trappy (washed)","steam_id":76561198402801140,"connected_time":2697000000000,"state":"active","ping":60},{"user_id":378,"name":"M@verick","steam_id":76561198006363519,"connected_time":1310000000000,"state":"active","ping":77},{"user_id":361,"name":"griff928","steam_id":76561198149614679,"connected_time":2696000000000,"state":"active","ping":47},{"user_id":338,"name":"1TheExterminator","steam_id":76561198972879727,"connected_time":4395000000000,"state":"active","ping":79},{"user_id":332,"name":"ttv/Everfrost Samoyed","steam_id":76561198072580699,"connected_time":4617000000000,"state":"active","ping":73},{"user_id":385,"name":"totally not a pile of beans","steam_id":76561198119851931,"connected_time":227000000000,"state":"active","ping":82},{"user_id":381,"name":"Shades McKenzie","steam_id":76561198007051107,"connected_time":1043000000000,"state":"active","ping":63},{"user_id":382,"name":"Technic","steam_id":76561198200302281,"connected_time":848000000000,"state":"active","ping":74},{"user_id":364,"name":"Trappy (dry)","steam_id":76561198027122314,"connected_time":2632000000000,"state":"active","ping":55},{"user_id":330,"name":"Witchings","steam_id":76561198247431254,"connected_time":4771000000000,"state":"active","ping":65},{"user_id":374,"name":"no cunt","steam_id":76561198103269397,"connected_time":2471000000000,"state":"active","ping":149},{"user_id":293,"name":"hack fraud","steam_id":76561198015036066,"connected_time":6703000000000,"state":"active","ping":94},{"user_id":323,"name":"Mr. Crispy Lips","steam_id":76561198028157625,"connected_time":5774000000000,"state":"active","ping":89},{"user_id":386,"name":"The Super Mario Bros. Movie","steam_id":76561198871692156,"connected_time":227000000000,"state":"active","ping":103},{"user_id":367,"name":"Remmy","steam_id":76561198268857418,"connected_time":2614000000000,"state":"active","ping":86},{"user_id":369,"name":"Blobbyfish","steam_id":76561198822962650,"connected_time":2554000000000,"state":"active","ping":60},{"user_id":370,"name":"Major_Pippy","steam_id":76561198004482878,"connected_time":2550000000000,"state":"active","ping":100},{"user_id":371,"name":"noblehallett","steam_id":76561197990994280,"connected_time":2544000000000,"state":"active","ping":117},{"user_id":340,"name":"pee pee poo poo","steam_id":76561198930017260,"connected_time":4368000000000,"state":"active","ping":139},{"user_id":387,"name":"vi","steam_id":76561198388123421,"connected_time":215000000000,"state":"active","ping":105}]},{"server_id":403,"name":"Uncletopia | Chicago | 4 | All Maps","name_short":"chi-4","host":"chi-1.us.uncletopia.com","port":27045,"enabled":true,"region":"us-central","cc":"us","latitude":41.881832,"longitude":-87.62318,"reserved":0,"last_update":"0001-01-01T00:00:00Z","name_a2s":"Uncletopia | Chicago | 4 | All Maps","protocol":17,"map":"pl_pier","folder":"tf","game":"Team Fortress","app_id":440,"player_count":24,"max_players":24,"Bots":0,"server_type":"Dedicated","server_os":"Linux","password":true,"vac":true,"version":"7882260","steam_id":85568392924515193,"keywords":["nocrits","nodmgspread","payload","uncletopia"],"game_id":440,"stv_port":27046,"stv_name":"Uncletopia | Chicago | 4 | All Maps | STV","players":[{"user_id":379,"name":"Meat Mans Meat","steam_id":76561198062149455,"connected_time":1926000000000,"state":"active","ping":63},{"user_id":399,"name":"gromit","steam_id":76561198037746805,"connected_time":623000000000,"state":"active","ping":71},{"user_id":371,"name":"JayArr","steam_id":76561198124371253,"connected_time":2953000000000,"state":"active","ping":44},{"user_id":389,"name":"Maxxycat","steam_id":76561198194062681,"connected_time":1425000000000,"state":"active","ping":55},{"user_id":401,"name":"RipHunter77","steam_id":76561198272973014,"connected_time":595000000000,"state":"active","ping":74},{"user_id":391,"name":"apple pie","steam_id":76561198073215150,"connected_time":1109000000000,"state":"active","ping":63},{"user_id":269,"name":"TheChickenChuck","steam_id":76561199192686708,"connected_time":11530000000000,"state":"active","ping":127},{"user_id":407,"name":"Quietsharp","steam_id":76561198277968438,"connected_time":332000000000,"state":"active","ping":104},{"user_id":376,"name":"bill","steam_id":76561199142779872,"connected_time":2489000000000,"state":"active","ping":72},{"user_id":397,"name":"Horrizan","steam_id":76561197965028480,"connected_time":651000000000,"state":"active","ping":77},{"user_id":390,"name":"DREW PEACOCK","steam_id":76561198065057392,"connected_time":1418000000000,"state":"active","ping":81},{"user_id":370,"name":"OldRavensFan","steam_id":76561198043919562,"connected_time":3029000000000,"state":"active","ping":71},{"user_id":302,"name":"Doubting Dave","steam_id":76561198066410749,"connected_time":7889000000000,"state":"active","ping":82},{"user_id":392,"name":":)","steam_id":76561198093921290,"connected_time":1077000000000,"state":"active","ping":46},{"user_id":364,"name":"Spike","steam_id":76561198141356571,"connected_time":3299000000000,"state":"active","ping":60},{"user_id":382,"name":"onion","steam_id":76561198242311084,"connected_time":1869000000000,"state":"active","ping":61},{"user_id":403,"name":"yurty","steam_id":76561198036307721,"connected_time":509000000000,"state":"active","ping":66},{"user_id":394,"name":"happypurple","steam_id":76561198114782270,"connected_time":926000000000,"state":"active","ping":94},{"user_id":402,"name":"Dive(z)","steam_id":76561198140843225,"connected_time":539000000000,"state":"active","ping":114},{"user_id":359,"name":"chiswola","steam_id":76561198046920142,"connected_time":3582000000000,"state":"active","ping":71},{"user_id":404,"name":"Kiwimpediment","steam_id":76561198322781400,"connected_time":504000000000,"state":"active","ping":84},{"user_id":405,"name":"he munch","steam_id":76561198339644583,"connected_time":497000000000,"state":"active","ping":56},{"user_id":406,"name":"mEch114","steam_id":76561198236936060,"connected_time":493000000000,"state":"active","ping":73},{"user_id":408,"name":"bron jame","steam_id":76561198202195792,"connected_time":250000000000,"state":"active","ping":61}]},{"server_id":36,"name":"Uncletopia | Chicago | 5 | All Maps","name_short":"chi-5","host":"chi-2.us.uncletopia.com","port":27015,"enabled":true,"region":"us-central","cc":"us","latitude":41.881832,"longitude":-87.62318,"reserved":0,"last_update":"0001-01-01T00:00:00Z","name_a2s":"Uncletopia | Chicago | 5 | All Maps","protocol":17,"map":"koth_viaduct","folder":"tf","game":"Team Fortress","app_id":440,"player_count":24,"max_players":24,"Bots":0,"server_type":"Dedicated","server_os":"Linux","password":true,"vac":true,"version":"7882260","steam_id":85568392924866362,"keywords":["cp","nocrits","nodmgspread","uncletopia"],"game_id":440,"stv_port":27016,"stv_name":"Uncletopia | Chicago | 5 | All Maps | STV","players":[{"user_id":237,"name":"Monsieur Pequeño","steam_id":76561198327271041,"connected_time":644000000000,"state":"active","ping":80},{"user_id":227,"name":"Salty.Sam","steam_id":76561198030933901,"connected_time":785000000000,"state":"active","ping":53},{"user_id":245,"name":"BoomieMcBoomPants","steam_id":76561198144516828,"connected_time":218000000000,"state":"active","ping":104},{"user_id":222,"name":"doobs","steam_id":76561198056880716,"connected_time":1408000000000,"state":"active","ping":61},{"user_id":229,"name":"DoubleTee","steam_id":76561198018980347,"connected_time":756000000000,"state":"active","ping":67},{"user_id":239,"name":"Mr. Dick™","steam_id":76561198047309044,"connected_time":413000000000,"state":"active","ping":60},{"user_id":244,"name":"amoeber","steam_id":76561198081564767,"connected_time":224000000000,"state":"active","ping":110},{"user_id":246,"name":"Local","steam_id":76561198069537437,"connected_time":197000000000,"state":"active","ping":106},{"user_id":240,"name":"FTN | Shakaman","steam_id":76561198039829758,"connected_time":407000000000,"state":"active","ping":79},{"user_id":231,"name":"Ratticus","steam_id":76561198258603771,"connected_time":749000000000,"state":"active","ping":85},{"user_id":218,"name":"_","steam_id":76561198191199554,"connected_time":1679000000000,"state":"active","ping":65},{"user_id":232,"name":"neurodivirgil abloh","steam_id":76561198025011611,"connected_time":720000000000,"state":"active","ping":59},{"user_id":201,"name":"J21","steam_id":76561198066590783,"connected_time":2677000000000,"state":"active","ping":73},{"user_id":233,"name":"AffinityNode","steam_id":76561198179676246,"connected_time":699000000000,"state":"active","ping":94},{"user_id":234,"name":"FrAnK (iDfK ArC)","steam_id":76561198428759980,"connected_time":696000000000,"state":"active","ping":99},{"user_id":203,"name":"samantha","steam_id":76561198049258493,"connected_time":2625000000000,"state":"active","ping":116},{"user_id":204,"name":"vessel of ruin","steam_id":76561198094512992,"connected_time":2624000000000,"state":"active","ping":54},{"user_id":243,"name":"THEQUIRKA (ALL CAPS ARC)","steam_id":76561198968058652,"connected_time":313000000000,"state":"active","ping":104},{"user_id":236,"name":"Ryan2","steam_id":76561198832551926,"connected_time":670000000000,"state":"active","ping":83},{"user_id":189,"name":"c9","steam_id":76561198136642793,"connected_time":3887000000000,"state":"active","ping":67},{"user_id":190,"name":"WHY U RUNNIN PAPI","steam_id":76561198144766439,"connected_time":3441000000000,"state":"active","ping":39},{"user_id":198,"name":"helikopter","steam_id":76561198881026292,"connected_time":2803000000000,"state":"active","ping":69},{"user_id":207,"name":"Jester","steam_id":76561199203898660,"connected_time":2557000000000,"state":"active","ping":136},{"user_id":238,"name":"that guy (lowercase mode)","steam_id":76561198851266251,"connected_time":545000000000,"state":"active","ping":112}]},{"server_id":37,"name":"Uncletopia | Chicago | 6 | All Maps","name_short":"chi-6","host":"chi-2.us.uncletopia.com","port":27025,"enabled":true,"region":"us-central","cc":"us","latitude":41.881832,"longitude":-87.62318,"reserved":0,"last_update":"0001-01-01T00:00:00Z","name_a2s":"Uncletopia | Chicago | 6 | All Maps","protocol":17,"map":"pl_pier","folder":"tf","game":"Team Fortress","app_id":440,"player_count":24,"max_players":24,"Bots":0,"server_type":"Dedicated","server_os":"Linux","password":true,"vac":true,"version":"7882260","steam_id":85568392924866363,"keywords":["nocrits","nodmgspread","payload","uncletopia"],"game_id":440,"stv_port":27026,"stv_name":"Uncletopia | Chicago | 6 | All Maps | STV","players":[{"user_id":799,"name":"GUINNESS ANYONE?","steam_id":76561197985970131,"connected_time":2156000000000,"state":"active","ping":66},{"user_id":805,"name":"mikhail","steam_id":76561198242175530,"connected_time":1689000000000,"state":"active","ping":69},{"user_id":822,"name":"Igrium","steam_id":76561198119549811,"connected_time":366000000000,"state":"active","ping":102},{"user_id":767,"name":"Peppino Spaghetti","steam_id":76561198090353077,"connected_time":3797000000000,"state":"active","ping":98},{"user_id":804,"name":"Atlas (Skylar)","steam_id":76561198041531774,"connected_time":1735000000000,"state":"active","ping":54},{"user_id":800,"name":"Bukashmook","steam_id":76561198169455956,"connected_time":2130000000000,"state":"active","ping":105},{"user_id":815,"name":"Neophyte","steam_id":76561198027183394,"connected_time":1385000000000,"state":"active","ping":90},{"user_id":795,"name":"Nathontin","steam_id":76561198263545504,"connected_time":2804000000000,"state":"active","ping":60},{"user_id":783,"name":"souljaboytellem.com","steam_id":76561198111975583,"connected_time":3483000000000,"state":"active","ping":75},{"user_id":821,"name":"Xraverz","steam_id":76561198008891628,"connected_time":502000000000,"state":"active","ping":87},{"user_id":803,"name":"bojack from the show bojack hor","steam_id":76561198053006712,"connected_time":1842000000000,"state":"active","ping":57},{"user_id":801,"name":"WillieMakit","steam_id":76561197985391684,"connected_time":1931000000000,"state":"active","ping":121},{"user_id":806,"name":"Whippin Forgies","steam_id":76561198071058300,"connected_time":1686000000000,"state":"active","ping":64},{"user_id":816,"name":"girlpeen supreme","steam_id":76561198031242903,"connected_time":1369000000000,"state":"active","ping":58},{"user_id":807,"name":"scooby","steam_id":76561198019444443,"connected_time":1685000000000,"state":"active","ping":89},{"user_id":808,"name":"Cassini","steam_id":76561198318526294,"connected_time":1667000000000,"state":"active","ping":72},{"user_id":792,"name":"›› 1dayumay","steam_id":76561198218719943,"connected_time":3234000000000,"state":"active","ping":101},{"user_id":817,"name":"The Announcer's Feet","steam_id":76561199443456893,"connected_time":1355000000000,"state":"active","ping":75},{"user_id":818,"name":"ApertureCity","steam_id":76561198004153607,"connected_time":1279000000000,"state":"active","ping":85},{"user_id":786,"name":"Monster","steam_id":76561198189429665,"connected_time":3465000000000,"state":"active","ping":75},{"user_id":787,"name":"[S]Mr. X [No Monitor]","steam_id":76561197963746035,"connected_time":3452000000000,"state":"active","ping":122},{"user_id":812,"name":"NUt","steam_id":76561198031007966,"connected_time":1604000000000,"state":"active","ping":78},{"user_id":820,"name":"Townze","steam_id":76561198081827165,"connected_time":623000000000,"state":"active","ping":58},{"user_id":811,"name":"Moonshine Man","steam_id":76561198088010073,"connected_time":1626000000000,"state":"active","ping":94}]},{"server_id":38,"name":"Uncletopia | Chicago | 7 | Stopwatch Beta","name_short":"chi-7","host":"chi-2.us.uncletopia.com","port":27035,"enabled":true,"region":"us-central","cc":"us","latitude":41.881832,"longitude":-87.62318,"reserved":0,"last_update":"0001-01-01T00:00:00Z","name_a2s":"Uncletopia | Chicago | 7 | Stopwatch Beta","protocol":17,"map":"cp_granary","folder":"tf","game":"Team Fortress","app_id":440,"player_count":0,"max_players":24,"Bots":0,"server_type":"Dedicated","server_os":"Linux","password":true,"vac":true,"version":"7882260","steam_id":85568392924866364,"keywords":["cp","nocrits","nodmgspread","uncletopia"],"game_id":440,"stv_port":27036,"stv_name":"Uncletopia | Chicago | 7 | Stopwatch Beta | STV","players":null},{"server_id":39,"name":"Uncletopia | Chicago | 8 | Community","name_short":"chi-8","host":"chi-2.us.uncletopia.com","port":27045,"enabled":true,"region":"us-central","cc":"us","latitude":41.881832,"longitude":-87.62318,"reserved":0,"last_update":"0001-01-01T00:00:00Z","name_a2s":"Uncletopia | Chicago | 8 | Community","protocol":17,"map":"workshop/pl_badwater_pro_v12.ugc2142942074","folder":"tf","game":"Team Fortress","app_id":440,"player_count":24,"max_players":24,"Bots":0,"server_type":"Dedicated","server_os":"Linux","password":true,"vac":true,"version":"7882260","steam_id":85568392924866365,"keywords":["nocrits","nodmgspread","payload","uncletopia"],"game_id":440,"stv_port":27046,"stv_name":"Uncletopia | Chicago | 8 | Community | STV","players":[{"user_id":252,"name":"Brisket from Guilty Geer","steam_id":76561198039362851,"connected_time":1054000000000,"state":"active","ping":68},{"user_id":251,"name":"So Hygienic! Washed gamer","steam_id":76561198321627268,"connected_time":1095000000000,"state":"active","ping":121},{"user_id":257,"name":"Tom Crúaich","steam_id":76561197999439911,"connected_time":875000000000,"state":"active","ping":75},{"user_id":249,"name":"PinguEnjoyer6","steam_id":76561199186723516,"connected_time":1194000000000,"state":"active","ping":94},{"user_id":242,"name":"mu","steam_id":76561197997530228,"connected_time":1894000000000,"state":"active","ping":106},{"user_id":20,"name":"spreadable arse","steam_id":76561198032259680,"connected_time":12852000000000,"state":"active","ping":74},{"user_id":205,"name":"don't leave her waiting","steam_id":76561198103496593,"connected_time":5144000000000,"state":"active","ping":71},{"user_id":220,"name":"creeeeeee","steam_id":76561198392539722,"connected_time":3654000000000,"state":"active","ping":82},{"user_id":260,"name":"Jojō","steam_id":76561198864691307,"connected_time":588000000000,"state":"active","ping":76},{"user_id":248,"name":"Reisen Udongein Inaba","steam_id":76561198051082314,"connected_time":1704000000000,"state":"active","ping":108},{"user_id":247,"name":"Iron","steam_id":76561198247918478,"connected_time":1736000000000,"state":"active","ping":71},{"user_id":226,"name":"Achtan","steam_id":76561198078189844,"connected_time":3321000000000,"state":"active","ping":57},{"user_id":228,"name":"Buckshot","steam_id":76561198312838299,"connected_time":3263000000000,"state":"active","ping":89},{"user_id":253,"name":"some strange angel","steam_id":76561198010702536,"connected_time":1052000000000,"state":"active","ping":103},{"user_id":236,"name":"Antifa Supersoldier","steam_id":76561198141816516,"connected_time":2240000000000,"state":"active","ping":70},{"user_id":227,"name":"I am a mooshroom","steam_id":76561198104198295,"connected_time":3309000000000,"state":"active","ping":87},{"user_id":229,"name":"DeckofDragons","steam_id":76561198057398213,"connected_time":3162000000000,"state":"active","ping":80},{"user_id":255,"name":"PlanktonTheWayICumBuckets","steam_id":76561198074678273,"connected_time":912000000000,"state":"active","ping":60},{"user_id":259,"name":"teafital","steam_id":76561198406252824,"connected_time":807000000000,"state":"active","ping":115},{"user_id":254,"name":"bladee is the 5th beatle","steam_id":76561198984612489,"connected_time":1046000000000,"state":"active","ping":95},{"user_id":243,"name":"Mops","steam_id":76561198058213741,"connected_time":1875000000000,"state":"active","ping":63},{"user_id":217,"name":"franzj biggest fan","steam_id":76561198088103572,"connected_time":4473000000000,"state":"active","ping":95},{"user_id":232,"name":"Mathatguy","steam_id":76561198225432188,"connected_time":3079000000000,"state":"active","ping":97},{"user_id":264,"name":"Lepa Radić","steam_id":76561198014698593,"connected_time":180000000000,"state":"active","ping":111}]},{"server_id":8,"name":"Uncletopia | Dallas | 1 | All Maps","name_short":"dal-1","host":"dal-1.us.uncletopia.com","port":27015,"enabled":true,"region":"us-central","cc":"us","latitude":32.779167,"longitude":-96.80889,"reserved":0,"last_update":"0001-01-01T00:00:00Z","name_a2s":"Uncletopia | Dallas | 1 | All Maps","protocol":17,"map":"pl_snowycoast","folder":"tf","game":"Team Fortress","app_id":440,"player_count":24,"max_players":24,"Bots":0,"server_type":"Dedicated","server_os":"Linux","password":true,"vac":true,"version":"7882260","steam_id":85568392924469986,"keywords":["nocrits","nodmgspread","payload","uncletopia"],"game_id":440,"stv_port":27016,"stv_name":"Uncletopia | Dallas | 1 | All Maps | STV","players":[{"user_id":417,"name":"MeMyBongusAndTheGreatOutdoors","steam_id":76561198097708978,"connected_time":956000000000,"state":"active","ping":63},{"user_id":375,"name":"PerliousFalcon","steam_id":76561198124801907,"connected_time":4604000000000,"state":"active","ping":98},{"user_id":424,"name":"Jason Voorhees","steam_id":76561198358987380,"connected_time":706000000000,"state":"active","ping":96},{"user_id":388,"name":"BEEPO","steam_id":76561198116008410,"connected_time":3950000000000,"state":"active","ping":106},{"user_id":429,"name":"♠Silver♠","steam_id":76561198206109224,"connected_time":337000000000,"state":"active","ping":201},{"user_id":406,"name":"Astro","steam_id":76561198035676106,"connected_time":2071000000000,"state":"active","ping":61},{"user_id":422,"name":"milo","steam_id":76561199061380038,"connected_time":790000000000,"state":"active","ping":62},{"user_id":404,"name":"Sods","steam_id":76561198010204565,"connected_time":2113000000000,"state":"active","ping":43},{"user_id":428,"name":"NexFrost","steam_id":76561197985774837,"connected_time":340000000000,"state":"active","ping":40},{"user_id":395,"name":"CHIKN","steam_id":76561198277792665,"connected_time":2548000000000,"state":"active","ping":85},{"user_id":389,"name":"hunterzar","steam_id":76561198347666725,"connected_time":3854000000000,"state":"active","ping":86},{"user_id":405,"name":"frizzle fried","steam_id":76561198062991744,"connected_time":2098000000000,"state":"active","ping":77},{"user_id":418,"name":"HOG RIDER","steam_id":76561198298589502,"connected_time":956000000000,"state":"active","ping":81},{"user_id":382,"name":"Voodo133","steam_id":76561198042670351,"connected_time":4283000000000,"state":"active","ping":102},{"user_id":392,"name":"Bird","steam_id":76561198231624620,"connected_time":3129000000000,"state":"active","ping":73},{"user_id":426,"name":"Sych06","steam_id":76561198798979302,"connected_time":569000000000,"state":"active","ping":79},{"user_id":414,"name":"blåhaj enjoyer","steam_id":76561198132803810,"connected_time":1063000000000,"state":"active","ping":59},{"user_id":420,"name":"luiggi (that's me)","steam_id":76561199111418221,"connected_time":906000000000,"state":"active","ping":102},{"user_id":409,"name":"porz","steam_id":76561198195711453,"connected_time":1173000000000,"state":"active","ping":45},{"user_id":401,"name":"wilmer el versatil","steam_id":76561198155393832,"connected_time":2231000000000,"state":"active","ping":161},{"user_id":421,"name":"Prophet","steam_id":76561198134948582,"connected_time":853000000000,"state":"active","ping":111},{"user_id":399,"name":"LumaDooma","steam_id":76561198076875817,"connected_time":2513000000000,"state":"active","ping":45},{"user_id":353,"name":"errant","steam_id":76561197961758410,"connected_time":6442000000000,"state":"active","ping":43}]},{"server_id":108,"name":"Uncletopia | Dallas | 2 | All Maps","name_short":"dal-2","host":"dal-1.us.uncletopia.com","port":27025,"enabled":true,"region":"us-central","cc":"us","latitude":32.779167,"longitude":-96.80889,"reserved":0,"last_update":"0001-01-01T00:00:00Z","name_a2s":"Uncletopia | Dallas | 2 | All Maps","protocol":17,"map":"pl_badwater","folder":"tf","game":"Team Fortress","app_id":440,"player_count":24,"max_players":24,"Bots":0,"server_type":"Dedicated","server_os":"Linux","password":true,"vac":true,"version":"7882260","steam_id":85568392924469988,"keywords":["nocrits","nodmgspread","payload","uncletopia"],"game_id":440,"stv_port":27026,"stv_name":"Uncletopia | Dallas | 2 | All Maps | STV","players":[{"user_id":486,"name":"Zero","steam_id":76561199383267408,"connected_time":1098000000000,"state":"active","ping":52},{"user_id":403,"name":"CreepyCook","steam_id":76561198242874622,"connected_time":6452000000000,"state":"active","ping":60},{"user_id":452,"name":"Fake21","steam_id":76561198282065071,"connected_time":2535000000000,"state":"active","ping":40},{"user_id":494,"name":"Grimm","steam_id":76561199242664677,"connected_time":235000000000,"state":"active","ping":62},{"user_id":445,"name":"SpecialForce19","steam_id":76561198120974644,"connected_time":2701000000000,"state":"active","ping":93},{"user_id":489,"name":"Manic","steam_id":76561198128149670,"connected_time":747000000000,"state":"active","ping":45},{"user_id":457,"name":"Rear Admiral Crunch","steam_id":76561198020007558,"connected_time":1584000000000,"state":"active","ping":54},{"user_id":442,"name":"Insizhen","steam_id":76561198051352605,"connected_time":3068000000000,"state":"active","ping":56},{"user_id":484,"name":"Glover75","steam_id":76561198045960273,"connected_time":1122000000000,"state":"active","ping":89},{"user_id":425,"name":"I'm better then u","steam_id":76561198937717599,"connected_time":4624000000000,"state":"active","ping":40},{"user_id":407,"name":"6' 4\" 270 lbs ALL MUSCLE","steam_id":76561198021308963,"connected_time":6170000000000,"state":"active","ping":62},{"user_id":496,"name":"aiming with drawing tablet","steam_id":76561198397662124,"connected_time":53000000000,"state":"active","ping":64},{"user_id":491,"name":"chilis baby back ribs","steam_id":76561198813516435,"connected_time":707000000000,"state":"active","ping":74},{"user_id":453,"name":"boombox","steam_id":76561198237013798,"connected_time":2525000000000,"state":"active","ping":101},{"user_id":443,"name":"it's peanut time","steam_id":76561198236028020,"connected_time":3030000000000,"state":"active","ping":106},{"user_id":376,"name":"observe a mack","steam_id":76561198040675606,"connected_time":8992000000000,"state":"active","ping":46},{"user_id":447,"name":"Faraday","steam_id":76561198089928357,"connected_time":2693000000000,"state":"active","ping":53},{"user_id":485,"name":"white muslim dane cook","steam_id":76561198000979872,"connected_time":1121000000000,"state":"active","ping":89},{"user_id":466,"name":"Sorrow","steam_id":76561198050225563,"connected_time":1530000000000,"state":"active","ping":72},{"user_id":497,"name":"tony hawk","steam_id":76561198172050802,"connected_time":2000000000,"state":"spawning","ping":94},{"user_id":482,"name":"Blake Belladonna","steam_id":76561198010169911,"connected_time":1324000000000,"state":"active","ping":79},{"user_id":495,"name":"cornealvase9152","steam_id":76561198851958868,"connected_time":183000000000,"state":"active","ping":87},{"user_id":492,"name":"Bigfoot ate my ass","steam_id":76561198071605190,"connected_time":690000000000,"state":"active","ping":76},{"user_id":481,"name":"ihave80hp","steam_id":76561199251621911,"connected_time":1332000000000,"state":"active","ping":68}]},{"server_id":5,"name":"Uncletopia | Frankfurt | 1 | All Maps","name_short":"frk-1","host":"frk-1.de.uncletopia.com","port":27015,"enabled":true,"region":"eu","cc":"de","latitude":50.110924,"longitude":8.682127,"reserved":0,"last_update":"0001-01-01T00:00:00Z","name_a2s":"Uncletopia | Frankfurt | 1 | All Maps","protocol":17,"map":"cp_process_final","folder":"tf","game":"Team Fortress","app_id":440,"player_count":0,"max_players":24,"Bots":0,"server_type":"Dedicated","server_os":"Linux","password":true,"vac":true,"version":"7882260","steam_id":85568392924469989,"keywords":["cp","nocrits","nodmgspread","uncletopia"],"game_id":440,"stv_port":27016,"stv_name":"Uncletopia | Frankfurt | 1 | All Maps | STV","players":null},{"server_id":110,"name":"Uncletopia | Frankfurt | 2 | All Maps","name_short":"frk-2","host":"frk-1.de.uncletopia.com","port":27025,"enabled":true,"region":"eu","cc":"de","latitude":50.110924,"longitude":8.682127,"reserved":0,"last_update":"0001-01-01T00:00:00Z","name_a2s":"Uncletopia | Frankfurt | 2 | All Maps","protocol":17,"map":"pl_swiftwater_final1","folder":"tf","game":"Team Fortress","app_id":440,"player_count":0,"max_players":24,"Bots":0,"server_type":"Dedicated","server_os":"Linux","password":true,"vac":true,"version":"7882260","steam_id":85568392924469990,"keywords":["nocrits","nodmgspread","payload","uncletopia"],"game_id":440,"stv_port":27026,"stv_name":"Uncletopia | Frankfurt | 2 | All Maps | STV","players":null},{"server_id":308,"name":"Uncletopia | Frankfurt | 3 | All Maps","name_short":"frk-3","host":"frk-1.de.uncletopia.com","port":27035,"enabled":true,"region":"eu","cc":"de","latitude":50.110924,"longitude":8.682127,"reserved":0,"last_update":"0001-01-01T00:00:00Z","name_a2s":"Uncletopia | Frankfurt | 3 | All Maps","protocol":17,"map":"pl_snowycoast","folder":"tf","game":"Team Fortress","app_id":440,"player_count":0,"max_players":24,"Bots":0,"server_type":"Dedicated","server_os":"Linux","password":true,"vac":true,"version":"7882260","steam_id":85568392924504274,"keywords":["nocrits","nodmgspread","payload","uncletopia"],"game_id":440,"stv_port":27036,"stv_name":"Uncletopia | Frankfurt | 3 | All Maps | STV","players":null},{"server_id":309,"name":"Uncletopia | Frankfurt | 4 | All Maps","name_short":"frk-4","host":"frk-1.de.uncletopia.com","port":27045,"enabled":true,"region":"eu","cc":"de","latitude":50.110924,"longitude":8.682127,"reserved":0,"last_update":"0001-01-01T00:00:00Z","name_a2s":"Uncletopia | Frankfurt | 4 | All Maps","protocol":17,"map":"pl_badwater","folder":"tf","game":"Team Fortress","app_id":440,"player_count":4,"max_players":24,"Bots":0,"server_type":"Dedicated","server_os":"Linux","password":true,"vac":true,"version":"7882260","steam_id":85568392924504275,"keywords":["nocrits","nodmgspread","payload","uncletopia"],"game_id":440,"stv_port":27046,"stv_name":"Uncletopia | Frankfurt | 4 | All Maps | STV","players":[{"user_id":10,"name":"shits in urinals","steam_id":76561199480942903,"connected_time":976000000000,"state":"active","ping":60},{"user_id":4,"name":"wide appreciator","steam_id":76561198083286511,"connected_time":1046000000000,"state":"active","ping":55},{"user_id":12,"name":"BLACKBIRD CLOSE [she/her]","steam_id":76561198262910410,"connected_time":362000000000,"state":"active","ping":92},{"user_id":9,"name":"gebycoks","steam_id":76561199259198472,"connected_time":989000000000,"state":"active","ping":64}]},{"server_id":310,"name":"Uncletopia | Frankfurt | 5 | All Maps","name_short":"frk-5","host":"frk-1.de.uncletopia.com","port":27055,"enabled":true,"region":"eu","cc":"de","latitude":50.110924,"longitude":8.682127,"reserved":0,"last_update":"0001-01-01T00:00:00Z","name_a2s":"Uncletopia | Frankfurt | 5 | All Maps","protocol":17,"map":"cp_mountainlab","folder":"tf","game":"Team Fortress","app_id":440,"player_count":0,"max_players":24,"Bots":0,"server_type":"Dedicated","server_os":"Linux","password":true,"vac":true,"version":"7882260","steam_id":85568392924504277,"keywords":["cp","nocrits","nodmgspread","uncletopia"],"game_id":440,"stv_port":27056,"stv_name":"Uncletopia | Frankfurt | 5 | All Maps | STV","players":null},{"server_id":311,"name":"Uncletopia | Frankfurt | 6 | All Maps","name_short":"frk-6","host":"frk-1.de.uncletopia.com","port":27065,"enabled":true,"region":"eu","cc":"de","latitude":50.110924,"longitude":8.682127,"reserved":0,"last_update":"0001-01-01T00:00:00Z","name_a2s":"Uncletopia | Frankfurt | 6 | All Maps","protocol":17,"map":"pl_badwater","folder":"tf","game":"Team Fortress","app_id":440,"player_count":0,"max_players":24,"Bots":0,"server_type":"Dedicated","server_os":"Linux","password":true,"vac":true,"version":"7882260","steam_id":85568392924504278,"keywords":["nocrits","nodmgspread","payload","uncletopia"],"game_id":440,"stv_port":27066,"stv_name":"Uncletopia | Frankfurt | 6 | All Maps | STV","players":null},{"server_id":23,"name":"Uncletopia | Frankfurt | 7 | Stopwatch Beta","name_short":"frk-7","host":"frk-1.de.uncletopia.com","port":27075,"enabled":true,"region":"eu","cc":"de","latitude":50.110924,"longitude":8.682127,"reserved":0,"last_update":"0001-01-01T00:00:00Z","name_a2s":"Uncletopia | Frankfurt | 7 | Stopwatch Beta","protocol":17,"map":"cp_dustbowl","folder":"tf","game":"Team Fortress","app_id":440,"player_count":0,"max_players":24,"Bots":0,"server_type":"Dedicated","server_os":"Linux","password":true,"vac":true,"version":"7882260","steam_id":85568392924742827,"keywords":["cp","nocrits","nodmgspread","uncletopia"],"game_id":440,"stv_port":27076,"stv_name":"Uncletopia | Frankfurt | 7 | Stopwatch Beta | STV","players":null},{"server_id":24,"name":"Uncletopia | Frankfurt | 8 | Community","name_short":"frk-8","host":"frk-1.de.uncletopia.com","port":27085,"enabled":true,"region":"eu","cc":"de","latitude":50.110924,"longitude":8.682127,"reserved":0,"last_update":"0001-01-01T00:00:00Z","name_a2s":"Uncletopia | Frankfurt | 8 | Community","protocol":17,"map":"koth_cascade","folder":"tf","game":"Team Fortress","app_id":440,"player_count":0,"max_players":24,"Bots":0,"server_type":"Dedicated","server_os":"Linux","password":true,"vac":true,"version":"7882260","steam_id":85568392924742828,"keywords":["cp","nocrits","nodmgspread","uncletopia"],"game_id":440,"stv_port":27086,"stv_name":"Uncletopia | Frankfurt | 8 | Community | STV","players":null},{"server_id":202,"name":"Uncletopia | Hong Kong | 1 | All Maps","name_short":"hgk-1","host":"hgk-1.hk.uncletopia.com","port":27015,"enabled":true,"region":"asia","cc":"hk","latitude":22.302711,"longitude":114.177216,"reserved":0,"last_update":"0001-01-01T00:00:00Z","name_a2s":"Uncletopia | Hong Kong | 1 | All Maps","protocol":17,"map":"cp_mountainlab","folder":"tf","game":"Team Fortress","app_id":440,"player_count":4,"max_players":24,"Bots":0,"server_type":"Dedicated","server_os":"Linux","password":true,"vac":true,"version":"7882260","steam_id":85568392924494504,"keywords":["cp","nocrits","nodmgspread","uncletopia"],"game_id":440,"stv_port":27016,"stv_name":"Uncletopia | Hong Kong | 1 | All Maps | STV","players":[{"user_id":11,"name":"RP birdzz","steam_id":76561198318077734,"connected_time":2225000000000,"state":"active","ping":55},{"user_id":17,"name":"鼎立","steam_id":76561198051584469,"connected_time":110000000000,"state":"active","ping":85},{"user_id":14,"name":"gibus gaming (f2p)","steam_id":76561199044282228,"connected_time":1137000000000,"state":"active","ping":103},{"user_id":16,"name":"TheChainsaw","steam_id":76561198312001455,"connected_time":971000000000,"state":"active","ping":104}]},{"server_id":1,"name":"Uncletopia | Los Angeles | 1 | All Maps","name_short":"lax-1","host":"lax-1.us.uncletopia.com","port":27015,"enabled":true,"region":"us-west","cc":"us","latitude":33.94279,"longitude":-118.41004,"reserved":0,"last_update":"0001-01-01T00:00:00Z","name_a2s":"Uncletopia | Los Angeles | 1 | All Maps","protocol":17,"map":"cp_dustbowl","folder":"tf","game":"Team Fortress","app_id":440,"player_count":24,"max_players":24,"Bots":0,"server_type":"Dedicated","server_os":"Linux","password":true,"vac":true,"version":"7882260","steam_id":85568392924469991,"keywords":["cp","nocrits","nodmgspread","uncletopia"],"game_id":440,"stv_port":27016,"stv_name":"Uncletopia | Los Angeles | 1 | All Maps | STV","players":[{"user_id":366,"name":"Mateo The Social Engineer","steam_id":76561199199772083,"connected_time":109000000000,"state":"active","ping":66},{"user_id":289,"name":"cp_dustbowl","steam_id":76561198087574100,"connected_time":5807000000000,"state":"active","ping":57},{"user_id":296,"name":"usedhalfcart","steam_id":76561198072621852,"connected_time":5698000000000,"state":"active","ping":82},{"user_id":363,"name":"Throws Before Bros󠀡","steam_id":76561197992905530,"connected_time":396000000000,"state":"active","ping":68},{"user_id":317,"name":"Lonlily","steam_id":76561198130418647,"connected_time":4026000000000,"state":"active","ping":61},{"user_id":360,"name":"RagingBagon","steam_id":76561198255453127,"connected_time":794000000000,"state":"active","ping":35},{"user_id":346,"name":"Waffle_Hunter","steam_id":76561198220675860,"connected_time":1813000000000,"state":"active","ping":69},{"user_id":357,"name":"FI LO","steam_id":76561198976530881,"connected_time":1192000000000,"state":"active","ping":39},{"user_id":361,"name":"June","steam_id":76561198141803658,"connected_time":433000000000,"state":"active","ping":51},{"user_id":278,"name":"Miro","steam_id":76561198936412406,"connected_time":7054000000000,"state":"active","ping":129},{"user_id":348,"name":"Elfy","steam_id":76561199166448617,"connected_time":1793000000000,"state":"active","ping":87},{"user_id":353,"name":"I am NOT a Spy","steam_id":76561199153596010,"connected_time":1753000000000,"state":"active","ping":143},{"user_id":356,"name":"2 for $3.50 McChickens","steam_id":76561198089908660,"connected_time":1522000000000,"state":"active","ping":55},{"user_id":305,"name":"Landlord","steam_id":76561198987913057,"connected_time":5390000000000,"state":"active","ping":77},{"user_id":354,"name":"Balerion the Black Dread","steam_id":76561198003728369,"connected_time":1721000000000,"state":"active","ping":54},{"user_id":270,"name":"fire","steam_id":76561198044354279,"connected_time":7398000000000,"state":"active","ping":45},{"user_id":329,"name":"Antis","steam_id":76561198055790522,"connected_time":3324000000000,"state":"active","ping":50},{"user_id":351,"name":"Rinsworth","steam_id":76561198071110753,"connected_time":1753000000000,"state":"active","ping":53},{"user_id":367,"name":"-The_Under_Miner-","steam_id":76561199195735972,"connected_time":17000000000,"state":"spawning","ping":60},{"user_id":365,"name":"Excrement","steam_id":76561198167740127,"connected_time":376000000000,"state":"active","ping":67},{"user_id":323,"name":"Specter the Unchained","steam_id":76561198348354629,"connected_time":3704000000000,"state":"active","ping":47},{"user_id":293,"name":"Taco+Taco=Burrito","steam_id":76561198063128663,"connected_time":5780000000000,"state":"active","ping":46},{"user_id":328,"name":"Mythical Lag","steam_id":76561198347031281,"connected_time":3554000000000,"state":"active","ping":79},{"user_id":300,"name":"momus","steam_id":76561198966979196,"connected_time":5484000000000,"state":"active","ping":53}]},{"server_id":112,"name":"Uncletopia | Los Angeles | 2 | All Maps","name_short":"lax-2","host":"lax-1.us.uncletopia.com","port":27025,"enabled":true,"region":"us-west","cc":"us","latitude":33.94279,"longitude":-118.41004,"reserved":0,"last_update":"0001-01-01T00:00:00Z","name_a2s":"Uncletopia | Los Angeles | 2 | All Maps","protocol":17,"map":"cp_dustbowl","folder":"tf","game":"Team Fortress","app_id":440,"player_count":24,"max_players":24,"Bots":0,"server_type":"Dedicated","server_os":"Linux","password":true,"vac":true,"version":"7882260","steam_id":85568392924469992,"keywords":["cp","nocrits","nodmgspread","uncletopia"],"game_id":440,"stv_port":27026,"stv_name":"Uncletopia | Los Angeles | 2 | All Maps | STV","players":[{"user_id":256,"name":"Rustyorion","steam_id":76561198439186347,"connected_time":1455000000000,"state":"active","ping":75},{"user_id":263,"name":"culture shock","steam_id":76561198212421513,"connected_time":988000000000,"state":"active","ping":46},{"user_id":242,"name":"Separable Differential Equation","steam_id":76561198051699904,"connected_time":2315000000000,"state":"active","ping":53},{"user_id":235,"name":"rorywashere /ᐠ - ˕ -マ Ⳋ","steam_id":76561198065825165,"connected_time":3155000000000,"state":"active","ping":113},{"user_id":262,"name":"Cream Pioneer","steam_id":76561198309491596,"connected_time":1099000000000,"state":"active","ping":63},{"user_id":181,"name":"minish","steam_id":76561198086618284,"connected_time":7860000000000,"state":"active","ping":63},{"user_id":251,"name":"jorts","steam_id":76561199041179985,"connected_time":2119000000000,"state":"active","ping":87},{"user_id":240,"name":"oil","steam_id":76561198099980149,"connected_time":2344000000000,"state":"active","ping":62},{"user_id":244,"name":"big fish","steam_id":76561198186479818,"connected_time":2303000000000,"state":"active","ping":57},{"user_id":214,"name":"Chocc","steam_id":76561198068070211,"connected_time":5638000000000,"state":"active","ping":54},{"user_id":266,"name":"Trash Rummager","steam_id":76561198085388962,"connected_time":246000000000,"state":"active","ping":98},{"user_id":200,"name":"void.","steam_id":76561198347856802,"connected_time":6441000000000,"state":"active","ping":96},{"user_id":245,"name":"Branz","steam_id":76561198076632143,"connected_time":2291000000000,"state":"active","ping":81},{"user_id":224,"name":"CheeseLikeSubstance","steam_id":76561197977170646,"connected_time":4468000000000,"state":"active","ping":102},{"user_id":229,"name":"smeasly","steam_id":76561198028718812,"connected_time":3445000000000,"state":"active","ping":73},{"user_id":252,"name":"Ducks","steam_id":76561198130038345,"connected_time":2001000000000,"state":"active","ping":92},{"user_id":201,"name":"Apprentice Pybro","steam_id":76561197996353534,"connected_time":6431000000000,"state":"active","ping":50},{"user_id":177,"name":"Sol","steam_id":76561198121500201,"connected_time":8021000000000,"state":"active","ping":45},{"user_id":264,"name":"basmati jarate","steam_id":76561198319442494,"connected_time":682000000000,"state":"active","ping":52},{"user_id":246,"name":"Dr. Bubs","steam_id":76561198011696595,"connected_time":2280000000000,"state":"active","ping":63},{"user_id":248,"name":"Sinn","steam_id":76561199013434543,"connected_time":2198000000000,"state":"active","ping":71},{"user_id":265,"name":"drrockso20[MicS]","steam_id":76561198001003987,"connected_time":331000000000,"state":"active","ping":58},{"user_id":249,"name":"t","steam_id":76561198175988929,"connected_time":2174000000000,"state":"active","ping":86},{"user_id":253,"name":"tweakseason","steam_id":76561198169755734,"connected_time":1920000000000,"state":"active","ping":62}]},{"server_id":324,"name":"Uncletopia | Los Angeles | 3 | All Maps","name_short":"lax-3","host":"lax-1.us.uncletopia.com","port":27035,"enabled":true,"region":"us-west","cc":"us","latitude":33.94279,"longitude":-118.41004,"reserved":0,"last_update":"0001-01-01T00:00:00Z","name_a2s":"Uncletopia | Los Angeles | 3 | All Maps","protocol":17,"map":"cp_dustbowl","folder":"tf","game":"Team Fortress","app_id":440,"player_count":24,"max_players":24,"Bots":0,"server_type":"Dedicated","server_os":"Linux","password":true,"vac":true,"version":"7882260","steam_id":85568392924510198,"keywords":["cp","nocrits","nodmgspread","uncletopia"],"game_id":440,"stv_port":27036,"stv_name":"Uncletopia | Los Angeles | 3 | All Maps | STV","players":[{"user_id":298,"name":"A UsedNom","steam_id":76561198402832756,"connected_time":2893000000000,"state":"active","ping":45},{"user_id":333,"name":"Axiro","steam_id":76561198080180375,"connected_time":796000000000,"state":"active","ping":62},{"user_id":331,"name":"An00bis","steam_id":76561198044084508,"connected_time":851000000000,"state":"active","ping":54},{"user_id":327,"name":"gnome zone","steam_id":76561198883349445,"connected_time":1077000000000,"state":"active","ping":68},{"user_id":296,"name":"Nez","steam_id":76561197963109059,"connected_time":2940000000000,"state":"active","ping":65},{"user_id":321,"name":"Maid 'n' China","steam_id":76561198423392976,"connected_time":1283000000000,"state":"active","ping":60},{"user_id":312,"name":"Meet The Kazoo","steam_id":76561199229748300,"connected_time":2423000000000,"state":"active","ping":53},{"user_id":275,"name":"Delimeat","steam_id":76561198043824595,"connected_time":4201000000000,"state":"active","ping":45},{"user_id":332,"name":"The Chronicles of Shittic","steam_id":76561198054353610,"connected_time":838000000000,"state":"active","ping":68},{"user_id":277,"name":"Frazzer","steam_id":76561198088679707,"connected_time":4178000000000,"state":"active","ping":44},{"user_id":336,"name":"Zykron","steam_id":76561199056400800,"connected_time":341000000000,"state":"active","ping":55},{"user_id":280,"name":"batasy","steam_id":76561198044767185,"connected_time":4086000000000,"state":"active","ping":90},{"user_id":320,"name":"Racist Pyro","steam_id":76561198016168993,"connected_time":1288000000000,"state":"active","ping":80},{"user_id":329,"name":"SleeplessCollin","steam_id":76561198968140914,"connected_time":901000000000,"state":"active","ping":50},{"user_id":306,"name":"Xfinity is scum","steam_id":76561198005840633,"connected_time":2459000000000,"state":"active","ping":75},{"user_id":248,"name":"Diesel","steam_id":76561198448815852,"connected_time":6286000000000,"state":"active","ping":59},{"user_id":324,"name":"Ian","steam_id":76561198159334435,"connected_time":1166000000000,"state":"active","ping":171},{"user_id":283,"name":"JVKYSL","steam_id":76561199482157711,"connected_time":4034000000000,"state":"active","ping":70},{"user_id":322,"name":"MonkeyNobody","steam_id":76561199451266605,"connected_time":1281000000000,"state":"active","ping":56},{"user_id":335,"name":"Homura Simp","steam_id":76561198246080762,"connected_time":456000000000,"state":"active","ping":57},{"user_id":318,"name":"BajaBlast76","steam_id":76561198144272437,"connected_time":1911000000000,"state":"active","ping":65},{"user_id":284,"name":"nothing burger eater","steam_id":76561198046201690,"connected_time":3999000000000,"state":"active","ping":180},{"user_id":311,"name":"sora","steam_id":76561198094256973,"connected_time":2441000000000,"state":"active","ping":56},{"user_id":334,"name":"cranfordtheodore45","steam_id":76561199161577403,"connected_time":757000000000,"state":"active","ping":86}]},{"server_id":25,"name":"Uncletopia | Los Angeles | 4 | Stopwatch Beta","name_short":"lax-4","host":"lax-1.us.uncletopia.com","port":27045,"enabled":true,"region":"us-west","cc":"us","latitude":33.94279,"longitude":-118.41004,"reserved":0,"last_update":"0001-01-01T00:00:00Z","name_a2s":"Uncletopia | Los Angeles | 4 | Stopwatch Beta","protocol":17,"map":"workshop/koth_ashville_final.ugc2130459942","folder":"tf","game":"Team Fortress","app_id":440,"player_count":3,"max_players":24,"Bots":0,"server_type":"Dedicated","server_os":"Linux","password":true,"vac":true,"version":"7882260","steam_id":85568392924510199,"keywords":["cp","nocrits","nodmgspread","uncletopia"],"game_id":440,"stv_port":27046,"stv_name":"Uncletopia | Los Angeles | 4 | Stopwatch Beta | STV","players":[{"user_id":15,"name":"rekhyt","steam_id":76561198014072385,"connected_time":97000000000,"state":"active","ping":78},{"user_id":16,"name":"soy_1975","steam_id":76561199468599748,"connected_time":89000000000,"state":"active","ping":73},{"user_id":17,"name":"dad?","steam_id":76561198040484506,"connected_time":84000000000,"state":"active","ping":57}]},{"server_id":11,"name":"Uncletopia | London | 1 | All Maps","name_short":"lon-1","host":"lon-1.uk.uncletopia.com","port":27015,"enabled":true,"region":"eu","cc":"gb","latitude":51.509865,"longitude":-0.118092,"reserved":0,"last_update":"0001-01-01T00:00:00Z","name_a2s":"Uncletopia | London | 1 | All Maps","protocol":17,"map":"pl_barnblitz","folder":"tf","game":"Team Fortress","app_id":440,"player_count":0,"max_players":24,"Bots":0,"server_type":"Dedicated","server_os":"Linux","password":true,"vac":true,"version":"7882260","steam_id":85568392924367362,"keywords":["nocrits","nodmgspread","payload","uncletopia"],"game_id":440,"stv_port":27016,"stv_name":"Uncletopia | London | 1 | All Maps | STV","players":null},{"server_id":114,"name":"Uncletopia | London | 2 | All Maps","name_short":"lon-2","host":"lon-1.uk.uncletopia.com","port":27025,"enabled":true,"region":"eu","cc":"gb","latitude":51.509865,"longitude":-0.118092,"reserved":0,"last_update":"0001-01-01T00:00:00Z","name_a2s":"Uncletopia | London | 2 | All Maps","protocol":17,"map":"koth_viaduct","folder":"tf","game":"Team Fortress","app_id":440,"player_count":0,"max_players":24,"Bots":0,"server_type":"Dedicated","server_os":"Linux","password":true,"vac":true,"version":"7882260","steam_id":85568392924470941,"keywords":["cp","nocrits","nodmgspread","uncletopia"],"game_id":440,"stv_port":27026,"stv_name":"Uncletopia | London | 2 | All Maps | STV","players":null},{"server_id":320,"name":"Uncletopia | London | 3 | All Maps","name_short":"lon-3","host":"lon-1.uk.uncletopia.com","port":27035,"enabled":true,"region":"eu","cc":"gb","latitude":51.509865,"longitude":-0.118092,"reserved":0,"last_update":"0001-01-01T00:00:00Z","name_a2s":"Uncletopia | London | 3 | All Maps","protocol":17,"map":"koth_cascade","folder":"tf","game":"Team Fortress","app_id":440,"player_count":0,"max_players":24,"Bots":0,"server_type":"Dedicated","server_os":"Linux","password":true,"vac":true,"version":"7882260","steam_id":85568392924510192,"keywords":["cp","nocrits","nodmgspread","uncletopia"],"game_id":440,"stv_port":27036,"stv_name":"Uncletopia | London | 3 | All Maps | STV","players":null},{"server_id":321,"name":"Uncletopia | London | 4 | All Maps","name_short":"lon-4","host":"lon-1.uk.uncletopia.com","port":27045,"enabled":true,"region":"eu","cc":"gb","latitude":51.509865,"longitude":-0.118092,"reserved":0,"last_update":"0001-01-01T00:00:00Z","name_a2s":"Uncletopia | London | 4 | All Maps","protocol":17,"map":"cp_mountainlab","folder":"tf","game":"Team Fortress","app_id":440,"player_count":0,"max_players":24,"Bots":0,"server_type":"Dedicated","server_os":"Linux","password":true,"vac":true,"version":"7882260","steam_id":85568392924510193,"keywords":["cp","nocrits","nodmgspread","uncletopia"],"game_id":440,"stv_port":27046,"stv_name":"Uncletopia | London | 4 | All Maps | STV","players":null},{"server_id":21,"name":"Uncletopia | London | 5 | All Maps","name_short":"lon-5","host":"lon-1.uk.uncletopia.com","port":27055,"enabled":true,"region":"eu","cc":"gb","latitude":51.509865,"longitude":-0.118092,"reserved":0,"last_update":"0001-01-01T00:00:00Z","name_a2s":"Uncletopia | London | 5 | All Maps","protocol":17,"map":"koth_lakeside_final","folder":"tf","game":"Team Fortress","app_id":440,"player_count":0,"max_players":24,"Bots":0,"server_type":"Dedicated","server_os":"Linux","password":true,"vac":true,"version":"7882260","steam_id":85568392924742829,"keywords":["cp","nocrits","nodmgspread","uncletopia"],"game_id":440,"stv_port":27056,"stv_name":"Uncletopia | London | 5 | All Maps | STV","players":null},{"server_id":22,"name":"Uncletopia | London | 6 | All Maps","name_short":"lon-6","host":"lon-1.uk.uncletopia.com","port":27065,"enabled":true,"region":"eu","cc":"gb","latitude":51.509865,"longitude":-0.118092,"reserved":0,"last_update":"0001-01-01T00:00:00Z","name_a2s":"Uncletopia | London | 6 | All Maps","protocol":17,"map":"koth_highpass","folder":"tf","game":"Team Fortress","app_id":440,"player_count":0,"max_players":24,"Bots":0,"server_type":"Dedicated","server_os":"Linux","password":true,"vac":true,"version":"7882260","steam_id":85568392924742830,"keywords":["cp","nocrits","nodmgspread","uncletopia"],"game_id":440,"stv_port":27066,"stv_name":"Uncletopia | London | 6 | All Maps | STV","players":null},{"server_id":40,"name":"Uncletopia | London | 7 | No Payload","name_short":"lon-7","host":"lon-1.uk.uncletopia.com","port":27075,"enabled":true,"region":"eu","cc":"gb","latitude":51.509865,"longitude":-0.118092,"reserved":0,"last_update":"0001-01-01T00:00:00Z","name_a2s":"Uncletopia | London | 7 | No Payload","protocol":17,"map":"ctf_doublecross","folder":"tf","game":"Team Fortress","app_id":440,"player_count":0,"max_players":24,"Bots":0,"server_type":"Dedicated","server_os":"Linux","password":true,"vac":true,"version":"7882260","steam_id":85568392924964314,"keywords":["ctf","nocrits","nodmgspread","uncletopia"],"game_id":440,"stv_port":27076,"stv_name":"Uncletopia | London | 7 | No Payload | STV","players":null},{"server_id":41,"name":"Uncletopia | London | 8 | Community","name_short":"lon-8","host":"lon-1.uk.uncletopia.com","port":27085,"enabled":true,"region":"eu","cc":"gb","latitude":51.509865,"longitude":-0.118092,"reserved":0,"last_update":"0001-01-01T00:00:00Z","name_a2s":"Uncletopia | London | 8 | Community","protocol":17,"map":"workshop/koth_ashville_final.ugc2130459942","folder":"tf","game":"Team Fortress","app_id":440,"player_count":0,"max_players":24,"Bots":0,"server_type":"Dedicated","server_os":"Linux","password":true,"vac":true,"version":"7882260","steam_id":85568392924964315,"keywords":["cp","nocrits","nodmgspread","uncletopia"],"game_id":440,"stv_port":27086,"stv_name":"Uncletopia | London | 8 | Community | STV","players":null},{"server_id":300,"name":"Uncletopia | Montréal | 1 | All Maps","name_short":"mtl-1","host":"mtl-1.ca.uncletopia.com","port":27015,"enabled":true,"region":"us-east","cc":"ca","latitude":45.50889,"longitude":-73.56167,"reserved":0,"last_update":"0001-01-01T00:00:00Z","name_a2s":"Uncletopia | Montréal | 1 | All Maps","protocol":17,"map":"cp_snakewater_final1","folder":"tf","game":"Team Fortress","app_id":440,"player_count":0,"max_players":24,"Bots":0,"server_type":"Dedicated","server_os":"Linux","password":true,"vac":true,"version":"7882260","steam_id":85568392924500087,"keywords":["cp","nocrits","nodmgspread","uncletopia"],"game_id":440,"stv_port":27016,"stv_name":"Uncletopia | Montréal | 1 | All Maps | STV","players":null},{"server_id":301,"name":"Uncletopia | Montréal | 2 | All Maps","name_short":"mtl-2","host":"mtl-1.ca.uncletopia.com","port":27025,"enabled":true,"region":"us-east","cc":"ca","latitude":45.50889,"longitude":-73.56167,"reserved":0,"last_update":"0001-01-01T00:00:00Z","name_a2s":"Uncletopia | Montréal | 2 | All Maps","protocol":17,"map":"koth_highpass","folder":"tf","game":"Team Fortress","app_id":440,"player_count":0,"max_players":24,"Bots":0,"server_type":"Dedicated","server_os":"Linux","password":true,"vac":true,"version":"7882260","steam_id":85568392924500088,"keywords":["cp","nocrits","nodmgspread","uncletopia"],"game_id":440,"stv_port":27026,"stv_name":"Uncletopia | Montréal | 2 | All Maps | STV","players":null},{"server_id":302,"name":"Uncletopia | Montréal | 3 | All Maps","name_short":"mtl-3","host":"mtl-1.ca.uncletopia.com","port":27035,"enabled":true,"region":"us-east","cc":"ca","latitude":45.50889,"longitude":-73.56167,"reserved":0,"last_update":"0001-01-01T00:00:00Z","name_a2s":"Uncletopia | Montréal | 3 | All Maps","protocol":17,"map":"cp_snakewater_final1","folder":"tf","game":"Team Fortress","app_id":440,"player_count":0,"max_players":24,"Bots":0,"server_type":"Dedicated","server_os":"Linux","password":true,"vac":true,"version":"7882260","steam_id":85568392924500089,"keywords":["cp","nocrits","nodmgspread","uncletopia"],"game_id":440,"stv_port":27036,"stv_name":"Uncletopia | Montréal | 3 | All Maps | STV","players":null},{"server_id":303,"name":"Uncletopia | Montréal | 4 | No Payload","name_short":"mtl-4","host":"mtl-1.ca.uncletopia.com","port":27045,"enabled":true,"region":"us-east","cc":"ca","latitude":45.50889,"longitude":-73.56167,"reserved":0,"last_update":"0001-01-01T00:00:00Z","name_a2s":"Uncletopia | Montréal | 4 | No Payload","protocol":17,"map":"plr_pipeline","folder":"tf","game":"Team Fortress","app_id":440,"player_count":0,"max_players":24,"Bots":0,"server_type":"Dedicated","server_os":"Linux","password":true,"vac":true,"version":"7882260","steam_id":85568392924500090,"keywords":["nocrits","nodmgspread","payload","uncletopia"],"game_id":440,"stv_port":27046,"stv_name":"Uncletopia | Montréal | 4 | No Payload | STV","players":null},{"server_id":13,"name":"Uncletopia | New York City | 1 | All Maps","name_short":"nyc-1","host":"nyc-1.us.uncletopia.com","port":27015,"enabled":true,"region":"us-east","cc":"us","latitude":40.73061,"longitude":-73.93524,"reserved":0,"last_update":"0001-01-01T00:00:00Z","name_a2s":"Uncletopia | New York City | 1 | All Maps","protocol":17,"map":"koth_harvest_final","folder":"tf","game":"Team Fortress","app_id":440,"player_count":24,"max_players":24,"Bots":0,"server_type":"Dedicated","server_os":"Linux","password":true,"vac":true,"version":"7882260","steam_id":85568392924469993,"keywords":["cp","nocrits","nodmgspread","uncletopia"],"game_id":440,"stv_port":27016,"stv_name":"Uncletopia | New York City | 1 | All Maps | STV","players":[{"user_id":626,"name":"e77","steam_id":76561198069309111,"connected_time":850000000000,"state":"active","ping":62},{"user_id":623,"name":"Chip Lee","steam_id":76561198084330836,"connected_time":943000000000,"state":"active","ping":55},{"user_id":632,"name":"TJGSASQUATCH","steam_id":76561198077806921,"connected_time":379000000000,"state":"active","ping":66},{"user_id":594,"name":"cereal with water","steam_id":76561198091332884,"connected_time":2385000000000,"state":"active","ping":52},{"user_id":630,"name":"Carl Wheezer","steam_id":76561198272109430,"connected_time":461000000000,"state":"active","ping":98},{"user_id":556,"name":"Trash Fire","steam_id":76561198870515262,"connected_time":5845000000000,"state":"active","ping":72},{"user_id":595,"name":"ramen with milk","steam_id":76561198119096403,"connected_time":2376000000000,"state":"active","ping":52},{"user_id":628,"name":"fapasaurusrex","steam_id":76561197994951255,"connected_time":796000000000,"state":"active","ping":58},{"user_id":636,"name":"Zhenaj","steam_id":76561199209016136,"connected_time":80000000000,"state":"active","ping":62},{"user_id":591,"name":"Amaretto Sour","steam_id":76561198063112844,"connected_time":2898000000000,"state":"active","ping":56},{"user_id":616,"name":"MAXIMUS","steam_id":76561198085809453,"connected_time":1653000000000,"state":"active","ping":90},{"user_id":597,"name":"cornshot","steam_id":76561198043496387,"connected_time":2354000000000,"state":"active","ping":98},{"user_id":610,"name":"Ludcmorais","steam_id":76561198359217809,"connected_time":1998000000000,"state":"active","ping":175},{"user_id":629,"name":"Kerflumple","steam_id":76561198050602757,"connected_time":785000000000,"state":"active","ping":57},{"user_id":593,"name":"Jesse Bear","steam_id":76561198217075305,"connected_time":2729000000000,"state":"active","ping":69},{"user_id":637,"name":"gung6n","steam_id":76561198099843841,"connected_time":80000000000,"state":"active","ping":107},{"user_id":570,"name":"JD","steam_id":76561198202669250,"connected_time":5170000000000,"state":"active","ping":72},{"user_id":627,"name":"Master Oogway","steam_id":76561198252199106,"connected_time":835000000000,"state":"active","ping":73},{"user_id":634,"name":"moe","steam_id":76561198929586245,"connected_time":299000000000,"state":"active","ping":109},{"user_id":635,"name":"greeno","steam_id":76561198109901138,"connected_time":125000000000,"state":"active","ping":54},{"user_id":620,"name":"monkey","steam_id":76561198099481645,"connected_time":1514000000000,"state":"active","ping":45},{"user_id":633,"name":"Kangroe","steam_id":76561198346844814,"connected_time":336000000000,"state":"active","ping":84},{"user_id":631,"name":"big kahuna dynamite splash","steam_id":76561198094486651,"connected_time":457000000000,"state":"active","ping":73},{"user_id":624,"name":"Sir Quacksalot","steam_id":76561198048942777,"connected_time":943000000000,"state":"active","ping":101}]},{"server_id":14,"name":"Uncletopia | New York City | 2 | All Maps","name_short":"nyc-2","host":"nyc-1.us.uncletopia.com","port":27025,"enabled":true,"region":"us-east","cc":"us","latitude":40.73061,"longitude":-73.93524,"reserved":0,"last_update":"0001-01-01T00:00:00Z","name_a2s":"Uncletopia | New York City | 2 | All Maps","protocol":17,"map":"pl_badwater","folder":"tf","game":"Team Fortress","app_id":440,"player_count":24,"max_players":24,"Bots":0,"server_type":"Dedicated","server_os":"Linux","password":true,"vac":true,"version":"7882260","steam_id":85568392924469994,"keywords":["nocrits","nodmgspread","payload","uncletopia"],"game_id":440,"stv_port":27026,"stv_name":"Uncletopia | New York City | 2 | All Maps | STV","players":[{"user_id":503,"name":"Daisy Le Nerd","steam_id":76561198149350087,"connected_time":4310000000000,"state":"active","ping":166},{"user_id":520,"name":"Falk","steam_id":76561198117024236,"connected_time":1307000000000,"state":"active","ping":68},{"user_id":523,"name":"MjrMovnTARGET","steam_id":76561199125908849,"connected_time":1110000000000,"state":"active","ping":58},{"user_id":527,"name":"Tidwell","steam_id":76561198037414410,"connected_time":768000000000,"state":"active","ping":59},{"user_id":514,"name":"Uzi bin Laden","steam_id":76561198218811453,"connected_time":2993000000000,"state":"active","ping":56},{"user_id":464,"name":"Flowers","steam_id":76561198031669899,"connected_time":7422000000000,"state":"active","ping":73},{"user_id":511,"name":"gmaay","steam_id":76561199104911185,"connected_time":3064000000000,"state":"active","ping":55},{"user_id":456,"name":"NastyStarchy","steam_id":76561198291849732,"connected_time":7759000000000,"state":"active","ping":59},{"user_id":507,"name":"SciptaElegans","steam_id":76561199082484809,"connected_time":4240000000000,"state":"active","ping":75},{"user_id":488,"name":"bepo","steam_id":76561199029030831,"connected_time":6044000000000,"state":"active","ping":56},{"user_id":515,"name":"Jameszzezz","steam_id":76561198317677617,"connected_time":2991000000000,"state":"active","ping":82},{"user_id":449,"name":"Amauri","steam_id":76561198130809137,"connected_time":8027000000000,"state":"active","ping":77},{"user_id":530,"name":"Talonted Avian ✏","steam_id":76561198039419176,"connected_time":622000000000,"state":"active","ping":120},{"user_id":528,"name":"Raine","steam_id":76561198098860903,"connected_time":747000000000,"state":"active","ping":146},{"user_id":493,"name":"MyBussyHurts","steam_id":76561198089208050,"connected_time":5604000000000,"state":"active","ping":99},{"user_id":471,"name":"AJTarcza","steam_id":76561198070800190,"connected_time":7130000000000,"state":"active","ping":70},{"user_id":478,"name":"MoonlightDragon","steam_id":76561198124808865,"connected_time":6447000000000,"state":"active","ping":74},{"user_id":457,"name":"girthmilk","steam_id":76561198054799782,"connected_time":7714000000000,"state":"active","ping":84},{"user_id":502,"name":"J.D.","steam_id":76561198265582585,"connected_time":4432000000000,"state":"active","ping":142},{"user_id":518,"name":"*","steam_id":76561198173047169,"connected_time":1950000000000,"state":"active","ping":45},{"user_id":484,"name":"Virtual Zorua","steam_id":76561198196180302,"connected_time":6227000000000,"state":"active","ping":63},{"user_id":497,"name":"Super Ghostbusters (Full Album)","steam_id":76561198057415490,"connected_time":5385000000000,"state":"active","ping":79},{"user_id":526,"name":"BasicPeaches","steam_id":76561198190890150,"connected_time":771000000000,"state":"active","ping":68},{"user_id":513,"name":"｡◕‿◕｡","steam_id":76561198294013916,"connected_time":3024000000000,"state":"active","ping":49}]},{"server_id":15,"name":"Uncletopia | New York City | 3 | Stopwatch Beta","name_short":"nyc-3","host":"nyc-1.us.uncletopia.com","port":27035,"enabled":true,"region":"us-east","cc":"us","latitude":40.73061,"longitude":-73.93524,"reserved":0,"last_update":"0001-01-01T00:00:00Z","name_a2s":"Uncletopia | New York City | 3 | Stopwatch Beta","protocol":17,"map":"workshop/koth_product_final.ugc454272353","folder":"tf","game":"Team Fortress","app_id":440,"player_count":0,"max_players":24,"Bots":0,"server_type":"Dedicated","server_os":"Linux","password":true,"vac":true,"version":"7882260","steam_id":85568392924742820,"keywords":["cp","nocrits","nodmgspread","uncletopia"],"game_id":440,"stv_port":27036,"stv_name":"Uncletopia | New York City | 3 | Stopwatch Beta | STV","players":null},{"server_id":16,"name":"Uncletopia | New York City | 4 | Community","name_short":"nyc-4","host":"nyc-1.us.uncletopia.com","port":27045,"enabled":true,"region":"us-east","cc":"us","latitude":40.73061,"longitude":-73.93524,"reserved":0,"last_update":"0001-01-01T00:00:00Z","name_a2s":"Uncletopia | New York City | 4 | Community","protocol":17,"map":"workshop/cp_snowbase_b18.ugc2081770490","folder":"tf","game":"Team Fortress","app_id":440,"player_count":0,"max_players":24,"Bots":0,"server_type":"Dedicated","server_os":"Linux","password":true,"vac":true,"version":"7882260","steam_id":85568392924742821,"keywords":["cp","nocrits","nodmgspread","uncletopia"],"game_id":440,"stv_port":27046,"stv_name":"Uncletopia | New York City | 4 | Community | STV","players":null},{"server_id":142,"name":"Uncletopia | São Paulo | 1 | All Maps","name_short":"sao-1","host":"sao-1.br.uncletopia.com","port":27015,"enabled":true,"region":"sa","cc":"br","latitude":-23.533773,"longitude":-46.62529,"reserved":0,"last_update":"0001-01-01T00:00:00Z","name_a2s":"Uncletopia | São Paulo | 1 | All Maps","protocol":17,"map":"koth_highpass","folder":"tf","game":"Team Fortress","app_id":440,"player_count":0,"max_players":24,"Bots":0,"server_type":"Dedicated","server_os":"Linux","password":true,"vac":true,"version":"7882260","steam_id":85568392924469996,"keywords":["cp","nocrits","nodmgspread","uncletopia"],"game_id":440,"stv_port":27016,"stv_name":"Uncletopia | São Paulo | 1 | All Maps | STV","players":null},{"server_id":143,"name":"Uncletopia | São Paulo | 2 | All Maps","name_short":"sao-2","host":"sao-2.br.uncletopia.com","port":27015,"enabled":true,"region":"sa","cc":"br","latitude":-23.533773,"longitude":-46.62529,"reserved":0,"last_update":"0001-01-01T00:00:00Z","name_a2s":"Uncletopia | São Paulo | 2 | All Maps","protocol":17,"map":"koth_cascade","folder":"tf","game":"Team Fortress","app_id":440,"player_count":0,"max_players":24,"Bots":0,"server_type":"Dedicated","server_os":"Linux","password":true,"vac":true,"version":"7882260","steam_id":85568392924485349,"keywords":["cp","nocrits","nodmgspread","uncletopia"],"game_id":440,"stv_port":27016,"stv_name":"Uncletopia | São Paulo | 2 | All Maps | STV","players":null},{"server_id":7,"name":"Uncletopia | Seattle | 1 | All Maps","name_short":"sea-1","host":"sea-1.us.uncletopia.com","port":27015,"enabled":true,"region":"us-west","cc":"us","latitude":47.608013,"longitude":-122.33517,"reserved":0,"last_update":"0001-01-01T00:00:00Z","name_a2s":"Uncletopia | Seattle | 1 | All Maps","protocol":17,"map":"pl_barnblitz","folder":"tf","game":"Team Fortress","app_id":440,"player_count":24,"max_players":24,"Bots":0,"server_type":"Dedicated","server_os":"Linux","password":true,"vac":true,"version":"7882260","steam_id":85568392924469997,"keywords":["nocrits","nodmgspread","payload","uncletopia"],"game_id":440,"stv_port":27016,"stv_name":"Uncletopia | Seattle | 1 | All Maps | STV","players":[{"user_id":646,"name":"PachucoWaffle","steam_id":76561198051491032,"connected_time":7087000000000,"state":"active","ping":56},{"user_id":677,"name":"forest (girldick)","steam_id":76561198157960257,"connected_time":4058000000000,"state":"active","ping":44},{"user_id":657,"name":"Jacobzeba01","steam_id":76561198131808718,"connected_time":5851000000000,"state":"active","ping":64},{"user_id":654,"name":"Fh","steam_id":76561198000903511,"connected_time":6085000000000,"state":"active","ping":74},{"user_id":669,"name":"Pre Pissed Pants","steam_id":76561198042143837,"connected_time":4602000000000,"state":"active","ping":71},{"user_id":692,"name":"evilOlive","steam_id":76561198106222025,"connected_time":2538000000000,"state":"active","ping":82},{"user_id":690,"name":"Pyro","steam_id":76561198067663978,"connected_time":2708000000000,"state":"active","ping":77},{"user_id":701,"name":"profile name","steam_id":76561198032625036,"connected_time":1399000000000,"state":"active","ping":60},{"user_id":660,"name":"SibilantSerpent","steam_id":76561198154488754,"connected_time":5779000000000,"state":"active","ping":59},{"user_id":711,"name":"wintersEmbrace","steam_id":76561198205428892,"connected_time":574000000000,"state":"active","ping":68},{"user_id":704,"name":"Ena","steam_id":76561198066986108,"connected_time":1046000000000,"state":"active","ping":57},{"user_id":688,"name":"nory","steam_id":76561198031819070,"connected_time":3085000000000,"state":"active","ping":68},{"user_id":662,"name":"kree","steam_id":76561197979960008,"connected_time":5574000000000,"state":"active","ping":105},{"user_id":712,"name":"soup","steam_id":76561198043209046,"connected_time":513000000000,"state":"active","ping":85},{"user_id":563,"name":"♥haunti","steam_id":76561199235580556,"connected_time":13552000000000,"state":"active","ping":46},{"user_id":650,"name":"BolognaWithOlives","steam_id":76561198101262668,"connected_time":6373000000000,"state":"active","ping":90},{"user_id":616,"name":"Fallen","steam_id":76561198206490352,"connected_time":9479000000000,"state":"active","ping":80},{"user_id":707,"name":"gorlab","steam_id":76561198025089694,"connected_time":865000000000,"state":"active","ping":61},{"user_id":615,"name":"o o o o o o o o o","steam_id":76561197993757506,"connected_time":9485000000000,"state":"active","ping":69},{"user_id":706,"name":"Son Goku","steam_id":76561198271939793,"connected_time":869000000000,"state":"active","ping":48},{"user_id":713,"name":"mac_cheese","steam_id":76561198071334162,"connected_time":489000000000,"state":"active","ping":46},{"user_id":714,"name":"Vincent Van Bro","steam_id":76561197966919802,"connected_time":478000000000,"state":"active","ping":61},{"user_id":693,"name":"Cream Corn","steam_id":76561198043791586,"connected_time":2538000000000,"state":"active","ping":106},{"user_id":698,"name":"NEBULA","steam_id":76561198086878595,"connected_time":1702000000000,"state":"active","ping":75}]},{"server_id":119,"name":"Uncletopia | Seattle | 2 | All Maps","name_short":"sea-2","host":"sea-1.us.uncletopia.com","port":27025,"enabled":true,"region":"us-west","cc":"us","latitude":47.608013,"longitude":-122.33517,"reserved":0,"last_update":"0001-01-01T00:00:00Z","name_a2s":"Uncletopia | Seattle | 2 | All Maps","protocol":17,"map":"cp_snakewater_final1","folder":"tf","game":"Team Fortress","app_id":440,"player_count":24,"max_players":24,"Bots":0,"server_type":"Dedicated","server_os":"Linux","password":true,"vac":true,"version":"7882260","steam_id":85568392924469998,"keywords":["cp","nocrits","nodmgspread","uncletopia"],"game_id":440,"stv_port":27026,"stv_name":"Uncletopia | Seattle | 2 | All Maps | STV","players":[{"user_id":652,"name":"SadChicken λ","steam_id":76561198082458968,"connected_time":305000000000,"state":"active","ping":101},{"user_id":637,"name":"Ping","steam_id":76561198072947773,"connected_time":1039000000000,"state":"active","ping":105},{"user_id":648,"name":"Ad3ptus","steam_id":76561198272045750,"connected_time":396000000000,"state":"active","ping":39},{"user_id":649,"name":"Buncake","steam_id":76561198072541212,"connected_time":367000000000,"state":"active","ping":98},{"user_id":650,"name":"Chimi","steam_id":76561198067800540,"connected_time":354000000000,"state":"active","ping":99},{"user_id":590,"name":"Battery Acid Addict","steam_id":76561198439793697,"connected_time":3346000000000,"state":"active","ping":102},{"user_id":644,"name":"Bingleton","steam_id":76561197998930473,"connected_time":489000000000,"state":"active","ping":34},{"user_id":624,"name":"doobie the hutt","steam_id":76561198088873640,"connected_time":1340000000000,"state":"active","ping":56},{"user_id":623,"name":"Cheesesticks","steam_id":76561198806982235,"connected_time":1344000000000,"state":"active","ping":130},{"user_id":611,"name":"ice dweller","steam_id":76561198329367716,"connected_time":1688000000000,"state":"active","ping":88},{"user_id":602,"name":"zacaroni","steam_id":76561199387124493,"connected_time":2952000000000,"state":"active","ping":88},{"user_id":647,"name":"Bamboo","steam_id":76561198043139553,"connected_time":419000000000,"state":"active","ping":75},{"user_id":655,"name":"Rusty","steam_id":76561198055585129,"connected_time":90000000000,"state":"active","ping":48},{"user_id":609,"name":"fucking batman","steam_id":76561198419896433,"connected_time":1981000000000,"state":"active","ping":43},{"user_id":600,"name":"Juevos","steam_id":76561198066142119,"connected_time":3050000000000,"state":"active","ping":91},{"user_id":651,"name":"cookiegenius2398.r2","steam_id":76561198970759258,"connected_time":353000000000,"state":"active","ping":56},{"user_id":574,"name":"Tibetan Pop Star","steam_id":76561198844903984,"connected_time":4563000000000,"state":"active","ping":85},{"user_id":654,"name":"no vc no c","steam_id":76561197989503095,"connected_time":280000000000,"state":"active","ping":154},{"user_id":640,"name":"The dreaded jar","steam_id":76561199087010656,"connected_time":950000000000,"state":"active","ping":61},{"user_id":596,"name":"Ethan","steam_id":76561198371216468,"connected_time":3271000000000,"state":"active","ping":49},{"user_id":639,"name":"DanceBunny","steam_id":76561198243610560,"connected_time":956000000000,"state":"active","ping":81},{"user_id":629,"name":"Glorgnak","steam_id":76561198052969174,"connected_time":1307000000000,"state":"active","ping":55},{"user_id":642,"name":"090-nsalih","steam_id":76561199467467873,"connected_time":843000000000,"state":"active","ping":65},{"user_id":614,"name":"Glar","steam_id":76561198341907150,"connected_time":1521000000000,"state":"active","ping":35}]},{"server_id":406,"name":"Uncletopia | Seattle | 3 | Stopwatch Beta","name_short":"sea-3","host":"sea-1.us.uncletopia.com","port":27035,"enabled":true,"region":"us-west","cc":"us","latitude":47.608013,"longitude":-122.33517,"reserved":0,"last_update":"0001-01-01T00:00:00Z","name_a2s":"Uncletopia | Seattle | 3 | Stopwatch Beta","protocol":17,"map":"cp_process_final","folder":"tf","game":"Team Fortress","app_id":440,"player_count":24,"max_players":24,"Bots":0,"server_type":"Dedicated","server_os":"Linux","password":true,"vac":true,"version":"7882260","steam_id":85568392924515217,"keywords":["cp","nocrits","nodmgspread","uncletopia"],"game_id":440,"stv_port":27036,"stv_name":"Uncletopia | Seattle | 3 | Stopwatch Beta | STV","players":[{"user_id":87,"name":"engie","steam_id":76561199229629045,"connected_time":2149000000000,"state":"active","ping":93},{"user_id":100,"name":"exephur","steam_id":76561198135763234,"connected_time":1182000000000,"state":"active","ping":65},{"user_id":106,"name":"Dullahan","steam_id":76561198119668908,"connected_time":471000000000,"state":"active","ping":63},{"user_id":32,"name":"Sleempreem","steam_id":76561198131987251,"connected_time":5486000000000,"state":"active","ping":69},{"user_id":102,"name":"The destroyer of foreskin","steam_id":76561198135275966,"connected_time":645000000000,"state":"active","ping":118},{"user_id":93,"name":"Punished Shitster","steam_id":76561198150452857,"connected_time":1920000000000,"state":"active","ping":113},{"user_id":88,"name":"oo","steam_id":76561198119626492,"connected_time":2121000000000,"state":"active","ping":79},{"user_id":81,"name":"Dodobirdthe3rd","steam_id":76561199119848224,"connected_time":2339000000000,"state":"active","ping":87},{"user_id":109,"name":"NightmareTheCEO","steam_id":76561198349694120,"connected_time":137000000000,"state":"active","ping":56},{"user_id":47,"name":"Neavlof","steam_id":76561198437773859,"connected_time":3856000000000,"state":"active","ping":71},{"user_id":71,"name":"Grassman (Cc)","steam_id":76561198026488532,"connected_time":2879000000000,"state":"active","ping":63},{"user_id":90,"name":"JonBoy","steam_id":76561198082052480,"connected_time":2049000000000,"state":"active","ping":63},{"user_id":48,"name":"CressyFan_488","steam_id":76561199166270036,"connected_time":3851000000000,"state":"active","ping":90},{"user_id":49,"name":"TwoScoops","steam_id":76561197997463332,"connected_time":3761000000000,"state":"active","ping":65},{"user_id":103,"name":"ronald","steam_id":76561197960691622,"connected_time":519000000000,"state":"active","ping":78},{"user_id":108,"name":"Peter, what are you doing?","steam_id":76561198066452726,"connected_time":338000000000,"state":"active","ping":79},{"user_id":76,"name":"Grungus","steam_id":76561198047700230,"connected_time":2390000000000,"state":"active","ping":71},{"user_id":99,"name":"danielarmvt","steam_id":76561198799723201,"connected_time":1245000000000,"state":"active","ping":126},{"user_id":107,"name":"weed","steam_id":76561199128192017,"connected_time":449000000000,"state":"active","ping":63},{"user_id":56,"name":"Fluffy","steam_id":76561198213561811,"connected_time":3625000000000,"state":"active","ping":65},{"user_id":98,"name":"ShredMaan","steam_id":76561198429982138,"connected_time":1476000000000,"state":"active","ping":85},{"user_id":105,"name":"Impressley Snipes","steam_id":76561197988329891,"connected_time":499000000000,"state":"active","ping":60},{"user_id":101,"name":"pete_the_cat_2014","steam_id":76561198199266047,"connected_time":742000000000,"state":"active","ping":105},{"user_id":94,"name":"Steve Jobs' cousin Hand Jobs","steam_id":76561198282766831,"connected_time":1900000000000,"state":"active","ping":105}]},{"server_id":17,"name":"Uncletopia | San Francisco | 1 | All Maps","name_short":"sfo-1","host":"sfo-1.us.uncletopia.com","port":27015,"enabled":true,"region":"us-west","cc":"us","latitude":37.77397,"longitude":-122.4313,"reserved":0,"last_update":"0001-01-01T00:00:00Z","name_a2s":"Uncletopia | San Francisco | 1 | All Maps","protocol":17,"map":"cp_process_final","folder":"tf","game":"Team Fortress","app_id":440,"player_count":0,"max_players":24,"Bots":0,"server_type":"Dedicated","server_os":"Linux","password":true,"vac":true,"version":"7757534","steam_id":85568392924469999,"keywords":["cp","nocrits","nodmgspread","uncletopia"],"game_id":440,"stv_port":27016,"stv_name":"Uncletopia | San Francisco | 1 | All Maps | STV","players":null},{"server_id":18,"name":"Uncletopia | San Francisco | 2 | All Maps","name_short":"sfo-2","host":"sfo-1.us.uncletopia.com","port":27025,"enabled":true,"region":"us-west","cc":"us","latitude":37.77397,"longitude":-122.4313,"reserved":0,"last_update":"0001-01-01T00:00:00Z","name_a2s":"Uncletopia | San Francisco | 2 | All Maps","protocol":17,"map":"koth_highpass","folder":"tf","game":"Team Fortress","app_id":440,"player_count":0,"max_players":24,"Bots":0,"server_type":"Dedicated","server_os":"Linux","password":true,"vac":true,"version":"7757534","steam_id":85568392924470000,"keywords":["cp","nocrits","nodmgspread","uncletopia"],"game_id":440,"stv_port":27026,"stv_name":"Uncletopia | San Francisco | 2 | All Maps | STV","players":null},{"server_id":19,"name":"Uncletopia | San Francisco | 3 | Stopwatch Beta","name_short":"sfo-3","host":"sfo-1.us.uncletopia.com","port":27035,"enabled":true,"region":"us-west","cc":"us","latitude":37.77397,"longitude":-122.4313,"reserved":0,"last_update":"0001-01-01T00:00:00Z","name_a2s":"Uncletopia | San Francisco | 3 | Stopwatch Beta","protocol":17,"map":"koth_lakeside_final","folder":"tf","game":"Team Fortress","app_id":440,"player_count":0,"max_players":24,"Bots":0,"server_type":"Dedicated","server_os":"Linux","password":true,"vac":true,"version":"7757534","steam_id":85568392924742824,"keywords":["cp","nocrits","nodmgspread","uncletopia"],"game_id":440,"stv_port":27036,"stv_name":"Uncletopia | San Francisco | 3 | Stopwatch Beta | STV","players":null},{"server_id":20,"name":"Uncletopia | San Francisco | 4 | Community","name_short":"sfo-4","host":"sfo-1.us.uncletopia.com","port":27045,"enabled":true,"region":"us-west","cc":"us","latitude":37.77397,"longitude":-122.4313,"reserved":0,"last_update":"0001-01-01T00:00:00Z","name_a2s":"Uncletopia | San Francisco | 4 | Community","protocol":17,"map":"cp_altitude","folder":"tf","game":"Team Fortress","app_id":440,"player_count":0,"max_players":24,"Bots":0,"server_type":"Dedicated","server_os":"Linux","password":true,"vac":true,"version":"7757534","steam_id":85568392924742826,"keywords":["cp","nocrits","nodmgspread","uncletopia"],"game_id":440,"stv_port":27046,"stv_name":"Uncletopia | San Francisco | 4 | Community | STV","players":null},{"server_id":141,"name":"Uncletopia | Sydney | 1 | All Maps","name_short":"syd-1","host":"syd-1.au.uncletopia.com","port":27015,"enabled":true,"region":"au","cc":"au","latitude":-33.865143,"longitude":151.2099,"reserved":0,"last_update":"0001-01-01T00:00:00Z","name_a2s":"Uncletopia | Sydney | 1 | All Maps","protocol":17,"map":"koth_lakeside_final","folder":"tf","game":"Team Fortress","app_id":440,"player_count":0,"max_players":24,"Bots":0,"server_type":"Dedicated","server_os":"Linux","password":true,"vac":true,"version":"7882260","steam_id":85568392924470001,"keywords":["cp","nocrits","nodmgspread","uncletopia"],"game_id":440,"stv_port":27016,"stv_name":"Uncletopia | Sydney | 1 | All Maps | STV","players":null},{"server_id":123,"name":"Uncletopia | Sydney | 2 | All Maps","name_short":"syd-2","host":"syd-1.au.uncletopia.com","port":27025,"enabled":true,"region":"au","cc":"au","latitude":-33.865143,"longitude":151.2099,"reserved":0,"last_update":"0001-01-01T00:00:00Z","name_a2s":"Uncletopia | Sydney | 2 | All Maps","protocol":17,"map":"cp_snakewater_final1","folder":"tf","game":"Team Fortress","app_id":440,"player_count":0,"max_players":24,"Bots":0,"server_type":"Dedicated","server_os":"Linux","password":true,"vac":true,"version":"7882260","steam_id":85568392924470002,"keywords":["cp","nocrits","nodmgspread","uncletopia"],"game_id":440,"stv_port":27026,"stv_name":"Uncletopia | Sydney | 2 | All Maps | STV","players":null},{"server_id":395,"name":"Uncletopia | Sydney | 3 | All Maps","name_short":"syd-3","host":"syd-1.au.uncletopia.com","port":27035,"enabled":true,"region":"au","cc":"au","latitude":-33.865143,"longitude":151.2099,"reserved":0,"last_update":"0001-01-01T00:00:00Z","name_a2s":"Uncletopia | Sydney | 3 | All Maps","protocol":17,"map":"pl_frontier_final","folder":"tf","game":"Team Fortress","app_id":440,"player_count":0,"max_players":24,"Bots":0,"server_type":"Dedicated","server_os":"Linux","password":true,"vac":true,"version":"7882260","steam_id":85568392925194467,"keywords":["nocrits","nodmgspread","payload","uncletopia"],"game_id":440,"stv_port":27036,"stv_name":"Uncletopia | Sydney | 3 | All Maps | STV","players":null},{"server_id":396,"name":"Uncletopia | Sydney | 4 | All Maps","name_short":"syd-4","host":"syd-1.au.uncletopia.com","port":27045,"enabled":true,"region":"au","cc":"au","latitude":-33.865143,"longitude":151.2099,"reserved":0,"last_update":"0001-01-01T00:00:00Z","name_a2s":"Uncletopia | Sydney | 4 | All Maps","protocol":17,"map":"koth_cascade","folder":"tf","game":"Team Fortress","app_id":440,"player_count":0,"max_players":24,"Bots":0,"server_type":"Dedicated","server_os":"Linux","password":true,"vac":true,"version":"7882260","steam_id":85568392925397958,"keywords":["cp","nocrits","nodmgspread","uncletopia"],"game_id":440,"stv_port":27046,"stv_name":"Uncletopia | Sydney | 4 | All Maps | STV","players":null},{"server_id":58,"name":"Uncletopia | Sydney | 5 | Stopwatch Beta","name_short":"syd-5","host":"syd-1.au.uncletopia.com","port":27055,"enabled":true,"region":"au","cc":"au","latitude":-33.865143,"longitude":151.2099,"reserved":0,"last_update":"0001-01-01T00:00:00Z","name_a2s":"Uncletopia | Sydney | 5 | Stopwatch Beta","protocol":17,"map":"pl_swiftwater_final1","folder":"tf","game":"Team Fortress","app_id":440,"player_count":0,"max_players":24,"Bots":0,"server_type":"Dedicated","server_os":"Linux","password":true,"vac":true,"version":"7882260","steam_id":85568392925397959,"keywords":["nocrits","nodmgspread","payload","uncletopia"],"game_id":440,"stv_port":27056,"stv_name":"Uncletopia | Sydney | 5 | Stopwatch Beta | STV","players":null},{"server_id":59,"name":"Uncletopia | Sydney | 6 | Community","name_short":"syd-6","host":"syd-1.au.uncletopia.com","port":27065,"enabled":true,"region":"au","cc":"au","latitude":-33.865143,"longitude":151.2099,"reserved":0,"last_update":"0001-01-01T00:00:00Z","name_a2s":"Uncletopia | Sydney | 6 | Community","protocol":17,"map":"pl_snowycoast","folder":"tf","game":"Team Fortress","app_id":440,"player_count":0,"max_players":24,"Bots":0,"server_type":"Dedicated","server_os":"Linux","password":true,"vac":true,"version":"7882260","steam_id":85568392925397960,"keywords":["nocrits","nodmgspread","payload","uncletopia"],"game_id":440,"stv_port":27066,"stv_name":"Uncletopia | Sydney | 6 | Community | STV","players":null},{"server_id":49,"name":"Uncletopia | Warsaw | 1 | All Maps","name_short":"waw-1","host":"waw-1.pl.uncletopia.com","port":27015,"enabled":true,"region":"eu","cc":"pl","latitude":52.2297,"longitude":21.017532,"reserved":0,"last_update":"0001-01-01T00:00:00Z","name_a2s":"","protocol":0,"map":"","folder":"","game":"","app_id":0,"player_count":0,"max_players":0,"Bots":0,"server_type":"","server_os":"","password":false,"vac":false,"version":"","steam_id":0,"keywords":null,"game_id":0,"stv_port":0,"stv_name":"","players":null},{"server_id":50,"name":"Uncletopia | Warsaw | 2 | All Maps","name_short":"waw-2","host":"waw-1.pl.uncletopia.com","port":27025,"enabled":true,"region":"eu","cc":"pl","latitude":52.2297,"longitude":21.017532,"reserved":0,"last_update":"0001-01-01T00:00:00Z","name_a2s":"Uncletopia | Warsaw | 2 | All Maps","protocol":17,"map":"pl_swiftwater_final1","folder":"tf","game":"Team Fortress","app_id":440,"player_count":0,"max_players":24,"Bots":0,"server_type":"Dedicated","server_os":"Linux","password":true,"vac":true,"version":"7882260","steam_id":85568392925397851,"keywords":["nocrits","nodmgspread","payload","uncletopia"],"game_id":440,"stv_port":27026,"stv_name":"Uncletopia | Warsaw | 2 | All Maps | STV","players":null},{"server_id":51,"name":"Uncletopia | Warsaw | 3 | All Maps","name_short":"waw-3","host":"waw-1.pl.uncletopia.com","port":27035,"enabled":true,"region":"eu","cc":"pl","latitude":52.2297,"longitude":21.017532,"reserved":0,"last_update":"0001-01-01T00:00:00Z","name_a2s":"Uncletopia | Warsaw | 3 | All Maps","protocol":17,"map":"koth_viaduct","folder":"tf","game":"Team Fortress","app_id":440,"player_count":0,"max_players":24,"Bots":0,"server_type":"Dedicated","server_os":"Linux","password":true,"vac":true,"version":"7882260","steam_id":85568392925397852,"keywords":["cp","nocrits","nodmgspread","uncletopia"],"game_id":440,"stv_port":27036,"stv_name":"Uncletopia | Warsaw | 3 | All Maps | STV","players":null},{"server_id":52,"name":"Uncletopia | Warsaw | 4 | All Maps","name_short":"waw-4","host":"waw-1.pl.uncletopia.com","port":27045,"enabled":true,"region":"eu","cc":"pl","latitude":52.2297,"longitude":21.017532,"reserved":0,"last_update":"0001-01-01T00:00:00Z","name_a2s":"Uncletopia | Warsaw | 4 | All Maps","protocol":17,"map":"koth_highpass","folder":"tf","game":"Team Fortress","app_id":440,"player_count":0,"max_players":24,"Bots":0,"server_type":"Dedicated","server_os":"Linux","password":true,"vac":true,"version":"7882260","steam_id":85568392925397853,"keywords":["cp","nocrits","nodmgspread","uncletopia"],"game_id":440,"stv_port":27046,"stv_name":"Uncletopia | Warsaw | 4 | All Maps | STV","players":null},{"server_id":53,"name":"Uncletopia | Warsaw | 5 | Stopwatch Beta","name_short":"waw-5","host":"waw-1.pl.uncletopia.com","port":27055,"enabled":true,"region":"eu","cc":"pl","latitude":52.2297,"longitude":21.017532,"reserved":0,"last_update":"0001-01-01T00:00:00Z","name_a2s":"Uncletopia | Warsaw | 5 | Stopwatch Beta","protocol":17,"map":"cp_mountainlab","folder":"tf","game":"Team Fortress","app_id":440,"player_count":0,"max_players":24,"Bots":0,"server_type":"Dedicated","server_os":"Linux","password":true,"vac":true,"version":"7882260","steam_id":85568392925397854,"keywords":["cp","nocrits","nodmgspread","uncletopia"],"game_id":440,"stv_port":27056,"stv_name":"Uncletopia | Warsaw | 5 | Stopwatch Beta | STV","players":null},{"server_id":54,"name":"Uncletopia | Warsaw | 6 | Community","name_short":"waw-6","host":"waw-1.pl.uncletopia.com","port":27065,"enabled":true,"region":"eu","cc":"pl","latitude":52.2297,"longitude":21.017532,"reserved":0,"last_update":"0001-01-01T00:00:00Z","name_a2s":"Uncletopia | Warsaw | 6 | Community","protocol":17,"map":"koth_viaduct","folder":"tf","game":"Team Fortress","app_id":440,"player_count":0,"max_players":24,"Bots":0,"server_type":"Dedicated","server_os":"Linux","password":true,"vac":true,"version":"7882260","steam_id":85568392925397856,"keywords":["cp","nocrits","nodmgspread","uncletopia"],"game_id":440,"stv_port":27066,"stv_name":"Uncletopia | Warsaw | 6 | Community | STV","players":null}]}