{"status":true,"message":"","result":[{"server_id":9,"name":"Uncletopia | Atlanta | 1 | All Maps","name_short":"atl-1","host":"atl-1.us.uncletopia.com","port":27015,"enabled":true,"region":"us-east","cc":"us","latitude":33.753746,"longitude":-84.38633,"reserved":0,"last_update":"0001-01-01T00:00:00Z","name_a2s":"Uncletopia | Atlanta | 1 | All Maps","protocol":17,"map":"koth_brazil","folder":"tf","game":"Team Fortress","app_id":440,"player_count":24,"max_players":24,"Bots":0,"server_type":"Dedicated","server_os":"Linux","password":true,"vac":true,"version":"7961495","steam_id":85568392924469982,"keywords":["cp","nocrits","nodmgspread","uncletopia"],"game_id":440,"stv_port":27016,"stv_name":"Uncletopia | Atlanta | 1 | All Maps | STV","players":null},{"server_id":104,"name":"Uncletopia | Atlanta | 2 | All Maps","name_short":"atl-2","host":"atl-1.us.uncletopia.com","port":27025,"enabled":true,"region":"us-east","cc":"us","latitude":33.753746,"longitude":-84.38633,"reserved":0,"last_update":"0001-01-01T00:00:00Z","name_a2s":"Uncletopia | Atlanta | 2 | All Maps","protocol":17,"map":"koth_highpass","folder":"tf","game":"Team Fortress","app_id":440,"player_count":0,"max_players":24,"Bots":0,"server_type":"Dedicated","server_os":"Linux","password":true,"vac":true,"version":"7961495","steam_id":85568392924469983,"keywords":["cp","nocrits","nodmgspread","uncletopia"],"game_id":440,"stv_port":27026,"stv_name":"Uncletopia | Atlanta | 2 | All Maps | STV","players":null},{"server_id":400,"name":"Uncletopia | Atlanta | 3 | All Maps","name_short":"atl-3","host":"atl-1.us.uncletopia.com","port":27035,"enabled":true,"region":"us-east","cc":"us","latitude":33.753746,"longitude":-84.38633,"reserved":0,"last_update":"0001-01-01T00:00:00Z","name_a2s":"Uncletopia | Atlanta | 3 | All Maps","protocol":17,"map":"pl_upward","folder":"tf","game":"Team Fortress","app_id":440,"player_count":0,"max_players":24,"Bots":0,"server_type":"Dedicated","server_os":"Linux","password":true,"vac":true,"version":"7961495","steam_id":85568392924515187,"keywords":["nocrits","nodmgspread","payload","uncletopia"],"game_id":440,"stv_port":27036,"stv_name":"Uncletopia | Atlanta | 3 | All Maps | STV","players":null},{"server_id":401,"name":"Uncletopia | Atlanta | 4 | Community","name_short":"atl-4","host":"atl-1.us.uncletopia.com","port":27045,"enabled":true,"region":"us-east","cc":"us","latitude":33.753746,"longitude":-84.38633,"reserved":0,"last_update":"0001-01-01T00:00:00Z","name_a2s":"Uncletopia | Atlanta | 4 | Community","protocol":17,"map":"cp_sunshine","folder":"tf","game":"Team Fortress","app_id":440,"player_count":0,"max_players":24,"Bots":0,"server_type":"Dedicated","server_os":"Linux","password":true,"vac":true,"version":"7961495","steam_id":85568392924515188,"keywords":["cp","nocrits","nodmgspread","uncletopia"],"game_id":440,"stv_port":27046,"stv_name":"Uncletopia | Atlanta | 4 | Community | STV","players":null},{"server_id":2,"name":"Uncletopia | Chicago | 1 | All Maps","name_short":"chi-1","host":"chi-1.us.uncletopia.com","port":27015,"enabled":true,"region":"us-central","cc":"us","latitude":41.881832,"longitude":-87.62318,"reserved":0,"last_update":"0001-01-01T00:00:00Z","name_a2s":"Uncletopia | Chicago | 1 | All Maps","protocol":17,"map":"cp_process_final","folder":"tf","game":"Team Fortress","app_id":440,"player_count":24,"max_players":24,"Bots":0,"server_type":"Dedicated","server_os":"Linux","password":true,"vac":true,"version":"7961495","steam_id":85568392924469984,"keywords":["cp","nocrits","nodmgspread","uncletopia"],"game_id":440,"stv_port":27016,"stv_name":"Uncletopia | Chicago | 1 | All Maps | STV","players":[{"user_id":283,"name":"Inevitable","steam_id":76561198210050169,"connected_time":1647000000000,"state":"active","ping":68},{"user_id":262,"name":"[Sc.B.V.G] Eagley Beagley Eagle","steam_id":76561198166730618,"connected_time":4043000000000,"state":"active","ping":53},{"user_id":276,"name":"Grognak","steam_id":76561198044710527,"connected_time":2333000000000,"state":"active","ping":86},{"user_id":302,"name":"Slob and Sup","steam_id":76561198123441203,"connected_time":640000000000,"state":"active","ping":59},{"user_id":261,"name":"Two","steam_id":76561198207078715,"connected_time":4128000000000,"state":"active","ping":97},{"user_id":303,"name":"gps","steam_id":76561198067492304,"connected_time":176000000000,"state":"active","ping":75},{"user_id":299,"name":"Oli B\u003eQS/BP/Bulk w/ 1.5k+ keys","steam_id":76561198140316312,"connected_time":846000000000,"state":"active","ping":56},{"user_id":272,"name":"Just a baby","steam_id":76561198018660838,"connected_time":2842000000000,"state":"active","ping":98},{"user_id":274,"name":"bruiseraaron","steam_id":76561198020092380,"connected_time":2388000000000,"state":"active","ping":57},{"user_id":202,"name":"Abysa.","steam_id":76561198424398862,"connected_time":5995000000000,"state":"active","ping":135},{"user_id":289,"name":"Bread","steam_id":76561198309684977,"connected_time":1263000000000,"state":"active","ping":65},{"user_id":284,"name":"RocketeerJessie","steam_id":76561198829915210,"connected_time":1639000000000,"state":"active","ping":61},{"user_id":280,"name":"axellinag15","steam_id":76561199188113751,"connected_time":1890000000000,"state":"active","ping":74},{"user_id":263,"name":"Kalhoun","steam_id":76561197999648122,"connected_time":3995000000000,"state":"active","ping":50},{"user_id":281,"name":"Milkmur","steam_id":76561198210043821,"connected_time":1704000000000,"state":"active","ping":66},{"user_id":301,"name":"BEPIS","steam_id":76561198015266125,"connected_time":671000000000,"state":"active","ping":83},{"user_id":291,"name":"- //w\\\\ -","steam_id":76561198015467611,"connected_time":1210000000000,"state":"active","ping":53},{"user_id":285,"name":"sweetcandygumdrop","steam_id":76561199494249770,"connected_time":1553000000000,"state":"active","ping":100},{"user_id":298,"name":"eat Pant","steam_id":76561197974965536,"connected_time":932000000000,"state":"active","ping":56},{"user_id":277,"name":"Acro","steam_id":76561198092451804,"connected_time":2323000000000,"state":"active","ping":68},{"user_id":300,"name":"Big Herald","steam_id":76561198148859930,"connected_time":744000000000,"state":"active","ping":68},{"user_id":293,"name":"litroolay","steam_id":76561197995226856,"connected_time":1175000000000,"state":"active","ping":89},{"user_id":286,"name":"pep","steam_id":76561198207543607,"connected_time":1540000000000,"state":"active","ping":148},{"user_id":295,"name":"Bee","steam_id":76561198074681324,"connected_time":967000000000,"state":"active","ping":63}]},{"server_id":106,"name":"Uncletopia | Chicago | 2 | All Maps","name_short":"chi-2","host":"chi-1.us.uncletopia.com","port":27025,"enabled":true,"region":"us-central","cc":"us","latitude":41.881832,"longitude":-87.62318,"reserved":0,"last_update":"0001-01-01T00:00:00Z","name_a2s":"Uncletopia | Chicago | 2 | All Maps","protocol":17,"map":"pl_upward","folder":"tf","game":"Team Fortress","app_id":440,"player_count":24,"max_players":24,"Bots":0,"server_type":"Dedicated","server_os":"Linux","password":true,"vac":true,"version":"7961495","steam_id":85568392924469985,"keywords":["nocrits","nodmgspread","payload","uncletopia"],"game_id":440,"stv_port":27026,"stv_name":"Uncletopia | Chicago | 2 | All Maps | STV","players":[{"user_id":291,"name":"James","steam_id":76561198081313916,"connected_time":1919000000000,"state":"active","ping":70},{"user_id":311,"name":"CuSO4","steam_id":76561199278147589,"connected_time":32000000000,"state":"active","ping":63},{"user_id":269,"name":"Lost","steam_id":76561198093713427,"connected_time":2948000000000,"state":"active","ping":60},{"user_id":307,"name":"lim","steam_id":76561198293485286,"connected_time":132000000000,"state":"active","ping":148},{"user_id":308,"name":"7thelden","steam_id":76561198297428761,"connected_time":129000000000,"state":"active","ping":62},{"user_id":290,"name":"Gremlin","steam_id":76561198256100761,"connected_time":1938000000000,"state":"active","ping":80},{"user_id":292,"name":"Talented","steam_id":76561198800259660,"connected_time":1915000000000,"state":"active","ping":70},{"user_id":309,"name":"The Potato Romancer","steam_id":76561198204197648,"connected_time":50000000000,"state":"active","ping":91},{"user_id":293,"name":"Stultus","steam_id":76561198115116367,"connected_time":1829000000000,"state":"active","ping":67},{"user_id":289,"name":"Jango","steam_id":76561198084589742,"connected_time":1948000000000,"state":"active","ping":81},{"user_id":284,"name":"Homosexual Warmachine","steam_id":76561198040425096,"connected_time":2193000000000,"state":"active","ping":67},{"user_id":299,"name":"Sacknana","steam_id":76561199001811226,"connected_time":1162000000000,"state":"active","ping":69},{"user_id":279,"name":"Cloud","steam_id":76561198954987128,"connected_time":2370000000000,"state":"active","ping":76},{"user_id":276,"name":"Mehman","steam_id":76561199020244051,"connected_time":2614000000000,"state":"active","ping":99},{"user_id":267,"name":"Natalie","steam_id":76561198090613781,"connected_time":3010000000000,"state":"active","ping":75},{"user_id":294,"name":"Bleat","steam_id":76561198138678917,"connected_time":1775000000000,"state":"active","ping":136},{"user_id":302,"name":"Jimbo Slice","steam_id":76561198064830847,"connected_time":767000000000,"state":"active","ping":73},{"user_id":303,"name":"my name jeff","steam_id":76561198179816898,"connected_time":699000000000,"state":"active","ping":76},{"user_id":248,"name":"Domswish","steam_id":76561198331444240,"connected_time":4040000000000,"state":"active","ping":70},{"user_id":301,"name":"Shark","steam_id":76561198219031981,"connected_time":945000000000,"state":"active","ping":67},{"user_id":297,"name":"Special Agent Dale Cooper","steam_id":76561198084230569,"connected_time":1467000000000,"state":"active","ping":46},{"user_id":298,"name":"Wookie257","steam_id":76561198984452441,"connected_time":1243000000000,"state":"active","ping":80},{"user_id":304,"name":"Candy Sparkles","steam_id":76561198126871264,"connected_time":698000000000,"state":"active","ping":80},{"user_id":310,"name":"hammythegreat #SaveTF2","steam_id":76561198079526946,"connected_time":44000000000,"state":"active","ping":92}]},{"server_id":402,"name":"Uncletopia | Chicago | 3 | All Maps","name_short":"chi-3","host":"chi-1.us.uncletopia.com","port":27035,"enabled":true,"region":"us-central","cc":"us","latitude":41.881832,"longitude":-87.62318,"reserved":0,"last_update":"0001-01-01T00:00:00Z","name_a2s":"Uncletopia | Chicago | 3 | All Maps","protocol":17,"map":"koth_cascade","folder":"tf","game":"Team Fortress","app_id":440,"player_count":24,"max_players":24,"Bots":0,"server_type":"Dedicated","server_os":"Linux","password":true,"vac":true,"version":"7961495","steam_id":85568392924515191,"keywords":["cp","nocrits","nodmgspread","uncletopia"],"game_id":440,"stv_port":27036,"stv_name":"Uncletopia | Chicago | 3 | All Maps | STV","players":[{"user_id":232,"name":"Estrogen Bundle","steam_id":76561198086733903,"connected_time":76000000000,"state":"active","ping":59},{"user_id":226,"name":"B R O W N","steam_id":76561198047340813,"connected_time":509000000000,"state":"active","ping":57},{"user_id":189,"name":"firefish","steam_id":76561199135656474,"connected_time":2408000000000,"state":"active","ping":84},{"user_id":231,"name":"Lain","steam_id":76561198029303534,"connected_time":83000000000,"state":"active","ping":65},{"user_id":140,"name":"he's so lovely","steam_id":76561198406252824,"connected_time":6515000000000,"state":"active","ping":105},{"user_id":210,"name":"RuinLucky","steam_id":76561199481172481,"connected_time":1463000000000,"state":"active","ping":91},{"user_id":217,"name":"smegma male","steam_id":76561197970450546,"connected_time":866000000000,"state":"active","ping":114},{"user_id":211,"name":"Curse of the Blackened Eye","steam_id":76561198097175164,"connected_time":1454000000000,"state":"active","ping":76},{"user_id":233,"name":"ashley.applesauce1998","steam_id":76561198064873161,"connected_time":74000000000,"state":"active","ping":75},{"user_id":220,"name":"Saikou!!!","steam_id":76561198044045406,"connected_time":765000000000,"state":"active","ping":74},{"user_id":156,"name":"FoxStrike","steam_id":76561198218232011,"connected_time":5126000000000,"state":"active","ping":81},{"user_id":188,"name":"ChurroMk.Ⅱ","steam_id":76561198388188696,"connected_time":2438000000000,"state":"active","ping":116},{"user_id":225,"name":"We Go Crazy","steam_id":76561198209641359,"connected_time":527000000000,"state":"active","ping":58},{"user_id":212,"name":"squidpunk1312","steam_id":76561198202274248,"connected_time":1443000000000,"state":"active","ping":94},{"user_id":141,"name":"[82DK] Ike","steam_id":76561198135256526,"connected_time":6514000000000,"state":"active","ping":87},{"user_id":162,"name":"Shoeshocker","steam_id":76561198174302467,"connected_time":4887000000000,"state":"active","ping":68},{"user_id":169,"name":"The Greendale Human Beings","steam_id":76561198055433422,"connected_time":4330000000000,"state":"active","ping":85},{"user_id":208,"name":"mechiimi","steam_id":76561198321627268,"connected_time":1575000000000,"state":"active","ping":120},{"user_id":214,"name":"StormyBoyo","steam_id":76561198273482774,"connected_time":1094000000000,"state":"active","ping":87},{"user_id":193,"name":"Ockulus","steam_id":76561199069638460,"connected_time":2167000000000,"state":"active","ping":104},{"user_id":155,"name":"French Fry Burrito!","steam_id":76561198103496593,"connected_time":5718000000000,"state":"active","ping":63},{"user_id":221,"name":"Magnet Dood","steam_id":76561198364178746,"connected_time":760000000000,"state":"active","ping":55},{"user_id":222,"name":"Flaccid Snake (little boss)","steam_id":76561198211454440,"connected_time":738000000000,"state":"active","ping":99},{"user_id":114,"name":"tacofever","steam_id":76561198010966507,"connected_time":8667000000000,"state":"active","ping":104}]},{"server_id":403,"name":"Uncletopia | Chicago | 4 | All Maps","name_short":"chi-4","host":"chi-1.us.uncletopia.com","port":27045,"enabled":true,"region":"us-central","cc":"us","latitude":41.881832,"longitude":-87.62318,"reserved":0,"last_update":"0001-01-01T00:00:00Z","name_a2s":"Uncletopia | Chicago | 4 | All Maps","protocol":17,"map":"cp_dustbowl","folder":"tf","game":"Team Fortress","app_id":440,"player_count":24,"max_players":24,"Bots":0,"server_type":"Dedicated","server_os":"Linux","password":true,"vac":true,"version":"7961495","steam_id":85568392924515193,"keywords":["cp","nocrits","nodmgspread","uncletopia"],"game_id":440,"stv_port":27046,"stv_name":"Uncletopia | Chicago | 4 | All Maps | STV","players":[{"user_id":235,"name":"PyroWhale","steam_id":76561198315213642,"connected_time":4375000000000,"state":"active","ping":75},{"user_id":281,"name":"MedRed™ #IATAH","steam_id":76561198002962970,"connected_time":917000000000,"state":"active","ping":94},{"user_id":290,"name":"Spoiled Milk","steam_id":76561198079682814,"connected_time":522000000000,"state":"active","ping":85},{"user_id":265,"name":"soberflamie","steam_id":76561198069600113,"connected_time":1790000000000,"state":"active","ping":47},{"user_id":287,"name":"clmatt6","steam_id":76561198027812938,"connected_time":689000000000,"state":"active","ping":74},{"user_id":254,"name":"cinnamon","steam_id":76561198142109937,"connected_time":2743000000000,"state":"active","ping":103},{"user_id":275,"name":"Small tiny feet","steam_id":76561199141538581,"connected_time":997000000000,"state":"active","ping":116},{"user_id":282,"name":"YINGBING43","steam_id":76561198166141576,"connected_time":908000000000,"state":"active","ping":92},{"user_id":292,"name":"Mind Diamond","steam_id":76561199238902840,"connected_time":319000000000,"state":"active","ping":73},{"user_id":259,"name":"Swash","steam_id":76561197969421355,"connected_time":2533000000000,"state":"active","ping":56},{"user_id":258,"name":"King of Ping","steam_id":76561198278737470,"connected_time":2548000000000,"state":"active","ping":69},{"user_id":274,"name":"Flowers","steam_id":76561198031669899,"connected_time":1007000000000,"state":"active","ping":80},{"user_id":286,"name":"berry delight","steam_id":76561198115254326,"connected_time":713000000000,"state":"active","ping":50},{"user_id":263,"name":"hej","steam_id":76561197996366940,"connected_time":2230000000000,"state":"active","ping":61},{"user_id":260,"name":"girthmilk","steam_id":76561198054799782,"connected_time":2530000000000,"state":"active","ping":94},{"user_id":294,"name":"The Dreamer","steam_id":76561198047638312,"connected_time":305000000000,"state":"active","ping":104},{"user_id":278,"name":"Demon_Slayer290","steam_id":76561198000782062,"connected_time":968000000000,"state":"active","ping":83},{"user_id":289,"name":"MrPebbsGaming","steam_id":76561199075070296,"connected_time":558000000000,"state":"active","ping":76},{"user_id":284,"name":"clueless","steam_id":76561199401554276,"connected_time":879000000000,"state":"active","ping":83},{"user_id":245,"name":"CheesyNacho","steam_id":76561198350445456,"connected_time":3647000000000,"state":"active","ping":73},{"user_id":291,"name":"λspherez","steam_id":76561198119607157,"connected_time":381000000000,"state":"active","ping":59},{"user_id":270,"name":"while(1)","steam_id":76561198000876529,"connected_time":1307000000000,"state":"active","ping":58},{"user_id":285,"name":"Lia_Rein","steam_id":76561198151569597,"connected_time":847000000000,"state":"active","ping":179},{"user_id":232,"name":"No Justice No Peace","steam_id":76561198095200552,"connected_time":4649000000000,"state":"active","ping":49}]},{"server_id":36,"name":"Uncletopia | Chicago | 5 | All Maps","name_short":"chi-5","host":"chi-2.us.uncletopia.com","port":27015,"enabled":true,"region":"us-central","cc":"us","latitude":41.881832,"longitude":-87.62318,"reserved":0,"last_update":"0001-01-01T00:00:00Z","name_a2s":"Uncletopia | Chicago | 5 | All Maps","protocol":17,"map":"pl_snowycoast","folder":"tf","game":"Team Fortress","app_id":440,"player_count":24,"max_players":24,"Bots":0,"server_type":"Dedicated","server_os":"Linux","password":true,"vac":true,"version":"7961495","steam_id":85568392924866362,"keywords":["nocrits","nodmgspread","payload","uncletopia"],"game_id":440,"stv_port":27016,"stv_name":"Uncletopia | Chicago | 5 | All Maps | STV","players":[{"user_id":136,"name":"ArcangelxGT","steam_id":76561198167946091,"connected_time":1157000000000,"state":"active","ping":90},{"user_id":149,"name":"green bean","steam_id":76561198113099204,"connected_time":736000000000,"state":"active","ping":85},{"user_id":153,"name":"Maet","steam_id":76561198030208485,"connected_time":79000000000,"state":"active","ping":78},{"user_id":70,"name":"HUESO","steam_id":76561198276383681,"connected_time":4388000000000,"state":"active","ping":97},{"user_id":145,"name":"metal fingers","steam_id":76561198823526581,"connected_time":760000000000,"state":"active","ping":75},{"user_id":152,"name":"golebdoo","steam_id":76561198237496978,"connected_time":398000000000,"state":"active","ping":112},{"user_id":104,"name":"Sunflower","steam_id":76561198081223793,"connected_time":2554000000000,"state":"active","ping":58},{"user_id":142,"name":"Banks(not a bot stop kicking me","steam_id":76561198276505537,"connected_time":856000000000,"state":"active","ping":64},{"user_id":135,"name":"uheggwhite","steam_id":76561199199795741,"connected_time":1183000000000,"state":"active","ping":72},{"user_id":146,"name":"kon","steam_id":76561198116572221,"connected_time":756000000000,"state":"active","ping":61},{"user_id":150,"name":"Mephistopheles","steam_id":76561198253731826,"connected_time":654000000000,"state":"active","ping":52},{"user_id":94,"name":"HopeAres","steam_id":76561198139524395,"connected_time":3421000000000,"state":"active","ping":169},{"user_id":143,"name":"бульба","steam_id":76561198452390828,"connected_time":826000000000,"state":"active","ping":84},{"user_id":151,"name":"Dark Lord","steam_id":76561198044199150,"connected_time":604000000000,"state":"active","ping":85},{"user_id":120,"name":"RAKES ALL NIGHT DAY YEAR","steam_id":76561198142756572,"connected_time":1691000000000,"state":"active","ping":61},{"user_id":148,"name":"󠁳⁧⁧ Kruthal","steam_id":76561198245726582,"connected_time":740000000000,"state":"active","ping":150},{"user_id":130,"name":"Soulsted","steam_id":76561198048889257,"connected_time":1376000000000,"state":"active","ping":69},{"user_id":80,"name":"Asha'man","steam_id":76561198057913763,"connected_time":3773000000000,"state":"active","ping":49},{"user_id":117,"name":"Anor","steam_id":76561198356139775,"connected_time":1976000000000,"state":"active","ping":83},{"user_id":113,"name":"Cinnabun","steam_id":76561198155346702,"connected_time":2268000000000,"state":"active","ping":83},{"user_id":139,"name":"NotAName","steam_id":76561198192584098,"connected_time":1125000000000,"state":"active","ping":106},{"user_id":93,"name":"b3afy","steam_id":76561198084208649,"connected_time":3428000000000,"state":"active","ping":91},{"user_id":95,"name":"Mrs.Frizzle","steam_id":76561198117157085,"connected_time":3349000000000,"state":"active","ping":73},{"user_id":132,"name":"Devoid","steam_id":76561198254039012,"connected_time":1275000000000,"state":"active","ping":57}]},{"server_id":37,"name":"Uncletopia | Chicago | 6 | All Maps","name_short":"chi-6","host":"chi-2.us.uncletopia.com","port":27025,"enabled":true,"region":"us-central","cc":"us","latitude":41.881832,"longitude":-87.62318,"reserved":0,"last_update":"0001-01-01T00:00:00Z","name_a2s":"Uncletopia | Chicago | 6 | All Maps","protocol":17,"map":"pl_frontier_final","folder":"tf","game":"Team Fortress","app_id":440,"player_count":24,"max_players":24,"Bots":0,"server_type":"Dedicated","server_os":"Linux","password":true,"vac":true,"version":"7961495","steam_id":85568392924866363,"keywords":["nocrits","nodmgspread","payload","uncletopia"],"game_id":440,"stv_port":27026,"stv_name":"Uncletopia | Chicago | 6 | All Maps | STV","players":[{"user_id":243,"name":"❤Goobling❤","steam_id":76561198132044633,"connected_time":76000000000,"state":"active","ping":55},{"user_id":195,"name":"bananalover5","steam_id":76561199143854578,"connected_time":2176000000000,"state":"active","ping":87},{"user_id":235,"name":"rontu","steam_id":76561199072955534,"connected_time":475000000000,"state":"active","ping":58},{"user_id":233,"name":"FrostNova","steam_id":76561198348354629,"connected_time":512000000000,"state":"active","ping":98},{"user_id":242,"name":"jolo","steam_id":76561198042831480,"connected_time":93000000000,"state":"active","ping":62},{"user_id":194,"name":"sneed","steam_id":76561198118010424,"connected_time":2271000000000,"state":"active","ping":104},{"user_id":186,"name":"ElephantHydrogen4277882","steam_id":76561198175741741,"connected_time":3731000000000,"state":"active","ping":75},{"user_id":241,"name":"pHsHy","steam_id":76561198013195018,"connected_time":147000000000,"state":"active","ping":76},{"user_id":220,"name":"Spooticus","steam_id":76561198202296756,"connected_time":1318000000000,"state":"active","ping":102},{"user_id":236,"name":"MrBiggieCheese.","steam_id":76561199489528525,"connected_time":432000000000,"state":"active","ping":98},{"user_id":221,"name":"SantaMuerte","steam_id":76561198039898148,"connected_time":1283000000000,"state":"active","ping":73},{"user_id":140,"name":"Sockhead","steam_id":76561198253181773,"connected_time":5793000000000,"state":"active","ping":87},{"user_id":214,"name":"REALoctodad1979","steam_id":76561198866497282,"connected_time":1529000000000,"state":"active","ping":164},{"user_id":179,"name":":)","steam_id":76561198093921290,"connected_time":4039000000000,"state":"active","ping":44},{"user_id":217,"name":"Scum Knight | T.I.D.K.","steam_id":76561198282444763,"connected_time":1366000000000,"state":"active","ping":66},{"user_id":222,"name":"Clockwerk","steam_id":76561198069975596,"connected_time":1280000000000,"state":"active","ping":75},{"user_id":142,"name":"StraySheep","steam_id":76561198256003811,"connected_time":5672000000000,"state":"active","ping":69},{"user_id":185,"name":"JamakaJudd","steam_id":76561198045755086,"connected_time":3785000000000,"state":"active","ping":73},{"user_id":231,"name":"Owl Pacino","steam_id":76561197979970666,"connected_time":904000000000,"state":"active","ping":55},{"user_id":224,"name":"3/4'' x 18'' industrial pipe","steam_id":76561198094042613,"connected_time":1247000000000,"state":"active","ping":71},{"user_id":226,"name":"1-800-GHOST-DANCE","steam_id":76561198835430429,"connected_time":1214000000000,"state":"active","ping":90},{"user_id":238,"name":"roto","steam_id":76561198138735860,"connected_time":222000000000,"state":"active","ping":69},{"user_id":239,"name":"the zoo","steam_id":76561198013732450,"connected_time":196000000000,"state":"active","ping":52},{"user_id":228,"name":"StupidUgly","steam_id":76561198029187395,"connected_time":1071000000000,"state":"active","ping":85}]},{"server_id":38,"name":"Uncletopia | Chicago | 7 | Stopwatch Beta","name_short":"chi-7","host":"chi-2.us.uncletopia.com","port":27035,"enabled":true,"region":"us-central","cc":"us","latitude":41.881832,"longitude":-87.62318,"reserved":0,"last_update":"0001-01-01T00:00:00Z","name_a2s":"Uncletopia | Chicago | 7 | Stopwatch Beta","protocol":17,"map":"cp_process_final","folder":"tf","game":"Team Fortress","app_id":440,"player_count":1,"max_players":24,"Bots":0,"server_type":"Dedicated","server_os":"Linux","password":true,"vac":true,"version":"7961495","steam_id":85568392924866364,"keywords":["cp","nocrits","nodmgspread","uncletopia"],"game_id":440,"stv_port":27036,"stv_name":"Uncletopia | Chicago | 7 | Stopwatch Beta | STV","players":[{"user_id":9,"name":"firstlastmcgee","steam_id":76561198170187989,"connected_time":103000000000,"state":"active","ping":56}]},{"server_id":39,"name":"Uncletopia | Chicago | 8 | Community","name_short":"chi-8","host":"chi-2.us.uncletopia.com","port":27045,"enabled":true,"region":"us-central","cc":"us","latitude":41.881832,"longitude":-87.62318,"reserved":0,"last_update":"0001-01-01T00:00:00Z","name_a2s":"Uncletopia | Chicago | 8 | Community","protocol":17,"map":"workshop/rd_asteroid_redux_b1.ugc2154902912","folder":"tf","game":"Team Fortress","app_id":440,"player_count":0,"max_players":24,"Bots":0,"server_type":"Dedicated","server_os":"Linux","password":true,"vac":true,"version":"7961495","steam_id":85568392924866365,"keywords":["beta","nocrits","nodmgspread","rd","uncletopia"],"game_id":440,"stv_port":27046,"stv_name":"Uncletopia | Chicago | 8 | Community | STV","players":null},{"server_id":8,"name":"Uncletopia | Dallas | 1 | All Maps","name_short":"dal-1","host":"dal-1.us.uncletopia.com","port":27015,"enabled":true,"region":"us-central","cc":"us","latitude":32.779167,"longitude":-96.80889,"reserved":0,"last_update":"0001-01-01T00:00:00Z","name_a2s":"Uncletopia | Dallas | 1 | All Maps","protocol":17,"map":"pl_upward","folder":"tf","game":"Team Fortress","app_id":440,"player_count":24,"max_players":24,"Bots":0,"server_type":"Dedicated","server_os":"Linux","password":true,"vac":true,"version":"7961495","steam_id":85568392924469986,"keywords":["nocrits","nodmgspread","payload","uncletopia"],"game_id":440,"stv_port":27016,"stv_name":"Uncletopia | Dallas | 1 | All Maps | STV","players":[{"user_id":318,"name":"Weeb","steam_id":76561198333568146,"connected_time":116000000000,"state":"active","ping":90},{"user_id":287,"name":"Ryzema","steam_id":76561198165594229,"connected_time":1869000000000,"state":"active","ping":90},{"user_id":265,"name":"Galmart","steam_id":76561199122036524,"connected_time":3110000000000,"state":"active","ping":76},{"user_id":319,"name":"oncologist","steam_id":76561197997321386,"connected_time":113000000000,"state":"active","ping":49},{"user_id":320,"name":"Wagemage","steam_id":76561198013625580,"connected_time":112000000000,"state":"active","ping":80},{"user_id":274,"name":"GravyPouch","steam_id":76561198067539038,"connected_time":2797000000000,"state":"active","ping":77},{"user_id":322,"name":"ZILICON","steam_id":76561199044705592,"connected_time":48000000000,"state":"spawning","ping":128},{"user_id":306,"name":"Rodgedan","steam_id":76561198226236524,"connected_time":634000000000,"state":"active","ping":92},{"user_id":307,"name":"Degree","steam_id":76561198059812393,"connected_time":625000000000,"state":"active","ping":90},{"user_id":284,"name":"Joe Nathan","steam_id":76561198041030399,"connected_time":2087000000000,"state":"active","ping":58},{"user_id":256,"name":"Walrusto","steam_id":76561198829644616,"connected_time":4692000000000,"state":"active","ping":73},{"user_id":311,"name":"Jonatello","steam_id":76561198045699189,"connected_time":410000000000,"state":"active","ping":103},{"user_id":255,"name":"trash beast","steam_id":76561198015792736,"connected_time":4714000000000,"state":"active","ping":81},{"user_id":308,"name":"rapscallion","steam_id":76561198188722751,"connected_time":572000000000,"state":"active","ping":87},{"user_id":289,"name":"adapt","steam_id":76561198156181017,"connected_time":1674000000000,"state":"active","ping":91},{"user_id":258,"name":"Willham","steam_id":76561198065755781,"connected_time":4683000000000,"state":"active","ping":89},{"user_id":286,"name":"TechnoBear2099","steam_id":76561198238863596,"connected_time":1920000000000,"state":"active","ping":50},{"user_id":279,"name":"pinglefingle","steam_id":76561198216580197,"connected_time":2488000000000,"state":"active","ping":50},{"user_id":321,"name":"boys don't cry","steam_id":76561198392539722,"connected_time":110000000000,"state":"active","ping":81},{"user_id":304,"name":"slowdance","steam_id":76561198097427947,"connected_time":697000000000,"state":"active","ping":127},{"user_id":298,"name":"Nammu","steam_id":76561198067778161,"connected_time":1068000000000,"state":"active","ping":94},{"user_id":204,"name":"Gwando","steam_id":76561198294629124,"connected_time":8227000000000,"state":"active","ping":48},{"user_id":292,"name":"Whatrus","steam_id":76561198340908301,"connected_time":1558000000000,"state":"active","ping":107},{"user_id":310,"name":"Rappitor","steam_id":76561198105613110,"connected_time":544000000000,"state":"active","ping":69}]},{"server_id":108,"name":"Uncletopia | Dallas | 2 | All Maps","name_short":"dal-2","host":"dal-1.us.uncletopia.com","port":27025,"enabled":true,"region":"us-central","cc":"us","latitude":32.779167,"longitude":-96.80889,"reserved":0,"last_update":"0001-01-01T00:00:00Z","name_a2s":"Uncletopia | Dallas | 2 | All Maps","protocol":17,"map":"pl_borneo","folder":"tf","game":"Team Fortress","app_id":440,"player_count":24,"max_players":24,"Bots":0,"server_type":"Dedicated","server_os":"Linux","password":true,"vac":true,"version":"7961495","steam_id":85568392924469988,"keywords":["nocrits","nodmgspread","payload","uncletopia"],"game_id":440,"stv_port":27026,"stv_name":"Uncletopia | Dallas | 2 | All Maps | STV","players":[{"user_id":58,"name":"Doctor Emerald(real)","steam_id":76561199123003872,"connected_time":847000000000,"state":"active","ping":87},{"user_id":18,"name":"GameBreaker","steam_id":76561198836171572,"connected_time":3140000000000,"state":"active","ping":96},{"user_id":40,"name":"happy","steam_id":76561198239447530,"connected_time":2490000000000,"state":"active","ping":96},{"user_id":59,"name":"★ ★ AL ★ ★","steam_id":76561199020764069,"connected_time":672000000000,"state":"active","ping":105},{"user_id":11,"name":"Rob","steam_id":76561199187786660,"connected_time":3931000000000,"state":"active","ping":52},{"user_id":12,"name":"ENDZER_JAW","steam_id":76561198115923227,"connected_time":3865000000000,"state":"active","ping":74},{"user_id":54,"name":"Sup m8","steam_id":76561198081659121,"connected_time":1626000000000,"state":"active","ping":44},{"user_id":30,"name":"CeLeb144","steam_id":76561199089907740,"connected_time":2795000000000,"state":"active","ping":66},{"user_id":22,"name":"PhobixTheThing","steam_id":76561199059009386,"connected_time":3001000000000,"state":"active","ping":71},{"user_id":56,"name":"Agent Tibbs","steam_id":76561198139418570,"connected_time":979000000000,"state":"active","ping":74},{"user_id":21,"name":"Wolfman","steam_id":76561198095264646,"connected_time":3069000000000,"state":"active","ping":57},{"user_id":51,"name":"Chunk Stuffer","steam_id":76561198856508573,"connected_time":1919000000000,"state":"active","ping":30},{"user_id":63,"name":"❤ Ashley ❤","steam_id":76561198056428303,"connected_time":631000000000,"state":"active","ping":75},{"user_id":62,"name":"Ominous Whir","steam_id":76561198002851724,"connected_time":652000000000,"state":"active","ping":42},{"user_id":27,"name":"Shalom","steam_id":76561198410005222,"connected_time":2865000000000,"state":"active","ping":61},{"user_id":57,"name":"PizzaFratello","steam_id":76561199059951970,"connected_time":931000000000,"state":"active","ping":69},{"user_id":64,"name":"Brug the useless idiot","steam_id":76561198843776880,"connected_time":570000000000,"state":"active","ping":96},{"user_id":65,"name":"beans","steam_id":76561199082781884,"connected_time":426000000000,"state":"active","ping":65},{"user_id":53,"name":"dudeguypersonmanhombre","steam_id":76561198052016845,"connected_time":1739000000000,"state":"active","ping":76},{"user_id":37,"name":"Space360","steam_id":76561198106743284,"connected_time":2567000000000,"state":"active","ping":113},{"user_id":49,"name":"KaijuCowBelle","steam_id":76561198191619439,"connected_time":2119000000000,"state":"active","ping":77},{"user_id":61,"name":"Rat Bastard","steam_id":76561198153443658,"connected_time":655000000000,"state":"active","ping":85},{"user_id":55,"name":"Sapphuchi","steam_id":76561198046706217,"connected_time":1571000000000,"state":"active","ping":88},{"user_id":46,"name":"MrManlet","steam_id":76561198148597989,"connected_time":2340000000000,"state":"active","ping":123}]},{"server_id":404,"name":"Uncletopia | Dallas | 3 | All Maps","name_short":"dal-3","host":"dal-1.us.uncletopia.com","port":27035,"enabled":true,"region":"us-central","cc":"us","latitude":32.779167,"longitude":-96.80889,"reserved":0,"last_update":"0001-01-01T00:00:00Z","name_a2s":"Uncletopia | Dallas | 3 | All Maps","protocol":17,"map":"pl_badwater","folder":"tf","game":"Team Fortress","app_id":440,"player_count":1,"max_players":24,"Bots":0,"server_type":"Dedicated","server_os":"Linux","password":true,"vac":true,"version":"7961495","steam_id":85568392924515219,"keywords":["nocrits","nodmgspread","payload","uncletopia"],"game_id":440,"stv_port":27036,"stv_name":"Uncletopia | Dallas | 3 | All Maps | STV","players":[{"user_id":5,"name":"Arch Mage Succledore","steam_id":76561199183170534,"connected_time":0,"state":"spawning","ping":14}]},{"server_id":405,"name":"Uncletopia | Dallas | 4 | Community","name_short":"dal-4","host":"dal-1.us.uncletopia.com","port":27045,"enabled":true,"region":"us-central","cc":"us","latitude":32.779167,"longitude":-96.80889,"reserved":0,"last_update":"0001-01-01T00:00:00Z","name_a2s":"Uncletopia | Dallas | 4 | Community","protocol":17,"map":"pl_badwater","folder":"tf","game":"Team Fortress","app_id":440,"player_count":0,"max_players":24,"Bots":0,"server_type":"Dedicated","server_os":"Linux","password":true,"vac":true,"version":"7961495","steam_id":85568392924515220,"keywords":["nocrits","nodmgspread","payload","uncletopia"],"game_id":440,"stv_port":27046,"stv_name":"Uncletopia | Dallas | 4 | Community | STV","players":null},{"server_id":5,"name":"Uncletopia | Frankfurt | 1 | All Maps","name_short":"frk-1","host":"frk-1.de.uncletopia.com","port":27015,"enabled":true,"region":"eu","cc":"de","latitude":50.110924,"longitude":8.682127,"reserved":0,"last_update":"0001-01-01T00:00:00Z","name_a2s":"Uncletopia | Frankfurt | 1 | All Maps","protocol":17,"map":"koth_harvest_final","folder":"tf","game":"Team Fortress","app_id":440,"player_count":24,"max_players":24,"Bots":0,"server_type":"Dedicated","server_os":"Linux","password":true,"vac":true,"version":"7961495","steam_id":85568392924469989,"keywords":["cp","nocrits","nodmgspread","uncletopia"],"game_id":440,"stv_port":27016,"stv_name":"Uncletopia | Frankfurt | 1 | All Maps | STV","players":[{"user_id":763,"name":"Mébh Óg MacTíre","steam_id":76561198346399624,"connected_time":690000000000,"state":"active","ping":73},{"user_id":777,"name":"Fran","steam_id":76561199070516960,"connected_time":26000000000,"state":"active","ping":67},{"user_id":725,"name":"artem2010ibrag","steam_id":76561199391141367,"connected_time":2818000000000,"state":"active","ping":139},{"user_id":773,"name":"jShroom","steam_id":76561198833885769,"connected_time":137000000000,"state":"active","ping":68},{"user_id":709,"name":"Piox","steam_id":76561198125689157,"connected_time":3472000000000,"state":"active","ping":77},{"user_id":767,"name":"smallGIGACHAD","steam_id":76561198047359132,"connected_time":388000000000,"state":"active","ping":60},{"user_id":775,"name":"Silver","steam_id":76561198175238807,"connected_time":60000000000,"state":"active","ping":56},{"user_id":728,"name":"Phranz","steam_id":76561198029112502,"connected_time":2528000000000,"state":"active","ping":98},{"user_id":769,"name":"Tekky☻","steam_id":76561197990987315,"connected_time":320000000000,"state":"active","ping":54},{"user_id":755,"name":"realness","steam_id":76561199129226935,"connected_time":1192000000000,"state":"active","ping":89},{"user_id":719,"name":"1common1","steam_id":76561197985765081,"connected_time":3301000000000,"state":"active","ping":92},{"user_id":770,"name":"thekoolest88","steam_id":76561199022415672,"connected_time":311000000000,"state":"active","ping":153},{"user_id":765,"name":"soaky","steam_id":76561198370423514,"connected_time":398000000000,"state":"active","ping":45},{"user_id":776,"name":"Sneaky boi (extremely drunk)","steam_id":76561199195985387,"connected_time":46000000000,"state":"active","ping":71},{"user_id":730,"name":"BackDoorExit","steam_id":76561199136645382,"connected_time":2460000000000,"state":"active","ping":71},{"user_id":723,"name":"xamm9234","steam_id":76561199494509865,"connected_time":3101000000000,"state":"active","ping":83},{"user_id":745,"name":"KingDuckTheGreat","steam_id":76561199013190605,"connected_time":1759000000000,"state":"active","ping":74},{"user_id":766,"name":"E² FTH","steam_id":76561198066287815,"connected_time":398000000000,"state":"active","ping":120},{"user_id":772,"name":"avanaR","steam_id":76561198132062124,"connected_time":253000000000,"state":"active","ping":60},{"user_id":756,"name":"Balintpalo","steam_id":76561198070882644,"connected_time":1189000000000,"state":"active","ping":72},{"user_id":758,"name":"Michael","steam_id":76561198003146906,"connected_time":1096000000000,"state":"active","ping":59},{"user_id":757,"name":"Not A Fake Uncletopia Server","steam_id":76561198152871288,"connected_time":1142000000000,"state":"active","ping":68},{"user_id":748,"name":"◄ Eppp","steam_id":76561198054316872,"connected_time":1746000000000,"state":"active","ping":68},{"user_id":760,"name":"Almond devourer","steam_id":76561198194866089,"connected_time":961000000000,"state":"active","ping":83}]},{"server_id":110,"name":"Uncletopia | Frankfurt | 2 | All Maps","name_short":"frk-2","host":"frk-1.de.uncletopia.com","port":27025,"enabled":true,"region":"eu","cc":"de","latitude":50.110924,"longitude":8.682127,"reserved":0,"last_update":"0001-01-01T00:00:00Z","name_a2s":"Uncletopia | Frankfurt | 2 | All Maps","protocol":17,"map":"pl_frontier_final","folder":"tf","game":"Team Fortress","app_id":440,"player_count":24,"max_players":24,"Bots":0,"server_type":"Dedicated","server_os":"Linux","password":true,"vac":true,"version":"7961495","steam_id":85568392924469990,"keywords":["nocrits","nodmgspread","payload","uncletopia"],"game_id":440,"stv_port":27026,"stv_name":"Uncletopia | Frankfurt | 2 | All Maps | STV","players":[{"user_id":623,"name":"yrry","steam_id":76561198172055429,"connected_time":873000000000,"state":"active","ping":69},{"user_id":511,"name":"jona3838","steam_id":76561199097658195,"connected_time":9743000000000,"state":"active","ping":103},{"user_id":588,"name":"The Manager of Sex","steam_id":76561198385989487,"connected_time":2851000000000,"state":"active","ping":343},{"user_id":574,"name":"jill sandwich","steam_id":76561198075068529,"connected_time":3890000000000,"state":"active","ping":51},{"user_id":625,"name":"manKe","steam_id":76561198008564860,"connected_time":575000000000,"state":"active","ping":60},{"user_id":566,"name":"PlebCord","steam_id":76561198120685803,"connected_time":4522000000000,"state":"active","ping":81},{"user_id":619,"name":"EggHunter","steam_id":76561199195540039,"connected_time":1126000000000,"state":"active","ping":71},{"user_id":627,"name":"JGV","steam_id":76561198094654971,"connected_time":66000000000,"state":"active","ping":87},{"user_id":602,"name":"smoking hash till the ashes","steam_id":76561198273358760,"connected_time":1629000000000,"state":"active","ping":60},{"user_id":617,"name":"Doggo225","steam_id":76561198166707002,"connected_time":1143000000000,"state":"active","ping":48},{"user_id":622,"name":"w+m1","steam_id":76561198010428082,"connected_time":1035000000000,"state":"active","ping":66},{"user_id":605,"name":"KMP","steam_id":76561198278707199,"connected_time":1563000000000,"state":"active","ping":65},{"user_id":614,"name":"Owlet","steam_id":76561198065613974,"connected_time":1186000000000,"state":"active","ping":69},{"user_id":624,"name":"Wolfdad Duke","steam_id":76561197986442930,"connected_time":866000000000,"state":"active","ping":60},{"user_id":568,"name":"Turd Burglar","steam_id":76561198931299637,"connected_time":4506000000000,"state":"active","ping":164},{"user_id":606,"name":"Fuck Tha Police","steam_id":76561198050076376,"connected_time":1562000000000,"state":"active","ping":64},{"user_id":528,"name":"bigwish | bmod.tf","steam_id":76561197997859723,"connected_time":8950000000000,"state":"active","ping":75},{"user_id":590,"name":"cargo_conductor_754","steam_id":76561198165604007,"connected_time":2383000000000,"state":"active","ping":55},{"user_id":611,"name":"laser","steam_id":76561198036030697,"connected_time":1323000000000,"state":"active","ping":61},{"user_id":615,"name":"Max Power","steam_id":76561198019269089,"connected_time":1165000000000,"state":"active","ping":46},{"user_id":618,"name":"Teofil Fiutt","steam_id":76561198238665280,"connected_time":1137000000000,"state":"active","ping":85},{"user_id":554,"name":"john fortress","steam_id":76561198013237629,"connected_time":6867000000000,"state":"active","ping":110},{"user_id":620,"name":"seagull","steam_id":76561199492108416,"connected_time":1121000000000,"state":"active","ping":86},{"user_id":564,"name":"vurtun","steam_id":76561198857395274,"connected_time":5710000000000,"state":"active","ping":52}]},{"server_id":308,"name":"Uncletopia | Frankfurt | 3 | All Maps","name_short":"frk-3","host":"frk-1.de.uncletopia.com","port":27035,"enabled":true,"region":"eu","cc":"de","latitude":50.110924,"longitude":8.682127,"reserved":0,"last_update":"0001-01-01T00:00:00Z","name_a2s":"Uncletopia | Frankfurt | 3 | All Maps","protocol":17,"map":"pl_borneo","folder":"tf","game":"Team Fortress","app_id":440,"player_count":23,"max_players":24,"Bots":0,"server_type":"Dedicated","server_os":"Linux","password":true,"vac":true,"version":"7961495","steam_id":85568392924504274,"keywords":["nocrits","nodmgspread","payload","uncletopia"],"game_id":440,"stv_port":27036,"stv_name":"Uncletopia | Frankfurt | 3 | All Maps | STV","players":[{"user_id":439,"name":"","steam_id":76561198973232202,"connected_time":2137000000000,"state":"active","ping":85},{"user_id":440,"name":"GrottoİsTaken","steam_id":76561198969893287,"connected_time":2135000000000,"state":"active","ping":101},{"user_id":464,"name":"Vischan but worse","steam_id":76561199371650805,"connected_time":517000000000,"state":"active","ping":85},{"user_id":460,"name":"midlpsyzl47","steam_id":76561199475972637,"connected_time":718000000000,"state":"active","ping":58},{"user_id":390,"name":"tequila sunset","steam_id":76561198315969106,"connected_time":5393000000000,"state":"active","ping":92},{"user_id":442,"name":"Kapitan Polska","steam_id":76561197968069413,"connected_time":2087000000000,"state":"active","ping":66},{"user_id":443,"name":"Gent","steam_id":76561198037167890,"connected_time":2070000000000,"state":"active","ping":75},{"user_id":420,"name":"Tutitu","steam_id":76561198110584542,"connected_time":4292000000000,"state":"active","ping":94},{"user_id":458,"name":"AnanasGerste","steam_id":76561198133825211,"connected_time":1087000000000,"state":"active","ping":44},{"user_id":465,"name":"murf","steam_id":76561199184831395,"connected_time":421000000000,"state":"active","ping":52},{"user_id":461,"name":"Cookies and Bakies","steam_id":76561198017442928,"connected_time":606000000000,"state":"active","ping":53},{"user_id":435,"name":"MudFlap","steam_id":76561198257541676,"connected_time":2986000000000,"state":"active","ping":108},{"user_id":466,"name":"._.","steam_id":76561198300316801,"connected_time":383000000000,"state":"active","ping":127},{"user_id":424,"name":"ŁEPEK02","steam_id":76561198230715748,"connected_time":4093000000000,"state":"active","ping":93},{"user_id":451,"name":"APELOR","steam_id":76561198436284444,"connected_time":1636000000000,"state":"active","ping":72},{"user_id":419,"name":"Kamanie","steam_id":76561198135448255,"connected_time":4419000000000,"state":"active","ping":60},{"user_id":468,"name":"squillisky","steam_id":76561198083569327,"connected_time":18000000000,"state":"active","ping":66},{"user_id":456,"name":"etc","steam_id":76561197998394797,"connected_time":1470000000000,"state":"active","ping":55},{"user_id":447,"name":"Berdly","steam_id":76561199029872533,"connected_time":1914000000000,"state":"active","ping":97},{"user_id":470,"name":"AwZooom","steam_id":76561198154061149,"connected_time":1000000000,"state":"spawning","ping":160},{"user_id":467,"name":"Philosophos_Alpha","steam_id":76561198951264580,"connected_time":335000000000,"state":"active","ping":97},{"user_id":331,"name":"Noam","steam_id":76561198057789807,"connected_time":6955000000000,"state":"active","ping":91},{"user_id":453,"name":"Hetmanych","steam_id":76561198870926865,"connected_time":1598000000000,"state":"active","ping":54}]},{"server_id":309,"name":"Uncletopia | Frankfurt | 4 | All Maps","name_short":"frk-4","host":"frk-1.de.uncletopia.com","port":27045,"enabled":true,"region":"eu","cc":"de","latitude":50.110924,"longitude":8.682127,"reserved":0,"last_update":"0001-01-01T00:00:00Z","name_a2s":"Uncletopia | Frankfurt | 4 | All Maps","protocol":17,"map":"cp_dustbowl","folder":"tf","game":"Team Fortress","app_id":440,"player_count":24,"max_players":24,"Bots":0,"server_type":"Dedicated","server_os":"Linux","password":true,"vac":true,"version":"7961495","steam_id":85568392924504275,"keywords":["cp","nocrits","nodmgspread","uncletopia"],"game_id":440,"stv_port":27046,"stv_name":"Uncletopia | Frankfurt | 4 | All Maps | STV","players":[{"user_id":449,"name":"StingyLettuce","steam_id":76561199010337406,"connected_time":1844000000000,"state":"active","ping":113},{"user_id":431,"name":"Bat Georgi","steam_id":76561198361144342,"connected_time":2735000000000,"state":"active","ping":84},{"user_id":436,"name":"Finnish Farmer","steam_id":76561198205366043,"connected_time":2421000000000,"state":"active","ping":85},{"user_id":415,"name":"leonardini.w","steam_id":76561199097963071,"connected_time":3522000000000,"state":"active","ping":84},{"user_id":414,"name":"Drake theduck","steam_id":76561199182279601,"connected_time":3540000000000,"state":"active","ping":100},{"user_id":381,"name":"drama606","steam_id":76561199436213204,"connected_time":6242000000000,"state":"active","ping":120},{"user_id":423,"name":"Creative","steam_id":76561198835034247,"connected_time":3225000000000,"state":"active","ping":80},{"user_id":462,"name":"FUKAYOU","steam_id":76561198380484033,"connected_time":873000000000,"state":"active","ping":59},{"user_id":464,"name":"Mr.Shpee","steam_id":76561198158701474,"connected_time":752000000000,"state":"active","ping":77},{"user_id":434,"name":"Fredde5","steam_id":76561198102482063,"connected_time":2519000000000,"state":"active","ping":60},{"user_id":452,"name":"daanvanliempt05","steam_id":76561198355398948,"connected_time":1675000000000,"state":"active","ping":45},{"user_id":425,"name":"Henry Fonda","steam_id":76561199378865926,"connected_time":3113000000000,"state":"active","ping":96},{"user_id":460,"name":"17","steam_id":76561198172987322,"connected_time":1056000000000,"state":"active","ping":59},{"user_id":437,"name":"Skrbi❤","steam_id":76561198393866042,"connected_time":2255000000000,"state":"active","ping":75},{"user_id":459,"name":"FlammenwerferPanzer","steam_id":76561199096682977,"connected_time":1290000000000,"state":"active","ping":73},{"user_id":446,"name":"Otto Mobile","steam_id":76561198060339391,"connected_time":2007000000000,"state":"active","ping":45},{"user_id":447,"name":"AVR1H.COM","steam_id":76561199000829228,"connected_time":1943000000000,"state":"active","ping":101},{"user_id":465,"name":"AzureTestament","steam_id":76561198147007440,"connected_time":751000000000,"state":"active","ping":66},{"user_id":453,"name":"Not Sussy Tanuki","steam_id":76561198137289375,"connected_time":1665000000000,"state":"active","ping":99},{"user_id":429,"name":"Driver's drunkest God","steam_id":76561198969373800,"connected_time":2790000000000,"state":"active","ping":68},{"user_id":463,"name":"BlaVis","steam_id":76561198045847329,"connected_time":857000000000,"state":"active","ping":55},{"user_id":432,"name":"Japie06","steam_id":76561198005877406,"connected_time":2734000000000,"state":"active","ping":52},{"user_id":466,"name":"MechaMic_38","steam_id":76561198375500772,"connected_time":426000000000,"state":"active","ping":104},{"user_id":441,"name":"Door","steam_id":76561198111462976,"connected_time":2159000000000,"state":"active","ping":74}]},{"server_id":310,"name":"Uncletopia | Frankfurt | 5 | All Maps","name_short":"frk-5","host":"frk-1.de.uncletopia.com","port":27055,"enabled":true,"region":"eu","cc":"de","latitude":50.110924,"longitude":8.682127,"reserved":0,"last_update":"0001-01-01T00:00:00Z","name_a2s":"Uncletopia | Frankfurt | 5 | All Maps","protocol":17,"map":"cp_dustbowl","folder":"tf","game":"Team Fortress","app_id":440,"player_count":24,"max_players":24,"Bots":0,"server_type":"Dedicated","server_os":"Linux","password":true,"vac":true,"version":"7961495","steam_id":85568392924504277,"keywords":["cp","nocrits","nodmgspread","uncletopia"],"game_id":440,"stv_port":27056,"stv_name":"Uncletopia | Frankfurt | 5 | All Maps | STV","players":[{"user_id":412,"name":"jovi_","steam_id":76561198449280552,"connected_time":24000000000,"state":"active","ping":56},{"user_id":370,"name":"Arsonist","steam_id":76561199087953833,"connected_time":2172000000000,"state":"active","ping":99},{"user_id":404,"name":"kris_thepurge.xyz","steam_id":76561199067624690,"connected_time":51000000000,"state":"active","ping":65},{"user_id":388,"name":"Cirox","steam_id":76561198383142404,"connected_time":1304000000000,"state":"active","ping":79},{"user_id":414,"name":"skip","steam_id":76561198082418379,"connected_time":19000000000,"state":"active","ping":71},{"user_id":342,"name":"Oceanic | tuesday maybe","steam_id":76561197979741827,"connected_time":3975000000000,"state":"active","ping":69},{"user_id":398,"name":"stivanaker","steam_id":76561198346276579,"connected_time":768000000000,"state":"active","ping":168},{"user_id":407,"name":"God's Goofiest Goober","steam_id":76561198103175187,"connected_time":47000000000,"state":"active","ping":66},{"user_id":400,"name":"typicalcrimson","steam_id":76561198295439747,"connected_time":72000000000,"state":"active","ping":70},{"user_id":369,"name":"Whackyone5588","steam_id":76561198846242972,"connected_time":2281000000000,"state":"active","ping":128},{"user_id":390,"name":"j","steam_id":76561198299474630,"connected_time":1233000000000,"state":"active","ping":44},{"user_id":415,"name":"Fagette","steam_id":76561198165878858,"connected_time":19000000000,"state":"spawning","ping":64},{"user_id":318,"name":"Bloedmann","steam_id":76561197980006255,"connected_time":6044000000000,"state":"active","ping":43},{"user_id":416,"name":"Reague","steam_id":76561199092175631,"connected_time":17000000000,"state":"spawning","ping":172},{"user_id":408,"name":"RemRem","steam_id":76561199005155029,"connected_time":46000000000,"state":"active","ping":73},{"user_id":374,"name":"gyn spu","steam_id":76561198878687605,"connected_time":2102000000000,"state":"active","ping":150},{"user_id":381,"name":"wentilyator","steam_id":76561198173626526,"connected_time":1742000000000,"state":"active","ping":81},{"user_id":367,"name":"Sch","steam_id":76561198071341689,"connected_time":2378000000000,"state":"active","ping":58},{"user_id":410,"name":"Szczuruw Krul","steam_id":76561198248227378,"connected_time":41000000000,"state":"active","ping":70},{"user_id":386,"name":"ᴀꜱᴋᴜʟᴀᴘ","steam_id":76561197992018795,"connected_time":1398000000000,"state":"active","ping":77},{"user_id":395,"name":"Deckard","steam_id":76561198004704647,"connected_time":1136000000000,"state":"active","ping":70},{"user_id":396,"name":"Archive","steam_id":76561198071255385,"connected_time":1117000000000,"state":"active","ping":89},{"user_id":417,"name":"Truegear","steam_id":76561198059511386,"connected_time":15000000000,"state":"spawning","ping":381},{"user_id":392,"name":"_D4VID","steam_id":76561198163317060,"connected_time":1227000000000,"state":"active","ping":36}]},{"server_id":311,"name":"Uncletopia | Frankfurt | 6 | All Maps","name_short":"frk-6","host":"frk-1.de.uncletopia.com","port":27065,"enabled":true,"region":"eu","cc":"de","latitude":50.110924,"longitude":8.682127,"reserved":0,"last_update":"0001-01-01T00:00:00Z","name_a2s":"Uncletopia | Frankfurt | 6 | All Maps","protocol":17,"map":"pl_thundermountain","folder":"tf","game":"Team Fortress","app_id":440,"player_count":24,"max_players":24,"Bots":0,"server_type":"Dedicated","server_os":"Linux","password":true,"vac":true,"version":"7961495","steam_id":85568392924504278,"keywords":["nocrits","nodmgspread","payload","uncletopia"],"game_id":440,"stv_port":27066,"stv_name":"Uncletopia | Frankfurt | 6 | All Maps | STV","players":[{"user_id":266,"name":"REN","steam_id":76561198000596385,"connected_time":1059000000000,"state":"active","ping":66},{"user_id":236,"name":"UseCondomsKid","steam_id":76561198325375997,"connected_time":4707000000000,"state":"active","ping":98},{"user_id":243,"name":"♂ Animan ♂ Studios ♂","steam_id":76561198308302932,"connected_time":3590000000000,"state":"active","ping":102},{"user_id":162,"name":"Kitoglav Kito","steam_id":76561198359912140,"connected_time":10006000000000,"state":"active","ping":79},{"user_id":278,"name":"I I","steam_id":76561199101935057,"connected_time":225000000000,"state":"active","ping":100},{"user_id":274,"name":"ryns72","steam_id":76561198099451291,"connected_time":415000000000,"state":"active","ping":165},{"user_id":275,"name":"Invoker-sama","steam_id":76561198128470403,"connected_time":327000000000,"state":"active","ping":113},{"user_id":267,"name":"Wüstenfuchs","steam_id":76561198453885708,"connected_time":955000000000,"state":"active","ping":73},{"user_id":261,"name":"U Mad????","steam_id":76561199094660319,"connected_time":2120000000000,"state":"active","ping":75},{"user_id":273,"name":"Sprite790856","steam_id":76561198440389325,"connected_time":575000000000,"state":"active","ping":169},{"user_id":226,"name":"m909","steam_id":76561198279621400,"connected_time":4937000000000,"state":"active","ping":86},{"user_id":252,"name":"Q U E E N A L E X","steam_id":76561198186341157,"connected_time":3196000000000,"state":"active","ping":56},{"user_id":281,"name":"Dapper Pan Man","steam_id":76561197981874399,"connected_time":9000000000,"state":"active","ping":121},{"user_id":276,"name":"Der Herr Doktor","steam_id":76561198119476089,"connected_time":317000000000,"state":"active","ping":59},{"user_id":264,"name":"?TheEnd","steam_id":76561198055280327,"connected_time":1421000000000,"state":"active","ping":59},{"user_id":258,"name":"linkinparkfan123","steam_id":76561199033782005,"connected_time":2440000000000,"state":"active","ping":67},{"user_id":186,"name":"rwota","steam_id":76561198385769722,"connected_time":7138000000000,"state":"active","ping":98},{"user_id":219,"name":"Alice can't hit pipes","steam_id":76561198052410860,"connected_time":5414000000000,"state":"active","ping":141},{"user_id":227,"name":"kluri","steam_id":76561198084518962,"connected_time":4937000000000,"state":"active","ping":66},{"user_id":228,"name":"collin","steam_id":76561198067030681,"connected_time":4933000000000,"state":"active","ping":61},{"user_id":260,"name":"Name","steam_id":76561199111748012,"connected_time":2218000000000,"state":"active","ping":179},{"user_id":279,"name":"Krabs","steam_id":76561198161679477,"connected_time":179000000000,"state":"active","ping":60},{"user_id":247,"name":"Maddox","steam_id":76561198026419869,"connected_time":3519000000000,"state":"active","ping":74},{"user_id":182,"name":"−•−• •− −","steam_id":76561198139398425,"connected_time":7299000000000,"state":"active","ping":85}]},{"server_id":23,"name":"Uncletopia | Frankfurt | 7 | Stopwatch Beta","name_short":"frk-7","host":"frk-1.de.uncletopia.com","port":27075,"enabled":true,"region":"eu","cc":"de","latitude":50.110924,"longitude":8.682127,"reserved":0,"last_update":"0001-01-01T00:00:00Z","name_a2s":"Uncletopia | Frankfurt | 7 | Stopwatch Beta","protocol":17,"map":"cp_sunshine","folder":"tf","game":"Team Fortress","app_id":440,"player_count":24,"max_players":24,"Bots":0,"server_type":"Dedicated","server_os":"Linux","password":true,"vac":true,"version":"7961495","steam_id":85568392924742827,"keywords":["cp","nocrits","nodmgspread","uncletopia"],"game_id":440,"stv_port":27076,"stv_name":"Uncletopia | Frankfurt | 7 | Stopwatch Beta | STV","players":[{"user_id":111,"name":"i am trash man","steam_id":76561198079524152,"connected_time":1182000000000,"state":"active","ping":48},{"user_id":75,"name":"Starman1985","steam_id":76561198986479706,"connected_time":3338000000000,"state":"active","ping":73},{"user_id":112,"name":"combine","steam_id":76561198007909007,"connected_time":1138000000000,"state":"active","ping":48},{"user_id":102,"name":"ゆず Gheist","steam_id":76561198178389593,"connected_time":1915000000000,"state":"active","ping":102},{"user_id":60,"name":"Musicano","steam_id":76561198114541088,"connected_time":3712000000000,"state":"active","ping":82},{"user_id":103,"name":"Nithle","steam_id":76561198025372740,"connected_time":1886000000000,"state":"active","ping":45},{"user_id":133,"name":"Blar","steam_id":76561198042438229,"connected_time":204000000000,"state":"active","ping":72},{"user_id":77,"name":"Laryssa","steam_id":76561198271084076,"connected_time":3208000000000,"state":"active","ping":73},{"user_id":123,"name":"Sonic","steam_id":76561198081692577,"connected_time":533000000000,"state":"active","ping":60},{"user_id":132,"name":"MrBanana","steam_id":76561198116021623,"connected_time":269000000000,"state":"active","ping":57},{"user_id":115,"name":"ゆず human player","steam_id":76561198031286581,"connected_time":991000000000,"state":"active","ping":46},{"user_id":116,"name":"Bullet magnet (FIN)","steam_id":76561197975715220,"connected_time":940000000000,"state":"active","ping":68},{"user_id":105,"name":"Fat Pigeon","steam_id":76561198817940142,"connected_time":1835000000000,"state":"active","ping":53},{"user_id":134,"name":"Keroz1n","steam_id":76561197998681491,"connected_time":182000000000,"state":"active","ping":74},{"user_id":107,"name":"pond","steam_id":76561198214849363,"connected_time":1760000000000,"state":"active","ping":75},{"user_id":135,"name":"Mateumt","steam_id":76561198101669791,"connected_time":177000000000,"state":"active","ping":60},{"user_id":129,"name":"Cosmetic brain","steam_id":76561198055936410,"connected_time":326000000000,"state":"active","ping":89},{"user_id":121,"name":"America","steam_id":76561198935566138,"connected_time":585000000000,"state":"active","ping":60},{"user_id":122,"name":"4828","steam_id":76561198326153524,"connected_time":585000000000,"state":"active","ping":69},{"user_id":124,"name":"pablo.gonzales.2007","steam_id":76561198257967429,"connected_time":438000000000,"state":"active","ping":75},{"user_id":125,"name":"Warrior555MainsGanon","steam_id":76561198388627786,"connected_time":437000000000,"state":"active","ping":68},{"user_id":126,"name":"GlueTasty {she/her}","steam_id":76561199086480891,"connected_time":413000000000,"state":"active","ping":151},{"user_id":127,"name":"Osmo","steam_id":76561199286764992,"connected_time":406000000000,"state":"active","ping":78},{"user_id":136,"name":"PanPatrik","steam_id":76561198293331527,"connected_time":51000000000,"state":"active","ping":45}]},{"server_id":24,"name":"Uncletopia | Frankfurt | 8 | Community","name_short":"frk-8","host":"frk-1.de.uncletopia.com","port":27085,"enabled":true,"region":"eu","cc":"de","latitude":50.110924,"longitude":8.682127,"reserved":0,"last_update":"0001-01-01T00:00:00Z","name_a2s":"Uncletopia | Frankfurt | 8 | Community","protocol":17,"map":"workshop/cp_logjam_rc12.ugc454812035","folder":"tf","game":"Team Fortress","app_id":440,"player_count":0,"max_players":24,"Bots":0,"server_type":"Dedicated","server_os":"Linux","password":true,"vac":true,"version":"7961495","steam_id":85568392924742828,"keywords":["cp","nocrits","nodmgspread","uncletopia"],"game_id":440,"stv_port":27086,"stv_name":"Uncletopia | Frankfurt | 8 | Community | STV","players":null},{"server_id":202,"name":"Uncletopia | Hong Kong | 1 | All Maps","name_short":"hgk-1","host":"hgk-1.hk.uncletopia.com","port":27015,"enabled":true,"region":"asia","cc":"hk","latitude":22.302711,"longitude":114.177216,"reserved":0,"last_update":"0001-01-01T00:00:00Z","name_a2s":"Uncletopia | Hong Kong | 1 | All Maps","protocol":17,"map":"koth_viaduct","folder":"tf","game":"Team Fortress","app_id":440,"player_count":0,"max_players":24,"Bots":0,"server_type":"Dedicated","server_os":"Linux","password":true,"vac":true,"version":"7961495","steam_id":85568392924494504,"keywords":["cp","nocrits","nodmgspread","uncletopia"],"game_id":440,"stv_port":27016,"stv_name":"Uncletopia | Hong Kong | 1 | All Maps | STV","players":null},{"server_id":1,"name":"Uncletopia | Los Angeles | 1 | All Maps","name_short":"lax-1","host":"lax-1.us.uncletopia.com","port":27015,"enabled":true,"region":"us-west","cc":"us","latitude":33.94279,"longitude":-118.41004,"reserved":0,"last_update":"0001-01-01T00:00:00Z","name_a2s":"Uncletopia | Los Angeles | 1 | All Maps","protocol":17,"map":"pl_pier","folder":"tf","game":"Team Fortress","app_id":440,"player_count":0,"max_players":24,"Bots":0,"server_type":"Dedicated","server_os":"Linux","password":true,"vac":true,"version":"7961495","steam_id":85568392924469991,"keywords":["nocrits","nodmgspread","payload","uncletopia"],"game_id":440,"stv_port":27016,"stv_name":"Uncletopia | Los Angeles | 1 | All Maps | STV","players":null},{"server_id":112,"name":"Uncletopia | Los Angeles | 2 | All Maps","name_short":"lax-2","host":"lax-1.us.uncletopia.com","port":27025,"enabled":true,"region":"us-west","cc":"us","latitude":33.94279,"longitude":-118.41004,"reserved":0,"last_update":"0001-01-01T00:00:00Z","name_a2s":"Uncletopia | Los Angeles | 2 | All Maps","protocol":17,"map":"pl_upward","folder":"tf","game":"Team Fortress","app_id":440,"player_count":25,"max_players":24,"Bots":0,"server_type":"Dedicated","server_os":"Linux","password":true,"vac":true,"version":"7961495","steam_id":85568392924469992,"keywords":["nocrits","nodmgspread","payload","uncletopia"],"game_id":440,"stv_port":27026,"stv_name":"Uncletopia | Los Angeles | 2 | All Maps | STV","players":[{"user_id":238,"name":"npc energy","steam_id":76561198035342207,"connected_time":315000000000,"state":"active","ping":89},{"user_id":244,"name":"vee the fenn","steam_id":76561198049510832,"connected_time":146000000000,"state":"active","ping":78},{"user_id":233,"name":"Doctor Nic","steam_id":76561198035844950,"connected_time":843000000000,"state":"active","ping":93},{"user_id":206,"name":"7K","steam_id":76561198869173071,"connected_time":2518000000000,"state":"active","ping":55},{"user_id":210,"name":"Maid 'n' China","steam_id":76561198423392976,"connected_time":2185000000000,"state":"active","ping":55},{"user_id":202,"name":"Soap","steam_id":76561197994893383,"connected_time":2684000000000,"state":"active","ping":69},{"user_id":84,"name":"Professor Chromosomes","steam_id":76561198042020662,"connected_time":10772000000000,"state":"active","ping":149},{"user_id":220,"name":"Lucky","steam_id":76561199108883530,"connected_time":1102000000000,"state":"active","ping":68},{"user_id":222,"name":"The Smell of Jazz","steam_id":76561198005860388,"connected_time":1073000000000,"state":"active","ping":71},{"user_id":209,"name":"jovial","steam_id":76561198297130941,"connected_time":2267000000000,"state":"active","ping":46},{"user_id":215,"name":"spurious george","steam_id":76561198043558709,"connected_time":1682000000000,"state":"active","ping":73},{"user_id":224,"name":"Robert","steam_id":76561198091171326,"connected_time":1058000000000,"state":"active","ping":66},{"user_id":251,"name":"The_Duck_Watching_You","steam_id":76561199363112232,"connected_time":14000000000,"state":"spawning","ping":48},{"user_id":228,"name":"Kamin","steam_id":76561198255299559,"connected_time":975000000000,"state":"active","ping":98},{"user_id":252,"name":"DiegoVal12","steam_id":76561198408509079,"connected_time":9000000000,"state":"spawning","ping":32},{"user_id":166,"name":"TheGhostThatWas","steam_id":76561198055836483,"connected_time":5725000000000,"state":"active","ping":105},{"user_id":239,"name":"Laxoloni","steam_id":76561199197045700,"connected_time":259000000000,"state":"active","ping":85},{"user_id":235,"name":"Rick Assley","steam_id":76561198365019199,"connected_time":812000000000,"state":"active","ping":115},{"user_id":249,"name":"Applesauce","steam_id":76561198047011689,"connected_time":112000000000,"state":"active","ping":59},{"user_id":237,"name":"BYS ShadowFenix","steam_id":76561198186807115,"connected_time":768000000000,"state":"active","ping":45},{"user_id":214,"name":"Junk Synchron","steam_id":76561198329478764,"connected_time":2054000000000,"state":"active","ping":55},{"user_id":250,"name":"popgamer2","steam_id":76561198170879397,"connected_time":93000000000,"state":"active","ping":68},{"user_id":231,"name":"Drilly22","steam_id":76561198068838338,"connected_time":924000000000,"state":"active","ping":94},{"user_id":236,"name":"Master John Thursday","steam_id":76561197987593154,"connected_time":808000000000,"state":"active","ping":73},{"user_id":242,"name":"corg","steam_id":76561198338740292,"connected_time":251000000000,"state":"connecting","ping":0}]},{"server_id":324,"name":"Uncletopia | Los Angeles | 3 | All Maps","name_short":"lax-3","host":"lax-1.us.uncletopia.com","port":27035,"enabled":true,"region":"us-west","cc":"us","latitude":33.94279,"longitude":-118.41004,"reserved":0,"last_update":"0001-01-01T00:00:00Z","name_a2s":"Uncletopia | Los Angeles | 3 | All Maps","protocol":17,"map":"pl_frontier_final","folder":"tf","game":"Team Fortress","app_id":440,"player_count":24,"max_players":24,"Bots":0,"server_type":"Dedicated","server_os":"Linux","password":true,"vac":true,"version":"7961495","steam_id":85568392924510198,"keywords":["nocrits","nodmgspread","payload","uncletopia"],"game_id":440,"stv_port":27036,"stv_name":"Uncletopia | Los Angeles | 3 | All Maps | STV","players":[{"user_id":75,"name":"MEDIO METRO","steam_id":76561198424030927,"connected_time":933000000000,"state":"active","ping":100},{"user_id":83,"name":"Paps Burr","steam_id":76561198015202342,"connected_time":683000000000,"state":"active","ping":56},{"user_id":35,"name":"Echolu","steam_id":76561198158613750,"connected_time":4504000000000,"state":"active","ping":114},{"user_id":89,"name":"corg","steam_id":76561198338740292,"connected_time":122000000000,"state":"active","ping":46},{"user_id":87,"name":"Kitto","steam_id":76561198053851877,"connected_time":623000000000,"state":"active","ping":60},{"user_id":76,"name":"CoconutGun42069","steam_id":76561199116912878,"connected_time":904000000000,"state":"active","ping":82},{"user_id":90,"name":"pabbott123110","steam_id":76561199231739796,"connected_time":106000000000,"state":"active","ping":125},{"user_id":70,"name":"Korn Dawg","steam_id":76561198026941076,"connected_time":2111000000000,"state":"active","ping":59},{"user_id":60,"name":"[PREMIUM BART]","steam_id":76561198173255559,"connected_time":2711000000000,"state":"active","ping":55},{"user_id":81,"name":"agustin11","steam_id":76561199476578819,"connected_time":814000000000,"state":"active","ping":150},{"user_id":73,"name":"Rhutebeer","steam_id":76561198018302761,"connected_time":988000000000,"state":"active","ping":108},{"user_id":91,"name":"parmasean","steam_id":76561199191451913,"connected_time":100000000000,"state":"active","ping":153},{"user_id":92,"name":"jailbreak","steam_id":76561198802085218,"connected_time":82000000000,"state":"active","ping":90},{"user_id":54,"name":"Tired of this Meta","steam_id":76561198091034468,"connected_time":3758000000000,"state":"active","ping":33},{"user_id":34,"name":"Buswolley","steam_id":76561197995205571,"connected_time":4557000000000,"state":"active","ping":66},{"user_id":36,"name":"RobotRune","steam_id":76561198192938935,"connected_time":4487000000000,"state":"active","ping":124},{"user_id":93,"name":"Piss Lord Moose","steam_id":76561199027129554,"connected_time":73000000000,"state":"active","ping":128},{"user_id":66,"name":"pope","steam_id":76561198272362572,"connected_time":2501000000000,"state":"active","ping":66},{"user_id":41,"name":"Booba Feet","steam_id":76561198072094942,"connected_time":4311000000000,"state":"active","ping":95},{"user_id":86,"name":"CherryTea","steam_id":76561198846029619,"connected_time":633000000000,"state":"active","ping":47},{"user_id":72,"name":"Destroyer1004","steam_id":76561199367685913,"connected_time":992000000000,"state":"active","ping":82},{"user_id":69,"name":"SteveHarp","steam_id":76561198339530814,"connected_time":2235000000000,"state":"active","ping":90},{"user_id":88,"name":"Krustytoepaste","steam_id":76561198320265524,"connected_time":497000000000,"state":"active","ping":61},{"user_id":79,"name":"Hound From Heck","steam_id":76561198087764017,"connected_time":841000000000,"state":"active","ping":80}]},{"server_id":25,"name":"Uncletopia | Los Angeles | 4 | Stopwatch Beta","name_short":"lax-4","host":"lax-1.us.uncletopia.com","port":27045,"enabled":true,"region":"us-west","cc":"us","latitude":33.94279,"longitude":-118.41004,"reserved":0,"last_update":"0001-01-01T00:00:00Z","name_a2s":"Uncletopia | Los Angeles | 4 | Stopwatch Beta","protocol":17,"map":"pl_upward","folder":"tf","game":"Team Fortress","app_id":440,"player_count":0,"max_players":24,"Bots":0,"server_type":"Dedicated","server_os":"Linux","password":true,"vac":true,"version":"7961495","steam_id":85568392924510199,"keywords":["nocrits","nodmgspread","payload","uncletopia"],"game_id":440,"stv_port":27046,"stv_name":"Uncletopia | Los Angeles | 4 | Stopwatch Beta | STV","players":null},{"server_id":11,"name":"Uncletopia | London | 1 | All Maps","name_short":"lon-1","host":"lon-1.uk.uncletopia.com","port":27015,"enabled":true,"region":"eu","cc":"gb","latitude":51.509865,"longitude":-0.118092,"reserved":0,"last_update":"0001-01-01T00:00:00Z","name_a2s":"Uncletopia | London | 1 | All Maps","protocol":17,"map":"pl_pier","folder":"tf","game":"Team Fortress","app_id":440,"player_count":24,"max_players":24,"Bots":0,"server_type":"Dedicated","server_os":"Linux","password":true,"vac":true,"version":"7961495","steam_id":85568392924367362,"keywords":["nocrits","nodmgspread","payload","uncletopia"],"game_id":440,"stv_port":27016,"stv_name":"Uncletopia | London | 1 | All Maps | STV","players":[{"user_id":404,"name":"GoatLord1","steam_id":76561198157964544,"connected_time":1591000000000,"state":"active","ping":52},{"user_id":328,"name":"rigel_","steam_id":76561198148640847,"connected_time":6741000000000,"state":"active","ping":76},{"user_id":419,"name":"Solus","steam_id":76561199486493777,"connected_time":591000000000,"state":"active","ping":54},{"user_id":331,"name":"enine","steam_id":76561198890193313,"connected_time":6455000000000,"state":"active","ping":60},{"user_id":434,"name":"Lyra","steam_id":76561198043601838,"connected_time":70000000000,"state":"active","ping":61},{"user_id":418,"name":"femboy enjoyer","steam_id":76561199041737814,"connected_time":718000000000,"state":"active","ping":38},{"user_id":420,"name":"*DEAD*","steam_id":76561198095560087,"connected_time":546000000000,"state":"active","ping":83},{"user_id":412,"name":"dochris.2","steam_id":76561198026478625,"connected_time":1117000000000,"state":"active","ping":59},{"user_id":411,"name":"Rai_to","steam_id":76561199013720618,"connected_time":1283000000000,"state":"active","ping":89},{"user_id":290,"name":"face beautiful lies","steam_id":76561198079277466,"connected_time":10495000000000,"state":"active","ping":74},{"user_id":415,"name":"AKandros","steam_id":76561199043108670,"connected_time":950000000000,"state":"active","ping":95},{"user_id":334,"name":"Resident Evil 4","steam_id":76561198168207306,"connected_time":6408000000000,"state":"active","ping":93},{"user_id":432,"name":"D0kai","steam_id":76561198389271720,"connected_time":213000000000,"state":"active","ping":58},{"user_id":376,"name":"MatchaPanda","steam_id":76561198027383926,"connected_time":2492000000000,"state":"active","ping":45},{"user_id":371,"name":"Eggcracker","steam_id":76561199274850641,"connected_time":2768000000000,"state":"active","ping":81},{"user_id":416,"name":"\"w\"esley \"s\"o","steam_id":76561199415989636,"connected_time":899000000000,"state":"active","ping":89},{"user_id":433,"name":"StragaSevera","steam_id":76561197983828569,"connected_time":200000000000,"state":"active","ping":95},{"user_id":413,"name":"demoman","steam_id":76561198046170435,"connected_time":990000000000,"state":"active","ping":69},{"user_id":422,"name":"Roboboy_uk","steam_id":76561197973225899,"connected_time":500000000000,"state":"active","ping":56},{"user_id":385,"name":"sareena","steam_id":76561198810194062,"connected_time":1959000000000,"state":"active","ping":74},{"user_id":403,"name":"Hydrone","steam_id":76561198046485365,"connected_time":1596000000000,"state":"active","ping":40},{"user_id":435,"name":"panakid","steam_id":76561198364121077,"connected_time":29000000000,"state":"active","ping":95},{"user_id":375,"name":"Wuffington","steam_id":76561198033762881,"connected_time":2643000000000,"state":"active","ping":50},{"user_id":426,"name":"thorn648","steam_id":76561198012565777,"connected_time":346000000000,"state":"active","ping":174}]},{"server_id":114,"name":"Uncletopia | London | 2 | All Maps","name_short":"lon-2","host":"lon-1.uk.uncletopia.com","port":27025,"enabled":true,"region":"eu","cc":"gb","latitude":51.509865,"longitude":-0.118092,"reserved":0,"last_update":"0001-01-01T00:00:00Z","name_a2s":"Uncletopia | London | 2 | All Maps","protocol":17,"map":"pl_frontier_final","folder":"tf","game":"Team Fortress","app_id":440,"player_count":24,"max_players":24,"Bots":0,"server_type":"Dedicated","server_os":"Linux","password":true,"vac":true,"version":"7961495","steam_id":85568392924470941,"keywords":["nocrits","nodmgspread","payload","uncletopia"],"game_id":440,"stv_port":27026,"stv_name":"Uncletopia | London | 2 | All Maps | STV","players":[{"user_id":247,"name":"After8","steam_id":76561198090750865,"connected_time":2470000000000,"state":"active","ping":73},{"user_id":258,"name":"cuddle","steam_id":76561198805181599,"connected_time":1787000000000,"state":"active","ping":45},{"user_id":204,"name":"Snake-chan","steam_id":76561199044755854,"connected_time":4491000000000,"state":"active","ping":75},{"user_id":271,"name":"bruh","steam_id":76561198109262927,"connected_time":1056000000000,"state":"active","ping":86},{"user_id":255,"name":"Geoff the Oracle","steam_id":76561198053759965,"connected_time":1919000000000,"state":"active","ping":58},{"user_id":268,"name":"Plep","steam_id":76561198840259819,"connected_time":1311000000000,"state":"active","ping":50},{"user_id":272,"name":"Least Trans Software Engineer","steam_id":76561198213386019,"connected_time":876000000000,"state":"active","ping":69},{"user_id":184,"name":"Abbplutt","steam_id":76561198121678429,"connected_time":6510000000000,"state":"active","ping":82},{"user_id":249,"name":"scout with a fish","steam_id":76561198140027831,"connected_time":2437000000000,"state":"active","ping":108},{"user_id":259,"name":"soar","steam_id":76561198010662796,"connected_time":1784000000000,"state":"active","ping":47},{"user_id":275,"name":"Yssi","steam_id":76561198072365572,"connected_time":129000000000,"state":"active","ping":60},{"user_id":267,"name":"Vratis","steam_id":76561198062957725,"connected_time":1406000000000,"state":"active","ping":80},{"user_id":220,"name":"Hoxton","steam_id":76561198129209505,"connected_time":3635000000000,"state":"active","ping":85},{"user_id":254,"name":"Urfangonultasadana","steam_id":76561199389286151,"connected_time":2081000000000,"state":"active","ping":93},{"user_id":253,"name":"Crusader","steam_id":76561198239172686,"connected_time":2251000000000,"state":"active","ping":74},{"user_id":199,"name":"Schmack","steam_id":76561198026535437,"connected_time":5408000000000,"state":"active","ping":59},{"user_id":274,"name":"Jarppa!","steam_id":76561197995834786,"connected_time":829000000000,"state":"active","ping":73},{"user_id":277,"name":"shoras","steam_id":76561198019680159,"connected_time":95000000000,"state":"active","ping":92},{"user_id":261,"name":"ein","steam_id":76561198152162834,"connected_time":1763000000000,"state":"active","ping":103},{"user_id":237,"name":"fodace","steam_id":76561198442803577,"connected_time":3129000000000,"state":"active","ping":74},{"user_id":251,"name":"Tichy☆","steam_id":76561198026218934,"connected_time":2364000000000,"state":"active","ping":63},{"user_id":269,"name":"Brem","steam_id":76561198202349485,"connected_time":1261000000000,"state":"active","ping":61},{"user_id":276,"name":"zek","steam_id":76561198862763731,"connected_time":111000000000,"state":"active","ping":134},{"user_id":242,"name":"Boki","steam_id":76561198044553351,"connected_time":2867000000000,"state":"active","ping":63}]},{"server_id":320,"name":"Uncletopia | London | 3 | All Maps","name_short":"lon-3","host":"lon-1.uk.uncletopia.com","port":27035,"enabled":true,"region":"eu","cc":"gb","latitude":51.509865,"longitude":-0.118092,"reserved":0,"last_update":"0001-01-01T00:00:00Z","name_a2s":"Uncletopia | London | 3 | All Maps","protocol":17,"map":"pl_swiftwater_final1","folder":"tf","game":"Team Fortress","app_id":440,"player_count":24,"max_players":24,"Bots":0,"server_type":"Dedicated","server_os":"Linux","password":true,"vac":true,"version":"7961495","steam_id":85568392924510192,"keywords":["nocrits","nodmgspread","payload","uncletopia"],"game_id":440,"stv_port":27036,"stv_name":"Uncletopia | London | 3 | All Maps | STV","players":[{"user_id":161,"name":"Ikke.Ty","steam_id":76561199084911294,"connected_time":323000000000,"state":"active","ping":88},{"user_id":152,"name":"Bayoyo","steam_id":76561199069591774,"connected_time":696000000000,"state":"active","ping":87},{"user_id":68,"name":"walluu","steam_id":76561198121830870,"connected_time":5297000000000,"state":"active","ping":75},{"user_id":162,"name":"Cipher Guy","steam_id":76561198987064749,"connected_time":290000000000,"state":"active","ping":72},{"user_id":151,"name":"Albert Salavan","steam_id":76561199152398906,"connected_time":752000000000,"state":"active","ping":95},{"user_id":153,"name":"Incomus","steam_id":76561198058342600,"connected_time":668000000000,"state":"active","ping":90},{"user_id":154,"name":"Bad to the Bone","steam_id":76561198801624914,"connected_time":520000000000,"state":"active","ping":173},{"user_id":158,"name":"Swift_Baguette","steam_id":76561199230477090,"connected_time":356000000000,"state":"active","ping":55},{"user_id":156,"name":"emag live","steam_id":76561198047164140,"connected_time":440000000000,"state":"active","ping":59},{"user_id":157,"name":"BELADIT","steam_id":76561198011911501,"connected_time":373000000000,"state":"active","ping":83},{"user_id":159,"name":"Palex","steam_id":76561198093219465,"connected_time":355000000000,"state":"active","ping":42},{"user_id":163,"name":"HakugemY","steam_id":76561198152132299,"connected_time":287000000000,"state":"active","ping":103},{"user_id":164,"name":"RileyNiko","steam_id":76561198162093639,"connected_time":282000000000,"state":"active","ping":208},{"user_id":165,"name":"Dennis The Dark Lord","steam_id":76561198259260405,"connected_time":278000000000,"state":"active","ping":150},{"user_id":166,"name":"Pepis the smelly","steam_id":76561198191369066,"connected_time":277000000000,"state":"active","ping":127},{"user_id":167,"name":"TheBeardedM1G","steam_id":76561198040208946,"connected_time":277000000000,"state":"active","ping":44},{"user_id":168,"name":"FluffyTerrorist","steam_id":76561198800175929,"connected_time":255000000000,"state":"active","ping":90},{"user_id":169,"name":"Meff","steam_id":76561197970610839,"connected_time":219000000000,"state":"active","ping":47},{"user_id":138,"name":"walking plane","steam_id":76561198146779559,"connected_time":1753000000000,"state":"active","ping":95},{"user_id":175,"name":"Brinier","steam_id":76561199012604288,"connected_time":78000000000,"state":"active","ping":69},{"user_id":171,"name":"Auragen","steam_id":76561198085801798,"connected_time":215000000000,"state":"active","ping":53},{"user_id":172,"name":"UFO","steam_id":76561198039472276,"connected_time":213000000000,"state":"active","ping":77},{"user_id":173,"name":"Flying skyhigh","steam_id":76561198372971096,"connected_time":192000000000,"state":"active","ping":71},{"user_id":174,"name":"Vinexx","steam_id":76561198044024405,"connected_time":164000000000,"state":"active","ping":65}]},{"server_id":321,"name":"Uncletopia | London | 4 | All Maps","name_short":"lon-4","host":"lon-1.uk.uncletopia.com","port":27045,"enabled":true,"region":"eu","cc":"gb","latitude":51.509865,"longitude":-0.118092,"reserved":0,"last_update":"0001-01-01T00:00:00Z","name_a2s":"Uncletopia | London | 4 | All Maps","protocol":17,"map":"pl_badwater","folder":"tf","game":"Team Fortress","app_id":440,"player_count":24,"max_players":24,"Bots":0,"server_type":"Dedicated","server_os":"Linux","password":true,"vac":true,"version":"7961495","steam_id":85568392924510193,"keywords":["nocrits","nodmgspread","payload","uncletopia"],"game_id":440,"stv_port":27046,"stv_name":"Uncletopia | London | 4 | All Maps | STV","players":[{"user_id":480,"name":"Daemon","steam_id":76561198007015109,"connected_time":1720000000000,"state":"active","ping":49},{"user_id":479,"name":"femboy Rooster","steam_id":76561199055185732,"connected_time":1791000000000,"state":"active","ping":162},{"user_id":483,"name":"wasto-/-™","steam_id":76561198102888038,"connected_time":1250000000000,"state":"active","ping":58},{"user_id":477,"name":"DANDELION","steam_id":76561198038451376,"connected_time":1858000000000,"state":"active","ping":32},{"user_id":468,"name":"Adam","steam_id":76561198259467867,"connected_time":2831000000000,"state":"active","ping":94},{"user_id":453,"name":"Джекет","steam_id":76561198327897125,"connected_time":3664000000000,"state":"active","ping":96},{"user_id":456,"name":"Jane Doe","steam_id":76561198058675116,"connected_time":3472000000000,"state":"active","ping":49},{"user_id":458,"name":"average manicotti enjoyer","steam_id":76561198059535856,"connected_time":3408000000000,"state":"active","ping":155},{"user_id":476,"name":"Nekroguy","steam_id":76561198180886977,"connected_time":1902000000000,"state":"active","ping":72},{"user_id":485,"name":"sussysmilegaming","steam_id":76561199381466617,"connected_time":886000000000,"state":"active","ping":112},{"user_id":460,"name":"sHISSUS","steam_id":76561198211063493,"connected_time":3394000000000,"state":"active","ping":62},{"user_id":484,"name":"Homvel","steam_id":76561198000848413,"connected_time":1055000000000,"state":"active","ping":151},{"user_id":464,"name":"-Dagi","steam_id":76561198304127453,"connected_time":3338000000000,"state":"active","ping":91},{"user_id":417,"name":"Pandora Nyx","steam_id":76561198093475054,"connected_time":6730000000000,"state":"active","ping":173},{"user_id":482,"name":"Spotmonkey","steam_id":76561198003994092,"connected_time":1477000000000,"state":"active","ping":57},{"user_id":474,"name":"ButterThatMelts","steam_id":76561198043928185,"connected_time":1934000000000,"state":"active","ping":43},{"user_id":435,"name":"real (real)","steam_id":76561198170609049,"connected_time":5142000000000,"state":"active","ping":64},{"user_id":486,"name":"Summer ♥","steam_id":76561198047723907,"connected_time":820000000000,"state":"active","ping":39},{"user_id":489,"name":"rets","steam_id":76561198061551392,"connected_time":60000000000,"state":"active","ping":63},{"user_id":471,"name":"Soerlssoelssöen","steam_id":76561197993060585,"connected_time":2628000000000,"state":"active","ping":83},{"user_id":487,"name":"The Irish Eejit","steam_id":76561198027738057,"connected_time":815000000000,"state":"active","ping":67},{"user_id":488,"name":"Ja Yeti","steam_id":76561199203212796,"connected_time":337000000000,"state":"active","ping":122},{"user_id":369,"name":"KroNix","steam_id":76561198339112221,"connected_time":11270000000000,"state":"active","ping":48},{"user_id":439,"name":"a hot single in your area","steam_id":76561198097507847,"connected_time":5045000000000,"state":"active","ping":83}]},{"server_id":21,"name":"Uncletopia | London | 5 | All Maps","name_short":"lon-5","host":"lon-1.uk.uncletopia.com","port":27055,"enabled":true,"region":"eu","cc":"gb","latitude":51.509865,"longitude":-0.118092,"reserved":0,"last_update":"0001-01-01T00:00:00Z","name_a2s":"Uncletopia | London | 5 | All Maps","protocol":17,"map":"pl_barnblitz","folder":"tf","game":"Team Fortress","app_id":440,"player_count":24,"max_players":24,"Bots":0,"server_type":"Dedicated","server_os":"Linux","password":true,"vac":true,"version":"7961495","steam_id":85568392924742829,"keywords":["nocrits","nodmgspread","payload","uncletopia"],"game_id":440,"stv_port":27056,"stv_name":"Uncletopia | London | 5 | All Maps | STV","players":[{"user_id":125,"name":"clunk","steam_id":76561198836460767,"connected_time":5894000000000,"state":"active","ping":64},{"user_id":188,"name":"Sebiromanes (Spookmáster)","steam_id":76561198112800408,"connected_time":4220000000000,"state":"active","ping":140},{"user_id":246,"name":"SliBro","steam_id":76561198218795245,"connected_time":481000000000,"state":"active","ping":68},{"user_id":163,"name":"VK2124 :D","steam_id":76561198111130688,"connected_time":4939000000000,"state":"active","ping":59},{"user_id":238,"name":"lulu","steam_id":76561199147764133,"connected_time":1177000000000,"state":"active","ping":66},{"user_id":252,"name":"Remyie","steam_id":76561198131031404,"connected_time":52000000000,"state":"active","ping":97},{"user_id":244,"name":"bean","steam_id":76561198161013815,"connected_time":574000000000,"state":"active","ping":53},{"user_id":242,"name":"shr","steam_id":76561198449852071,"connected_time":714000000000,"state":"active","ping":38},{"user_id":24,"name":"Silverstorm","steam_id":76561198118175267,"connected_time":11673000000000,"state":"active","ping":66},{"user_id":249,"name":"neet","steam_id":76561197968115168,"connected_time":152000000000,"state":"active","ping":119},{"user_id":218,"name":"DrippySloth","steam_id":76561198199083811,"connected_time":2127000000000,"state":"active","ping":147},{"user_id":231,"name":"lilsnek","steam_id":76561198378830443,"connected_time":1321000000000,"state":"active","ping":84},{"user_id":232,"name":"Cöffee","steam_id":76561198115131952,"connected_time":1296000000000,"state":"active","ping":102},{"user_id":198,"name":"ran is running","steam_id":76561199443185667,"connected_time":3726000000000,"state":"active","ping":127},{"user_id":253,"name":"Special Agent Big Smoke","steam_id":76561198154468827,"connected_time":14000000000,"state":"active","ping":81},{"user_id":247,"name":"Rybol12000","steam_id":76561199182495651,"connected_time":455000000000,"state":"active","ping":83},{"user_id":239,"name":"markotrichko4238","steam_id":76561199125036759,"connected_time":1055000000000,"state":"active","ping":99},{"user_id":223,"name":"Nagisa","steam_id":76561199156698557,"connected_time":1650000000000,"state":"active","ping":83},{"user_id":241,"name":"dopamine overdose","steam_id":76561199032511302,"connected_time":967000000000,"state":"active","ping":99},{"user_id":185,"name":"fence_","steam_id":76561198150386379,"connected_time":4291000000000,"state":"active","ping":51},{"user_id":236,"name":"quickfast","steam_id":76561199438900919,"connected_time":1278000000000,"state":"active","ping":44},{"user_id":204,"name":"SkyGhost","steam_id":76561198271474593,"connected_time":2606000000000,"state":"active","ping":78},{"user_id":206,"name":"barbiegirl","steam_id":76561198213450215,"connected_time":2559000000000,"state":"active","ping":129},{"user_id":200,"name":"waizukaan","steam_id":76561198119210003,"connected_time":3606000000000,"state":"active","ping":97}]},{"server_id":22,"name":"Uncletopia | London | 6 | All Maps","name_short":"lon-6","host":"lon-1.uk.uncletopia.com","port":27065,"enabled":true,"region":"eu","cc":"gb","latitude":51.509865,"longitude":-0.118092,"reserved":0,"last_update":"0001-01-01T00:00:00Z","name_a2s":"Uncletopia | London | 6 | All Maps","protocol":17,"map":"pl_badwater","folder":"tf","game":"Team Fortress","app_id":440,"player_count":22,"max_players":24,"Bots":0,"server_type":"Dedicated","server_os":"Linux","password":true,"vac":true,"version":"7961495","steam_id":85568392924742830,"keywords":["nocrits","nodmgspread","payload","uncletopia"],"game_id":440,"stv_port":27066,"stv_name":"Uncletopia | London | 6 | All Maps | STV","players":[{"user_id":490,"name":"Svet(tintin )","steam_id":76561198151547575,"connected_time":5876000000000,"state":"active","ping":59},{"user_id":420,"name":"Milca_11 Bow user","steam_id":76561198848650365,"connected_time":9699000000000,"state":"active","ping":80},{"user_id":558,"name":"Gio'sMonkey","steam_id":76561198892432223,"connected_time":1044000000000,"state":"active","ping":59},{"user_id":570,"name":"long crab","steam_id":76561198136239861,"connected_time":718000000000,"state":"active","ping":31},{"user_id":559,"name":"LonelyScot","steam_id":76561198190830395,"connected_time":1009000000000,"state":"active","ping":39},{"user_id":508,"name":"Pinkchup","steam_id":76561198106802803,"connected_time":3956000000000,"state":"active","ping":74},{"user_id":532,"name":"Rockpig","steam_id":76561198066421407,"connected_time":2967000000000,"state":"active","ping":53},{"user_id":574,"name":"pine cone","steam_id":76561198168254686,"connected_time":6000000000,"state":"spawning","ping":286},{"user_id":555,"name":"gibb (official)","steam_id":76561198074097655,"connected_time":1313000000000,"state":"active","ping":29},{"user_id":509,"name":"Minimi","steam_id":76561198873850443,"connected_time":3956000000000,"state":"active","ping":57},{"user_id":560,"name":"Jitespol","steam_id":76561198192339282,"connected_time":960000000000,"state":"active","ping":44},{"user_id":546,"name":"Operator","steam_id":76561199375569807,"connected_time":1793000000000,"state":"active","ping":134},{"user_id":563,"name":"MagusCubed","steam_id":76561198083973944,"connected_time":860000000000,"state":"active","ping":45},{"user_id":565,"name":"padillacampos","steam_id":76561198161923970,"connected_time":823000000000,"state":"active","ping":77},{"user_id":554,"name":"t0ast","steam_id":76561198141722573,"connected_time":1319000000000,"state":"active","ping":38},{"user_id":566,"name":"COLAN","steam_id":76561198111255418,"connected_time":803000000000,"state":"active","ping":58},{"user_id":572,"name":"Night Rider","steam_id":76561199394462709,"connected_time":516000000000,"state":"active","ping":92},{"user_id":571,"name":"lofimonkeyjazz","steam_id":76561198117059662,"connected_time":705000000000,"state":"active","ping":71},{"user_id":568,"name":"LOKKI","steam_id":76561198259022887,"connected_time":741000000000,"state":"active","ping":74},{"user_id":573,"name":"cez","steam_id":76561198361380956,"connected_time":413000000000,"state":"active","ping":53},{"user_id":534,"name":"Scooterboy","steam_id":76561198071705499,"connected_time":2769000000000,"state":"active","ping":39},{"user_id":548,"name":"abdpocoyo","steam_id":76561198094321481,"connected_time":1772000000000,"state":"active","ping":64}]},{"server_id":40,"name":"Uncletopia | London | 7 | No Payload","name_short":"lon-7","host":"lon-1.uk.uncletopia.com","port":27075,"enabled":true,"region":"eu","cc":"gb","latitude":51.509865,"longitude":-0.118092,"reserved":0,"last_update":"0001-01-01T00:00:00Z","name_a2s":"Uncletopia | London | 7 | No Payload","protocol":17,"map":"cp_standin_final","folder":"tf","game":"Team Fortress","app_id":440,"player_count":0,"max_players":24,"Bots":0,"server_type":"Dedicated","server_os":"Linux","password":true,"vac":true,"version":"7961495","steam_id":85568392924964314,"keywords":["cp","nocrits","nodmgspread","uncletopia"],"game_id":440,"stv_port":27076,"stv_name":"Uncletopia | London | 7 | No Payload | STV","players":null},{"server_id":41,"name":"Uncletopia | London | 8 | Community","name_short":"lon-8","host":"lon-1.uk.uncletopia.com","port":27085,"enabled":true,"region":"eu","cc":"gb","latitude":51.509865,"longitude":-0.118092,"reserved":0,"last_update":"0001-01-01T00:00:00Z","name_a2s":"Uncletopia | London | 8 | Community","protocol":17,"map":"workshop/pl_highwood_b13.ugc1769496557","folder":"tf","game":"Team Fortress","app_id":440,"player_count":0,"max_players":24,"Bots":0,"server_type":"Dedicated","server_os":"Linux","password":true,"vac":true,"version":"7961495","steam_id":85568392924964315,"keywords":["nocrits","nodmgspread","payload","uncletopia"],"game_id":440,"stv_port":27086,"stv_name":"Uncletopia | London | 8 | Community | STV","players":null},{"server_id":300,"name":"Uncletopia | Montréal | 1 | All Maps","name_short":"mtl-1","host":"mtl-1.ca.uncletopia.com","port":27015,"enabled":true,"region":"us-east","cc":"ca","latitude":45.50889,"longitude":-73.56167,"reserved":0,"last_update":"0001-01-01T00:00:00Z","name_a2s":"","protocol":0,"map":"","folder":"","game":"","app_id":0,"player_count":0,"max_players":0,"Bots":0,"server_type":"","server_os":"","password":false,"vac":false,"version":"","steam_id":0,"keywords":null,"game_id":0,"stv_port":0,"stv_name":"","players":null},{"server_id":301,"name":"Uncletopia | Montréal | 2 | All Maps","name_short":"mtl-2","host":"mtl-1.ca.uncletopia.com","port":27025,"enabled":true,"region":"us-east","cc":"ca","latitude":45.50889,"longitude":-73.56167,"reserved":0,"last_update":"0001-01-01T00:00:00Z","name_a2s":"","protocol":0,"map":"","folder":"","game":"","app_id":0,"player_count":6,"max_players":0,"Bots":0,"server_type":"","server_os":"","password":false,"vac":false,"version":"","steam_id":0,"keywords":null,"game_id":0,"stv_port":0,"stv_name":"","players":[{"user_id":8,"name":"Fishmonger","steam_id":76561198372237027,"connected_time":2416000000000,"state":"active","ping":100},{"user_id":15,"name":"kdhbuilder","steam_id":76561199058095193,"connected_time":119000000000,"state":"active","ping":78},{"user_id":5,"name":"Bee_Pirate","steam_id":76561199000599111,"connected_time":2623000000000,"state":"active","ping":47},{"user_id":13,"name":"BoyKisser","steam_id":76561199200969139,"connected_time":693000000000,"state":"active","ping":124},{"user_id":16,"name":"Hindmost","steam_id":76561199081837220,"connected_time":67000000000,"state":"active","ping":104},{"user_id":17,"name":"Beefy Leefy","steam_id":76561198237432294,"connected_time":40000000000,"state":"active","ping":65}]},{"server_id":302,"name":"Uncletopia | Montréal | 3 | All Maps","name_short":"mtl-3","host":"mtl-1.ca.uncletopia.com","port":27035,"enabled":true,"region":"us-east","cc":"ca","latitude":45.50889,"longitude":-73.56167,"reserved":0,"last_update":"0001-01-01T00:00:00Z","name_a2s":"","protocol":0,"map":"","folder":"","game":"","app_id":0,"player_count":0,"max_players":0,"Bots":0,"server_type":"","server_os":"","password":false,"vac":false,"version":"","steam_id":0,"keywords":null,"game_id":0,"stv_port":0,"stv_name":"","players":null},{"server_id":303,"name":"Uncletopia | Montréal | 4 | No Payload","name_short":"mtl-4","host":"mtl-1.ca.uncletopia.com","port":27045,"enabled":true,"region":"us-east","cc":"ca","latitude":45.50889,"longitude":-73.56167,"reserved":0,"last_update":"0001-01-01T00:00:00Z","name_a2s":"","protocol":0,"map":"","folder":"","game":"","app_id":0,"player_count":5,"max_players":0,"Bots":0,"server_type":"","server_os":"","password":false,"vac":false,"version":"","steam_id":0,"keywords":null,"game_id":0,"stv_port":0,"stv_name":"","players":[{"user_id":28,"name":"jairo","steam_id":76561199006124613,"connected_time":928000000000,"state":"active","ping":118},{"user_id":29,"name":"snack","steam_id":76561199388861651,"connected_time":887000000000,"state":"active","ping":105},{"user_id":30,"name":"Ajsa CFBI","steam_id":76561199235907971,"connected_time":866000000000,"state":"active","ping":114},{"user_id":34,"name":"GojoPreto","steam_id":76561198979348045,"connected_time":218000000000,"state":"active","ping":86},{"user_id":35,"name":"endangered spycrab","steam_id":76561198993581426,"connected_time":150000000000,"state":"active","ping":47}]},{"server_id":13,"name":"Uncletopia | New York City | 1 | All Maps","name_short":"nyc-1","host":"nyc-1.us.uncletopia.com","port":27015,"enabled":true,"region":"us-east","cc":"us","latitude":40.73061,"longitude":-73.93524,"reserved":0,"last_update":"0001-01-01T00:00:00Z","name_a2s":"Uncletopia | New York City | 1 | All Maps","protocol":17,"map":"pl_swiftwater_final1","folder":"tf","game":"Team Fortress","app_id":440,"player_count":24,"max_players":24,"Bots":0,"server_type":"Dedicated","server_os":"Linux","password":true,"vac":true,"version":"7961495","steam_id":85568392924469993,"keywords":["nocrits","nodmgspread","payload","uncletopia"],"game_id":440,"stv_port":27016,"stv_name":"Uncletopia | New York City | 1 | All Maps | STV","players":[{"user_id":174,"name":"Universoul ಠ_ಠ","steam_id":76561198991466236,"connected_time":2262000000000,"state":"active","ping":75},{"user_id":197,"name":"Stolas \u003c3","steam_id":76561198835430280,"connected_time":414000000000,"state":"active","ping":80},{"user_id":199,"name":"peace dog","steam_id":76561198267988522,"connected_time":267000000000,"state":"active","ping":59},{"user_id":160,"name":"Park","steam_id":76561198057222814,"connected_time":3840000000000,"state":"active","ping":48},{"user_id":200,"name":"Mecha","steam_id":76561198014927379,"connected_time":70000000000,"state":"active","ping":69},{"user_id":195,"name":"alex","steam_id":76561198095203229,"connected_time":602000000000,"state":"active","ping":72},{"user_id":179,"name":"Travorski","steam_id":76561198072493142,"connected_time":2042000000000,"state":"active","ping":109},{"user_id":187,"name":"MaidofLight","steam_id":76561198069010944,"connected_time":1653000000000,"state":"active","ping":88},{"user_id":185,"name":"novu","steam_id":76561198886997024,"connected_time":1829000000000,"state":"active","ping":70},{"user_id":133,"name":"Ejaculation Zach","steam_id":76561198203765200,"connected_time":5644000000000,"state":"active","ping":73},{"user_id":196,"name":"Exio","steam_id":76561198218639325,"connected_time":535000000000,"state":"active","ping":64},{"user_id":168,"name":"So Many Bagels","steam_id":76561198002169363,"connected_time":2502000000000,"state":"active","ping":75},{"user_id":188,"name":"TheGingerOne","steam_id":76561198354203847,"connected_time":1561000000000,"state":"active","ping":87},{"user_id":138,"name":"spincharnie","steam_id":76561198123878798,"connected_time":5509000000000,"state":"active","ping":87},{"user_id":156,"name":"The","steam_id":76561198359311605,"connected_time":4693000000000,"state":"active","ping":135},{"user_id":189,"name":"Problem?","steam_id":76561198836105984,"connected_time":1519000000000,"state":"active","ping":51},{"user_id":141,"name":"theapexpredater","steam_id":76561198045382189,"connected_time":5483000000000,"state":"active","ping":53},{"user_id":157,"name":"Myn","steam_id":76561198055438857,"connected_time":4543000000000,"state":"active","ping":62},{"user_id":190,"name":"Kyrisuu","steam_id":76561198362711064,"connected_time":1449000000000,"state":"active","ping":107},{"user_id":198,"name":"flamingcookies","steam_id":76561198280864779,"connected_time":282000000000,"state":"active","ping":77},{"user_id":169,"name":"Zerk","steam_id":76561198133060530,"connected_time":2465000000000,"state":"active","ping":55},{"user_id":167,"name":"Kapu1178","steam_id":76561198107212766,"connected_time":2558000000000,"state":"active","ping":61},{"user_id":192,"name":"Mayor McCheese","steam_id":76561198095788861,"connected_time":1399000000000,"state":"active","ping":81},{"user_id":183,"name":"coffeeboy","steam_id":76561198049944251,"connected_time":1982000000000,"state":"active","ping":75}]},{"server_id":14,"name":"Uncletopia | New York City | 2 | All Maps","name_short":"nyc-2","host":"nyc-1.us.uncletopia.com","port":27025,"enabled":true,"region":"us-east","cc":"us","latitude":40.73061,"longitude":-73.93524,"reserved":0,"last_update":"0001-01-01T00:00:00Z","name_a2s":"Uncletopia | New York City | 2 | All Maps","protocol":17,"map":"koth_lazarus","folder":"tf","game":"Team Fortress","app_id":440,"player_count":24,"max_players":24,"Bots":0,"server_type":"Dedicated","server_os":"Linux","password":true,"vac":true,"version":"7961495","steam_id":85568392924469994,"keywords":["cp","nocrits","nodmgspread","uncletopia"],"game_id":440,"stv_port":27026,"stv_name":"Uncletopia | New York City | 2 | All Maps | STV","players":[{"user_id":227,"name":"A Puppy","steam_id":76561198828184456,"connected_time":1364000000000,"state":"active","ping":46},{"user_id":234,"name":"Ginger Jesus","steam_id":76561198052386458,"connected_time":641000000000,"state":"active","ping":42},{"user_id":189,"name":"ZigmaDrive","steam_id":76561198025569209,"connected_time":3315000000000,"state":"active","ping":54},{"user_id":182,"name":"Chord","steam_id":76561198110874021,"connected_time":4127000000000,"state":"active","ping":63},{"user_id":232,"name":"wack","steam_id":76561198095697330,"connected_time":678000000000,"state":"active","ping":70},{"user_id":238,"name":"snuppy","steam_id":76561199157666657,"connected_time":559000000000,"state":"active","ping":103},{"user_id":235,"name":"ohhhl0rd","steam_id":76561199066793578,"connected_time":613000000000,"state":"active","ping":86},{"user_id":250,"name":"loyaldandan0764","steam_id":76561199231020424,"connected_time":172000000000,"state":"active","ping":132},{"user_id":213,"name":"Zenabie","steam_id":76561198088372680,"connected_time":2143000000000,"state":"active","ping":79},{"user_id":239,"name":"serialnumber435","steam_id":76561199466187650,"connected_time":557000000000,"state":"active","ping":142},{"user_id":237,"name":"SC|Formuoli","steam_id":76561198254354595,"connected_time":589000000000,"state":"active","ping":54},{"user_id":248,"name":"The Glop.","steam_id":76561198162170585,"connected_time":372000000000,"state":"active","ping":88},{"user_id":241,"name":"grub","steam_id":76561198366984642,"connected_time":523000000000,"state":"active","ping":107},{"user_id":218,"name":"mr krabs chumming on plankton","steam_id":76561198190323610,"connected_time":2004000000000,"state":"active","ping":79},{"user_id":229,"name":"malon milk","steam_id":76561198042558913,"connected_time":1269000000000,"state":"active","ping":69},{"user_id":242,"name":"Green Mario","steam_id":76561198922644496,"connected_time":498000000000,"state":"active","ping":84},{"user_id":251,"name":"Pasta La Vista","steam_id":76561198129450033,"connected_time":146000000000,"state":"active","ping":41},{"user_id":244,"name":"WhazhisfacePC","steam_id":76561198321796408,"connected_time":482000000000,"state":"active","ping":56},{"user_id":226,"name":"Plieop","steam_id":76561198199493917,"connected_time":1626000000000,"state":"active","ping":44},{"user_id":245,"name":"Mystical Waves","steam_id":76561199085056932,"connected_time":477000000000,"state":"active","ping":59},{"user_id":246,"name":"N00SE","steam_id":76561198211473307,"connected_time":475000000000,"state":"active","ping":78},{"user_id":215,"name":"dirteater86","steam_id":76561198132468628,"connected_time":2138000000000,"state":"active","ping":44},{"user_id":247,"name":"lamb eater","steam_id":76561198166894383,"connected_time":475000000000,"state":"active","ping":63},{"user_id":230,"name":"Swifgz","steam_id":76561198162875756,"connected_time":762000000000,"state":"active","ping":45}]},{"server_id":15,"name":"Uncletopia | New York City | 3 | Stopwatch Beta","name_short":"nyc-3","host":"nyc-1.us.uncletopia.com","port":27035,"enabled":true,"region":"us-east","cc":"us","latitude":40.73061,"longitude":-73.93524,"reserved":0,"last_update":"0001-01-01T00:00:00Z","name_a2s":"Uncletopia | New York City | 3 | Stopwatch Beta","protocol":17,"map":"koth_lakeside_final","folder":"tf","game":"Team Fortress","app_id":440,"player_count":0,"max_players":24,"Bots":0,"server_type":"Dedicated","server_os":"Linux","password":true,"vac":true,"version":"7961495","steam_id":85568392924742820,"keywords":["cp","nocrits","nodmgspread","uncletopia"],"game_id":440,"stv_port":27036,"stv_name":"Uncletopia | New York City | 3 | Stopwatch Beta | STV","players":null},{"server_id":16,"name":"Uncletopia | New York City | 4 | Community","name_short":"nyc-4","host":"nyc-1.us.uncletopia.com","port":27045,"enabled":true,"region":"us-east","cc":"us","latitude":40.73061,"longitude":-73.93524,"reserved":0,"last_update":"0001-01-01T00:00:00Z","name_a2s":"Uncletopia | New York City | 4 | Community","protocol":17,"map":"workshop/cp_alloy_rc3.ugc592805587","folder":"tf","game":"Team Fortress","app_id":440,"player_count":0,"max_players":24,"Bots":0,"server_type":"Dedicated","server_os":"Linux","password":true,"vac":true,"version":"7961495","steam_id":85568392924742821,"keywords":["cp","nocrits","nodmgspread","uncletopia"],"game_id":440,"stv_port":27046,"stv_name":"Uncletopia | New York City | 4 | Community | STV","players":null},{"server_id":142,"name":"Uncletopia | São Paulo | 1 | All Maps","name_short":"sao-1","host":"sao-1.br.uncletopia.com","port":27015,"enabled":true,"region":"sa","cc":"br","latitude":-23.533773,"longitude":-46.62529,"reserved":0,"last_update":"0001-01-01T00:00:00Z","name_a2s":"Uncletopia | São Paulo | 1 | All Maps","protocol":17,"map":"cp_process_final","folder":"tf","game":"Team Fortress","app_id":440,"player_count":15,"max_players":24,"Bots":0,"server_type":"Dedicated","server_os":"Linux","password":true,"vac":true,"version":"7961495","steam_id":85568392924469996,"keywords":["cp","nocrits","nodmgspread","uncletopia"],"game_id":440,"stv_port":27016,"stv_name":"Uncletopia | São Paulo | 1 | All Maps | STV","players":[{"user_id":44,"name":"YellowEyePatch Guy","steam_id":76561199108111310,"connected_time":3744000000000,"state":"active","ping":56},{"user_id":78,"name":"Heavy Weapons Guy TF2","steam_id":76561199434489438,"connected_time":1226000000000,"state":"active","ping":75},{"user_id":82,"name":"VNobody","steam_id":76561198377956971,"connected_time":1020000000000,"state":"active","ping":166},{"user_id":61,"name":"Blue9Fairy","steam_id":76561198039942928,"connected_time":2273000000000,"state":"active","ping":51},{"user_id":87,"name":"ikkipepsi","steam_id":76561198304094192,"connected_time":890000000000,"state":"active","ping":45},{"user_id":91,"name":"GunSpy Enjoyer","steam_id":76561198036667684,"connected_time":579000000000,"state":"active","ping":71},{"user_id":11,"name":"RHD BRAZIL [\u003c O \u003e]","steam_id":76561198028190080,"connected_time":6692000000000,"state":"active","ping":40},{"user_id":104,"name":"StormRage","steam_id":76561199435079308,"connected_time":31000000000,"state":"active","ping":267},{"user_id":19,"name":"matheus whatsapp","steam_id":76561199359501901,"connected_time":5479000000000,"state":"active","ping":41},{"user_id":74,"name":"dalas","steam_id":76561198080089883,"connected_time":1400000000000,"state":"active","ping":65},{"user_id":63,"name":"Gampe","steam_id":76561199157090028,"connected_time":2027000000000,"state":"active","ping":60},{"user_id":64,"name":"Salsa","steam_id":76561198405118645,"connected_time":1995000000000,"state":"active","ping":57},{"user_id":94,"name":"♔º(B)ASXOYº♔","steam_id":76561198325479292,"connected_time":346000000000,"state":"active","ping":45},{"user_id":42,"name":"Frank２０００ ✈","steam_id":76561198057518044,"connected_time":3921000000000,"state":"active","ping":74},{"user_id":68,"name":"Adolf_Dripler_1945","steam_id":76561198963738808,"connected_time":1759000000000,"state":"active","ping":38}]},{"server_id":143,"name":"Uncletopia | São Paulo | 2 | Community","name_short":"sao-2","host":"sao-2.br.uncletopia.com","port":27015,"enabled":true,"region":"sa","cc":"br","latitude":-23.533773,"longitude":-46.62529,"reserved":0,"last_update":"0001-01-01T00:00:00Z","name_a2s":"Uncletopia | São Paulo | 2 | Community","protocol":17,"map":"workshop/koth_product_final.ugc454272353","folder":"tf","game":"Team Fortress","app_id":440,"player_count":0,"max_players":24,"Bots":0,"server_type":"Dedicated","server_os":"Linux","password":true,"vac":true,"version":"7961495","steam_id":85568392924485349,"keywords":["cp","nocrits","nodmgspread","uncletopia"],"game_id":440,"stv_port":27016,"stv_name":"Uncletopia | São Paulo | 2 | Community | STV","players":null},{"server_id":7,"name":"Uncletopia | Seattle | 1 | All Maps","name_short":"sea-1","host":"sea-1.us.uncletopia.com","port":27015,"enabled":true,"region":"us-west","cc":"us","latitude":47.608013,"longitude":-122.33517,"reserved":0,"last_update":"0001-01-01T00:00:00Z","name_a2s":"Uncletopia | Seattle | 1 | All Maps","protocol":17,"map":"pl_badwater","folder":"tf","game":"Team Fortress","app_id":440,"player_count":24,"max_players":24,"Bots":0,"server_type":"Dedicated","server_os":"Linux","password":true,"vac":true,"version":"7961495","steam_id":85568392924469997,"keywords":["nocrits","nodmgspread","payload","uncletopia"],"game_id":440,"stv_port":27016,"stv_name":"Uncletopia | Seattle | 1 | All Maps | STV","players":[{"user_id":8,"name":"D34dR4bbit","steam_id":76561198167411455,"connected_time":5283000000000,"state":"active","ping":58},{"user_id":63,"name":"HAT-WEARING™ Maggot Gamer Cat","steam_id":76561197973992705,"connected_time":67000000000,"state":"active","ping":74},{"user_id":58,"name":"a cat plushie","steam_id":76561198080046542,"connected_time":1501000000000,"state":"active","ping":46},{"user_id":50,"name":"NotAFurryBlzBro","steam_id":76561198974018628,"connected_time":2745000000000,"state":"active","ping":115},{"user_id":42,"name":"lilith_lives","steam_id":76561199059460045,"connected_time":3235000000000,"state":"active","ping":73},{"user_id":56,"name":"SpinetinglingToast","steam_id":76561198099470670,"connected_time":1668000000000,"state":"active","ping":117},{"user_id":61,"name":"Fh","steam_id":76561198000903511,"connected_time":490000000000,"state":"active","ping":73},{"user_id":55,"name":"dumb pink","steam_id":76561199073551873,"connected_time":1857000000000,"state":"active","ping":47},{"user_id":20,"name":"CashGordon","steam_id":76561197975594096,"connected_time":3870000000000,"state":"active","ping":44},{"user_id":23,"name":"prime example of furry L","steam_id":76561198097745857,"connected_time":3764000000000,"state":"active","ping":69},{"user_id":62,"name":"Board","steam_id":76561198134326473,"connected_time":395000000000,"state":"active","ping":72},{"user_id":25,"name":"Themasterman75","steam_id":76561199385573293,"connected_time":3730000000000,"state":"active","ping":75},{"user_id":45,"name":"=Silver=","steam_id":76561198292307127,"connected_time":3110000000000,"state":"active","ping":74},{"user_id":57,"name":"Punished Jeff #NeverSimpAgain","steam_id":76561198304252584,"connected_time":1523000000000,"state":"active","ping":69},{"user_id":44,"name":"Sir Nope (TSS)","steam_id":76561198035935649,"connected_time":3171000000000,"state":"active","ping":75},{"user_id":30,"name":"Mom","steam_id":76561198207936000,"connected_time":3575000000000,"state":"active","ping":60},{"user_id":31,"name":"ilun","steam_id":76561198042913843,"connected_time":3535000000000,"state":"active","ping":57},{"user_id":32,"name":"Alison \u003c3","steam_id":76561198126211191,"connected_time":3502000000000,"state":"active","ping":135},{"user_id":34,"name":"Hottodoggu","steam_id":76561198084080712,"connected_time":3481000000000,"state":"active","ping":97},{"user_id":35,"name":"Lime","steam_id":76561198986727650,"connected_time":3472000000000,"state":"active","ping":120},{"user_id":37,"name":"Dov-Ah-Bob","steam_id":76561198147798338,"connected_time":3425000000000,"state":"active","ping":85},{"user_id":48,"name":"FiddyFoMike","steam_id":76561198057072581,"connected_time":2890000000000,"state":"active","ping":64},{"user_id":54,"name":"smoltiddygothboi","steam_id":76561198334977151,"connected_time":1895000000000,"state":"active","ping":68},{"user_id":60,"name":"Keamy","steam_id":76561199471434875,"connected_time":618000000000,"state":"active","ping":40}]},{"server_id":119,"name":"Uncletopia | Seattle | 2 | All Maps","name_short":"sea-2","host":"sea-1.us.uncletopia.com","port":27025,"enabled":true,"region":"us-west","cc":"us","latitude":47.608013,"longitude":-122.33517,"reserved":0,"last_update":"0001-01-01T00:00:00Z","name_a2s":"Uncletopia | Seattle | 2 | All Maps","protocol":17,"map":"pl_frontier_final","folder":"tf","game":"Team Fortress","app_id":440,"player_count":24,"max_players":24,"Bots":0,"server_type":"Dedicated","server_os":"Linux","password":true,"vac":true,"version":"7961495","steam_id":85568392924469998,"keywords":["nocrits","nodmgspread","payload","uncletopia"],"game_id":440,"stv_port":27026,"stv_name":"Uncletopia | Seattle | 2 | All Maps | STV","players":[{"user_id":94,"name":"Petrivus","steam_id":76561198202152453,"connected_time":1026000000000,"state":"active","ping":54},{"user_id":89,"name":"Kazoo","steam_id":76561199229748300,"connected_time":1893000000000,"state":"active","ping":89},{"user_id":53,"name":"Lavalace","steam_id":76561198073757592,"connected_time":4322000000000,"state":"active","ping":87},{"user_id":71,"name":"Caramel_Chalice","steam_id":76561198307609692,"connected_time":2932000000000,"state":"active","ping":56},{"user_id":103,"name":"bangs and fangs","steam_id":76561198102681457,"connected_time":296000000000,"state":"active","ping":121},{"user_id":106,"name":"shark","steam_id":76561198387717978,"connected_time":199000000000,"state":"active","ping":97},{"user_id":69,"name":"jayeskae","steam_id":76561198144220801,"connected_time":3190000000000,"state":"active","ping":47},{"user_id":108,"name":"CPTforever","steam_id":76561198237767198,"connected_time":159000000000,"state":"active","ping":61},{"user_id":78,"name":"scamchez","steam_id":76561198447562701,"connected_time":2438000000000,"state":"active","ping":110},{"user_id":92,"name":"brhm","steam_id":76561198199604767,"connected_time":1335000000000,"state":"active","ping":51},{"user_id":109,"name":"Gibbit","steam_id":76561198837497117,"connected_time":149000000000,"state":"active","ping":84},{"user_id":110,"name":"hoodatnin","steam_id":76561199489670228,"connected_time":103000000000,"state":"active","ping":118},{"user_id":105,"name":"TheMaskedDingo","steam_id":76561198039022700,"connected_time":251000000000,"state":"active","ping":78},{"user_id":104,"name":"Tom","steam_id":76561198070630154,"connected_time":265000000000,"state":"active","ping":82},{"user_id":111,"name":"[GUT] RiDiK®","steam_id":76561197969756446,"connected_time":98000000000,"state":"active","ping":87},{"user_id":101,"name":"my mom","steam_id":76561199225201569,"connected_time":318000000000,"state":"active","ping":123},{"user_id":76,"name":"Vruk","steam_id":76561198116930332,"connected_time":2633000000000,"state":"active","ping":62},{"user_id":61,"name":"arsenic","steam_id":76561198176391550,"connected_time":3835000000000,"state":"active","ping":114},{"user_id":33,"name":"Neo Kojiro","steam_id":76561198000967076,"connected_time":5383000000000,"state":"active","ping":123},{"user_id":95,"name":"Tibetan Pop Star","steam_id":76561198844903984,"connected_time":627000000000,"state":"active","ping":85},{"user_id":74,"name":"some nerd","steam_id":76561198297272878,"connected_time":2811000000000,"state":"active","ping":74},{"user_id":112,"name":"MonkeyMage101","steam_id":76561198354192200,"connected_time":89000000000,"state":"active","ping":80},{"user_id":81,"name":"BlazedBunny","steam_id":76561198243610560,"connected_time":2178000000000,"state":"active","ping":81},{"user_id":107,"name":"thisisSteve","steam_id":76561198420882318,"connected_time":198000000000,"state":"active","ping":66}]},{"server_id":406,"name":"Uncletopia | Seattle | 3 | Stopwatch Beta","name_short":"sea-3","host":"sea-1.us.uncletopia.com","port":27035,"enabled":true,"region":"us-west","cc":"us","latitude":47.608013,"longitude":-122.33517,"reserved":0,"last_update":"0001-01-01T00:00:00Z","name_a2s":"Uncletopia | Seattle | 3 | Stopwatch Beta","protocol":17,"map":"cp_granary","folder":"tf","game":"Team Fortress","app_id":440,"player_count":0,"max_players":24,"Bots":0,"server_type":"Dedicated","server_os":"Linux","password":true,"vac":true,"version":"7961495","steam_id":85568392924515217,"keywords":["cp","nocrits","nodmgspread","uncletopia"],"game_id":440,"stv_port":27036,"stv_name":"Uncletopia | Seattle | 3 | Stopwatch Beta | STV","players":null},{"server_id":17,"name":"Uncletopia | San Francisco | 1 | All Maps","name_short":"sfo-1","host":"sfo-1.us.uncletopia.com","port":27015,"enabled":true,"region":"us-west","cc":"us","latitude":37.77397,"longitude":-122.4313,"reserved":0,"last_update":"0001-01-01T00:00:00Z","name_a2s":"Uncletopia | San Francisco | 1 | All Maps","protocol":17,"map":"pl_frontier_final","folder":"tf","game":"Team Fortress","app_id":440,"player_count":0,"max_players":24,"Bots":0,"server_type":"Dedicated","server_os":"Linux","password":true,"vac":true,"version":"7961495","steam_id":85568392924469999,"keywords":["nocrits","nodmgspread","payload","uncletopia"],"game_id":440,"stv_port":27016,"stv_name":"Uncletopia | San Francisco | 1 | All Maps | STV","players":null},{"server_id":18,"name":"Uncletopia | San Francisco | 2 | All Maps","name_short":"sfo-2","host":"sfo-1.us.uncletopia.com","port":27025,"enabled":true,"region":"us-west","cc":"us","latitude":37.77397,"longitude":-122.4313,"reserved":0,"last_update":"0001-01-01T00:00:00Z","name_a2s":"Uncletopia | San Francisco | 2 | All Maps","protocol":17,"map":"pl_barnblitz","folder":"tf","game":"Team Fortress","app_id":440,"player_count":0,"max_players":24,"Bots":0,"server_type":"Dedicated","server_os":"Linux","password":true,"vac":true,"version":"7961495","steam_id":85568392924470000,"keywords":["nocrits","nodmgspread","payload","uncletopia"],"game_id":440,"stv_port":27026,"stv_name":"Uncletopia | San Francisco | 2 | All Maps | STV","players":null},{"server_id":19,"name":"Uncletopia | San Francisco | 3 | Stopwatch Beta","name_short":"sfo-3","host":"sfo-1.us.uncletopia.com","port":27035,"enabled":true,"region":"us-west","cc":"us","latitude":37.77397,"longitude":-122.4313,"reserved":0,"last_update":"0001-01-01T00:00:00Z","name_a2s":"Uncletopia | San Francisco | 3 | Stopwatch Beta","protocol":17,"map":"pl_borneo","folder":"tf","game":"Team Fortress","app_id":440,"player_count":0,"max_players":24,"Bots":0,"server_type":"Dedicated","server_os":"Linux","password":true,"vac":true,"version":"7961495","steam_id":85568392924742824,"keywords":["nocrits","nodmgspread","payload","uncletopia"],"game_id":440,"stv_port":27036,"stv_name":"Uncletopia | San Francisco | 3 | Stopwatch Beta | STV","players":null},{"server_id":20,"name":"Uncletopia | San Francisco | 4 | Community","name_short":"sfo-4","host":"sfo-1.us.uncletopia.com","port":27045,"enabled":true,"region":"us-west","cc":"us","latitude":37.77397,"longitude":-122.4313,"reserved":0,"last_update":"0001-01-01T00:00:00Z","name_a2s":"Uncletopia | San Francisco | 4 | Community","protocol":17,"map":"koth_viaduct","folder":"tf","game":"Team Fortress","app_id":440,"player_count":0,"max_players":24,"Bots":0,"server_type":"Dedicated","server_os":"Linux","password":true,"vac":true,"version":"7961495","steam_id":85568392924742826,"keywords":["cp","nocrits","nodmgspread","uncletopia"],"game_id":440,"stv_port":27046,"stv_name":"Uncletopia | San Francisco | 4 | Community | STV","players":null},{"server_id":141,"name":"Uncletopia | Sydney | 1 | All Maps","name_short":"syd-1","host":"syd-1.au.uncletopia.com","port":27015,"enabled":true,"region":"au","cc":"au","latitude":-33.865143,"longitude":151.2099,"reserved":0,"last_update":"0001-01-01T00:00:00Z","name_a2s":"Uncletopia | Sydney | 1 | All Maps","protocol":17,"map":"koth_cascade","folder":"tf","game":"Team Fortress","app_id":440,"player_count":0,"max_players":24,"Bots":0,"server_type":"Dedicated","server_os":"Linux","password":true,"vac":true,"version":"7961495","steam_id":85568392924470001,"keywords":["cp","nocrits","nodmgspread","uncletopia"],"game_id":440,"stv_port":27016,"stv_name":"Uncletopia | Sydney | 1 | All Maps | STV","players":null},{"server_id":123,"name":"Uncletopia | Sydney | 2 | All Maps","name_short":"syd-2","host":"syd-1.au.uncletopia.com","port":27025,"enabled":true,"region":"au","cc":"au","latitude":-33.865143,"longitude":151.2099,"reserved":0,"last_update":"0001-01-01T00:00:00Z","name_a2s":"Uncletopia | Sydney | 2 | All Maps","protocol":17,"map":"pl_upward","folder":"tf","game":"Team Fortress","app_id":440,"player_count":0,"max_players":24,"Bots":0,"server_type":"Dedicated","server_os":"Linux","password":true,"vac":true,"version":"7961495","steam_id":85568392924470002,"keywords":["nocrits","nodmgspread","payload","uncletopia"],"game_id":440,"stv_port":27026,"stv_name":"Uncletopia | Sydney | 2 | All Maps | STV","players":null},{"server_id":395,"name":"Uncletopia | Sydney | 3 | All Maps","name_short":"syd-3","host":"syd-1.au.uncletopia.com","port":27035,"enabled":true,"region":"au","cc":"au","latitude":-33.865143,"longitude":151.2099,"reserved":0,"last_update":"0001-01-01T00:00:00Z","name_a2s":"Uncletopia | Sydney | 3 | All Maps","protocol":17,"map":"koth_highpass","folder":"tf","game":"Team Fortress","app_id":440,"player_count":0,"max_players":24,"Bots":0,"server_type":"Dedicated","server_os":"Linux","password":true,"vac":true,"version":"7961495","steam_id":85568392925194467,"keywords":["cp","nocrits","nodmgspread","uncletopia"],"game_id":440,"stv_port":27036,"stv_name":"Uncletopia | Sydney | 3 | All Maps | STV","players":null},{"server_id":396,"name":"Uncletopia | Sydney | 4 | All Maps","name_short":"syd-4","host":"syd-1.au.uncletopia.com","port":27045,"enabled":true,"region":"au","cc":"au","latitude":-33.865143,"longitude":151.2099,"reserved":0,"last_update":"0001-01-01T00:00:00Z","name_a2s":"Uncletopia | Sydney | 4 | All Maps","protocol":17,"map":"koth_cascade","folder":"tf","game":"Team Fortress","app_id":440,"player_count":0,"max_players":24,"Bots":0,"server_type":"Dedicated","server_os":"Linux","password":true,"vac":true,"version":"7961495","steam_id":85568392925397958,"keywords":["cp","nocrits","nodmgspread","uncletopia"],"game_id":440,"stv_port":27046,"stv_name":"Uncletopia | Sydney | 4 | All Maps | STV","players":null},{"server_id":58,"name":"Uncletopia | Sydney | 5 | Stopwatch Beta","name_short":"syd-5","host":"syd-1.au.uncletopia.com","port":27055,"enabled":true,"region":"au","cc":"au","latitude":-33.865143,"longitude":151.2099,"reserved":0,"last_update":"0001-01-01T00:00:00Z","name_a2s":"Uncletopia | Sydney | 5 | Stopwatch Beta","protocol":17,"map":"koth_viaduct","folder":"tf","game":"Team Fortress","app_id":440,"player_count":0,"max_players":24,"Bots":0,"server_type":"Dedicated","server_os":"Linux","password":true,"vac":true,"version":"7961495","steam_id":85568392925397959,"keywords":["cp","nocrits","nodmgspread","uncletopia"],"game_id":440,"stv_port":27056,"stv_name":"Uncletopia | Sydney | 5 | Stopwatch Beta | STV","players":null},{"server_id":59,"name":"Uncletopia | Sydney | 6 | Community","name_short":"syd-6","host":"syd-1.au.uncletopia.com","port":27065,"enabled":true,"region":"au","cc":"au","latitude":-33.865143,"longitude":151.2099,"reserved":0,"last_update":"0001-01-01T00:00:00Z","name_a2s":"Uncletopia | Sydney | 6 | Community","protocol":17,"map":"koth_cascade","folder":"tf","game":"Team Fortress","app_id":440,"player_count":0,"max_players":24,"Bots":0,"server_type":"Dedicated","server_os":"Linux","password":true,"vac":true,"version":"7961495","steam_id":85568392925397960,"keywords":["cp","nocrits","nodmgspread","uncletopia"],"game_id":440,"stv_port":27066,"stv_name":"Uncletopia | Sydney | 6 | Community | STV","players":null},{"server_id":49,"name":"Uncletopia | Warsaw | 1 | All Maps","name_short":"waw-1","host":"waw-1.pl.uncletopia.com","port":27015,"enabled":true,"region":"eu","cc":"pl","latitude":52.2297,"longitude":21.017532,"reserved":0,"last_update":"0001-01-01T00:00:00Z","name_a2s":"Uncletopia | Warsaw | 1 | All Maps","protocol":17,"map":"koth_cascade","folder":"tf","game":"Team Fortress","app_id":440,"player_count":0,"max_players":24,"Bots":0,"server_type":"Dedicated","server_os":"Linux","password":true,"vac":true,"version":"7961495","steam_id":85568392925397850,"keywords":["cp","nocrits","nodmgspread","uncletopia"],"game_id":440,"stv_port":27016,"stv_name":"Uncletopia | Warsaw | 1 | All Maps | STV","players":null},{"server_id":50,"name":"Uncletopia | Warsaw | 2 | All Maps","name_short":"waw-2","host":"waw-1.pl.uncletopia.com","port":27025,"enabled":true,"region":"eu","cc":"pl","latitude":52.2297,"longitude":21.017532,"reserved":0,"last_update":"0001-01-01T00:00:00Z","name_a2s":"Uncletopia | Warsaw | 2 | All Maps","protocol":17,"map":"pl_pier","folder":"tf","game":"Team Fortress","app_id":440,"player_count":0,"max_players":24,"Bots":0,"server_type":"Dedicated","server_os":"Linux","password":true,"vac":true,"version":"7961495","steam_id":85568392925397851,"keywords":["nocrits","nodmgspread","payload","uncletopia"],"game_id":440,"stv_port":27026,"stv_name":"Uncletopia | Warsaw | 2 | All Maps | STV","players":null},{"server_id":51,"name":"Uncletopia | Warsaw | 3 | All Maps","name_short":"waw-3","host":"waw-1.pl.uncletopia.com","port":27035,"enabled":true,"region":"eu","cc":"pl","latitude":52.2297,"longitude":21.017532,"reserved":0,"last_update":"0001-01-01T00:00:00Z","name_a2s":"Uncletopia | Warsaw | 3 | All Maps","protocol":17,"map":"koth_lakeside_final","folder":"tf","game":"Team Fortress","app_id":440,"player_count":0,"max_players":24,"Bots":0,"server_type":"Dedicated","server_os":"Linux","password":true,"vac":true,"version":"7961495","steam_id":85568392925397852,"keywords":["cp","nocrits","nodmgspread","uncletopia"],"game_id":440,"stv_port":27036,"stv_name":"Uncletopia | Warsaw | 3 | All Maps | STV","players":null},{"server_id":52,"name":"Uncletopia | Warsaw | 4 | All Maps","name_short":"waw-4","host":"waw-1.pl.uncletopia.com","port":27045,"enabled":true,"region":"eu","cc":"pl","latitude":52.2297,"longitude":21.017532,"reserved":0,"last_update":"0001-01-01T00:00:00Z","name_a2s":"Uncletopia | Warsaw | 4 | All Maps","protocol":17,"map":"pl_badwater","folder":"tf","game":"Team Fortress","app_id":440,"player_count":0,"max_players":24,"Bots":0,"server_type":"Dedicated","server_os":"Linux","password":true,"vac":true,"version":"7961495","steam_id":85568392925397853,"keywords":["nocrits","nodmgspread","payload","uncletopia"],"game_id":440,"stv_port":27046,"stv_name":"Uncletopia | Warsaw | 4 | All Maps | STV","players":null},{"server_id":53,"name":"Uncletopia | Warsaw | 5 | Stopwatch Beta","name_short":"waw-5","host":"waw-1.pl.uncletopia.com","port":27055,"enabled":true,"region":"eu","cc":"pl","latitude":52.2297,"longitude":21.017532,"reserved":0,"last_update":"0001-01-01T00:00:00Z","name_a2s":"Uncletopia | Warsaw | 5 | Stopwatch Beta","protocol":17,"map":"workshop/koth_ramjam_rc1.ugc459778887","folder":"tf","game":"Team Fortress","app_id":440,"player_count":0,"max_players":24,"Bots":0,"server_type":"Dedicated","server_os":"Linux","password":true,"vac":true,"version":"7961495","steam_id":85568392925397854,"keywords":["cp","nocrits","nodmgspread","uncletopia"],"game_id":440,"stv_port":27056,"stv_name":"Uncletopia | Warsaw | 5 | Stopwatch Beta | STV","players":null},{"server_id":54,"name":"Uncletopia | Warsaw | 6 | Community","name_short":"waw-6","host":"waw-1.pl.uncletopia.com","port":27065,"enabled":true,"region":"eu","cc":"pl","latitude":52.2297,"longitude":21.017532,"reserved":0,"last_update":"0001-01-01T00:00:00Z","name_a2s":"Uncletopia | Warsaw | 6 | Community","protocol":17,"map":"workshop/cp_caldera_rc2.ugc2834196889","folder":"tf","game":"Team Fortress","app_id":440,"player_count":0,"max_players":24,"Bots":0,"server_type":"Dedicated","server_os":"Linux","password":true,"vac":true,"version":"7961495","steam_id":85568392925397856,"keywords":["cp","nocrits","nodmgspread","uncletopia"],"game_id":440,"stv_port":27066,"stv_name":"Uncletopia | Warsaw | 6 | Community | STV","players":null}]}