{"status":true,"message":"","result":[{"server_id":9,"name":"Uncletopia | Atlanta | 1 | All Maps","name_short":"atl-1","host":"atl-1.us.uncletopia.com","port":27015,"enabled":true,"region":"us-east","cc":"us","latitude":33.753746,"longitude":-84.38633,"reserved":0,"last_update":"0001-01-01T00:00:00Z","name_a2s":"Uncletopia | Atlanta | 1 | All Maps","protocol":17,"map":"pl_badwater","folder":"tf","game":"Team Fortress","app_id":440,"player_count":23,"max_players":24,"Bots":0,"server_type":"Dedicated","server_os":"Linux","password":true,"vac":true,"version":"7961495","steam_id":85568392924469982,"keywords":["nocrits","nodmgspread","payload","uncletopia"],"game_id":440,"stv_port":27016,"stv_name":"Uncletopia | Atlanta | 1 | All Maps | STV","players":[{"user_id":385,"name":"spider","steam_id":76561198130032444,"connected_time":2739000000000,"state":"active","ping":105},{"user_id":407,"name":"lynt","steam_id":76561198988333976,"connected_time":430000000000,"state":"active","ping":43},{"user_id":377,"name":"why","steam_id":76561199059732212,"connected_time":3255000000000,"state":"active","ping":57},{"user_id":359,"name":"HarryjusttHarry","steam_id":76561198982810452,"connected_time":4120000000000,"state":"active","ping":80},{"user_id":409,"name":"gesture jester","steam_id":76561198850632709,"connected_time":40000000000,"state":"active","ping":64},{"user_id":406,"name":"Ultra Lord","steam_id":76561198045260412,"connected_time":559000000000,"state":"active","ping":98},{"user_id":405,"name":"vid_","steam_id":76561198065159053,"connected_time":601000000000,"state":"active","ping":50},{"user_id":391,"name":"Onyx","steam_id":76561198275349640,"connected_time":1895000000000,"state":"active","ping":80},{"user_id":398,"name":"Scuba Steve","steam_id":76561198313018251,"connected_time":1742000000000,"state":"active","ping":71},{"user_id":399,"name":"jpuck","steam_id":76561198025018960,"connected_time":1686000000000,"state":"active","ping":53},{"user_id":382,"name":"its boiled","steam_id":76561198042600523,"connected_time":3077000000000,"state":"active","ping":72},{"user_id":408,"name":"Heathcliff","steam_id":76561198044288534,"connected_time":215000000000,"state":"active","ping":69},{"user_id":372,"name":"MinimanC","steam_id":76561198071475084,"connected_time":3345000000000,"state":"active","ping":71},{"user_id":401,"name":"Fiendss","steam_id":76561198026186354,"connected_time":885000000000,"state":"active","ping":101},{"user_id":352,"name":"YolkOnYou","steam_id":76561198088760655,"connected_time":4531000000000,"state":"active","ping":89},{"user_id":267,"name":"C Papi","steam_id":76561198027779564,"connected_time":10259000000000,"state":"active","ping":54},{"user_id":402,"name":"dree","steam_id":76561198079178866,"connected_time":765000000000,"state":"active","ping":73},{"user_id":395,"name":"room temp IQ","steam_id":76561198018724712,"connected_time":1853000000000,"state":"active","ping":60},{"user_id":343,"name":"BLOW UP NEW JERSEY","steam_id":76561198364439575,"connected_time":5236000000000,"state":"active","ping":67},{"user_id":333,"name":"--_Cook_--","steam_id":76561198080855748,"connected_time":6203000000000,"state":"active","ping":60},{"user_id":396,"name":"Oni","steam_id":76561198112066584,"connected_time":1840000000000,"state":"active","ping":50},{"user_id":404,"name":"krabby","steam_id":76561199072773402,"connected_time":729000000000,"state":"active","ping":118},{"user_id":378,"name":"Chauncey von Snuffles III","steam_id":76561198021784746,"connected_time":3255000000000,"state":"active","ping":83}]},{"server_id":104,"name":"Uncletopia | Atlanta | 2 | All Maps","name_short":"atl-2","host":"atl-1.us.uncletopia.com","port":27025,"enabled":true,"region":"us-east","cc":"us","latitude":33.753746,"longitude":-84.38633,"reserved":0,"last_update":"0001-01-01T00:00:00Z","name_a2s":"Uncletopia | Atlanta | 2 | All Maps","protocol":17,"map":"pl_frontier_final","folder":"tf","game":"Team Fortress","app_id":440,"player_count":24,"max_players":24,"Bots":0,"server_type":"Dedicated","server_os":"Linux","password":true,"vac":true,"version":"7961495","steam_id":85568392924469983,"keywords":["nocrits","nodmgspread","payload","uncletopia"],"game_id":440,"stv_port":27026,"stv_name":"Uncletopia | Atlanta | 2 | All Maps | STV","players":[{"user_id":72,"name":"StompArtist","steam_id":76561198056247405,"connected_time":5683000000000,"state":"active","ping":75},{"user_id":163,"name":"BoxPox7147","steam_id":76561199230349840,"connected_time":67000000000,"state":"active","ping":65},{"user_id":164,"name":"hayes","steam_id":76561198057101042,"connected_time":6000000000,"state":"spawning","ping":74},{"user_id":53,"name":"Artixes","steam_id":76561198379574232,"connected_time":6964000000000,"state":"active","ping":40},{"user_id":64,"name":"Your Loyal Familiar","steam_id":76561198106476075,"connected_time":6461000000000,"state":"active","ping":60},{"user_id":143,"name":"blackliner","steam_id":76561198267643091,"connected_time":1069000000000,"state":"active","ping":185},{"user_id":139,"name":"Neat","steam_id":76561198046049949,"connected_time":1142000000000,"state":"active","ping":103},{"user_id":131,"name":"Cutcleaner","steam_id":76561199000925667,"connected_time":1704000000000,"state":"active","ping":82},{"user_id":130,"name":"corviraptor!!!!!!","steam_id":76561198058284392,"connected_time":1764000000000,"state":"active","ping":76},{"user_id":156,"name":"Aeris","steam_id":76561198287271028,"connected_time":170000000000,"state":"active","ping":85},{"user_id":140,"name":"rive","steam_id":76561198216487540,"connected_time":1142000000000,"state":"active","ping":107},{"user_id":162,"name":"wincel hampton","steam_id":76561198083095146,"connected_time":86000000000,"state":"active","ping":61},{"user_id":128,"name":"Ok-Par","steam_id":76561199221067945,"connected_time":2121000000000,"state":"active","ping":84},{"user_id":158,"name":"PhinXander (they/them)","steam_id":76561199012968625,"connected_time":149000000000,"state":"active","ping":69},{"user_id":155,"name":"Daisy Le Nerd","steam_id":76561198149350087,"connected_time":179000000000,"state":"active","ping":167},{"user_id":138,"name":"That One Guy","steam_id":76561198945646560,"connected_time":1198000000000,"state":"active","ping":90},{"user_id":125,"name":"Dragus","steam_id":76561198032967285,"connected_time":2673000000000,"state":"active","ping":75},{"user_id":112,"name":"dog","steam_id":76561198263873491,"connected_time":3310000000000,"state":"active","ping":61},{"user_id":153,"name":"Brenner1020","steam_id":76561198147374898,"connected_time":389000000000,"state":"active","ping":59},{"user_id":154,"name":"Lloyd Braun","steam_id":76561197996180869,"connected_time":197000000000,"state":"active","ping":60},{"user_id":119,"name":"You Like Being Impregnated, Son","steam_id":76561198415006216,"connected_time":2891000000000,"state":"active","ping":85},{"user_id":159,"name":"Gib Gobbler","steam_id":76561199473296583,"connected_time":147000000000,"state":"active","ping":142},{"user_id":145,"name":"Frontier Psychiatrist","steam_id":76561198038689088,"connected_time":1026000000000,"state":"active","ping":76},{"user_id":160,"name":"KandyKane_404","steam_id":76561198844209170,"connected_time":145000000000,"state":"active","ping":148}]},{"server_id":400,"name":"Uncletopia | Atlanta | 3 | Stopwatch","name_short":"atl-3","host":"atl-1.us.uncletopia.com","port":27035,"enabled":true,"region":"us-east","cc":"us","latitude":33.753746,"longitude":-84.38633,"reserved":0,"last_update":"0001-01-01T00:00:00Z","name_a2s":"Uncletopia | Atlanta | 3 | Stopwatch","protocol":17,"map":"workshop/koth_ramjam_rc1.ugc459778887","folder":"tf","game":"Team Fortress","app_id":440,"player_count":0,"max_players":24,"Bots":0,"server_type":"Dedicated","server_os":"Linux","password":true,"vac":true,"version":"7961495","steam_id":85568392924515187,"keywords":["cp","nocrits","nodmgspread","uncletopia"],"game_id":440,"stv_port":27036,"stv_name":"Uncletopia | Atlanta | 3 | Stopwatch | STV","players":null},{"server_id":401,"name":"Uncletopia | Atlanta | 4 | Community","name_short":"atl-4","host":"atl-1.us.uncletopia.com","port":27045,"enabled":true,"region":"us-east","cc":"us","latitude":33.753746,"longitude":-84.38633,"reserved":0,"last_update":"0001-01-01T00:00:00Z","name_a2s":"Uncletopia | Atlanta | 4 | Community","protocol":17,"map":"workshop/rd_asteroid_redux_b1.ugc2154902912","folder":"tf","game":"Team Fortress","app_id":440,"player_count":0,"max_players":24,"Bots":0,"server_type":"Dedicated","server_os":"Linux","password":true,"vac":true,"version":"7961495","steam_id":85568392924515188,"keywords":["beta","nocrits","nodmgspread","rd","uncletopia"],"game_id":440,"stv_port":27046,"stv_name":"Uncletopia | Atlanta | 4 | Community | STV","players":null},{"server_id":2,"name":"Uncletopia | Chicago | 1 | All Maps","name_short":"chi-1","host":"chi-1.us.uncletopia.com","port":27015,"enabled":true,"region":"us-central","cc":"us","latitude":41.881832,"longitude":-87.62318,"reserved":0,"last_update":"0001-01-01T00:00:00Z","name_a2s":"Uncletopia | Chicago | 1 | All Maps","protocol":17,"map":"cp_process_final","folder":"tf","game":"Team Fortress","app_id":440,"player_count":24,"max_players":24,"Bots":0,"server_type":"Dedicated","server_os":"Linux","password":true,"vac":true,"version":"7961495","steam_id":85568392924469984,"keywords":["cp","nocrits","nodmgspread","uncletopia"],"game_id":440,"stv_port":27016,"stv_name":"Uncletopia | Chicago | 1 | All Maps | STV","players":[{"user_id":381,"name":"SIN K4RMA","steam_id":76561198869287223,"connected_time":827000000000,"state":"active","ping":70},{"user_id":365,"name":"DevoutPage14990","steam_id":76561198831347354,"connected_time":1670000000000,"state":"active","ping":77},{"user_id":377,"name":"WiteBord","steam_id":76561198891799301,"connected_time":910000000000,"state":"active","ping":58},{"user_id":303,"name":"bird enthusiast","steam_id":76561198087661713,"connected_time":8660000000000,"state":"active","ping":61},{"user_id":393,"name":"Dan!","steam_id":76561199126958455,"connected_time":84000000000,"state":"active","ping":99},{"user_id":335,"name":"Darkmaen","steam_id":76561198060543390,"connected_time":4270000000000,"state":"active","ping":140},{"user_id":379,"name":"Help!","steam_id":76561198270926835,"connected_time":884000000000,"state":"active","ping":111},{"user_id":366,"name":"crusty toilet stains","steam_id":76561198156873737,"connected_time":1662000000000,"state":"active","ping":59},{"user_id":371,"name":"mariopasta6","steam_id":76561199073184183,"connected_time":1196000000000,"state":"active","ping":71},{"user_id":372,"name":"♥Bunny♥Slut♥","steam_id":76561198206376851,"connected_time":1179000000000,"state":"active","ping":82},{"user_id":394,"name":"Big Phonius","steam_id":76561199092395311,"connected_time":82000000000,"state":"active","ping":69},{"user_id":387,"name":"᲼orange sharpie highlighter\ufffd\ufffd","steam_id":76561198999217575,"connected_time":608000000000,"state":"active","ping":61},{"user_id":391,"name":"fried rice","steam_id":76561198928939100,"connected_time":195000000000,"state":"active","ping":75},{"user_id":388,"name":"6 million bees","steam_id":76561198400438007,"connected_time":557000000000,"state":"active","ping":46},{"user_id":392,"name":"ERR://23¤Y/","steam_id":76561197991015780,"connected_time":100000000000,"state":"active","ping":71},{"user_id":369,"name":"Space","steam_id":76561198350489754,"connected_time":1462000000000,"state":"active","ping":46},{"user_id":383,"name":"The Pug","steam_id":76561198067827959,"connected_time":795000000000,"state":"active","ping":70},{"user_id":395,"name":"Inevitable","steam_id":76561198210050169,"connected_time":53000000000,"state":"active","ping":60},{"user_id":367,"name":"Aztea","steam_id":76561198982089893,"connected_time":1646000000000,"state":"active","ping":86},{"user_id":386,"name":"VelocityCubeR","steam_id":76561198044351011,"connected_time":754000000000,"state":"active","ping":58},{"user_id":360,"name":"bruiseraaron","steam_id":76561198020092380,"connected_time":2413000000000,"state":"active","ping":54},{"user_id":385,"name":"twizted","steam_id":76561197960407274,"connected_time":775000000000,"state":"active","ping":71},{"user_id":302,"name":"Lia_Rein TTV","steam_id":76561198151569597,"connected_time":8953000000000,"state":"active","ping":137},{"user_id":390,"name":"t.tv/FamilyGuyFunnyMoments277","steam_id":76561198416047580,"connected_time":501000000000,"state":"active","ping":67}]},{"server_id":106,"name":"Uncletopia | Chicago | 2 | All Maps","name_short":"chi-2","host":"chi-1.us.uncletopia.com","port":27025,"enabled":true,"region":"us-central","cc":"us","latitude":41.881832,"longitude":-87.62318,"reserved":0,"last_update":"0001-01-01T00:00:00Z","name_a2s":"Uncletopia | Chicago | 2 | All Maps","protocol":17,"map":"pl_pier","folder":"tf","game":"Team Fortress","app_id":440,"player_count":24,"max_players":24,"Bots":0,"server_type":"Dedicated","server_os":"Linux","password":true,"vac":true,"version":"7961495","steam_id":85568392924469985,"keywords":["nocrits","nodmgspread","payload","uncletopia"],"game_id":440,"stv_port":27026,"stv_name":"Uncletopia | Chicago | 2 | All Maps | STV","players":[{"user_id":190,"name":"Crab","steam_id":76561198067628664,"connected_time":675000000000,"state":"active","ping":103},{"user_id":63,"name":"warren","steam_id":76561198136331136,"connected_time":8728000000000,"state":"active","ping":81},{"user_id":178,"name":"slowdance","steam_id":76561198097427947,"connected_time":1009000000000,"state":"active","ping":141},{"user_id":174,"name":"Nerf Clean Hit","steam_id":76561198257691881,"connected_time":1557000000000,"state":"active","ping":92},{"user_id":167,"name":"Boot Mcstink","steam_id":76561199226873917,"connected_time":1689000000000,"state":"active","ping":99},{"user_id":140,"name":"Sefren","steam_id":76561198007657340,"connected_time":5053000000000,"state":"active","ping":99},{"user_id":196,"name":"wormburnerturner","steam_id":76561198143607463,"connected_time":444000000000,"state":"active","ping":90},{"user_id":193,"name":"Tony Pizza","steam_id":76561198276513608,"connected_time":611000000000,"state":"active","ping":167},{"user_id":179,"name":"SSBlue","steam_id":76561198126300243,"connected_time":969000000000,"state":"active","ping":105},{"user_id":199,"name":"The Foolish Samurai","steam_id":76561198094494945,"connected_time":393000000000,"state":"active","ping":106},{"user_id":166,"name":"lampin","steam_id":76561197964367078,"connected_time":1927000000000,"state":"active","ping":52},{"user_id":197,"name":"Menacing","steam_id":76561198009093788,"connected_time":439000000000,"state":"active","ping":70},{"user_id":169,"name":"resh!","steam_id":76561198066619792,"connected_time":1654000000000,"state":"active","ping":75},{"user_id":165,"name":"Sunshine","steam_id":76561198885528098,"connected_time":2065000000000,"state":"active","ping":72},{"user_id":177,"name":"Jugo","steam_id":76561198072113131,"connected_time":1034000000000,"state":"active","ping":81},{"user_id":182,"name":"tvBLNKT","steam_id":76561198004481006,"connected_time":886000000000,"state":"active","ping":105},{"user_id":200,"name":"bunsy","steam_id":76561198097292857,"connected_time":71000000000,"state":"active","ping":67},{"user_id":184,"name":"Yongle","steam_id":76561198068591156,"connected_time":875000000000,"state":"active","ping":54},{"user_id":185,"name":"autisthicc","steam_id":76561198003918928,"connected_time":857000000000,"state":"active","ping":148},{"user_id":157,"name":"laz","steam_id":76561198334164507,"connected_time":3034000000000,"state":"active","ping":71},{"user_id":186,"name":"Salam Ibn'dur","steam_id":76561198155872356,"connected_time":854000000000,"state":"active","ping":58},{"user_id":192,"name":"icepear","steam_id":76561199147881544,"connected_time":622000000000,"state":"active","ping":46},{"user_id":189,"name":"Hero8171","steam_id":76561199239824271,"connected_time":809000000000,"state":"active","ping":64},{"user_id":198,"name":"Flashyface","steam_id":76561198078951427,"connected_time":439000000000,"state":"active","ping":67}]},{"server_id":402,"name":"Uncletopia | Chicago | 3 | All Maps","name_short":"chi-3","host":"chi-1.us.uncletopia.com","port":27035,"enabled":true,"region":"us-central","cc":"us","latitude":41.881832,"longitude":-87.62318,"reserved":0,"last_update":"0001-01-01T00:00:00Z","name_a2s":"Uncletopia | Chicago | 3 | All Maps","protocol":17,"map":"pl_frontier_final","folder":"tf","game":"Team Fortress","app_id":440,"player_count":24,"max_players":24,"Bots":0,"server_type":"Dedicated","server_os":"Linux","password":true,"vac":true,"version":"7961495","steam_id":85568392924515191,"keywords":["nocrits","nodmgspread","payload","uncletopia"],"game_id":440,"stv_port":27036,"stv_name":"Uncletopia | Chicago | 3 | All Maps | STV","players":[{"user_id":218,"name":"Hashmere","steam_id":76561198002797253,"connected_time":1913000000000,"state":"active","ping":79},{"user_id":198,"name":"The Smelly Kid","steam_id":76561198405134151,"connected_time":3075000000000,"state":"active","ping":147},{"user_id":237,"name":"zero two","steam_id":76561199058650117,"connected_time":677000000000,"state":"active","ping":103},{"user_id":232,"name":"roast pig with apple in mouth","steam_id":76561198051353647,"connected_time":1112000000000,"state":"active","ping":100},{"user_id":199,"name":"really hot pocket","steam_id":76561198239297686,"connected_time":2859000000000,"state":"active","ping":62},{"user_id":181,"name":"Brawns","steam_id":76561198045190199,"connected_time":4134000000000,"state":"active","ping":75},{"user_id":227,"name":"maxtea084","steam_id":76561199333951195,"connected_time":1385000000000,"state":"active","ping":70},{"user_id":239,"name":"[NAME-REDACTED]","steam_id":76561198035682975,"connected_time":572000000000,"state":"active","ping":63},{"user_id":221,"name":"Tonedeft","steam_id":76561198145220502,"connected_time":1858000000000,"state":"active","ping":84},{"user_id":228,"name":"Fentanyl76","steam_id":76561198043497451,"connected_time":1364000000000,"state":"active","ping":47},{"user_id":214,"name":"LetsWinCarlos2012","steam_id":76561199084826822,"connected_time":2073000000000,"state":"active","ping":97},{"user_id":174,"name":"RealStanzy","steam_id":76561199060261003,"connected_time":5196000000000,"state":"active","ping":70},{"user_id":219,"name":"EnergyBolt30","steam_id":76561198925178957,"connected_time":1904000000000,"state":"active","ping":85},{"user_id":238,"name":"Mr. Milk","steam_id":76561198068902833,"connected_time":604000000000,"state":"active","ping":101},{"user_id":240,"name":"Werm","steam_id":76561198149601897,"connected_time":293000000000,"state":"active","ping":76},{"user_id":224,"name":"ᴯᴱ Jarl Heegard","steam_id":76561198216100259,"connected_time":1745000000000,"state":"active","ping":70},{"user_id":188,"name":"SoundKitKiller","steam_id":76561198053535873,"connected_time":3826000000000,"state":"active","ping":82},{"user_id":222,"name":"Reiner","steam_id":76561199201762178,"connected_time":1858000000000,"state":"active","ping":74},{"user_id":241,"name":"XenBad","steam_id":76561197990719842,"connected_time":57000000000,"state":"active","ping":142},{"user_id":231,"name":"Nephi","steam_id":76561198031525122,"connected_time":1198000000000,"state":"active","ping":79},{"user_id":223,"name":"gamba","steam_id":76561198069264650,"connected_time":1842000000000,"state":"active","ping":60},{"user_id":167,"name":"reis","steam_id":76561199232952016,"connected_time":5491000000000,"state":"active","ping":191},{"user_id":229,"name":"Bee","steam_id":76561198074681324,"connected_time":1351000000000,"state":"active","ping":63},{"user_id":212,"name":"Sove67","steam_id":76561198069919807,"connected_time":2446000000000,"state":"active","ping":80}]},{"server_id":403,"name":"Uncletopia | Chicago | 4 | All Maps","name_short":"chi-4","host":"chi-1.us.uncletopia.com","port":27045,"enabled":true,"region":"us-central","cc":"us","latitude":41.881832,"longitude":-87.62318,"reserved":0,"last_update":"0001-01-01T00:00:00Z","name_a2s":"Uncletopia | Chicago | 4 | All Maps","protocol":17,"map":"pl_upward","folder":"tf","game":"Team Fortress","app_id":440,"player_count":24,"max_players":24,"Bots":0,"server_type":"Dedicated","server_os":"Linux","password":true,"vac":true,"version":"7961495","steam_id":85568392924515193,"keywords":["nocrits","nodmgspread","payload","uncletopia"],"game_id":440,"stv_port":27046,"stv_name":"Uncletopia | Chicago | 4 | All Maps | STV","players":[{"user_id":543,"name":"Piss Goblin","steam_id":76561198945800020,"connected_time":1447000000000,"state":"active","ping":84},{"user_id":540,"name":"The Jar","steam_id":76561198146013385,"connected_time":1799000000000,"state":"active","ping":74},{"user_id":512,"name":"The Sorrow of Dandy","steam_id":76561198005551894,"connected_time":3841000000000,"state":"active","ping":91},{"user_id":507,"name":"goofs","steam_id":76561198444595264,"connected_time":3921000000000,"state":"active","ping":78},{"user_id":559,"name":"heck","steam_id":76561198308547958,"connected_time":761000000000,"state":"active","ping":60},{"user_id":528,"name":"paypur -rng","steam_id":76561198214370515,"connected_time":2681000000000,"state":"active","ping":93},{"user_id":546,"name":"lonely fortnite gamer girl","steam_id":76561198272948471,"connected_time":1401000000000,"state":"active","ping":58},{"user_id":531,"name":"Brandino!","steam_id":76561198000446932,"connected_time":2663000000000,"state":"active","ping":81},{"user_id":536,"name":"Tony Bananas","steam_id":76561197986081494,"connected_time":2361000000000,"state":"active","ping":81},{"user_id":547,"name":"John16Mark","steam_id":76561198119445407,"connected_time":1385000000000,"state":"active","ping":88},{"user_id":568,"name":"L1Spid","steam_id":76561199029194491,"connected_time":497000000000,"state":"active","ping":76},{"user_id":532,"name":"Tincan","steam_id":76561198148890132,"connected_time":2644000000000,"state":"active","ping":108},{"user_id":548,"name":"AquaTsunami","steam_id":76561199085473809,"connected_time":1380000000000,"state":"active","ping":95},{"user_id":566,"name":"Gargathor the Entity Catcher","steam_id":76561198189429665,"connected_time":580000000000,"state":"active","ping":70},{"user_id":533,"name":"Father","steam_id":76561198158419087,"connected_time":2637000000000,"state":"active","ping":106},{"user_id":560,"name":"Cottoneyes","steam_id":76561197994730627,"connected_time":757000000000,"state":"active","ping":71},{"user_id":557,"name":"Shoeshocker","steam_id":76561198174302467,"connected_time":922000000000,"state":"active","ping":70},{"user_id":501,"name":"Hobo Shanker","steam_id":76561198001785187,"connected_time":4640000000000,"state":"active","ping":88},{"user_id":561,"name":"SafetyInstructor","steam_id":76561199195205705,"connected_time":747000000000,"state":"active","ping":81},{"user_id":569,"name":"Waterboy","steam_id":76561197989347906,"connected_time":436000000000,"state":"active","ping":72},{"user_id":563,"name":"Meat Dragon","steam_id":76561198120319256,"connected_time":692000000000,"state":"active","ping":45},{"user_id":558,"name":"BugsAreMyWorstEnemy","steam_id":76561199440395505,"connected_time":849000000000,"state":"active","ping":56},{"user_id":564,"name":"Evil little man","steam_id":76561198311053471,"connected_time":687000000000,"state":"active","ping":76},{"user_id":572,"name":"Twitchy Maxfieldis DeCrapolo","steam_id":76561198165865696,"connected_time":54000000000,"state":"active","ping":81}]},{"server_id":36,"name":"Uncletopia | Chicago | 5 | All Maps","name_short":"chi-5","host":"chi-2.us.uncletopia.com","port":27015,"enabled":true,"region":"us-central","cc":"us","latitude":41.881832,"longitude":-87.62318,"reserved":0,"last_update":"0001-01-01T00:00:00Z","name_a2s":"Uncletopia | Chicago | 5 | All Maps","protocol":17,"map":"pl_snowycoast","folder":"tf","game":"Team Fortress","app_id":440,"player_count":24,"max_players":24,"Bots":0,"server_type":"Dedicated","server_os":"Linux","password":true,"vac":true,"version":"7961495","steam_id":85568392924866362,"keywords":["nocrits","nodmgspread","payload","uncletopia"],"game_id":440,"stv_port":27016,"stv_name":"Uncletopia | Chicago | 5 | All Maps | STV","players":[{"user_id":93,"name":"tacocat","steam_id":76561198976138151,"connected_time":144000000000,"state":"active","ping":117},{"user_id":39,"name":"Rikachu","steam_id":76561198012712022,"connected_time":3569000000000,"state":"active","ping":106},{"user_id":90,"name":"Nexusuxen","steam_id":76561198117547131,"connected_time":300000000000,"state":"active","ping":74},{"user_id":91,"name":"303","steam_id":76561199052840531,"connected_time":291000000000,"state":"active","ping":60},{"user_id":85,"name":"Engideer","steam_id":76561198145733164,"connected_time":534000000000,"state":"active","ping":75},{"user_id":15,"name":"JakeRTurbo","steam_id":76561198327532181,"connected_time":4949000000000,"state":"active","ping":61},{"user_id":81,"name":"StretchySnail59","steam_id":76561198073535005,"connected_time":972000000000,"state":"active","ping":49},{"user_id":59,"name":"ICBMonkey","steam_id":76561198033351821,"connected_time":2561000000000,"state":"active","ping":81},{"user_id":69,"name":"ChebJeb","steam_id":76561198981377081,"connected_time":1666000000000,"state":"active","ping":85},{"user_id":84,"name":"onion","steam_id":76561198242311084,"connected_time":599000000000,"state":"active","ping":61},{"user_id":60,"name":"Donnie","steam_id":76561199437640368,"connected_time":2477000000000,"state":"active","ping":112},{"user_id":86,"name":"BiteSizedTwix","steam_id":76561198361492300,"connected_time":496000000000,"state":"active","ping":80},{"user_id":71,"name":"nonagon infinity","steam_id":76561198397662124,"connected_time":1648000000000,"state":"active","ping":88},{"user_id":83,"name":"BB Lorexav","steam_id":76561198207565988,"connected_time":724000000000,"state":"active","ping":84},{"user_id":94,"name":"Ryoko","steam_id":76561198084725087,"connected_time":129000000000,"state":"active","ping":72},{"user_id":58,"name":"Beebo, Son of Beebo","steam_id":76561198055948497,"connected_time":2600000000000,"state":"active","ping":56},{"user_id":92,"name":"Ono","steam_id":76561198024377986,"connected_time":240000000000,"state":"active","ping":93},{"user_id":89,"name":"King","steam_id":76561198123927752,"connected_time":422000000000,"state":"active","ping":56},{"user_id":74,"name":"Jango","steam_id":76561198084589742,"connected_time":1385000000000,"state":"active","ping":77},{"user_id":31,"name":"ez$ airballer","steam_id":76561198165899125,"connected_time":3774000000000,"state":"active","ping":62},{"user_id":72,"name":"One Shot and A Miss","steam_id":76561198124269698,"connected_time":1612000000000,"state":"active","ping":138},{"user_id":68,"name":"Andrew's Taint","steam_id":76561198131400543,"connected_time":1793000000000,"state":"active","ping":79},{"user_id":36,"name":"FROYO donovin","steam_id":76561198045679387,"connected_time":3631000000000,"state":"active","ping":45},{"user_id":54,"name":"opium*poophead","steam_id":76561198045781230,"connected_time":2940000000000,"state":"active","ping":64}]},{"server_id":37,"name":"Uncletopia | Chicago | 6 | All Maps","name_short":"chi-6","host":"chi-2.us.uncletopia.com","port":27025,"enabled":true,"region":"us-central","cc":"us","latitude":41.881832,"longitude":-87.62318,"reserved":0,"last_update":"0001-01-01T00:00:00Z","name_a2s":"Uncletopia | Chicago | 6 | All Maps","protocol":17,"map":"pl_upward","folder":"tf","game":"Team Fortress","app_id":440,"player_count":24,"max_players":24,"Bots":0,"server_type":"Dedicated","server_os":"Linux","password":true,"vac":true,"version":"7961495","steam_id":85568392924866363,"keywords":["nocrits","nodmgspread","payload","uncletopia"],"game_id":440,"stv_port":27026,"stv_name":"Uncletopia | Chicago | 6 | All Maps | STV","players":[{"user_id":102,"name":"sock_vendor","steam_id":76561198059103865,"connected_time":1472000000000,"state":"active","ping":73},{"user_id":122,"name":"Aster","steam_id":76561198037920420,"connected_time":618000000000,"state":"active","ping":94},{"user_id":97,"name":"Penis Man Balls Funny","steam_id":76561198207718944,"connected_time":2083000000000,"state":"active","ping":59},{"user_id":104,"name":"SuperSalty","steam_id":76561198297779347,"connected_time":1395000000000,"state":"active","ping":63},{"user_id":112,"name":"asm_ghost","steam_id":76561199205363547,"connected_time":905000000000,"state":"active","ping":129},{"user_id":130,"name":"ldx_canquiz","steam_id":76561198261005312,"connected_time":265000000000,"state":"active","ping":97},{"user_id":108,"name":"Hovg9000","steam_id":76561199191556710,"connected_time":1018000000000,"state":"active","ping":95},{"user_id":128,"name":"Drilly22","steam_id":76561198068838338,"connected_time":325000000000,"state":"active","ping":89},{"user_id":84,"name":"chungus","steam_id":76561198047451663,"connected_time":3058000000000,"state":"active","ping":73},{"user_id":127,"name":"TheGreythreat","steam_id":76561198021995538,"connected_time":382000000000,"state":"active","ping":67},{"user_id":146,"name":"Chef__7","steam_id":76561199056921540,"connected_time":102000000000,"state":"active","ping":59},{"user_id":117,"name":"forsakencreator","steam_id":76561198332382572,"connected_time":734000000000,"state":"active","ping":87},{"user_id":129,"name":"carrot cake","steam_id":76561198055174915,"connected_time":280000000000,"state":"active","ping":70},{"user_id":147,"name":"A 2008 Toyota Corolla","steam_id":76561198271980788,"connected_time":33000000000,"state":"active","ping":88},{"user_id":123,"name":"QuarticalPhysics","steam_id":76561198061386266,"connected_time":616000000000,"state":"active","ping":77},{"user_id":116,"name":"Steel Tombstone","steam_id":76561199160542103,"connected_time":796000000000,"state":"active","ping":55},{"user_id":132,"name":"Meep","steam_id":76561198044645661,"connected_time":239000000000,"state":"active","ping":75},{"user_id":124,"name":"DaMultiversalist","steam_id":76561198239552412,"connected_time":581000000000,"state":"active","ping":67},{"user_id":119,"name":"skyGage456","steam_id":76561198359788916,"connected_time":700000000000,"state":"active","ping":60},{"user_id":143,"name":"Ligaie","steam_id":76561199121597694,"connected_time":187000000000,"state":"active","ping":77},{"user_id":133,"name":"Broadsword #LGM","steam_id":76561198011160411,"connected_time":232000000000,"state":"active","ping":95},{"user_id":120,"name":"Nespreco","steam_id":76561198252035336,"connected_time":688000000000,"state":"active","ping":64},{"user_id":142,"name":"lol","steam_id":76561198072115209,"connected_time":211000000000,"state":"active","ping":73},{"user_id":141,"name":"EccentricWob","steam_id":76561198062121787,"connected_time":220000000000,"state":"active","ping":80}]},{"server_id":38,"name":"Uncletopia | Chicago | 7 | Stopwatch","name_short":"chi-7","host":"chi-2.us.uncletopia.com","port":27035,"enabled":true,"region":"us-central","cc":"us","latitude":41.881832,"longitude":-87.62318,"reserved":0,"last_update":"0001-01-01T00:00:00Z","name_a2s":"Uncletopia | Chicago | 7 | Stopwatch","protocol":17,"map":"pl_upward","folder":"tf","game":"Team Fortress","app_id":440,"player_count":0,"max_players":24,"Bots":0,"server_type":"Dedicated","server_os":"Linux","password":true,"vac":true,"version":"7961495","steam_id":85568392924866364,"keywords":["nocrits","nodmgspread","payload","uncletopia"],"game_id":440,"stv_port":27036,"stv_name":"Uncletopia | Chicago | 7 | Stopwatch | STV","players":null},{"server_id":39,"name":"Uncletopia | Chicago | 8 | Community","name_short":"chi-8","host":"chi-2.us.uncletopia.com","port":27045,"enabled":true,"region":"us-central","cc":"us","latitude":41.881832,"longitude":-87.62318,"reserved":0,"last_update":"0001-01-01T00:00:00Z","name_a2s":"Uncletopia | Chicago | 8 | Community","protocol":17,"map":"workshop/koth_kemptown_rc1.ugc767410655","folder":"tf","game":"Team Fortress","app_id":440,"player_count":0,"max_players":24,"Bots":0,"server_type":"Dedicated","server_os":"Linux","password":true,"vac":true,"version":"7961495","steam_id":85568392924866365,"keywords":["cp","nocrits","nodmgspread","uncletopia"],"game_id":440,"stv_port":27046,"stv_name":"Uncletopia | Chicago | 8 | Community | STV","players":null},{"server_id":8,"name":"Uncletopia | Dallas | 1 | All Maps","name_short":"dal-1","host":"dal-1.us.uncletopia.com","port":27015,"enabled":true,"region":"us-central","cc":"us","latitude":32.779167,"longitude":-96.80889,"reserved":0,"last_update":"0001-01-01T00:00:00Z","name_a2s":"Uncletopia | Dallas | 1 | All Maps","protocol":17,"map":"pl_borneo","folder":"tf","game":"Team Fortress","app_id":440,"player_count":24,"max_players":24,"Bots":0,"server_type":"Dedicated","server_os":"Linux","password":true,"vac":true,"version":"7961495","steam_id":85568392924469986,"keywords":["nocrits","nodmgspread","payload","uncletopia"],"game_id":440,"stv_port":27016,"stv_name":"Uncletopia | Dallas | 1 | All Maps | STV","players":[{"user_id":319,"name":"(Ô)Ô)Wandering Singer(Ô(Ô)","steam_id":76561198126477141,"connected_time":194000000000,"state":"active","ping":100},{"user_id":322,"name":"TheSausageSwiper","steam_id":76561198972869845,"connected_time":140000000000,"state":"active","ping":135},{"user_id":264,"name":"Da Policia","steam_id":76561198012762789,"connected_time":4320000000000,"state":"active","ping":45},{"user_id":312,"name":"♩Karmism♩","steam_id":76561199453410299,"connected_time":939000000000,"state":"active","ping":87},{"user_id":307,"name":"get scrongled, idiot","steam_id":76561198115874625,"connected_time":1493000000000,"state":"active","ping":94},{"user_id":313,"name":"mkl","steam_id":76561197986401685,"connected_time":907000000000,"state":"active","ping":61},{"user_id":288,"name":"black tar estrogen","steam_id":76561198043911582,"connected_time":2555000000000,"state":"active","ping":84},{"user_id":242,"name":"dawgamez","steam_id":76561198089293509,"connected_time":6146000000000,"state":"active","ping":63},{"user_id":317,"name":"Darling","steam_id":76561198127525888,"connected_time":297000000000,"state":"active","ping":45},{"user_id":276,"name":"techdeck","steam_id":76561199022751661,"connected_time":3104000000000,"state":"active","ping":51},{"user_id":289,"name":"Verily","steam_id":76561198200558318,"connected_time":2547000000000,"state":"active","ping":123},{"user_id":323,"name":"SarcasticAristocat","steam_id":76561198168488694,"connected_time":127000000000,"state":"active","ping":70},{"user_id":291,"name":"trade_minecraft_god666","steam_id":76561198073176682,"connected_time":2493000000000,"state":"active","ping":90},{"user_id":314,"name":"tsz","steam_id":76561199246231090,"connected_time":782000000000,"state":"active","ping":83},{"user_id":301,"name":"the munch","steam_id":76561199164347838,"connected_time":1600000000000,"state":"active","ping":69},{"user_id":315,"name":"Shooter of Walls","steam_id":76561197988105207,"connected_time":746000000000,"state":"active","ping":83},{"user_id":310,"name":"dubstept","steam_id":76561198884973306,"connected_time":1221000000000,"state":"active","ping":96},{"user_id":318,"name":"crustycheeseblock","steam_id":76561198947654861,"connected_time":259000000000,"state":"active","ping":59},{"user_id":306,"name":"{ST} Oxythemoron","steam_id":76561198060089965,"connected_time":1528000000000,"state":"active","ping":60},{"user_id":320,"name":"GlizzLord","steam_id":76561198321010427,"connected_time":175000000000,"state":"active","ping":79},{"user_id":309,"name":"JNGthree","steam_id":76561198166002579,"connected_time":1452000000000,"state":"active","ping":63},{"user_id":280,"name":"Easey","steam_id":76561198230316868,"connected_time":3016000000000,"state":"active","ping":64},{"user_id":295,"name":"Mick","steam_id":76561198972619900,"connected_time":2465000000000,"state":"active","ping":56},{"user_id":321,"name":"Dabbledornk","steam_id":76561198065241300,"connected_time":167000000000,"state":"active","ping":75}]},{"server_id":108,"name":"Uncletopia | Dallas | 2 | All Maps","name_short":"dal-2","host":"dal-1.us.uncletopia.com","port":27025,"enabled":true,"region":"us-central","cc":"us","latitude":32.779167,"longitude":-96.80889,"reserved":0,"last_update":"0001-01-01T00:00:00Z","name_a2s":"Uncletopia | Dallas | 2 | All Maps","protocol":17,"map":"pl_upward","folder":"tf","game":"Team Fortress","app_id":440,"player_count":0,"max_players":24,"Bots":0,"server_type":"Dedicated","server_os":"Linux","password":true,"vac":true,"version":"7961495","steam_id":85568392924469988,"keywords":["nocrits","nodmgspread","payload","uncletopia"],"game_id":440,"stv_port":27026,"stv_name":"Uncletopia | Dallas | 2 | All Maps | STV","players":null},{"server_id":404,"name":"Uncletopia | Dallas | 3 | All Maps","name_short":"dal-3","host":"dal-1.us.uncletopia.com","port":27035,"enabled":true,"region":"us-central","cc":"us","latitude":32.779167,"longitude":-96.80889,"reserved":0,"last_update":"0001-01-01T00:00:00Z","name_a2s":"Uncletopia | Dallas | 3 | All Maps","protocol":17,"map":"pl_badwater","folder":"tf","game":"Team Fortress","app_id":440,"player_count":0,"max_players":24,"Bots":0,"server_type":"Dedicated","server_os":"Linux","password":true,"vac":true,"version":"7961495","steam_id":85568392924515219,"keywords":["nocrits","nodmgspread","payload","uncletopia"],"game_id":440,"stv_port":27036,"stv_name":"Uncletopia | Dallas | 3 | All Maps | STV","players":null},{"server_id":405,"name":"Uncletopia | Dallas | 4 | Community","name_short":"dal-4","host":"dal-1.us.uncletopia.com","port":27045,"enabled":true,"region":"us-central","cc":"us","latitude":32.779167,"longitude":-96.80889,"reserved":0,"last_update":"0001-01-01T00:00:00Z","name_a2s":"Uncletopia | Dallas | 4 | Community","protocol":17,"map":"pl_pier","folder":"tf","game":"Team Fortress","app_id":440,"player_count":0,"max_players":24,"Bots":0,"server_type":"Dedicated","server_os":"Linux","password":true,"vac":true,"version":"7961495","steam_id":85568392924515220,"keywords":["nocrits","nodmgspread","payload","uncletopia"],"game_id":440,"stv_port":27046,"stv_name":"Uncletopia | Dallas | 4 | Community | STV","players":null},{"server_id":5,"name":"Uncletopia | Frankfurt | 1 | All Maps","name_short":"frk-1","host":"frk-1.de.uncletopia.com","port":27015,"enabled":true,"region":"eu","cc":"de","latitude":50.110924,"longitude":8.682127,"reserved":0,"last_update":"0001-01-01T00:00:00Z","name_a2s":"Uncletopia | Frankfurt | 1 | All Maps","protocol":17,"map":"koth_cascade","folder":"tf","game":"Team Fortress","app_id":440,"player_count":0,"max_players":24,"Bots":0,"server_type":"Dedicated","server_os":"Linux","password":true,"vac":true,"version":"7961495","steam_id":85568392924469989,"keywords":["cp","nocrits","nodmgspread","uncletopia"],"game_id":440,"stv_port":27016,"stv_name":"Uncletopia | Frankfurt | 1 | All Maps | STV","players":null},{"server_id":110,"name":"Uncletopia | Frankfurt | 2 | All Maps","name_short":"frk-2","host":"frk-1.de.uncletopia.com","port":27025,"enabled":true,"region":"eu","cc":"de","latitude":50.110924,"longitude":8.682127,"reserved":0,"last_update":"0001-01-01T00:00:00Z","name_a2s":"Uncletopia | Frankfurt | 2 | All Maps","protocol":17,"map":"pl_badwater","folder":"tf","game":"Team Fortress","app_id":440,"player_count":23,"max_players":24,"Bots":0,"server_type":"Dedicated","server_os":"Linux","password":true,"vac":true,"version":"7961495","steam_id":85568392924469990,"keywords":["nocrits","nodmgspread","payload","uncletopia"],"game_id":440,"stv_port":27026,"stv_name":"Uncletopia | Frankfurt | 2 | All Maps | STV","players":[{"user_id":684,"name":"venom","steam_id":76561197996468677,"connected_time":2282000000000,"state":"active","ping":60},{"user_id":705,"name":"BeaverBeliever","steam_id":76561198038702388,"connected_time":910000000000,"state":"active","ping":60},{"user_id":712,"name":"KarlRanzeier","steam_id":76561198066281337,"connected_time":514000000000,"state":"active","ping":48},{"user_id":710,"name":"Isaac Boush","steam_id":76561198179746529,"connected_time":627000000000,"state":"active","ping":76},{"user_id":711,"name":"Ankmar le Touffu","steam_id":76561198169381436,"connected_time":584000000000,"state":"active","ping":64},{"user_id":701,"name":"jones","steam_id":76561198044434971,"connected_time":1344000000000,"state":"active","ping":62},{"user_id":638,"name":"r^f shrrrrrrekkkkk","steam_id":76561198347241576,"connected_time":5172000000000,"state":"active","ping":60},{"user_id":713,"name":"say gex","steam_id":76561198265479349,"connected_time":470000000000,"state":"active","ping":58},{"user_id":683,"name":"tone","steam_id":76561197975301462,"connected_time":2484000000000,"state":"active","ping":75},{"user_id":677,"name":"Hogs Sidekick","steam_id":76561198136433205,"connected_time":2837000000000,"state":"active","ping":58},{"user_id":716,"name":"Lennox","steam_id":76561198069063554,"connected_time":421000000000,"state":"active","ping":43},{"user_id":703,"name":"SendBob","steam_id":76561198151981614,"connected_time":1058000000000,"state":"active","ping":85},{"user_id":692,"name":"Fnif","steam_id":76561197987988100,"connected_time":1825000000000,"state":"active","ping":73},{"user_id":693,"name":"Seb, Comrade","steam_id":76561198040279587,"connected_time":1822000000000,"state":"active","ping":89},{"user_id":715,"name":"soupalognionycrouton","steam_id":76561199021878433,"connected_time":449000000000,"state":"active","ping":83},{"user_id":719,"name":"Narniy","steam_id":76561199165464863,"connected_time":291000000000,"state":"active","ping":184},{"user_id":680,"name":"ISBXII","steam_id":76561198019367678,"connected_time":2553000000000,"state":"active","ping":116},{"user_id":687,"name":"sui","steam_id":76561198185348855,"connected_time":2007000000000,"state":"active","ping":83},{"user_id":704,"name":"doctor sex","steam_id":76561198029044617,"connected_time":1051000000000,"state":"active","ping":61},{"user_id":718,"name":"R@DIO","steam_id":76561197995533046,"connected_time":413000000000,"state":"active","ping":81},{"user_id":653,"name":"r^f nyanezt","steam_id":76561198253734265,"connected_time":4444000000000,"state":"active","ping":76},{"user_id":709,"name":"eXenz","steam_id":76561198255136723,"connected_time":779000000000,"state":"active","ping":77},{"user_id":671,"name":"Vitun vittu","steam_id":76561198110679463,"connected_time":3391000000000,"state":"active","ping":75}]},{"server_id":308,"name":"Uncletopia | Frankfurt | 3 | All Maps","name_short":"frk-3","host":"frk-1.de.uncletopia.com","port":27035,"enabled":true,"region":"eu","cc":"de","latitude":50.110924,"longitude":8.682127,"reserved":0,"last_update":"0001-01-01T00:00:00Z","name_a2s":"Uncletopia | Frankfurt | 3 | All Maps","protocol":17,"map":"pl_upward","folder":"tf","game":"Team Fortress","app_id":440,"player_count":22,"max_players":24,"Bots":0,"server_type":"Dedicated","server_os":"Linux","password":true,"vac":true,"version":"7961495","steam_id":85568392924504274,"keywords":["nocrits","nodmgspread","payload","uncletopia"],"game_id":440,"stv_port":27036,"stv_name":"Uncletopia | Frankfurt | 3 | All Maps | STV","players":[{"user_id":558,"name":"aGryphoN","steam_id":76561198245175308,"connected_time":395000000000,"state":"active","ping":59},{"user_id":528,"name":"Cruduxy","steam_id":76561198108508584,"connected_time":2226000000000,"state":"active","ping":125},{"user_id":456,"name":"Dirocks","steam_id":76561198138494815,"connected_time":6927000000000,"state":"active","ping":76},{"user_id":492,"name":"koffei","steam_id":76561198065683178,"connected_time":4572000000000,"state":"active","ping":69},{"user_id":545,"name":"Lucan","steam_id":76561198219195135,"connected_time":882000000000,"state":"active","ping":55},{"user_id":524,"name":"Froenzi","steam_id":76561198168841723,"connected_time":2255000000000,"state":"active","ping":75},{"user_id":559,"name":"Wiverny","steam_id":76561198061954999,"connected_time":373000000000,"state":"active","ping":73},{"user_id":535,"name":"fem","steam_id":76561199103444466,"connected_time":1889000000000,"state":"active","ping":75},{"user_id":507,"name":"Caramel","steam_id":76561198021214844,"connected_time":3389000000000,"state":"active","ping":60},{"user_id":522,"name":"Jopa - ваджайна","steam_id":76561198126198064,"connected_time":2319000000000,"state":"active","ping":104},{"user_id":553,"name":"WrathNSpeed","steam_id":76561198390944504,"connected_time":801000000000,"state":"active","ping":129},{"user_id":557,"name":"High Fructose Porn Syrup","steam_id":76561197998825323,"connected_time":419000000000,"state":"active","ping":52},{"user_id":510,"name":"Conan the Librarian","steam_id":76561198007224654,"connected_time":3008000000000,"state":"active","ping":88},{"user_id":457,"name":"Happy Broccol","steam_id":76561198180667795,"connected_time":6922000000000,"state":"active","ping":71},{"user_id":539,"name":"Chiers","steam_id":76561198073461642,"connected_time":1319000000000,"state":"active","ping":55},{"user_id":532,"name":"SuntanPikachu","steam_id":76561198121242476,"connected_time":2128000000000,"state":"active","ping":78},{"user_id":542,"name":"else1","steam_id":76561197996558319,"connected_time":1152000000000,"state":"active","ping":74},{"user_id":529,"name":"lit64","steam_id":76561198164806677,"connected_time":2225000000000,"state":"active","ping":76},{"user_id":541,"name":"Colonel Dimanche","steam_id":76561197994792632,"connected_time":1201000000000,"state":"active","ping":45},{"user_id":537,"name":"Pathetic","steam_id":76561198081807049,"connected_time":1646000000000,"state":"active","ping":74},{"user_id":565,"name":"Liko","steam_id":76561197994660517,"connected_time":181000000000,"state":"active","ping":77},{"user_id":563,"name":"Goon Spoons","steam_id":76561198116391675,"connected_time":299000000000,"state":"active","ping":63}]},{"server_id":309,"name":"Uncletopia | Frankfurt | 4 | All Maps","name_short":"frk-4","host":"frk-1.de.uncletopia.com","port":27045,"enabled":true,"region":"eu","cc":"de","latitude":50.110924,"longitude":8.682127,"reserved":0,"last_update":"0001-01-01T00:00:00Z","name_a2s":"Uncletopia | Frankfurt | 4 | All Maps","protocol":17,"map":"pl_swiftwater_final1","folder":"tf","game":"Team Fortress","app_id":440,"player_count":24,"max_players":24,"Bots":0,"server_type":"Dedicated","server_os":"Linux","password":true,"vac":true,"version":"7961495","steam_id":85568392924504275,"keywords":["nocrits","nodmgspread","payload","uncletopia"],"game_id":440,"stv_port":27046,"stv_name":"Uncletopia | Frankfurt | 4 | All Maps | STV","players":[{"user_id":396,"name":"Flakodio","steam_id":76561198888088845,"connected_time":648000000000,"state":"active","ping":61},{"user_id":383,"name":"TheRamenYouAteYesterday","steam_id":76561199474398508,"connected_time":1021000000000,"state":"active","ping":143},{"user_id":384,"name":"H-say","steam_id":76561198177400362,"connected_time":1010000000000,"state":"active","ping":83},{"user_id":385,"name":"Flying Viking","steam_id":76561198137036430,"connected_time":877000000000,"state":"active","ping":57},{"user_id":408,"name":"mmmmm","steam_id":76561198269154534,"connected_time":194000000000,"state":"active","ping":55},{"user_id":387,"name":"torkoer","steam_id":76561198147391129,"connected_time":858000000000,"state":"active","ping":73},{"user_id":409,"name":"ultralight","steam_id":76561198022046842,"connected_time":181000000000,"state":"active","ping":79},{"user_id":389,"name":"Doctor Marijuana","steam_id":76561198288289879,"connected_time":816000000000,"state":"active","ping":61},{"user_id":390,"name":"SNEAKY TURTLE","steam_id":76561198172177650,"connected_time":811000000000,"state":"active","ping":75},{"user_id":391,"name":"F2P Challenge","steam_id":76561199498773639,"connected_time":808000000000,"state":"active","ping":75},{"user_id":410,"name":"bug","steam_id":76561198118412910,"connected_time":177000000000,"state":"active","ping":74},{"user_id":394,"name":"Inconspicuous Garden Gnome","steam_id":76561198223149864,"connected_time":738000000000,"state":"active","ping":77},{"user_id":397,"name":"Goose","steam_id":76561198072261497,"connected_time":586000000000,"state":"active","ping":91},{"user_id":398,"name":"John \"Ryder\" land #1 Fan","steam_id":76561199127574273,"connected_time":519000000000,"state":"active","ping":159},{"user_id":411,"name":"карасик","steam_id":76561197971140507,"connected_time":161000000000,"state":"active","ping":72},{"user_id":399,"name":"ChickenShred","steam_id":76561198867897841,"connected_time":358000000000,"state":"active","ping":182},{"user_id":400,"name":"Ryder Land","steam_id":76561198022299659,"connected_time":322000000000,"state":"active","ping":147},{"user_id":403,"name":"Suetolog","steam_id":76561199053090212,"connected_time":260000000000,"state":"active","ping":54},{"user_id":404,"name":"Sommelier_","steam_id":76561198354180808,"connected_time":253000000000,"state":"active","ping":76},{"user_id":405,"name":"MakeItRainbow","steam_id":76561198045098064,"connected_time":229000000000,"state":"active","ping":62},{"user_id":406,"name":"tapeworms!","steam_id":76561198069649097,"connected_time":228000000000,"state":"active","ping":54},{"user_id":407,"name":"DarkVulpes","steam_id":76561198075375373,"connected_time":222000000000,"state":"active","ping":75},{"user_id":412,"name":"Swigglydiggly","steam_id":76561198133118942,"connected_time":148000000000,"state":"active","ping":70},{"user_id":413,"name":"väsynyt","steam_id":76561198179673671,"connected_time":128000000000,"state":"active","ping":56}]},{"server_id":310,"name":"Uncletopia | Frankfurt | 5 | All Maps","name_short":"frk-5","host":"frk-1.de.uncletopia.com","port":27055,"enabled":true,"region":"eu","cc":"de","latitude":50.110924,"longitude":8.682127,"reserved":0,"last_update":"0001-01-01T00:00:00Z","name_a2s":"Uncletopia | Frankfurt | 5 | All Maps","protocol":17,"map":"pl_badwater","folder":"tf","game":"Team Fortress","app_id":440,"player_count":0,"max_players":24,"Bots":0,"server_type":"Dedicated","server_os":"Linux","password":true,"vac":true,"version":"7961495","steam_id":85568392924504277,"keywords":["nocrits","nodmgspread","payload","uncletopia"],"game_id":440,"stv_port":27056,"stv_name":"Uncletopia | Frankfurt | 5 | All Maps | STV","players":null},{"server_id":311,"name":"Uncletopia | Frankfurt | 6 | All Maps","name_short":"frk-6","host":"frk-1.de.uncletopia.com","port":27065,"enabled":true,"region":"eu","cc":"de","latitude":50.110924,"longitude":8.682127,"reserved":0,"last_update":"0001-01-01T00:00:00Z","name_a2s":"Uncletopia | Frankfurt | 6 | All Maps","protocol":17,"map":"cp_dustbowl","folder":"tf","game":"Team Fortress","app_id":440,"player_count":21,"max_players":24,"Bots":0,"server_type":"Dedicated","server_os":"Linux","password":true,"vac":true,"version":"7961495","steam_id":85568392924504278,"keywords":["cp","nocrits","nodmgspread","uncletopia"],"game_id":440,"stv_port":27066,"stv_name":"Uncletopia | Frankfurt | 6 | All Maps | STV","players":[{"user_id":288,"name":"tired","steam_id":76561198046838168,"connected_time":257000000000,"state":"active","ping":44},{"user_id":257,"name":"bladerunner | Trade.tf","steam_id":76561198272175230,"connected_time":2081000000000,"state":"active","ping":59},{"user_id":277,"name":"Clydios","steam_id":76561198332311225,"connected_time":1021000000000,"state":"active","ping":74},{"user_id":205,"name":"tube sock","steam_id":76561198073576350,"connected_time":6579000000000,"state":"active","ping":70},{"user_id":266,"name":"Truskawka","steam_id":76561198855163602,"connected_time":1369000000000,"state":"active","ping":68},{"user_id":259,"name":"caramelldancin'","steam_id":76561198193357946,"connected_time":2014000000000,"state":"active","ping":102},{"user_id":219,"name":"Hexakosioihexekontahexa","steam_id":76561198122151993,"connected_time":5385000000000,"state":"active","ping":49},{"user_id":264,"name":"[AXG] PK Blizzard","steam_id":76561198039836567,"connected_time":1450000000000,"state":"active","ping":51},{"user_id":261,"name":"Jojojo","steam_id":76561199214266029,"connected_time":1608000000000,"state":"active","ping":175},{"user_id":262,"name":"Vastly Rigged","steam_id":76561198212991935,"connected_time":1537000000000,"state":"active","ping":101},{"user_id":272,"name":"scout freeman","steam_id":76561199212139618,"connected_time":1166000000000,"state":"active","ping":146},{"user_id":267,"name":"Walsu","steam_id":76561198383660089,"connected_time":1357000000000,"state":"active","ping":96},{"user_id":287,"name":"QWERTY_KKL","steam_id":76561199156419203,"connected_time":314000000000,"state":"active","ping":156},{"user_id":269,"name":"R4smR 🍞","steam_id":76561198153255400,"connected_time":1321000000000,"state":"active","ping":116},{"user_id":273,"name":"Sirzen","steam_id":76561198170155434,"connected_time":1124000000000,"state":"active","ping":54},{"user_id":274,"name":"Yuzu","steam_id":76561198121694613,"connected_time":1094000000000,"state":"active","ping":57},{"user_id":281,"name":"GermanGopnik","steam_id":76561198985128247,"connected_time":955000000000,"state":"active","ping":58},{"user_id":282,"name":"Kwizine","steam_id":76561198147999400,"connected_time":937000000000,"state":"active","ping":60},{"user_id":220,"name":"Razzewatz","steam_id":76561198024677489,"connected_time":5146000000000,"state":"active","ping":55},{"user_id":283,"name":"Prince Flip","steam_id":76561198023462157,"connected_time":910000000000,"state":"active","ping":65},{"user_id":289,"name":"Lemon","steam_id":76561198188535947,"connected_time":81000000000,"state":"active","ping":68}]},{"server_id":23,"name":"Uncletopia | Frankfurt | 7 | Stopwatch","name_short":"frk-7","host":"frk-1.de.uncletopia.com","port":27075,"enabled":true,"region":"eu","cc":"de","latitude":50.110924,"longitude":8.682127,"reserved":0,"last_update":"0001-01-01T00:00:00Z","name_a2s":"Uncletopia | Frankfurt | 7 | Stopwatch","protocol":17,"map":"workshop/koth_bagel_rc6.ugc2514036946","folder":"tf","game":"Team Fortress","app_id":440,"player_count":0,"max_players":24,"Bots":0,"server_type":"Dedicated","server_os":"Linux","password":true,"vac":true,"version":"7961495","steam_id":85568392924742827,"keywords":["cp","nocrits","nodmgspread","uncletopia"],"game_id":440,"stv_port":27076,"stv_name":"Uncletopia | Frankfurt | 7 | Stopwatch | STV","players":null},{"server_id":24,"name":"Uncletopia | Frankfurt | 8 | Community","name_short":"frk-8","host":"frk-1.de.uncletopia.com","port":27085,"enabled":true,"region":"eu","cc":"de","latitude":50.110924,"longitude":8.682127,"reserved":0,"last_update":"0001-01-01T00:00:00Z","name_a2s":"Uncletopia | Frankfurt | 8 | Community","protocol":17,"map":"workshop/koth_product_final.ugc454272353","folder":"tf","game":"Team Fortress","app_id":440,"player_count":0,"max_players":24,"Bots":0,"server_type":"Dedicated","server_os":"Linux","password":true,"vac":true,"version":"7961495","steam_id":85568392924742828,"keywords":["cp","nocrits","nodmgspread","uncletopia"],"game_id":440,"stv_port":27086,"stv_name":"Uncletopia | Frankfurt | 8 | Community | STV","players":null},{"server_id":202,"name":"Uncletopia | Hong Kong | 1 | All Maps","name_short":"hgk-1","host":"hgk-1.hk.uncletopia.com","port":27015,"enabled":true,"region":"asia","cc":"hk","latitude":22.302711,"longitude":114.177216,"reserved":0,"last_update":"0001-01-01T00:00:00Z","name_a2s":"Uncletopia | Hong Kong | 1 | All Maps","protocol":17,"map":"pl_frontier_final","folder":"tf","game":"Team Fortress","app_id":440,"player_count":0,"max_players":24,"Bots":0,"server_type":"Dedicated","server_os":"Linux","password":true,"vac":true,"version":"7961495","steam_id":85568392924494504,"keywords":["nocrits","nodmgspread","payload","uncletopia"],"game_id":440,"stv_port":27016,"stv_name":"Uncletopia | Hong Kong | 1 | All Maps | STV","players":null},{"server_id":1,"name":"Uncletopia | Los Angeles | 1 | All Maps","name_short":"lax-1","host":"lax-1.us.uncletopia.com","port":27015,"enabled":true,"region":"us-west","cc":"us","latitude":33.94279,"longitude":-118.41004,"reserved":0,"last_update":"0001-01-01T00:00:00Z","name_a2s":"Uncletopia | Los Angeles | 1 | All Maps","protocol":17,"map":"pl_pier","folder":"tf","game":"Team Fortress","app_id":440,"player_count":24,"max_players":24,"Bots":0,"server_type":"Dedicated","server_os":"Linux","password":true,"vac":true,"version":"7961495","steam_id":85568392924469991,"keywords":["nocrits","nodmgspread","payload","uncletopia"],"game_id":440,"stv_port":27016,"stv_name":"Uncletopia | Los Angeles | 1 | All Maps | STV","players":[{"user_id":56,"name":"lorient","steam_id":76561198150831438,"connected_time":815000000000,"state":"active","ping":75},{"user_id":47,"name":"nella","steam_id":76561198079349621,"connected_time":1072000000000,"state":"active","ping":49},{"user_id":68,"name":"It's Tough, This Name Game","steam_id":76561198190651497,"connected_time":382000000000,"state":"active","ping":100},{"user_id":10,"name":"Firedust19","steam_id":76561198153238631,"connected_time":2421000000000,"state":"active","ping":68},{"user_id":11,"name":"mafia is mafia","steam_id":76561198042574722,"connected_time":2299000000000,"state":"active","ping":74},{"user_id":62,"name":"Ralph Kramden (Slim Charles)","steam_id":76561197981687895,"connected_time":639000000000,"state":"active","ping":55},{"user_id":55,"name":"Batso","steam_id":76561198106589452,"connected_time":850000000000,"state":"active","ping":51},{"user_id":22,"name":"Redkiller","steam_id":76561199453655288,"connected_time":1711000000000,"state":"active","ping":130},{"user_id":72,"name":"Goldensliv","steam_id":76561198161673891,"connected_time":99000000000,"state":"active","ping":34},{"user_id":18,"name":"Billy Mays","steam_id":76561197998876324,"connected_time":1965000000000,"state":"active","ping":65},{"user_id":67,"name":"SaucyMcFrosty","steam_id":76561198036218608,"connected_time":485000000000,"state":"active","ping":113},{"user_id":45,"name":"Lock'd","steam_id":76561198170108230,"connected_time":1117000000000,"state":"active","ping":74},{"user_id":49,"name":"Mayonnaise","steam_id":76561198164490217,"connected_time":970000000000,"state":"active","ping":63},{"user_id":24,"name":"kal","steam_id":76561198261667618,"connected_time":1671000000000,"state":"active","ping":60},{"user_id":70,"name":"TrueBoredom","steam_id":76561198027021364,"connected_time":273000000000,"state":"active","ping":59},{"user_id":59,"name":"Odd Life","steam_id":76561198244979998,"connected_time":793000000000,"state":"active","ping":55},{"user_id":66,"name":"DesolateCabbage","steam_id":76561198064467423,"connected_time":554000000000,"state":"active","ping":90},{"user_id":71,"name":"Sprit ♥","steam_id":76561198268780781,"connected_time":209000000000,"state":"active","ping":101},{"user_id":41,"name":"Pixelated Pussy","steam_id":76561198002511088,"connected_time":1203000000000,"state":"active","ping":63},{"user_id":65,"name":"Mud Goblin","steam_id":76561198839118505,"connected_time":592000000000,"state":"active","ping":68},{"user_id":60,"name":"Sak","steam_id":76561198307655707,"connected_time":779000000000,"state":"active","ping":45},{"user_id":69,"name":"ga-HYUK","steam_id":76561199072745011,"connected_time":369000000000,"state":"active","ping":58},{"user_id":43,"name":"trackpad gaming | f2p","steam_id":76561198840414371,"connected_time":1176000000000,"state":"active","ping":78},{"user_id":54,"name":"sim0n","steam_id":76561198198137847,"connected_time":883000000000,"state":"active","ping":84}]},{"server_id":112,"name":"Uncletopia | Los Angeles | 2 | All Maps","name_short":"lax-2","host":"lax-1.us.uncletopia.com","port":27025,"enabled":true,"region":"us-west","cc":"us","latitude":33.94279,"longitude":-118.41004,"reserved":0,"last_update":"0001-01-01T00:00:00Z","name_a2s":"Uncletopia | Los Angeles | 2 | All Maps","protocol":17,"map":"pl_badwater","folder":"tf","game":"Team Fortress","app_id":440,"player_count":1,"max_players":24,"Bots":0,"server_type":"Dedicated","server_os":"Linux","password":true,"vac":true,"version":"7961495","steam_id":85568392924469992,"keywords":["nocrits","nodmgspread","payload","uncletopia"],"game_id":440,"stv_port":27026,"stv_name":"Uncletopia | Los Angeles | 2 | All Maps | STV","players":[{"user_id":11,"name":"Sukhoi Su-35S","steam_id":76561198090004863,"connected_time":11000000000,"state":"spawning","ping":38}]},{"server_id":324,"name":"Uncletopia | Los Angeles | 3 | All Maps","name_short":"lax-3","host":"lax-1.us.uncletopia.com","port":27035,"enabled":true,"region":"us-west","cc":"us","latitude":33.94279,"longitude":-118.41004,"reserved":0,"last_update":"0001-01-01T00:00:00Z","name_a2s":"Uncletopia | Los Angeles | 3 | All Maps","protocol":17,"map":"pl_swiftwater_final1","folder":"tf","game":"Team Fortress","app_id":440,"player_count":0,"max_players":24,"Bots":0,"server_type":"Dedicated","server_os":"Linux","password":true,"vac":true,"version":"7961495","steam_id":85568392924510198,"keywords":["nocrits","nodmgspread","payload","uncletopia"],"game_id":440,"stv_port":27036,"stv_name":"Uncletopia | Los Angeles | 3 | All Maps | STV","players":null},{"server_id":25,"name":"Uncletopia | Los Angeles | 4 | Stopwatch","name_short":"lax-4","host":"lax-1.us.uncletopia.com","port":27045,"enabled":true,"region":"us-west","cc":"us","latitude":33.94279,"longitude":-118.41004,"reserved":0,"last_update":"0001-01-01T00:00:00Z","name_a2s":"Uncletopia | Los Angeles | 4 | Stopwatch","protocol":17,"map":"pl_barnblitz","folder":"tf","game":"Team Fortress","app_id":440,"player_count":0,"max_players":24,"Bots":0,"server_type":"Dedicated","server_os":"Linux","password":true,"vac":true,"version":"7961495","steam_id":85568392924510199,"keywords":["nocrits","nodmgspread","payload","uncletopia"],"game_id":440,"stv_port":27046,"stv_name":"Uncletopia | Los Angeles | 4 | Stopwatch | STV","players":null},{"server_id":11,"name":"Uncletopia | London | 1 | All Maps","name_short":"lon-1","host":"lon-1.uk.uncletopia.com","port":27015,"enabled":true,"region":"eu","cc":"gb","latitude":51.509865,"longitude":-0.118092,"reserved":0,"last_update":"0001-01-01T00:00:00Z","name_a2s":"Uncletopia | London | 1 | All Maps","protocol":17,"map":"pl_pier","folder":"tf","game":"Team Fortress","app_id":440,"player_count":24,"max_players":24,"Bots":0,"server_type":"Dedicated","server_os":"Linux","password":true,"vac":true,"version":"7961495","steam_id":85568392924367362,"keywords":["nocrits","nodmgspread","payload","uncletopia"],"game_id":440,"stv_port":27016,"stv_name":"Uncletopia | London | 1 | All Maps | STV","players":[{"user_id":904,"name":"kelpie (eepiest girl)","steam_id":76561198128327529,"connected_time":5723000000000,"state":"active","ping":38},{"user_id":905,"name":"Finkaksu Devourer of Sour Candy","steam_id":76561198201389163,"connected_time":5704000000000,"state":"active","ping":67},{"user_id":896,"name":"generic alias","steam_id":76561198271607226,"connected_time":6735000000000,"state":"active","ping":91},{"user_id":912,"name":"ganja guru guuguu gaga","steam_id":76561198190583242,"connected_time":4781000000000,"state":"active","ping":96},{"user_id":932,"name":"Yelowchy","steam_id":76561198199416121,"connected_time":1183000000000,"state":"active","ping":69},{"user_id":832,"name":"Minimi","steam_id":76561198873850443,"connected_time":10887000000000,"state":"active","ping":45},{"user_id":920,"name":"Mei","steam_id":76561198363464483,"connected_time":2874000000000,"state":"active","ping":80},{"user_id":927,"name":"BreadBubbles","steam_id":76561198174332826,"connected_time":2369000000000,"state":"active","ping":69},{"user_id":933,"name":"Smegma Grindset","steam_id":76561197970114051,"connected_time":101000000000,"state":"active","ping":44},{"user_id":915,"name":"sora","steam_id":76561198096547662,"connected_time":3979000000000,"state":"active","ping":51},{"user_id":893,"name":"RubyTheUnicorn","steam_id":76561198091772218,"connected_time":6776000000000,"state":"active","ping":63},{"user_id":882,"name":"dopamine overdose","steam_id":76561199032511302,"connected_time":8293000000000,"state":"active","ping":106},{"user_id":867,"name":"GoblinGaming","steam_id":76561198360395476,"connected_time":9316000000000,"state":"active","ping":36},{"user_id":931,"name":"eart bound","steam_id":76561198121260981,"connected_time":1739000000000,"state":"active","ping":41},{"user_id":394,"name":"ඞauraඞ","steam_id":76561198066258544,"connected_time":27417000000000,"state":"active","ping":60},{"user_id":937,"name":"Christmas Ham","steam_id":76561198119601623,"connected_time":23000000000,"state":"active","ping":57},{"user_id":895,"name":"SmolJak","steam_id":76561199057045168,"connected_time":6762000000000,"state":"active","ping":54},{"user_id":930,"name":"stroyo","steam_id":76561198409592046,"connected_time":1745000000000,"state":"active","ping":48},{"user_id":922,"name":"rigel_","steam_id":76561198148640847,"connected_time":2578000000000,"state":"active","ping":76},{"user_id":901,"name":"Kahvi","steam_id":76561198723244199,"connected_time":6303000000000,"state":"active","ping":75},{"user_id":919,"name":"Marquis de Hoto","steam_id":76561198080687708,"connected_time":3436000000000,"state":"active","ping":77},{"user_id":902,"name":"beebo","steam_id":76561199120277007,"connected_time":6058000000000,"state":"active","ping":49},{"user_id":934,"name":"CrazyLemon","steam_id":76561198193513153,"connected_time":80000000000,"state":"active","ping":67},{"user_id":793,"name":"shooer!","steam_id":76561198110531281,"connected_time":11470000000000,"state":"active","ping":71}]},{"server_id":114,"name":"Uncletopia | London | 2 | All Maps","name_short":"lon-2","host":"lon-1.uk.uncletopia.com","port":27025,"enabled":true,"region":"eu","cc":"gb","latitude":51.509865,"longitude":-0.118092,"reserved":0,"last_update":"0001-01-01T00:00:00Z","name_a2s":"Uncletopia | London | 2 | All Maps","protocol":17,"map":"cp_sunshine","folder":"tf","game":"Team Fortress","app_id":440,"player_count":1,"max_players":24,"Bots":0,"server_type":"Dedicated","server_os":"Linux","password":true,"vac":true,"version":"7961495","steam_id":85568392924470941,"keywords":["cp","nocrits","nodmgspread","uncletopia"],"game_id":440,"stv_port":27026,"stv_name":"Uncletopia | London | 2 | All Maps | STV","players":[{"user_id":461,"name":"жора","steam_id":76561198207090503,"connected_time":998000000000,"state":"active","ping":86}]},{"server_id":320,"name":"Uncletopia | London | 3 | All Maps","name_short":"lon-3","host":"lon-1.uk.uncletopia.com","port":27035,"enabled":true,"region":"eu","cc":"gb","latitude":51.509865,"longitude":-0.118092,"reserved":0,"last_update":"0001-01-01T00:00:00Z","name_a2s":"Uncletopia | London | 3 | All Maps","protocol":17,"map":"cp_mountainlab","folder":"tf","game":"Team Fortress","app_id":440,"player_count":19,"max_players":24,"Bots":0,"server_type":"Dedicated","server_os":"Linux","password":true,"vac":true,"version":"7961495","steam_id":85568392924510192,"keywords":["cp","nocrits","nodmgspread","uncletopia"],"game_id":440,"stv_port":27036,"stv_name":"Uncletopia | London | 3 | All Maps | STV","players":[{"user_id":632,"name":"vi","steam_id":76561198303147966,"connected_time":1234000000000,"state":"connecting","ping":57},{"user_id":622,"name":"Ripley","steam_id":76561198064478354,"connected_time":2020000000000,"state":"connecting","ping":63},{"user_id":661,"name":"Frog","steam_id":76561198131977071,"connected_time":73000000000,"state":"connecting","ping":63},{"user_id":637,"name":"clcraven","steam_id":76561198004637699,"connected_time":1128000000000,"state":"connecting","ping":76},{"user_id":652,"name":"NoobfromHell","steam_id":76561198394221491,"connected_time":545000000000,"state":"connecting","ping":90},{"user_id":602,"name":"Nassu","steam_id":76561198147367577,"connected_time":3576000000000,"state":"connecting","ping":210},{"user_id":614,"name":"Dr Zoidcrab","steam_id":76561198023709882,"connected_time":2562000000000,"state":"connecting","ping":92},{"user_id":654,"name":"sticks","steam_id":76561198127099299,"connected_time":243000000000,"state":"spawning","ping":56},{"user_id":653,"name":"im not handicapped","steam_id":76561198254024874,"connected_time":425000000000,"state":"connecting","ping":43},{"user_id":656,"name":"WinterBucket","steam_id":76561198381313801,"connected_time":204000000000,"state":"connecting","ping":71},{"user_id":596,"name":"Tero","steam_id":76561198073147972,"connected_time":3899000000000,"state":"connecting","ping":88},{"user_id":640,"name":"git bash -er","steam_id":76561198072586494,"connected_time":1010000000000,"state":"spawning","ping":51},{"user_id":641,"name":"Vito Corleone ඞ","steam_id":76561198185210193,"connected_time":990000000000,"state":"connecting","ping":87},{"user_id":648,"name":"heavy sings (real)","steam_id":76561199023804405,"connected_time":819000000000,"state":"spawning","ping":88},{"user_id":649,"name":"sinkuchan","steam_id":76561198054012474,"connected_time":801000000000,"state":"connecting","ping":58},{"user_id":657,"name":"BLÅHAJ","steam_id":76561197996473698,"connected_time":201000000000,"state":"spawning","ping":117},{"user_id":610,"name":"Ullr","steam_id":76561198140547483,"connected_time":3247000000000,"state":"connecting","ping":60},{"user_id":625,"name":"e36 1.8","steam_id":76561198134203031,"connected_time":1660000000000,"state":"connecting","ping":88}]},{"server_id":321,"name":"Uncletopia | London | 4 | All Maps","name_short":"lon-4","host":"lon-1.uk.uncletopia.com","port":27045,"enabled":true,"region":"eu","cc":"gb","latitude":51.509865,"longitude":-0.118092,"reserved":0,"last_update":"0001-01-01T00:00:00Z","name_a2s":"Uncletopia | London | 4 | All Maps","protocol":17,"map":"cp_mountainlab","folder":"tf","game":"Team Fortress","app_id":440,"player_count":12,"max_players":24,"Bots":0,"server_type":"Dedicated","server_os":"Linux","password":true,"vac":true,"version":"7961495","steam_id":85568392924510193,"keywords":["cp","nocrits","nodmgspread","uncletopia"],"game_id":440,"stv_port":27046,"stv_name":"Uncletopia | London | 4 | All Maps | STV","players":[{"user_id":224,"name":"Chiddcrew","steam_id":76561198322590784,"connected_time":251000000000,"state":"active","ping":54},{"user_id":223,"name":"Microwave_Man","steam_id":76561198981460724,"connected_time":271000000000,"state":"active","ping":56},{"user_id":227,"name":"ethan","steam_id":76561198119495513,"connected_time":91000000000,"state":"active","ping":40},{"user_id":228,"name":"pigatdoor","steam_id":76561198112430878,"connected_time":73000000000,"state":"active","ping":54},{"user_id":229,"name":"Mr.Pwesident","steam_id":76561198058114703,"connected_time":72000000000,"state":"active","ping":153},{"user_id":230,"name":"Mer","steam_id":76561198192171041,"connected_time":46000000000,"state":"active","ping":192},{"user_id":97,"name":"golfmastr","steam_id":76561198993144124,"connected_time":11059000000000,"state":"active","ping":57},{"user_id":231,"name":"The T-inator","steam_id":76561199046211654,"connected_time":26000000000,"state":"active","ping":62},{"user_id":232,"name":"ilimori","steam_id":76561197961231625,"connected_time":9000000000,"state":"spawning","ping":44},{"user_id":211,"name":"Moose","steam_id":76561198061300061,"connected_time":1672000000000,"state":"active","ping":46},{"user_id":220,"name":"dlk","steam_id":76561198086660302,"connected_time":342000000000,"state":"active","ping":41},{"user_id":203,"name":"Vivian From Paper Mario","steam_id":76561198077624205,"connected_time":2457000000000,"state":"active","ping":61}]},{"server_id":21,"name":"Uncletopia | London | 5 | All Maps","name_short":"lon-5","host":"lon-1.uk.uncletopia.com","port":27055,"enabled":true,"region":"eu","cc":"gb","latitude":51.509865,"longitude":-0.118092,"reserved":0,"last_update":"0001-01-01T00:00:00Z","name_a2s":"Uncletopia | London | 5 | All Maps","protocol":17,"map":"koth_highpass","folder":"tf","game":"Team Fortress","app_id":440,"player_count":3,"max_players":24,"Bots":0,"server_type":"Dedicated","server_os":"Linux","password":true,"vac":true,"version":"7961495","steam_id":85568392924742829,"keywords":["cp","nocrits","nodmgspread","uncletopia"],"game_id":440,"stv_port":27056,"stv_name":"Uncletopia | London | 5 | All Maps | STV","players":[{"user_id":296,"name":"FreyjaBreadWitch","steam_id":76561199211405367,"connected_time":2230000000000,"state":"active","ping":101},{"user_id":301,"name":"trucksnvans","steam_id":76561198341574668,"connected_time":816000000000,"state":"active","ping":53},{"user_id":302,"name":"Angela ☘","steam_id":76561198105207050,"connected_time":669000000000,"state":"active","ping":51}]},{"server_id":22,"name":"Uncletopia | London | 6 | All Maps","name_short":"lon-6","host":"lon-1.uk.uncletopia.com","port":27065,"enabled":true,"region":"eu","cc":"gb","latitude":51.509865,"longitude":-0.118092,"reserved":0,"last_update":"0001-01-01T00:00:00Z","name_a2s":"Uncletopia | London | 6 | All Maps","protocol":17,"map":"pl_barnblitz","folder":"tf","game":"Team Fortress","app_id":440,"player_count":24,"max_players":24,"Bots":0,"server_type":"Dedicated","server_os":"Linux","password":true,"vac":true,"version":"7961495","steam_id":85568392924742830,"keywords":["nocrits","nodmgspread","payload","uncletopia"],"game_id":440,"stv_port":27066,"stv_name":"Uncletopia | London | 6 | All Maps | STV","players":[{"user_id":331,"name":"Paulo Doutor","steam_id":76561198168674032,"connected_time":190000000000,"state":"active","ping":83},{"user_id":314,"name":"randompixel","steam_id":76561198003941207,"connected_time":1990000000000,"state":"active","ping":57},{"user_id":319,"name":"Xiqui","steam_id":76561198818386611,"connected_time":1682000000000,"state":"active","ping":72},{"user_id":324,"name":"Gelato","steam_id":76561198282596343,"connected_time":798000000000,"state":"active","ping":34},{"user_id":321,"name":"Lucky Number 13","steam_id":76561198043951279,"connected_time":1611000000000,"state":"active","ping":90},{"user_id":269,"name":"tr4ce","steam_id":76561198085296732,"connected_time":4646000000000,"state":"active","ping":42},{"user_id":330,"name":"Qwerty","steam_id":76561198023525894,"connected_time":577000000000,"state":"active","ping":89},{"user_id":310,"name":"HardJaguar66","steam_id":76561198149326434,"connected_time":2307000000000,"state":"active","ping":75},{"user_id":305,"name":"brodie mon","steam_id":76561198001359683,"connected_time":2453000000000,"state":"active","ping":88},{"user_id":322,"name":"pezza","steam_id":76561197995173247,"connected_time":1122000000000,"state":"active","ping":60},{"user_id":325,"name":"Endi","steam_id":76561198914938199,"connected_time":680000000000,"state":"active","ping":102},{"user_id":289,"name":"Generic","steam_id":76561198171073018,"connected_time":2987000000000,"state":"active","ping":54},{"user_id":326,"name":"ScapeGoat","steam_id":76561198137868829,"connected_time":664000000000,"state":"active","ping":57},{"user_id":317,"name":"Alpaca","steam_id":76561198029839079,"connected_time":1703000000000,"state":"active","ping":45},{"user_id":327,"name":"flange","steam_id":76561198040182692,"connected_time":642000000000,"state":"active","ping":41},{"user_id":285,"name":"mountain goat","steam_id":76561198326628884,"connected_time":3295000000000,"state":"active","ping":130},{"user_id":328,"name":"Stefman","steam_id":76561199025104038,"connected_time":633000000000,"state":"active","ping":41},{"user_id":290,"name":"mr. kill myself","steam_id":76561198147277460,"connected_time":2983000000000,"state":"active","ping":63},{"user_id":292,"name":"Zahn","steam_id":76561198101479964,"connected_time":2962000000000,"state":"active","ping":85},{"user_id":298,"name":"Shlongulator","steam_id":76561198149779201,"connected_time":2792000000000,"state":"active","ping":54},{"user_id":299,"name":"joecalmatt","steam_id":76561198172552015,"connected_time":2781000000000,"state":"active","ping":46},{"user_id":300,"name":"Cool Ranch© Flavoured Acid","steam_id":76561198097130024,"connected_time":2750000000000,"state":"active","ping":57},{"user_id":329,"name":"[MAC]-JDaSleigh123-","steam_id":76561199013159085,"connected_time":616000000000,"state":"active","ping":52},{"user_id":303,"name":"NetWitch","steam_id":76561198060307235,"connected_time":2687000000000,"state":"active","ping":50}]},{"server_id":40,"name":"Uncletopia | London | 7 | Stopwatch","name_short":"lon-7","host":"lon-1.uk.uncletopia.com","port":27075,"enabled":true,"region":"eu","cc":"gb","latitude":51.509865,"longitude":-0.118092,"reserved":0,"last_update":"0001-01-01T00:00:00Z","name_a2s":"Uncletopia | London | 7 | Stopwatch","protocol":17,"map":"workshop/koth_ashville_final.ugc2130459942","folder":"tf","game":"Team Fortress","app_id":440,"player_count":0,"max_players":24,"Bots":0,"server_type":"Dedicated","server_os":"Linux","password":true,"vac":true,"version":"7961495","steam_id":85568392924964314,"keywords":["cp","nocrits","nodmgspread","uncletopia"],"game_id":440,"stv_port":27076,"stv_name":"Uncletopia | London | 7 | Stopwatch | STV","players":null},{"server_id":41,"name":"Uncletopia | London | 8 | Community","name_short":"lon-8","host":"lon-1.uk.uncletopia.com","port":27085,"enabled":true,"region":"eu","cc":"gb","latitude":51.509865,"longitude":-0.118092,"reserved":0,"last_update":"0001-01-01T00:00:00Z","name_a2s":"Uncletopia | London | 8 | Community","protocol":17,"map":"workshop/pl_barnblitz_pro7.ugc582280235","folder":"tf","game":"Team Fortress","app_id":440,"player_count":0,"max_players":24,"Bots":0,"server_type":"Dedicated","server_os":"Linux","password":true,"vac":true,"version":"7961495","steam_id":85568392924964315,"keywords":["nocrits","nodmgspread","payload","uncletopia"],"game_id":440,"stv_port":27086,"stv_name":"Uncletopia | London | 8 | Community | STV","players":null},{"server_id":300,"name":"Uncletopia | Montréal | 1 | One Thousand Uncles","name_short":"mtl-1","host":"mtl-1.ca.uncletopia.com","port":27015,"enabled":true,"region":"us-east","cc":"ca","latitude":45.50889,"longitude":-73.56167,"reserved":0,"last_update":"0001-01-01T00:00:00Z","name_a2s":"","protocol":0,"map":"","folder":"","game":"","app_id":0,"player_count":3,"max_players":0,"Bots":0,"server_type":"","server_os":"","password":false,"vac":false,"version":"","steam_id":0,"keywords":null,"game_id":0,"stv_port":0,"stv_name":"","players":[{"user_id":127,"name":"Rhutebeer","steam_id":76561198018302761,"connected_time":2243000000000,"state":"active","ping":104},{"user_id":130,"name":"Zero-Xyfer","steam_id":76561198351621003,"connected_time":1545000000000,"state":"active","ping":75},{"user_id":131,"name":"1-800-GHOST-DANCE","steam_id":76561198835430429,"connected_time":584000000000,"state":"active","ping":75}]},{"server_id":301,"name":"Uncletopia | Montréal | 2 | One Thousand Uncles","name_short":"mtl-2","host":"mtl-1.ca.uncletopia.com","port":27025,"enabled":true,"region":"us-east","cc":"ca","latitude":45.50889,"longitude":-73.56167,"reserved":0,"last_update":"0001-01-01T00:00:00Z","name_a2s":"","protocol":0,"map":"","folder":"","game":"","app_id":0,"player_count":0,"max_players":0,"Bots":0,"server_type":"","server_os":"","password":false,"vac":false,"version":"","steam_id":0,"keywords":null,"game_id":0,"stv_port":0,"stv_name":"","players":null},{"server_id":302,"name":"Uncletopia | Montréal | 3 | One Thousand Uncles","name_short":"mtl-3","host":"mtl-1.ca.uncletopia.com","port":27035,"enabled":true,"region":"us-east","cc":"ca","latitude":45.50889,"longitude":-73.56167,"reserved":0,"last_update":"0001-01-01T00:00:00Z","name_a2s":"","protocol":0,"map":"","folder":"","game":"","app_id":0,"player_count":2,"max_players":0,"Bots":0,"server_type":"","server_os":"","password":false,"vac":false,"version":"","steam_id":0,"keywords":null,"game_id":0,"stv_port":0,"stv_name":"","players":[{"user_id":38,"name":"Jimmy Pubetron","steam_id":76561198077634776,"connected_time":128000000000,"state":"active","ping":178},{"user_id":37,"name":"The Fragrance of Dark Coffee","steam_id":76561198013111370,"connected_time":160000000000,"state":"active","ping":54}]},{"server_id":13,"name":"Uncletopia | New York City | 1 | All Maps","name_short":"nyc-1","host":"nyc-1.us.uncletopia.com","port":27015,"enabled":true,"region":"us-east","cc":"us","latitude":40.73061,"longitude":-73.93524,"reserved":0,"last_update":"0001-01-01T00:00:00Z","name_a2s":"Uncletopia | New York City | 1 | All Maps","protocol":17,"map":"pl_frontier_final","folder":"tf","game":"Team Fortress","app_id":440,"player_count":24,"max_players":24,"Bots":0,"server_type":"Dedicated","server_os":"Linux","password":true,"vac":true,"version":"7961495","steam_id":85568392924469993,"keywords":["nocrits","nodmgspread","payload","uncletopia"],"game_id":440,"stv_port":27016,"stv_name":"Uncletopia | New York City | 1 | All Maps | STV","players":[{"user_id":169,"name":"The Horselords and Animal Gods","steam_id":76561197975094050,"connected_time":988000000000,"state":"active","ping":120},{"user_id":192,"name":"Low Tier All Class Unusual","steam_id":76561198378587138,"connected_time":102000000000,"state":"active","ping":107},{"user_id":165,"name":"Rex","steam_id":76561198138365053,"connected_time":1758000000000,"state":"active","ping":122},{"user_id":170,"name":"yamtar abi","steam_id":76561198022860973,"connected_time":932000000000,"state":"active","ping":64},{"user_id":171,"name":"Manchester by the Sea","steam_id":76561198076768673,"connected_time":872000000000,"state":"active","ping":46},{"user_id":131,"name":"numa","steam_id":76561198856016840,"connected_time":4341000000000,"state":"active","ping":56},{"user_id":172,"name":"Pile of Squirrels","steam_id":76561198024127300,"connected_time":842000000000,"state":"active","ping":138},{"user_id":173,"name":"Kal_Bec","steam_id":76561198039231325,"connected_time":805000000000,"state":"active","ping":66},{"user_id":174,"name":"Meep","steam_id":76561198000304772,"connected_time":786000000000,"state":"active","ping":61},{"user_id":190,"name":"Windup Monkey in a Human Suit","steam_id":76561198119501444,"connected_time":132000000000,"state":"active","ping":89},{"user_id":176,"name":"Keymaster","steam_id":76561198881514228,"connected_time":744000000000,"state":"active","ping":61},{"user_id":156,"name":"Bubz","steam_id":76561199013499631,"connected_time":2618000000000,"state":"active","ping":79},{"user_id":191,"name":"Hot Apple Cider","steam_id":76561198094641783,"connected_time":120000000000,"state":"active","ping":68},{"user_id":193,"name":"CURSE OF RA","steam_id":76561198838282369,"connected_time":98000000000,"state":"active","ping":61},{"user_id":194,"name":"AbsoluteZero","steam_id":76561199043287578,"connected_time":80000000000,"state":"active","ping":51},{"user_id":189,"name":"A Future US Army Soldier","steam_id":76561198008263869,"connected_time":145000000000,"state":"active","ping":46},{"user_id":180,"name":"melon soda","steam_id":76561198066748230,"connected_time":665000000000,"state":"active","ping":55},{"user_id":181,"name":"Mercy!Avatar","steam_id":76561199113870006,"connected_time":651000000000,"state":"active","ping":50},{"user_id":188,"name":"BeerPowder","steam_id":76561198058129400,"connected_time":151000000000,"state":"active","ping":50},{"user_id":111,"name":"wool","steam_id":76561198869689933,"connected_time":6568000000000,"state":"active","ping":47},{"user_id":187,"name":"Chester","steam_id":76561198118655457,"connected_time":498000000000,"state":"active","ping":60},{"user_id":184,"name":"Jesse Bear","steam_id":76561198217075305,"connected_time":569000000000,"state":"active","ping":69},{"user_id":185,"name":"Menachem","steam_id":76561198041226420,"connected_time":562000000000,"state":"active","ping":64},{"user_id":186,"name":"theamazingZ","steam_id":76561198418430859,"connected_time":551000000000,"state":"active","ping":144}]},{"server_id":14,"name":"Uncletopia | New York City | 2 | All Maps","name_short":"nyc-2","host":"nyc-1.us.uncletopia.com","port":27025,"enabled":true,"region":"us-east","cc":"us","latitude":40.73061,"longitude":-73.93524,"reserved":0,"last_update":"0001-01-01T00:00:00Z","name_a2s":"Uncletopia | New York City | 2 | All Maps","protocol":17,"map":"koth_harvest_final","folder":"tf","game":"Team Fortress","app_id":440,"player_count":24,"max_players":24,"Bots":0,"server_type":"Dedicated","server_os":"Linux","password":true,"vac":true,"version":"7961495","steam_id":85568392924469994,"keywords":["cp","nocrits","nodmgspread","uncletopia"],"game_id":440,"stv_port":27026,"stv_name":"Uncletopia | New York City | 2 | All Maps | STV","players":[{"user_id":144,"name":"noided","steam_id":76561198353924837,"connected_time":1880000000000,"state":"active","ping":71},{"user_id":147,"name":"Tupac Shakur","steam_id":76561198247651486,"connected_time":912000000000,"state":"active","ping":45},{"user_id":148,"name":"biggerbob1212","steam_id":76561198090078480,"connected_time":911000000000,"state":"active","ping":57},{"user_id":149,"name":"Harness","steam_id":76561199031066548,"connected_time":890000000000,"state":"active","ping":57},{"user_id":152,"name":"Pox4Dinner","steam_id":76561198036958101,"connected_time":715000000000,"state":"active","ping":62},{"user_id":94,"name":"NUKE RADIO","steam_id":76561198979277948,"connected_time":5556000000000,"state":"active","ping":102},{"user_id":128,"name":"A_Malebolgia","steam_id":76561198097722818,"connected_time":3088000000000,"state":"active","ping":86},{"user_id":116,"name":"Shemply","steam_id":76561198193658910,"connected_time":3991000000000,"state":"active","ping":83},{"user_id":151,"name":"Zatoichi","steam_id":76561198348141678,"connected_time":724000000000,"state":"active","ping":58},{"user_id":146,"name":"Val123gamer","steam_id":76561198411747706,"connected_time":1080000000000,"state":"active","ping":61},{"user_id":153,"name":"Raw Doginski","steam_id":76561198977262164,"connected_time":648000000000,"state":"active","ping":66},{"user_id":154,"name":"Sigiferd","steam_id":76561198148788110,"connected_time":647000000000,"state":"active","ping":116},{"user_id":155,"name":"SomeHobo454","steam_id":76561199093954927,"connected_time":645000000000,"state":"active","ping":55},{"user_id":65,"name":"Kritzburgh","steam_id":76561198149466938,"connected_time":7444000000000,"state":"active","ping":52},{"user_id":156,"name":"Call Me Napoleon","steam_id":76561198098802889,"connected_time":628000000000,"state":"active","ping":74},{"user_id":161,"name":"golem","steam_id":76561198050671833,"connected_time":4000000000,"state":"spawning","ping":45},{"user_id":157,"name":"Nerrrd_","steam_id":76561198870129960,"connected_time":616000000000,"state":"active","ping":39},{"user_id":130,"name":"Wahooka","steam_id":76561197962240925,"connected_time":2958000000000,"state":"active","ping":47},{"user_id":158,"name":"Big Yoshi","steam_id":76561199160576376,"connected_time":603000000000,"state":"active","ping":127},{"user_id":159,"name":"Medi","steam_id":76561198276743034,"connected_time":603000000000,"state":"active","ping":89},{"user_id":135,"name":"stupor","steam_id":76561198124994507,"connected_time":2393000000000,"state":"active","ping":82},{"user_id":136,"name":"AbbyRoads","steam_id":76561198868564212,"connected_time":2371000000000,"state":"active","ping":71},{"user_id":143,"name":"JustADuck","steam_id":76561198311260943,"connected_time":2215000000000,"state":"active","ping":75},{"user_id":137,"name":"'LaxAttack","steam_id":76561198044129346,"connected_time":2370000000000,"state":"active","ping":69}]},{"server_id":15,"name":"Uncletopia | New York City | 3 | Stopwatch","name_short":"nyc-3","host":"nyc-1.us.uncletopia.com","port":27035,"enabled":true,"region":"us-east","cc":"us","latitude":40.73061,"longitude":-73.93524,"reserved":0,"last_update":"0001-01-01T00:00:00Z","name_a2s":"Uncletopia | New York City | 3 | Stopwatch","protocol":17,"map":"koth_highpass","folder":"tf","game":"Team Fortress","app_id":440,"player_count":0,"max_players":24,"Bots":0,"server_type":"Dedicated","server_os":"Linux","password":true,"vac":true,"version":"7961495","steam_id":85568392924742820,"keywords":["cp","nocrits","nodmgspread","uncletopia"],"game_id":440,"stv_port":27036,"stv_name":"Uncletopia | New York City | 3 | Stopwatch | STV","players":null},{"server_id":16,"name":"Uncletopia | New York City | 4 | Community","name_short":"nyc-4","host":"nyc-1.us.uncletopia.com","port":27045,"enabled":true,"region":"us-east","cc":"us","latitude":40.73061,"longitude":-73.93524,"reserved":0,"last_update":"0001-01-01T00:00:00Z","name_a2s":"Uncletopia | New York City | 4 | Community","protocol":17,"map":"workshop/koth_slaughter_rc1.ugc1712845210","folder":"tf","game":"Team Fortress","app_id":440,"player_count":0,"max_players":24,"Bots":0,"server_type":"Dedicated","server_os":"Linux","password":true,"vac":true,"version":"7961495","steam_id":85568392924742821,"keywords":["cp","nocrits","nodmgspread","uncletopia"],"game_id":440,"stv_port":27046,"stv_name":"Uncletopia | New York City | 4 | Community | STV","players":null},{"server_id":142,"name":"Uncletopia | São Paulo | 1 | All Maps","name_short":"sao-1","host":"sao-1.br.uncletopia.com","port":27015,"enabled":true,"region":"sa","cc":"br","latitude":-23.533773,"longitude":-46.62529,"reserved":0,"last_update":"0001-01-01T00:00:00Z","name_a2s":"Uncletopia | São Paulo | 1 | All Maps","protocol":17,"map":"koth_cascade","folder":"tf","game":"Team Fortress","app_id":440,"player_count":0,"max_players":24,"Bots":0,"server_type":"Dedicated","server_os":"Linux","password":true,"vac":true,"version":"7961495","steam_id":85568392924469996,"keywords":["cp","nocrits","nodmgspread","uncletopia"],"game_id":440,"stv_port":27016,"stv_name":"Uncletopia | São Paulo | 1 | All Maps | STV","players":null},{"server_id":143,"name":"Uncletopia | São Paulo | 2 | Community","name_short":"sao-2","host":"sao-2.br.uncletopia.com","port":27015,"enabled":true,"region":"sa","cc":"br","latitude":-23.533773,"longitude":-46.62529,"reserved":0,"last_update":"0001-01-01T00:00:00Z","name_a2s":"Uncletopia | São Paulo | 2 | Community","protocol":17,"map":"pl_badwater","folder":"tf","game":"Team Fortress","app_id":440,"player_count":0,"max_players":24,"Bots":0,"server_type":"Dedicated","server_os":"Linux","password":true,"vac":true,"version":"7961495","steam_id":85568392924485349,"keywords":["nocrits","nodmgspread","payload","uncletopia"],"game_id":440,"stv_port":27016,"stv_name":"Uncletopia | São Paulo | 2 | Community | STV","players":null},{"server_id":7,"name":"Uncletopia | Seattle | 1 | All Maps","name_short":"sea-1","host":"sea-1.us.uncletopia.com","port":27015,"enabled":true,"region":"us-west","cc":"us","latitude":47.608013,"longitude":-122.33517,"reserved":0,"last_update":"0001-01-01T00:00:00Z","name_a2s":"Uncletopia | Seattle | 1 | All Maps","protocol":17,"map":"cp_dustbowl","folder":"tf","game":"Team Fortress","app_id":440,"player_count":24,"max_players":24,"Bots":0,"server_type":"Dedicated","server_os":"Linux","password":true,"vac":true,"version":"7961495","steam_id":85568392924469997,"keywords":["cp","nocrits","nodmgspread","uncletopia"],"game_id":440,"stv_port":27016,"stv_name":"Uncletopia | Seattle | 1 | All Maps | STV","players":[{"user_id":456,"name":"Wheaty","steam_id":76561198003553412,"connected_time":4408000000000,"state":"active","ping":50},{"user_id":519,"name":"you just got dyked on","steam_id":76561198018977723,"connected_time":2035000000000,"state":"active","ping":43},{"user_id":518,"name":"The_Man","steam_id":76561199194890696,"connected_time":2066000000000,"state":"active","ping":97},{"user_id":506,"name":"MickMeat","steam_id":76561198119898001,"connected_time":2867000000000,"state":"active","ping":82},{"user_id":535,"name":"scribble","steam_id":76561198052774399,"connected_time":13000000000,"state":"spawning","ping":59},{"user_id":480,"name":"DaddyGalaxy","steam_id":76561198139697796,"connected_time":3655000000000,"state":"active","ping":60},{"user_id":534,"name":"Vec","steam_id":76561198044505262,"connected_time":138000000000,"state":"active","ping":130},{"user_id":396,"name":"cielael","steam_id":76561198043971956,"connected_time":7741000000000,"state":"active","ping":76},{"user_id":509,"name":"Cam","steam_id":76561198285054047,"connected_time":2813000000000,"state":"active","ping":72},{"user_id":529,"name":"PLATNUMHANNYA","steam_id":76561198451426311,"connected_time":1189000000000,"state":"active","ping":53},{"user_id":530,"name":"!! BRO IS FLABBERGASTED !!","steam_id":76561198135036396,"connected_time":1064000000000,"state":"active","ping":119},{"user_id":527,"name":"infant daughter","steam_id":76561198168492250,"connected_time":1264000000000,"state":"active","ping":62},{"user_id":505,"name":"TheMagicMrWaffle","steam_id":76561198104357256,"connected_time":2880000000000,"state":"active","ping":71},{"user_id":533,"name":"cowboy","steam_id":76561198266320078,"connected_time":160000000000,"state":"active","ping":94},{"user_id":525,"name":"level 7 firemancer","steam_id":76561198209571677,"connected_time":1318000000000,"state":"active","ping":128},{"user_id":511,"name":"doomshroom","steam_id":76561198092827250,"connected_time":2788000000000,"state":"active","ping":50},{"user_id":468,"name":"Macro","steam_id":76561199442846226,"connected_time":4022000000000,"state":"active","ping":123},{"user_id":524,"name":"greens beans","steam_id":76561198153611491,"connected_time":1366000000000,"state":"active","ping":46},{"user_id":444,"name":"Dim","steam_id":76561198061411324,"connected_time":5453000000000,"state":"active","ping":126},{"user_id":523,"name":"011sra","steam_id":76561199489542125,"connected_time":1370000000000,"state":"active","ping":46},{"user_id":508,"name":"Killer Fish From San Diego","steam_id":76561199037594575,"connected_time":2843000000000,"state":"active","ping":62},{"user_id":445,"name":"MORE BOUNCE TO THE OUNCE","steam_id":76561198243399336,"connected_time":5452000000000,"state":"active","ping":82},{"user_id":353,"name":"Nom Skirrett","steam_id":76561198014600788,"connected_time":10538000000000,"state":"active","ping":73},{"user_id":513,"name":"vfa","steam_id":76561198055729118,"connected_time":2479000000000,"state":"active","ping":62}]},{"server_id":119,"name":"Uncletopia | Seattle | 2 | All Maps","name_short":"sea-2","host":"sea-1.us.uncletopia.com","port":27025,"enabled":true,"region":"us-west","cc":"us","latitude":47.608013,"longitude":-122.33517,"reserved":0,"last_update":"0001-01-01T00:00:00Z","name_a2s":"Uncletopia | Seattle | 2 | All Maps","protocol":17,"map":"koth_viaduct","folder":"tf","game":"Team Fortress","app_id":440,"player_count":25,"max_players":24,"Bots":0,"server_type":"Dedicated","server_os":"Linux","password":true,"vac":true,"version":"7961495","steam_id":85568392924469998,"keywords":["cp","nocrits","nodmgspread","uncletopia"],"game_id":440,"stv_port":27026,"stv_name":"Uncletopia | Seattle | 2 | All Maps | STV","players":[{"user_id":12,"name":"clue","steam_id":76561198299379768,"connected_time":1035000000000,"state":"active","ping":51},{"user_id":13,"name":"Howard Carter","steam_id":76561199032525466,"connected_time":575000000000,"state":"active","ping":74},{"user_id":15,"name":"Fish","steam_id":76561199016308078,"connected_time":450000000000,"state":"active","ping":70},{"user_id":16,"name":"cool beans","steam_id":76561198321591685,"connected_time":417000000000,"state":"active","ping":70},{"user_id":17,"name":"John Sex-Haver","steam_id":76561199020976125,"connected_time":383000000000,"state":"active","ping":83},{"user_id":18,"name":"AXELORDX","steam_id":76561198136639581,"connected_time":359000000000,"state":"active","ping":113},{"user_id":19,"name":"your moms car","steam_id":76561199389283507,"connected_time":299000000000,"state":"active","ping":112},{"user_id":22,"name":"Tenzin Gyatso","steam_id":76561198258980884,"connected_time":275000000000,"state":"active","ping":50},{"user_id":21,"name":"THE CUMEST LORD","steam_id":76561198061412592,"connected_time":287000000000,"state":"active","ping":106},{"user_id":23,"name":"Rev","steam_id":76561199060355036,"connected_time":255000000000,"state":"active","ping":39},{"user_id":24,"name":"Vagrant","steam_id":76561198242536886,"connected_time":249000000000,"state":"active","ping":108},{"user_id":25,"name":"asoingbob","steam_id":76561198032682990,"connected_time":220000000000,"state":"active","ping":51},{"user_id":27,"name":"luxl1","steam_id":76561198975034056,"connected_time":219000000000,"state":"active","ping":329},{"user_id":28,"name":"VileEvilLevi","steam_id":76561199226291414,"connected_time":214000000000,"state":"active","ping":60},{"user_id":29,"name":"UltraLaggy","steam_id":76561199176211866,"connected_time":214000000000,"state":"active","ping":121},{"user_id":30,"name":"[ 7 ]","steam_id":76561199229668733,"connected_time":211000000000,"state":"active","ping":116},{"user_id":34,"name":"PAULIE WALNUT","steam_id":76561197999913275,"connected_time":182000000000,"state":"active","ping":123},{"user_id":32,"name":"BurgerSweat47","steam_id":76561198055422562,"connected_time":203000000000,"state":"active","ping":113},{"user_id":33,"name":"dicknballz98","steam_id":76561198010662741,"connected_time":199000000000,"state":"active","ping":106},{"user_id":35,"name":"hemaglox","steam_id":76561198023187633,"connected_time":177000000000,"state":"active","ping":46},{"user_id":36,"name":"yo mama","steam_id":76561198384866172,"connected_time":171000000000,"state":"active","ping":67},{"user_id":37,"name":"a guy 131 + fish paste","steam_id":76561199226994384,"connected_time":165000000000,"state":"active","ping":123},{"user_id":38,"name":"ga vindiesel","steam_id":76561198369481060,"connected_time":161000000000,"state":"active","ping":66},{"user_id":39,"name":"Mike Bean Burritos","steam_id":76561198173430607,"connected_time":161000000000,"state":"active","ping":57},{"user_id":40,"name":"Therapy Goth","steam_id":76561198048448497,"connected_time":129000000000,"state":"active","ping":107}]},{"server_id":406,"name":"Uncletopia | Seattle | 3 | Stopwatch","name_short":"sea-3","host":"sea-1.us.uncletopia.com","port":27035,"enabled":true,"region":"us-west","cc":"us","latitude":47.608013,"longitude":-122.33517,"reserved":0,"last_update":"0001-01-01T00:00:00Z","name_a2s":"Uncletopia | Seattle | 3 | Stopwatch","protocol":17,"map":"pl_pier","folder":"tf","game":"Team Fortress","app_id":440,"player_count":0,"max_players":24,"Bots":0,"server_type":"Dedicated","server_os":"Linux","password":true,"vac":true,"version":"7961495","steam_id":85568392924515217,"keywords":["nocrits","nodmgspread","payload","uncletopia"],"game_id":440,"stv_port":27036,"stv_name":"Uncletopia | Seattle | 3 | Stopwatch | STV","players":null},{"server_id":17,"name":"Uncletopia | San Francisco | 1 | All Maps","name_short":"sfo-1","host":"sfo-1.us.uncletopia.com","port":27015,"enabled":true,"region":"us-west","cc":"us","latitude":37.77397,"longitude":-122.4313,"reserved":0,"last_update":"0001-01-01T00:00:00Z","name_a2s":"Uncletopia | San Francisco | 1 | All Maps","protocol":17,"map":"koth_cascade","folder":"tf","game":"Team Fortress","app_id":440,"player_count":0,"max_players":24,"Bots":0,"server_type":"Dedicated","server_os":"Linux","password":true,"vac":true,"version":"7961495","steam_id":85568392924469999,"keywords":["cp","nocrits","nodmgspread","uncletopia"],"game_id":440,"stv_port":27016,"stv_name":"Uncletopia | San Francisco | 1 | All Maps | STV","players":null},{"server_id":18,"name":"Uncletopia | San Francisco | 2 | All Maps","name_short":"sfo-2","host":"sfo-1.us.uncletopia.com","port":27025,"enabled":true,"region":"us-west","cc":"us","latitude":37.77397,"longitude":-122.4313,"reserved":0,"last_update":"0001-01-01T00:00:00Z","name_a2s":"Uncletopia | San Francisco | 2 | All Maps","protocol":17,"map":"cp_process_final","folder":"tf","game":"Team Fortress","app_id":440,"player_count":0,"max_players":24,"Bots":0,"server_type":"Dedicated","server_os":"Linux","password":true,"vac":true,"version":"7961495","steam_id":85568392924470000,"keywords":["cp","nocrits","nodmgspread","uncletopia"],"game_id":440,"stv_port":27026,"stv_name":"Uncletopia | San Francisco | 2 | All Maps | STV","players":null},{"server_id":19,"name":"Uncletopia | San Francisco | 3 | Stopwatch","name_short":"sfo-3","host":"sfo-1.us.uncletopia.com","port":27035,"enabled":true,"region":"us-west","cc":"us","latitude":37.77397,"longitude":-122.4313,"reserved":0,"last_update":"0001-01-01T00:00:00Z","name_a2s":"Uncletopia | San Francisco | 3 | Stopwatch","protocol":17,"map":"pl_pier","folder":"tf","game":"Team Fortress","app_id":440,"player_count":0,"max_players":24,"Bots":0,"server_type":"Dedicated","server_os":"Linux","password":true,"vac":true,"version":"7961495","steam_id":85568392924742824,"keywords":["nocrits","nodmgspread","payload","uncletopia"],"game_id":440,"stv_port":27036,"stv_name":"Uncletopia | San Francisco | 3 | Stopwatch | STV","players":null},{"server_id":20,"name":"Uncletopia | San Francisco | 4 | Community","name_short":"sfo-4","host":"sfo-1.us.uncletopia.com","port":27045,"enabled":true,"region":"us-west","cc":"us","latitude":37.77397,"longitude":-122.4313,"reserved":0,"last_update":"0001-01-01T00:00:00Z","name_a2s":"Uncletopia | San Francisco | 4 | Community","protocol":17,"map":"workshop/pl_vigil_rc10.ugc1266210012","folder":"tf","game":"Team Fortress","app_id":440,"player_count":0,"max_players":24,"Bots":0,"server_type":"Dedicated","server_os":"Linux","password":true,"vac":true,"version":"7961495","steam_id":85568392924742826,"keywords":["nocrits","nodmgspread","payload","uncletopia"],"game_id":440,"stv_port":27046,"stv_name":"Uncletopia | San Francisco | 4 | Community | STV","players":null},{"server_id":141,"name":"Uncletopia | Sydney | 1 | All Maps","name_short":"syd-1","host":"syd-1.au.uncletopia.com","port":27015,"enabled":true,"region":"au","cc":"au","latitude":-33.865143,"longitude":151.2099,"reserved":0,"last_update":"0001-01-01T00:00:00Z","name_a2s":"Uncletopia | Sydney | 1 | All Maps","protocol":17,"map":"koth_viaduct","folder":"tf","game":"Team Fortress","app_id":440,"player_count":4,"max_players":24,"Bots":0,"server_type":"Dedicated","server_os":"Linux","password":true,"vac":true,"version":"7961495","steam_id":85568392924470001,"keywords":["cp","nocrits","nodmgspread","uncletopia"],"game_id":440,"stv_port":27016,"stv_name":"Uncletopia | Sydney | 1 | All Maps | STV","players":[{"user_id":3,"name":"Gabeyboy321","steam_id":76561199379213615,"connected_time":1270000000000,"state":"active","ping":256},{"user_id":4,"name":"Señor Matanza","steam_id":76561197993327544,"connected_time":1095000000000,"state":"active","ping":264},{"user_id":5,"name":"FascismSalad","steam_id":76561198262410973,"connected_time":449000000000,"state":"active","ping":45},{"user_id":6,"name":"TheSilverSandpiper","steam_id":76561199025744213,"connected_time":196000000000,"state":"active","ping":163}]},{"server_id":123,"name":"Uncletopia | Sydney | 2 | All Maps","name_short":"syd-2","host":"syd-1.au.uncletopia.com","port":27025,"enabled":true,"region":"au","cc":"au","latitude":-33.865143,"longitude":151.2099,"reserved":0,"last_update":"0001-01-01T00:00:00Z","name_a2s":"Uncletopia | Sydney | 2 | All Maps","protocol":17,"map":"koth_lakeside_final","folder":"tf","game":"Team Fortress","app_id":440,"player_count":0,"max_players":24,"Bots":0,"server_type":"Dedicated","server_os":"Linux","password":true,"vac":true,"version":"7961495","steam_id":85568392924470002,"keywords":["cp","nocrits","nodmgspread","uncletopia"],"game_id":440,"stv_port":27026,"stv_name":"Uncletopia | Sydney | 2 | All Maps | STV","players":null},{"server_id":395,"name":"Uncletopia | Sydney | 3 | All Maps","name_short":"syd-3","host":"syd-1.au.uncletopia.com","port":27035,"enabled":true,"region":"au","cc":"au","latitude":-33.865143,"longitude":151.2099,"reserved":0,"last_update":"0001-01-01T00:00:00Z","name_a2s":"Uncletopia | Sydney | 3 | All Maps","protocol":17,"map":"pl_frontier_final","folder":"tf","game":"Team Fortress","app_id":440,"player_count":0,"max_players":24,"Bots":0,"server_type":"Dedicated","server_os":"Linux","password":true,"vac":true,"version":"7961495","steam_id":85568392925194467,"keywords":["nocrits","nodmgspread","payload","uncletopia"],"game_id":440,"stv_port":27036,"stv_name":"Uncletopia | Sydney | 3 | All Maps | STV","players":null},{"server_id":396,"name":"Uncletopia | Sydney | 4 | All Maps","name_short":"syd-4","host":"syd-1.au.uncletopia.com","port":27045,"enabled":true,"region":"au","cc":"au","latitude":-33.865143,"longitude":151.2099,"reserved":0,"last_update":"0001-01-01T00:00:00Z","name_a2s":"Uncletopia | Sydney | 4 | All Maps","protocol":17,"map":"cp_process_final","folder":"tf","game":"Team Fortress","app_id":440,"player_count":0,"max_players":24,"Bots":0,"server_type":"Dedicated","server_os":"Linux","password":true,"vac":true,"version":"7961495","steam_id":85568392925397958,"keywords":["cp","nocrits","nodmgspread","uncletopia"],"game_id":440,"stv_port":27046,"stv_name":"Uncletopia | Sydney | 4 | All Maps | STV","players":null},{"server_id":58,"name":"Uncletopia | Sydney | 5 | Stopwatch","name_short":"syd-5","host":"syd-1.au.uncletopia.com","port":27055,"enabled":true,"region":"au","cc":"au","latitude":-33.865143,"longitude":151.2099,"reserved":0,"last_update":"0001-01-01T00:00:00Z","name_a2s":"Uncletopia | Sydney | 5 | Stopwatch","protocol":17,"map":"pl_frontier_final","folder":"tf","game":"Team Fortress","app_id":440,"player_count":0,"max_players":24,"Bots":0,"server_type":"Dedicated","server_os":"Linux","password":true,"vac":true,"version":"7961495","steam_id":85568392925397959,"keywords":["nocrits","nodmgspread","payload","uncletopia"],"game_id":440,"stv_port":27056,"stv_name":"Uncletopia | Sydney | 5 | Stopwatch | STV","players":null},{"server_id":59,"name":"Uncletopia | Sydney | 6 | Community","name_short":"syd-6","host":"syd-1.au.uncletopia.com","port":27065,"enabled":true,"region":"au","cc":"au","latitude":-33.865143,"longitude":151.2099,"reserved":0,"last_update":"0001-01-01T00:00:00Z","name_a2s":"Uncletopia | Sydney | 6 | Community","protocol":17,"map":"cp_sunshine","folder":"tf","game":"Team Fortress","app_id":440,"player_count":0,"max_players":24,"Bots":0,"server_type":"Dedicated","server_os":"Linux","password":true,"vac":true,"version":"7961495","steam_id":85568392925397960,"keywords":["cp","nocrits","nodmgspread","uncletopia"],"game_id":440,"stv_port":27066,"stv_name":"Uncletopia | Sydney | 6 | Community | STV","players":null},{"server_id":49,"name":"Uncletopia | Warsaw | 1 | One Thousand Uncles","name_short":"waw-1","host":"waw-1.pl.uncletopia.com","port":27015,"enabled":true,"region":"eu","cc":"pl","latitude":52.2297,"longitude":21.017532,"reserved":0,"last_update":"0001-01-01T00:00:00Z","name_a2s":"Uncletopia | Warsaw | 1 | One Thousand Uncles","protocol":17,"map":"cp_mossrock","folder":"tf","game":"Team Fortress","app_id":440,"player_count":18,"max_players":32,"Bots":16,"server_type":"Dedicated","server_os":"Linux","password":true,"vac":true,"version":"7961495","steam_id":85568392925397850,"keywords":["alltalk","bots","cp","danepve","increased_maxplayers","nocrits","norespawntime","uncletopia"],"game_id":440,"stv_port":0,"stv_name":"","players":[{"user_id":792,"name":"bigmouth strikes again","steam_id":76561198307037169,"connected_time":65000000000,"state":"active","ping":90},{"user_id":782,"name":"nelipa84","steam_id":76561199259397833,"connected_time":3110000000000,"state":"active","ping":62}]},{"server_id":50,"name":"Uncletopia | Warsaw | 2 | One Thousand Uncles","name_short":"waw-2","host":"waw-1.pl.uncletopia.com","port":27025,"enabled":true,"region":"eu","cc":"pl","latitude":52.2297,"longitude":21.017532,"reserved":0,"last_update":"0001-01-01T00:00:00Z","name_a2s":"Uncletopia | Warsaw | 2 | One Thousand Uncles","protocol":17,"map":"cp_dustbowl","folder":"tf","game":"Team Fortress","app_id":440,"player_count":0,"max_players":32,"Bots":0,"server_type":"Dedicated","server_os":"Linux","password":true,"vac":true,"version":"7961495","steam_id":85568392925397851,"keywords":["alltalk","cp","danepve","increased_maxplayers","nocrits","norespawntime","uncletopia"],"game_id":440,"stv_port":0,"stv_name":"","players":null},{"server_id":51,"name":"Uncletopia | Warsaw | 3 | All Maps","name_short":"waw-3","host":"waw-1.pl.uncletopia.com","port":27035,"enabled":true,"region":"eu","cc":"pl","latitude":52.2297,"longitude":21.017532,"reserved":0,"last_update":"0001-01-01T00:00:00Z","name_a2s":"Uncletopia | Warsaw | 3 | All Maps","protocol":17,"map":"cp_sunshine","folder":"tf","game":"Team Fortress","app_id":440,"player_count":0,"max_players":24,"Bots":0,"server_type":"Dedicated","server_os":"Linux","password":true,"vac":true,"version":"7961495","steam_id":85568392925397852,"keywords":["cp","nocrits","nodmgspread","uncletopia"],"game_id":440,"stv_port":27036,"stv_name":"Uncletopia | Warsaw | 3 | All Maps | STV","players":null},{"server_id":52,"name":"Uncletopia | Warsaw | 4 | All Maps","name_short":"waw-4","host":"waw-1.pl.uncletopia.com","port":27045,"enabled":true,"region":"eu","cc":"pl","latitude":52.2297,"longitude":21.017532,"reserved":0,"last_update":"0001-01-01T00:00:00Z","name_a2s":"Uncletopia | Warsaw | 4 | All Maps","protocol":17,"map":"pl_barnblitz","folder":"tf","game":"Team Fortress","app_id":440,"player_count":0,"max_players":24,"Bots":0,"server_type":"Dedicated","server_os":"Linux","password":true,"vac":true,"version":"7961495","steam_id":85568392925397853,"keywords":["nocrits","nodmgspread","payload","uncletopia"],"game_id":440,"stv_port":27046,"stv_name":"Uncletopia | Warsaw | 4 | All Maps | STV","players":null},{"server_id":53,"name":"Uncletopia | Warsaw | 5 | Stopwatch","name_short":"waw-5","host":"waw-1.pl.uncletopia.com","port":27055,"enabled":true,"region":"eu","cc":"pl","latitude":52.2297,"longitude":21.017532,"reserved":0,"last_update":"0001-01-01T00:00:00Z","name_a2s":"Uncletopia | Warsaw | 5 | Stopwatch","protocol":17,"map":"workshop/pl_barnblitz_pro7.ugc582280235","folder":"tf","game":"Team Fortress","app_id":440,"player_count":0,"max_players":24,"Bots":0,"server_type":"Dedicated","server_os":"Linux","password":true,"vac":true,"version":"7961495","steam_id":85568392925397854,"keywords":["nocrits","nodmgspread","payload","uncletopia"],"game_id":440,"stv_port":27056,"stv_name":"Uncletopia | Warsaw | 5 | Stopwatch | STV","players":null},{"server_id":54,"name":"Uncletopia | Warsaw | 6 | Community","name_short":"waw-6","host":"waw-1.pl.uncletopia.com","port":27065,"enabled":true,"region":"eu","cc":"pl","latitude":52.2297,"longitude":21.017532,"reserved":0,"last_update":"0001-01-01T00:00:00Z","name_a2s":"Uncletopia | Warsaw | 6 | Community","protocol":17,"map":"workshop/cp_coilblaze_rc7.ugc1272700588","folder":"tf","game":"Team Fortress","app_id":440,"player_count":0,"max_players":24,"Bots":0,"server_type":"Dedicated","server_os":"Linux","password":true,"vac":true,"version":"7961495","steam_id":85568392925397856,"keywords":["cp","nocrits","nodmgspread","uncletopia"],"game_id":440,"stv_port":27066,"stv_name":"Uncletopia | Warsaw | 6 | Community | STV","players":null}]}