{"status":true,"message":"","result":[{"server_id":9,"name":"Uncletopia | Atlanta | 1 | All Maps","name_short":"atl-1","host":"atl-1.us.uncletopia.com","port":27015,"enabled":true,"region":"us-east","cc":"us","latitude":33.753746,"longitude":-84.38633,"reserved":0,"last_update":"0001-01-01T00:00:00Z","name_a2s":"Uncletopia | Atlanta | 1 | All Maps","protocol":17,"map":"pl_barnblitz","folder":"tf","game":"Team Fortress","app_id":440,"player_count":5,"max_players":24,"Bots":0,"server_type":"Dedicated","server_os":"Linux","password":true,"vac":true,"version":"7961495","steam_id":85568392924469982,"keywords":["nocrits","nodmgspread","payload","uncletopia"],"game_id":440,"stv_port":27016,"stv_name":"Uncletopia | Atlanta | 1 | All Maps | STV","players":[{"user_id":14,"name":"Flames_Gaming999","steam_id":76561199486564105,"connected_time":343000000000,"state":"active","ping":62},{"user_id":15,"name":"I Eat Runners","steam_id":76561198308044205,"connected_time":299000000000,"state":"active","ping":75},{"user_id":16,"name":"noahgil02","steam_id":76561198342889553,"connected_time":154000000000,"state":"active","ping":142},{"user_id":17,"name":"harold of rock salt kingdom","steam_id":76561199016285746,"connected_time":122000000000,"state":"active","ping":74},{"user_id":18,"name":"Shame","steam_id":76561198100490994,"connected_time":105000000000,"state":"active","ping":55}]},{"server_id":104,"name":"Uncletopia | Atlanta | 2 | All Maps","name_short":"atl-2","host":"atl-1.us.uncletopia.com","port":27025,"enabled":true,"region":"us-east","cc":"us","latitude":33.753746,"longitude":-84.38633,"reserved":0,"last_update":"0001-01-01T00:00:00Z","name_a2s":"Uncletopia | Atlanta | 2 | All Maps","protocol":17,"map":"koth_cascade","folder":"tf","game":"Team Fortress","app_id":440,"player_count":0,"max_players":24,"Bots":0,"server_type":"Dedicated","server_os":"Linux","password":true,"vac":true,"version":"7961495","steam_id":85568392924469983,"keywords":["cp","nocrits","nodmgspread","uncletopia"],"game_id":440,"stv_port":27026,"stv_name":"Uncletopia | Atlanta | 2 | All Maps | STV","players":null},{"server_id":400,"name":"Uncletopia | Atlanta | 3 | Stopwatch","name_short":"atl-3","host":"atl-1.us.uncletopia.com","port":27035,"enabled":true,"region":"us-east","cc":"us","latitude":33.753746,"longitude":-84.38633,"reserved":0,"last_update":"0001-01-01T00:00:00Z","name_a2s":"Uncletopia | Atlanta | 3 | Stopwatch","protocol":17,"map":"pl_badwater","folder":"tf","game":"Team Fortress","app_id":440,"player_count":0,"max_players":24,"Bots":0,"server_type":"Dedicated","server_os":"Linux","password":true,"vac":true,"version":"7961495","steam_id":85568392924515187,"keywords":["nocrits","nodmgspread","payload","uncletopia"],"game_id":440,"stv_port":27036,"stv_name":"Uncletopia | Atlanta | 3 | Stopwatch | STV","players":null},{"server_id":401,"name":"Uncletopia | Atlanta | 4 | Community","name_short":"atl-4","host":"atl-1.us.uncletopia.com","port":27045,"enabled":true,"region":"us-east","cc":"us","latitude":33.753746,"longitude":-84.38633,"reserved":0,"last_update":"0001-01-01T00:00:00Z","name_a2s":"Uncletopia | Atlanta | 4 | Community","protocol":17,"map":"workshop/pl_vigil_rc10.ugc1266210012","folder":"tf","game":"Team Fortress","app_id":440,"player_count":0,"max_players":24,"Bots":0,"server_type":"Dedicated","server_os":"Linux","password":true,"vac":true,"version":"7961495","steam_id":85568392924515188,"keywords":["nocrits","nodmgspread","payload","uncletopia"],"game_id":440,"stv_port":27046,"stv_name":"Uncletopia | Atlanta | 4 | Community | STV","players":null},{"server_id":2,"name":"Uncletopia | Chicago | 1 | All Maps","name_short":"chi-1","host":"chi-1.us.uncletopia.com","port":27015,"enabled":true,"region":"us-central","cc":"us","latitude":41.881832,"longitude":-87.62318,"reserved":0,"last_update":"0001-01-01T00:00:00Z","name_a2s":"Uncletopia | Chicago | 1 | All Maps","protocol":17,"map":"cp_junction_final","folder":"tf","game":"Team Fortress","app_id":440,"player_count":19,"max_players":24,"Bots":0,"server_type":"Dedicated","server_os":"Linux","password":true,"vac":true,"version":"7961495","steam_id":85568392924469984,"keywords":["cp","nocrits","nodmgspread","uncletopia"],"game_id":440,"stv_port":27016,"stv_name":"Uncletopia | Chicago | 1 | All Maps | STV","players":[{"user_id":231,"name":"Ones","steam_id":76561199072202376,"connected_time":612000000000,"state":"active","ping":85},{"user_id":236,"name":"ุ","steam_id":76561198170624701,"connected_time":38000000000,"state":"active","ping":135},{"user_id":237,"name":"Mimt1111","steam_id":76561198392370897,"connected_time":4000000000,"state":"spawning","ping":74},{"user_id":208,"name":"loser","steam_id":76561198259380127,"connected_time":1668000000000,"state":"active","ping":59},{"user_id":218,"name":"ThatGamingKiwi","steam_id":76561199170522237,"connected_time":1342000000000,"state":"active","ping":75},{"user_id":199,"name":"Kyle Wisdom","steam_id":76561197983040950,"connected_time":2387000000000,"state":"active","ping":57},{"user_id":181,"name":"Mcfighter2","steam_id":76561198168073956,"connected_time":4351000000000,"state":"active","ping":70},{"user_id":203,"name":"tA.CHRONIC","steam_id":76561197960760990,"connected_time":1706000000000,"state":"active","ping":47},{"user_id":220,"name":"Charlie","steam_id":76561198798127908,"connected_time":1230000000000,"state":"active","ping":69},{"user_id":233,"name":"Chip","steam_id":76561198182205245,"connected_time":332000000000,"state":"active","ping":57},{"user_id":204,"name":"SpectreBurn","steam_id":76561198163300780,"connected_time":1693000000000,"state":"active","ping":63},{"user_id":192,"name":"Puck Norris","steam_id":76561198151256410,"connected_time":3216000000000,"state":"active","ping":138},{"user_id":235,"name":"freesia","steam_id":76561198127525888,"connected_time":129000000000,"state":"active","ping":73},{"user_id":222,"name":"Death March","steam_id":76561199068956882,"connected_time":1209000000000,"state":"active","ping":44},{"user_id":226,"name":"Marc G","steam_id":76561198062650363,"connected_time":891000000000,"state":"active","ping":74},{"user_id":230,"name":"Comfy!","steam_id":76561198008818346,"connected_time":681000000000,"state":"active","ping":76},{"user_id":195,"name":"Ockulus","steam_id":76561199069638460,"connected_time":3196000000000,"state":"active","ping":98},{"user_id":234,"name":"Driftin'","steam_id":76561198373422100,"connected_time":190000000000,"state":"active","ping":75},{"user_id":202,"name":"Wooden E","steam_id":76561198020308956,"connected_time":2379000000000,"state":"active","ping":58}]},{"server_id":106,"name":"Uncletopia | Chicago | 2 | All Maps","name_short":"chi-2","host":"chi-1.us.uncletopia.com","port":27025,"enabled":true,"region":"us-central","cc":"us","latitude":41.881832,"longitude":-87.62318,"reserved":0,"last_update":"0001-01-01T00:00:00Z","name_a2s":"Uncletopia | Chicago | 2 | All Maps","protocol":17,"map":"pl_pier","folder":"tf","game":"Team Fortress","app_id":440,"player_count":24,"max_players":24,"Bots":0,"server_type":"Dedicated","server_os":"Linux","password":true,"vac":true,"version":"7961495","steam_id":85568392924469985,"keywords":["nocrits","nodmgspread","payload","uncletopia"],"game_id":440,"stv_port":27026,"stv_name":"Uncletopia | Chicago | 2 | All Maps | STV","players":[{"user_id":67,"name":"Cruisin'","steam_id":76561199245457119,"connected_time":1731000000000,"state":"active","ping":73},{"user_id":79,"name":"Ejaculation Zach","steam_id":76561198203765200,"connected_time":737000000000,"state":"active","ping":60},{"user_id":78,"name":"Wierd Round","steam_id":76561197969205852,"connected_time":742000000000,"state":"active","ping":80},{"user_id":76,"name":"c64guy","steam_id":76561198023022744,"connected_time":860000000000,"state":"active","ping":54},{"user_id":77,"name":"lu","steam_id":76561198080731872,"connected_time":829000000000,"state":"active","ping":74},{"user_id":26,"name":"Huloon","steam_id":76561198070837568,"connected_time":3326000000000,"state":"active","ping":74},{"user_id":86,"name":"solenizantka :3","steam_id":76561198337705174,"connected_time":8000000000,"state":"spawning","ping":72},{"user_id":62,"name":"Caesar","steam_id":76561198113096772,"connected_time":1908000000000,"state":"active","ping":116},{"user_id":54,"name":"♥Gorilla Grip Femboy♥","steam_id":76561199121980584,"connected_time":2518000000000,"state":"active","ping":59},{"user_id":28,"name":"Sharky","steam_id":76561198032663494,"connected_time":3227000000000,"state":"active","ping":69},{"user_id":50,"name":"FunnyUsernameWow","steam_id":76561198324177635,"connected_time":2733000000000,"state":"active","ping":60},{"user_id":30,"name":"yes","steam_id":76561199094011002,"connected_time":3193000000000,"state":"active","ping":57},{"user_id":83,"name":"Okazi","steam_id":76561198848400996,"connected_time":571000000000,"state":"active","ping":65},{"user_id":81,"name":"the_woof","steam_id":76561197975329130,"connected_time":705000000000,"state":"active","ping":41},{"user_id":69,"name":"artichoke","steam_id":76561198980994364,"connected_time":1728000000000,"state":"active","ping":93},{"user_id":64,"name":"rstrom","steam_id":76561197961225022,"connected_time":1886000000000,"state":"active","ping":70},{"user_id":41,"name":"The Nikocado Enjoyer","steam_id":76561198263154374,"connected_time":2944000000000,"state":"active","ping":62},{"user_id":42,"name":"Astrocards","steam_id":76561199184079830,"connected_time":2911000000000,"state":"active","ping":65},{"user_id":66,"name":"SuperRican","steam_id":76561199406777735,"connected_time":1855000000000,"state":"active","ping":80},{"user_id":84,"name":"Papillon","steam_id":76561198049725849,"connected_time":474000000000,"state":"active","ping":73},{"user_id":55,"name":"Deterrent","steam_id":76561198256763734,"connected_time":2231000000000,"state":"active","ping":77},{"user_id":82,"name":"w a o w","steam_id":76561198060769385,"connected_time":577000000000,"state":"active","ping":112},{"user_id":48,"name":"Jpxfred","steam_id":76561199414783749,"connected_time":2823000000000,"state":"active","ping":107},{"user_id":85,"name":"Scorp Saltman","steam_id":76561198011052028,"connected_time":437000000000,"state":"active","ping":56}]},{"server_id":402,"name":"Uncletopia | Chicago | 3 | All Maps","name_short":"chi-3","host":"chi-1.us.uncletopia.com","port":27035,"enabled":true,"region":"us-central","cc":"us","latitude":41.881832,"longitude":-87.62318,"reserved":0,"last_update":"0001-01-01T00:00:00Z","name_a2s":"Uncletopia | Chicago | 3 | All Maps","protocol":17,"map":"pl_swiftwater_final1","folder":"tf","game":"Team Fortress","app_id":440,"player_count":24,"max_players":24,"Bots":0,"server_type":"Dedicated","server_os":"Linux","password":true,"vac":true,"version":"7961495","steam_id":85568392924515191,"keywords":["nocrits","nodmgspread","payload","uncletopia"],"game_id":440,"stv_port":27036,"stv_name":"Uncletopia | Chicago | 3 | All Maps | STV","players":[{"user_id":7,"name":"gen","steam_id":76561199118569153,"connected_time":2681000000000,"state":"active","ping":56},{"user_id":43,"name":"profile name","steam_id":76561198044192979,"connected_time":1685000000000,"state":"active","ping":89},{"user_id":42,"name":"Major Woody","steam_id":76561198835541533,"connected_time":1700000000000,"state":"active","ping":88},{"user_id":10,"name":"joshberg65","steam_id":76561198165893304,"connected_time":2557000000000,"state":"active","ping":59},{"user_id":63,"name":"inshallah","steam_id":76561198165212575,"connected_time":580000000000,"state":"active","ping":62},{"user_id":51,"name":"RandyPickleshoes","steam_id":76561198064139260,"connected_time":1596000000000,"state":"active","ping":76},{"user_id":62,"name":"Window Licker #pride","steam_id":76561198386717007,"connected_time":653000000000,"state":"active","ping":55},{"user_id":54,"name":"/dev/null","steam_id":76561198042144148,"connected_time":1303000000000,"state":"active","ping":60},{"user_id":64,"name":"Gotta Move That Gear Up","steam_id":76561197993467034,"connected_time":558000000000,"state":"active","ping":57},{"user_id":73,"name":"for the king","steam_id":76561197973488858,"connected_time":221000000000,"state":"active","ping":60},{"user_id":33,"name":"Onymy.","steam_id":76561198171048015,"connected_time":1830000000000,"state":"active","ping":64},{"user_id":69,"name":"Phantom","steam_id":76561199200400404,"connected_time":510000000000,"state":"active","ping":116},{"user_id":65,"name":"Neacrock","steam_id":76561199178338856,"connected_time":556000000000,"state":"active","ping":79},{"user_id":46,"name":"Cyclops_672","steam_id":76561198080169497,"connected_time":1672000000000,"state":"active","ping":51},{"user_id":60,"name":"UFQ NARRATIVE","steam_id":76561197995211570,"connected_time":840000000000,"state":"active","ping":74},{"user_id":47,"name":"doishe","steam_id":76561198068190834,"connected_time":1663000000000,"state":"active","ping":105},{"user_id":48,"name":"SCATTER","steam_id":76561198405168492,"connected_time":1655000000000,"state":"active","ping":86},{"user_id":59,"name":"pinhead allegations","steam_id":76561198169219561,"connected_time":1014000000000,"state":"active","ping":90},{"user_id":74,"name":"Rick Assley","steam_id":76561198365019199,"connected_time":143000000000,"state":"active","ping":67},{"user_id":66,"name":"Der Krieger105","steam_id":76561197978384609,"connected_time":553000000000,"state":"active","ping":86},{"user_id":67,"name":"BurnN8or101","steam_id":76561198132668224,"connected_time":544000000000,"state":"active","ping":70},{"user_id":71,"name":"Gadget","steam_id":76561198097755258,"connected_time":480000000000,"state":"active","ping":88},{"user_id":39,"name":"Pizza sheriff","steam_id":76561198162829889,"connected_time":1746000000000,"state":"active","ping":63},{"user_id":72,"name":"lynt","steam_id":76561198988333976,"connected_time":280000000000,"state":"active","ping":65}]},{"server_id":403,"name":"Uncletopia | Chicago | 4 | All Maps","name_short":"chi-4","host":"chi-1.us.uncletopia.com","port":27045,"enabled":true,"region":"us-central","cc":"us","latitude":41.881832,"longitude":-87.62318,"reserved":0,"last_update":"0001-01-01T00:00:00Z","name_a2s":"Uncletopia | Chicago | 4 | All Maps","protocol":17,"map":"koth_cascade","folder":"tf","game":"Team Fortress","app_id":440,"player_count":0,"max_players":24,"Bots":0,"server_type":"Dedicated","server_os":"Linux","password":true,"vac":true,"version":"7961495","steam_id":85568392924515193,"keywords":["cp","nocrits","nodmgspread","uncletopia"],"game_id":440,"stv_port":27046,"stv_name":"Uncletopia | Chicago | 4 | All Maps | STV","players":null},{"server_id":36,"name":"Uncletopia | Chicago | 5 | All Maps","name_short":"chi-5","host":"chi-2.us.uncletopia.com","port":27015,"enabled":true,"region":"us-central","cc":"us","latitude":41.881832,"longitude":-87.62318,"reserved":0,"last_update":"0001-01-01T00:00:00Z","name_a2s":"Uncletopia | Chicago | 5 | All Maps","protocol":17,"map":"koth_viaduct","folder":"tf","game":"Team Fortress","app_id":440,"player_count":0,"max_players":24,"Bots":0,"server_type":"Dedicated","server_os":"Linux","password":true,"vac":true,"version":"7961495","steam_id":85568392924866362,"keywords":["cp","nocrits","nodmgspread","uncletopia"],"game_id":440,"stv_port":27016,"stv_name":"Uncletopia | Chicago | 5 | All Maps | STV","players":null},{"server_id":37,"name":"Uncletopia | Chicago | 6 | All Maps","name_short":"chi-6","host":"chi-2.us.uncletopia.com","port":27025,"enabled":true,"region":"us-central","cc":"us","latitude":41.881832,"longitude":-87.62318,"reserved":0,"last_update":"0001-01-01T00:00:00Z","name_a2s":"Uncletopia | Chicago | 6 | All Maps","protocol":17,"map":"pl_upward","folder":"tf","game":"Team Fortress","app_id":440,"player_count":0,"max_players":24,"Bots":0,"server_type":"Dedicated","server_os":"Linux","password":true,"vac":true,"version":"7961495","steam_id":85568392924866363,"keywords":["nocrits","nodmgspread","payload","uncletopia"],"game_id":440,"stv_port":27026,"stv_name":"Uncletopia | Chicago | 6 | All Maps | STV","players":null},{"server_id":38,"name":"Uncletopia | Chicago | 7 | Stopwatch","name_short":"chi-7","host":"chi-2.us.uncletopia.com","port":27035,"enabled":true,"region":"us-central","cc":"us","latitude":41.881832,"longitude":-87.62318,"reserved":0,"last_update":"0001-01-01T00:00:00Z","name_a2s":"Uncletopia | Chicago | 7 | Stopwatch","protocol":17,"map":"cp_granary","folder":"tf","game":"Team Fortress","app_id":440,"player_count":0,"max_players":24,"Bots":0,"server_type":"Dedicated","server_os":"Linux","password":true,"vac":true,"version":"7961495","steam_id":85568392924866364,"keywords":["cp","nocrits","nodmgspread","uncletopia"],"game_id":440,"stv_port":27036,"stv_name":"Uncletopia | Chicago | 7 | Stopwatch | STV","players":null},{"server_id":39,"name":"Uncletopia | Chicago | 8 | Community","name_short":"chi-8","host":"chi-2.us.uncletopia.com","port":27045,"enabled":true,"region":"us-central","cc":"us","latitude":41.881832,"longitude":-87.62318,"reserved":0,"last_update":"0001-01-01T00:00:00Z","name_a2s":"Uncletopia | Chicago | 8 | Community","protocol":17,"map":"pl_pier","folder":"tf","game":"Team Fortress","app_id":440,"player_count":0,"max_players":24,"Bots":0,"server_type":"Dedicated","server_os":"Linux","password":true,"vac":true,"version":"7961495","steam_id":85568392924866365,"keywords":["nocrits","nodmgspread","payload","uncletopia"],"game_id":440,"stv_port":27046,"stv_name":"Uncletopia | Chicago | 8 | Community | STV","players":null},{"server_id":8,"name":"Uncletopia | Dallas | 1 | All Maps","name_short":"dal-1","host":"dal-1.us.uncletopia.com","port":27015,"enabled":true,"region":"us-central","cc":"us","latitude":32.779167,"longitude":-96.80889,"reserved":0,"last_update":"0001-01-01T00:00:00Z","name_a2s":"Uncletopia | Dallas | 1 | All Maps","protocol":17,"map":"pl_barnblitz","folder":"tf","game":"Team Fortress","app_id":440,"player_count":0,"max_players":24,"Bots":0,"server_type":"Dedicated","server_os":"Linux","password":true,"vac":true,"version":"7961495","steam_id":85568392924469986,"keywords":["nocrits","nodmgspread","payload","uncletopia"],"game_id":440,"stv_port":27016,"stv_name":"Uncletopia | Dallas | 1 | All Maps | STV","players":null},{"server_id":108,"name":"Uncletopia | Dallas | 2 | All Maps","name_short":"dal-2","host":"dal-1.us.uncletopia.com","port":27025,"enabled":true,"region":"us-central","cc":"us","latitude":32.779167,"longitude":-96.80889,"reserved":0,"last_update":"0001-01-01T00:00:00Z","name_a2s":"Uncletopia | Dallas | 2 | All Maps","protocol":17,"map":"cp_gorge","folder":"tf","game":"Team Fortress","app_id":440,"player_count":24,"max_players":24,"Bots":0,"server_type":"Dedicated","server_os":"Linux","password":true,"vac":true,"version":"7961495","steam_id":85568392924469988,"keywords":["cp","nocrits","nodmgspread","uncletopia"],"game_id":440,"stv_port":27026,"stv_name":"Uncletopia | Dallas | 2 | All Maps | STV","players":[{"user_id":182,"name":"DRACO$","steam_id":76561198389198223,"connected_time":733000000000,"state":"active","ping":91},{"user_id":162,"name":"Bully Maguire","steam_id":76561199081621029,"connected_time":1974000000000,"state":"active","ping":71},{"user_id":159,"name":"BatMatt","steam_id":76561198045910433,"connected_time":1992000000000,"state":"active","ping":45},{"user_id":147,"name":"mattazzzar","steam_id":76561198063068990,"connected_time":2925000000000,"state":"active","ping":103},{"user_id":185,"name":"Valenhart","steam_id":76561198354036240,"connected_time":325000000000,"state":"active","ping":75},{"user_id":181,"name":"Ch4rl33","steam_id":76561198037008621,"connected_time":805000000000,"state":"active","ping":74},{"user_id":149,"name":"Alkimia","steam_id":76561198385763137,"connected_time":2866000000000,"state":"active","ping":115},{"user_id":119,"name":"Big Cat","steam_id":76561198115695203,"connected_time":4119000000000,"state":"active","ping":59},{"user_id":188,"name":"Failed normie","steam_id":76561199073554054,"connected_time":302000000000,"state":"active","ping":98},{"user_id":120,"name":"Ping","steam_id":76561199206514106,"connected_time":4046000000000,"state":"active","ping":75},{"user_id":190,"name":"Astrocircuit","steam_id":76561198014437544,"connected_time":218000000000,"state":"active","ping":82},{"user_id":189,"name":"Nekoma","steam_id":76561198115044116,"connected_time":265000000000,"state":"active","ping":177},{"user_id":191,"name":"who is gavin?","steam_id":76561198069415057,"connected_time":214000000000,"state":"active","ping":79},{"user_id":171,"name":"Sweet Tooth","steam_id":76561198830158092,"connected_time":1695000000000,"state":"active","ping":82},{"user_id":192,"name":"Jaflampe","steam_id":76561198175827647,"connected_time":203000000000,"state":"active","ping":63},{"user_id":167,"name":"SoCal Kaizer","steam_id":76561198334361081,"connected_time":1842000000000,"state":"active","ping":108},{"user_id":175,"name":"Kamin","steam_id":76561198255299559,"connected_time":1479000000000,"state":"active","ping":72},{"user_id":138,"name":"lukiss","steam_id":76561199134999203,"connected_time":3306000000000,"state":"active","ping":81},{"user_id":118,"name":"El Bondin","steam_id":76561198820792434,"connected_time":4353000000000,"state":"active","ping":120},{"user_id":193,"name":"Almonicus","steam_id":76561198044401351,"connected_time":154000000000,"state":"active","ping":82},{"user_id":194,"name":"blackkwater","steam_id":76561198105923697,"connected_time":152000000000,"state":"active","ping":76},{"user_id":153,"name":"Lysander Crow","steam_id":76561198214659356,"connected_time":2635000000000,"state":"active","ping":77},{"user_id":168,"name":"green bean","steam_id":76561198113099204,"connected_time":1831000000000,"state":"active","ping":73},{"user_id":195,"name":"RPGnoob","steam_id":76561198384913758,"connected_time":143000000000,"state":"active","ping":55}]},{"server_id":404,"name":"Uncletopia | Dallas | 3 | All Maps","name_short":"dal-3","host":"dal-1.us.uncletopia.com","port":27035,"enabled":true,"region":"us-central","cc":"us","latitude":32.779167,"longitude":-96.80889,"reserved":0,"last_update":"0001-01-01T00:00:00Z","name_a2s":"Uncletopia | Dallas | 3 | All Maps","protocol":17,"map":"pl_borneo","folder":"tf","game":"Team Fortress","app_id":440,"player_count":0,"max_players":24,"Bots":0,"server_type":"Dedicated","server_os":"Linux","password":true,"vac":true,"version":"7961495","steam_id":85568392924515219,"keywords":["nocrits","nodmgspread","payload","uncletopia"],"game_id":440,"stv_port":27036,"stv_name":"Uncletopia | Dallas | 3 | All Maps | STV","players":null},{"server_id":405,"name":"Uncletopia | Dallas | 4 | Community","name_short":"dal-4","host":"dal-1.us.uncletopia.com","port":27045,"enabled":true,"region":"us-central","cc":"us","latitude":32.779167,"longitude":-96.80889,"reserved":0,"last_update":"0001-01-01T00:00:00Z","name_a2s":"Uncletopia | Dallas | 4 | Community","protocol":17,"map":"pl_pier","folder":"tf","game":"Team Fortress","app_id":440,"player_count":0,"max_players":24,"Bots":0,"server_type":"Dedicated","server_os":"Linux","password":true,"vac":true,"version":"7961495","steam_id":85568392924515220,"keywords":["nocrits","nodmgspread","payload","uncletopia"],"game_id":440,"stv_port":27046,"stv_name":"Uncletopia | Dallas | 4 | Community | STV","players":null},{"server_id":5,"name":"Uncletopia | Frankfurt | 1 | All Maps","name_short":"frk-1","host":"frk-1.de.uncletopia.com","port":27015,"enabled":true,"region":"eu","cc":"de","latitude":50.110924,"longitude":8.682127,"reserved":0,"last_update":"0001-01-01T00:00:00Z","name_a2s":"Uncletopia | Frankfurt | 1 | All Maps","protocol":17,"map":"cp_egypt_final","folder":"tf","game":"Team Fortress","app_id":440,"player_count":24,"max_players":24,"Bots":0,"server_type":"Dedicated","server_os":"Linux","password":true,"vac":true,"version":"7961495","steam_id":85568392924469989,"keywords":["cp","nocrits","nodmgspread","uncletopia"],"game_id":440,"stv_port":27016,"stv_name":"Uncletopia | Frankfurt | 1 | All Maps | STV","players":[{"user_id":264,"name":"Grillem Dafoe","steam_id":76561198306874574,"connected_time":6631000000000,"state":"active","ping":78},{"user_id":338,"name":"LynVingen","steam_id":76561198284733687,"connected_time":1793000000000,"state":"active","ping":76},{"user_id":341,"name":"JohnTraveltime","steam_id":76561199244281754,"connected_time":1442000000000,"state":"active","ping":69},{"user_id":329,"name":"coffee","steam_id":76561198382387303,"connected_time":2298000000000,"state":"active","ping":84},{"user_id":302,"name":"KrAk3rs","steam_id":76561198298179344,"connected_time":4477000000000,"state":"active","ping":64},{"user_id":334,"name":"Towercat","steam_id":76561198013141793,"connected_time":2077000000000,"state":"active","ping":56},{"user_id":342,"name":"THE SPIRIT","steam_id":76561198170744597,"connected_time":1436000000000,"state":"active","ping":54},{"user_id":353,"name":"God's Goofiest Goober","steam_id":76561198103175187,"connected_time":972000000000,"state":"active","ping":58},{"user_id":266,"name":"NitPig","steam_id":76561198212991935,"connected_time":6583000000000,"state":"active","ping":109},{"user_id":349,"name":"Nicopico","steam_id":76561198080371321,"connected_time":1103000000000,"state":"active","ping":144},{"user_id":314,"name":"pyromaniac","steam_id":76561198292781255,"connected_time":3285000000000,"state":"active","ping":79},{"user_id":315,"name":"Vinn0","steam_id":76561198987241284,"connected_time":3261000000000,"state":"active","ping":52},{"user_id":327,"name":"nyanezt","steam_id":76561198253734265,"connected_time":2347000000000,"state":"active","ping":82},{"user_id":300,"name":"Organic Donut","steam_id":76561199119121016,"connected_time":4835000000000,"state":"active","ping":72},{"user_id":357,"name":"roman","steam_id":76561198047704729,"connected_time":415000000000,"state":"active","ping":40},{"user_id":297,"name":"Säyu","steam_id":76561199275368237,"connected_time":5120000000000,"state":"active","ping":86},{"user_id":358,"name":"simeswipe","steam_id":76561198188471097,"connected_time":126000000000,"state":"active","ping":74},{"user_id":350,"name":"Toasty5050","steam_id":76561198073540881,"connected_time":1081000000000,"state":"active","ping":46},{"user_id":351,"name":"Rimx","steam_id":76561198053034840,"connected_time":1077000000000,"state":"active","ping":90},{"user_id":333,"name":"Pighead_08","steam_id":76561199060466647,"connected_time":2125000000000,"state":"active","ping":101},{"user_id":355,"name":"DrZerg","steam_id":76561198071810495,"connected_time":791000000000,"state":"active","ping":72},{"user_id":354,"name":"PENGUN","steam_id":76561199015156956,"connected_time":961000000000,"state":"active","ping":94},{"user_id":339,"name":"golfmastr","steam_id":76561198993144124,"connected_time":1696000000000,"state":"active","ping":71},{"user_id":356,"name":"SUZY","steam_id":76561198004734774,"connected_time":723000000000,"state":"active","ping":54}]},{"server_id":110,"name":"Uncletopia | Frankfurt | 2 | All Maps","name_short":"frk-2","host":"frk-1.de.uncletopia.com","port":27025,"enabled":true,"region":"eu","cc":"de","latitude":50.110924,"longitude":8.682127,"reserved":0,"last_update":"0001-01-01T00:00:00Z","name_a2s":"Uncletopia | Frankfurt | 2 | All Maps","protocol":17,"map":"pl_badwater","folder":"tf","game":"Team Fortress","app_id":440,"player_count":24,"max_players":24,"Bots":0,"server_type":"Dedicated","server_os":"Linux","password":true,"vac":true,"version":"7961495","steam_id":85568392924469990,"keywords":["nocrits","nodmgspread","payload","uncletopia"],"game_id":440,"stv_port":27026,"stv_name":"Uncletopia | Frankfurt | 2 | All Maps | STV","players":[{"user_id":306,"name":"Yonio","steam_id":76561198408428132,"connected_time":2468000000000,"state":"active","ping":73},{"user_id":330,"name":"burgz","steam_id":76561198109955787,"connected_time":1400000000000,"state":"active","ping":55},{"user_id":319,"name":"SirClyan","steam_id":76561199196651938,"connected_time":1743000000000,"state":"active","ping":78},{"user_id":332,"name":"Swift","steam_id":76561197998799889,"connected_time":1360000000000,"state":"active","ping":53},{"user_id":350,"name":"Pestilence","steam_id":76561198140938904,"connected_time":109000000000,"state":"active","ping":69},{"user_id":328,"name":"please do not the cat","steam_id":76561198089003514,"connected_time":1465000000000,"state":"active","ping":43},{"user_id":112,"name":"Gaxkang","steam_id":76561198125768571,"connected_time":15422000000000,"state":"active","ping":69},{"user_id":344,"name":"Adam","steam_id":76561198083655265,"connected_time":582000000000,"state":"active","ping":63},{"user_id":334,"name":"spik","steam_id":76561198343328308,"connected_time":1332000000000,"state":"active","ping":46},{"user_id":292,"name":"Egor Pomidor","steam_id":76561199175688390,"connected_time":4145000000000,"state":"active","ping":75},{"user_id":335,"name":"꧁༒Xenon༒꧂","steam_id":76561198120502313,"connected_time":1326000000000,"state":"active","ping":61},{"user_id":303,"name":"Arsonist","steam_id":76561199087953833,"connected_time":2784000000000,"state":"active","ping":99},{"user_id":302,"name":"Conan","steam_id":76561198158321202,"connected_time":2795000000000,"state":"active","ping":59},{"user_id":336,"name":"Keroz1n","steam_id":76561197998681491,"connected_time":1311000000000,"state":"active","ping":60},{"user_id":310,"name":"Mr Lemon","steam_id":76561198054685254,"connected_time":2329000000000,"state":"active","ping":72},{"user_id":345,"name":"hipster_doofus","steam_id":76561197970902697,"connected_time":539000000000,"state":"active","ping":71},{"user_id":313,"name":"fdcsfdsfdwdf","steam_id":76561198080496833,"connected_time":2263000000000,"state":"active","ping":88},{"user_id":341,"name":"Unreliable, funny and dangerous","steam_id":76561198050709790,"connected_time":1062000000000,"state":"active","ping":99},{"user_id":348,"name":"NALA","steam_id":76561198039806469,"connected_time":238000000000,"state":"active","ping":66},{"user_id":316,"name":"Spectral Sloth","steam_id":76561198170083139,"connected_time":2105000000000,"state":"active","ping":81},{"user_id":338,"name":"Hurans","steam_id":76561198064853199,"connected_time":1261000000000,"state":"active","ping":56},{"user_id":304,"name":"OlleBruce","steam_id":76561199166000670,"connected_time":2753000000000,"state":"active","ping":69},{"user_id":343,"name":"Ragnar_Tapie_13","steam_id":76561199238301031,"connected_time":594000000000,"state":"active","ping":100},{"user_id":351,"name":"Shiko","steam_id":76561198276524484,"connected_time":90000000000,"state":"active","ping":102}]},{"server_id":308,"name":"Uncletopia | Frankfurt | 3 | All Maps","name_short":"frk-3","host":"frk-1.de.uncletopia.com","port":27035,"enabled":true,"region":"eu","cc":"de","latitude":50.110924,"longitude":8.682127,"reserved":0,"last_update":"0001-01-01T00:00:00Z","name_a2s":"Uncletopia | Frankfurt | 3 | All Maps","protocol":17,"map":"pl_frontier_final","folder":"tf","game":"Team Fortress","app_id":440,"player_count":24,"max_players":24,"Bots":0,"server_type":"Dedicated","server_os":"Linux","password":true,"vac":true,"version":"7961495","steam_id":85568392924504274,"keywords":["nocrits","nodmgspread","payload","uncletopia"],"game_id":440,"stv_port":27036,"stv_name":"Uncletopia | Frankfurt | 3 | All Maps | STV","players":[{"user_id":326,"name":"Hexagon","steam_id":76561198151205758,"connected_time":4120000000000,"state":"active","ping":49},{"user_id":351,"name":"4","steam_id":76561197964945192,"connected_time":1455000000000,"state":"active","ping":46},{"user_id":255,"name":"SalCrabber deluxe","steam_id":76561198275942961,"connected_time":8780000000000,"state":"active","ping":44},{"user_id":358,"name":"Zelax","steam_id":76561198143948255,"connected_time":866000000000,"state":"active","ping":59},{"user_id":352,"name":"Skipper","steam_id":76561198156847466,"connected_time":1146000000000,"state":"active","ping":55},{"user_id":328,"name":"Nick","steam_id":76561198036109469,"connected_time":4061000000000,"state":"active","ping":90},{"user_id":318,"name":"Mau","steam_id":76561198410945277,"connected_time":4753000000000,"state":"active","ping":118},{"user_id":284,"name":"rhm","steam_id":76561199438126261,"connected_time":6994000000000,"state":"active","ping":88},{"user_id":314,"name":"Gator","steam_id":76561198065624683,"connected_time":4822000000000,"state":"active","ping":89},{"user_id":362,"name":"if looks could kill","steam_id":76561198870286073,"connected_time":32000000000,"state":"active","ping":61},{"user_id":359,"name":"Dream","steam_id":76561198802024369,"connected_time":722000000000,"state":"active","ping":51},{"user_id":345,"name":"cet","steam_id":76561198826005248,"connected_time":2235000000000,"state":"active","ping":62},{"user_id":356,"name":"Xeno","steam_id":76561198975556646,"connected_time":997000000000,"state":"active","ping":46},{"user_id":332,"name":"b","steam_id":76561198200529559,"connected_time":3282000000000,"state":"active","ping":86},{"user_id":323,"name":"SoaCrow","steam_id":76561198069420717,"connected_time":4568000000000,"state":"active","ping":74},{"user_id":360,"name":"KAngel","steam_id":76561198060307235,"connected_time":616000000000,"state":"active","ping":64},{"user_id":341,"name":"EricToGo","steam_id":76561198068019642,"connected_time":2560000000000,"state":"active","ping":55},{"user_id":355,"name":"faccboi","steam_id":76561198137816642,"connected_time":1074000000000,"state":"active","ping":59},{"user_id":321,"name":"Mr. Mundy","steam_id":76561198132008918,"connected_time":4622000000000,"state":"active","ping":76},{"user_id":337,"name":"snsmac","steam_id":76561198082821185,"connected_time":3003000000000,"state":"active","ping":51},{"user_id":354,"name":"giacomellow","steam_id":76561197994027661,"connected_time":1134000000000,"state":"active","ping":73},{"user_id":347,"name":"Storm's Foreshadow","steam_id":76561198098462526,"connected_time":2189000000000,"state":"active","ping":65},{"user_id":280,"name":"yuck","steam_id":76561197987249568,"connected_time":7040000000000,"state":"active","ping":90},{"user_id":357,"name":"Qatuk","steam_id":76561198857696199,"connected_time":982000000000,"state":"active","ping":59}]},{"server_id":309,"name":"Uncletopia | Frankfurt | 4 | All Maps","name_short":"frk-4","host":"frk-1.de.uncletopia.com","port":27045,"enabled":true,"region":"eu","cc":"de","latitude":50.110924,"longitude":8.682127,"reserved":0,"last_update":"0001-01-01T00:00:00Z","name_a2s":"Uncletopia | Frankfurt | 4 | All Maps","protocol":17,"map":"pl_snowycoast","folder":"tf","game":"Team Fortress","app_id":440,"player_count":24,"max_players":24,"Bots":0,"server_type":"Dedicated","server_os":"Linux","password":true,"vac":true,"version":"7961495","steam_id":85568392924504275,"keywords":["nocrits","nodmgspread","payload","uncletopia"],"game_id":440,"stv_port":27046,"stv_name":"Uncletopia | Frankfurt | 4 | All Maps | STV","players":[{"user_id":397,"name":"Kestrel","steam_id":76561198144033005,"connected_time":1210000000000,"state":"active","ping":60},{"user_id":383,"name":"Sham!","steam_id":76561198050434275,"connected_time":2859000000000,"state":"active","ping":52},{"user_id":394,"name":"Seiko Lili","steam_id":76561199097542270,"connected_time":1672000000000,"state":"active","ping":70},{"user_id":404,"name":"Piikov","steam_id":76561198142941074,"connected_time":267000000000,"state":"active","ping":61},{"user_id":398,"name":"Twik","steam_id":76561198023835056,"connected_time":1205000000000,"state":"active","ping":50},{"user_id":350,"name":"Marukuso","steam_id":76561198154229845,"connected_time":5703000000000,"state":"active","ping":70},{"user_id":332,"name":"President013","steam_id":76561198107233527,"connected_time":7081000000000,"state":"active","ping":84},{"user_id":408,"name":"begging for frags","steam_id":76561198044210844,"connected_time":41000000000,"state":"active","ping":63},{"user_id":375,"name":"Play slowly, pls","steam_id":76561198006463587,"connected_time":3197000000000,"state":"active","ping":143},{"user_id":357,"name":"torn","steam_id":76561198223003236,"connected_time":5082000000000,"state":"active","ping":48},{"user_id":390,"name":"Xydran","steam_id":76561198042397402,"connected_time":2291000000000,"state":"active","ping":60},{"user_id":401,"name":"Zonts","steam_id":76561198850176432,"connected_time":364000000000,"state":"active","ping":75},{"user_id":349,"name":"El_Kommadante","steam_id":76561198079551685,"connected_time":5863000000000,"state":"active","ping":71},{"user_id":379,"name":"Froenzi","steam_id":76561198168841723,"connected_time":2921000000000,"state":"active","ping":70},{"user_id":352,"name":"Gurgula","steam_id":76561198021253678,"connected_time":5287000000000,"state":"active","ping":62},{"user_id":374,"name":"Ellipsis","steam_id":76561198236630276,"connected_time":3283000000000,"state":"active","ping":57},{"user_id":360,"name":"Rei Ayanami","steam_id":76561198405980575,"connected_time":4344000000000,"state":"active","ping":63},{"user_id":405,"name":"SuperBob103","steam_id":76561199175360012,"connected_time":157000000000,"state":"active","ping":74},{"user_id":391,"name":"gosi","steam_id":76561198084111532,"connected_time":1951000000000,"state":"active","ping":53},{"user_id":399,"name":"[ITA]Stioppen","steam_id":76561198177658715,"connected_time":1176000000000,"state":"active","ping":83},{"user_id":355,"name":"waffle toaster","steam_id":76561198799089628,"connected_time":5269000000000,"state":"active","ping":58},{"user_id":406,"name":"󠀡󠀡","steam_id":76561198059375315,"connected_time":128000000000,"state":"active","ping":57},{"user_id":402,"name":"Kuru","steam_id":76561199075584453,"connected_time":361000000000,"state":"active","ping":101},{"user_id":386,"name":"Gabys","steam_id":76561198282892553,"connected_time":2656000000000,"state":"active","ping":73}]},{"server_id":310,"name":"Uncletopia | Frankfurt | 5 | All Maps","name_short":"frk-5","host":"frk-1.de.uncletopia.com","port":27055,"enabled":true,"region":"eu","cc":"de","latitude":50.110924,"longitude":8.682127,"reserved":0,"last_update":"0001-01-01T00:00:00Z","name_a2s":"Uncletopia | Frankfurt | 5 | All Maps","protocol":17,"map":"pl_barnblitz","folder":"tf","game":"Team Fortress","app_id":440,"player_count":24,"max_players":24,"Bots":0,"server_type":"Dedicated","server_os":"Linux","password":true,"vac":true,"version":"7961495","steam_id":85568392924504277,"keywords":["nocrits","nodmgspread","payload","uncletopia"],"game_id":440,"stv_port":27056,"stv_name":"Uncletopia | Frankfurt | 5 | All Maps | STV","players":[{"user_id":245,"name":"Spinya","steam_id":76561198086653667,"connected_time":13548000000000,"state":"active","ping":62},{"user_id":442,"name":"warforge3","steam_id":76561199276024310,"connected_time":953000000000,"state":"active","ping":101},{"user_id":457,"name":"JimBowBlade","steam_id":76561198018620946,"connected_time":111000000000,"state":"active","ping":66},{"user_id":246,"name":"DudeoftheRock","steam_id":76561198059401865,"connected_time":13542000000000,"state":"active","ping":62},{"user_id":441,"name":"TrippyPerson","steam_id":76561198805044643,"connected_time":1065000000000,"state":"active","ping":74},{"user_id":444,"name":"svepitos","steam_id":76561198287351235,"connected_time":897000000000,"state":"active","ping":69},{"user_id":422,"name":"Hopper","steam_id":76561198842778221,"connected_time":1755000000000,"state":"active","ping":84},{"user_id":379,"name":"MrChester","steam_id":76561199213192992,"connected_time":4568000000000,"state":"active","ping":77},{"user_id":425,"name":"[Mhkek]Simply Doc.","steam_id":76561198036010003,"connected_time":1631000000000,"state":"active","ping":85},{"user_id":456,"name":"Finnish Farmer","steam_id":76561198205366043,"connected_time":270000000000,"state":"active","ping":84},{"user_id":445,"name":"muhammad sumbul","steam_id":76561198175613166,"connected_time":891000000000,"state":"active","ping":93},{"user_id":446,"name":"Average Chinese Man","steam_id":76561199076883472,"connected_time":866000000000,"state":"active","ping":73},{"user_id":450,"name":"Very Original Name","steam_id":76561199159833013,"connected_time":709000000000,"state":"active","ping":120},{"user_id":452,"name":"Kurt Beyber","steam_id":76561198047207247,"connected_time":517000000000,"state":"active","ping":59},{"user_id":438,"name":"Mr Season","steam_id":76561198014005263,"connected_time":1099000000000,"state":"active","ping":95},{"user_id":394,"name":"tyroksi :D","steam_id":76561198103875245,"connected_time":4189000000000,"state":"active","ping":101},{"user_id":451,"name":"Rusty","steam_id":76561198155999760,"connected_time":601000000000,"state":"active","ping":62},{"user_id":454,"name":"Chromatic","steam_id":76561198355976286,"connected_time":467000000000,"state":"active","ping":75},{"user_id":432,"name":"Mugz_","steam_id":76561198959101479,"connected_time":1540000000000,"state":"active","ping":79},{"user_id":409,"name":"Ash","steam_id":76561198272001890,"connected_time":2938000000000,"state":"active","ping":67},{"user_id":448,"name":"jeiner","steam_id":76561198170939887,"connected_time":812000000000,"state":"active","ping":58},{"user_id":412,"name":"Penis Contortionist","steam_id":76561198073663784,"connected_time":2761000000000,"state":"active","ping":51},{"user_id":449,"name":"underTaker","steam_id":76561198000948648,"connected_time":776000000000,"state":"active","ping":76},{"user_id":455,"name":"Five Finger Discount","steam_id":76561197994556857,"connected_time":466000000000,"state":"active","ping":61}]},{"server_id":311,"name":"Uncletopia | Frankfurt | 6 | All Maps","name_short":"frk-6","host":"frk-1.de.uncletopia.com","port":27065,"enabled":true,"region":"eu","cc":"de","latitude":50.110924,"longitude":8.682127,"reserved":0,"last_update":"0001-01-01T00:00:00Z","name_a2s":"Uncletopia | Frankfurt | 6 | All Maps","protocol":17,"map":"koth_cascade","folder":"tf","game":"Team Fortress","app_id":440,"player_count":11,"max_players":24,"Bots":0,"server_type":"Dedicated","server_os":"Linux","password":true,"vac":true,"version":"7961495","steam_id":85568392924504278,"keywords":["cp","nocrits","nodmgspread","uncletopia"],"game_id":440,"stv_port":27066,"stv_name":"Uncletopia | Frankfurt | 6 | All Maps | STV","players":[{"user_id":323,"name":"Wolfie420","steam_id":76561198451438964,"connected_time":643000000000,"state":"active","ping":76},{"user_id":328,"name":"Nobaddy","steam_id":76561198037871007,"connected_time":219000000000,"state":"active","ping":86},{"user_id":312,"name":"Oligamer3690","steam_id":76561198827869629,"connected_time":1359000000000,"state":"active","ping":68},{"user_id":313,"name":"Von Leining","steam_id":76561198859983504,"connected_time":1295000000000,"state":"active","ping":43},{"user_id":314,"name":"Gul'dan","steam_id":76561198240466940,"connected_time":1228000000000,"state":"active","ping":75},{"user_id":315,"name":"SpaceWalker1231","steam_id":76561198300664785,"connected_time":1055000000000,"state":"active","ping":67},{"user_id":327,"name":"diarrea inoculada 2000","steam_id":76561198412197820,"connected_time":339000000000,"state":"active","ping":84},{"user_id":318,"name":"Faxter","steam_id":76561198011771605,"connected_time":931000000000,"state":"active","ping":59},{"user_id":333,"name":"D1n0Master","steam_id":76561198242499784,"connected_time":12000000000,"state":"spawning","ping":89},{"user_id":322,"name":"Koko","steam_id":76561198160358848,"connected_time":758000000000,"state":"active","ping":45},{"user_id":326,"name":"jstdnl","steam_id":76561198905582280,"connected_time":538000000000,"state":"active","ping":75}]},{"server_id":23,"name":"Uncletopia | Frankfurt | 7 | Stopwatch","name_short":"frk-7","host":"frk-1.de.uncletopia.com","port":27075,"enabled":true,"region":"eu","cc":"de","latitude":50.110924,"longitude":8.682127,"reserved":0,"last_update":"0001-01-01T00:00:00Z","name_a2s":"Uncletopia | Frankfurt | 7 | Stopwatch","protocol":17,"map":"workshop/koth_ashville_final.ugc2130459942","folder":"tf","game":"Team Fortress","app_id":440,"player_count":0,"max_players":24,"Bots":0,"server_type":"Dedicated","server_os":"Linux","password":true,"vac":true,"version":"7961495","steam_id":85568392924742827,"keywords":["cp","nocrits","nodmgspread","uncletopia"],"game_id":440,"stv_port":27076,"stv_name":"Uncletopia | Frankfurt | 7 | Stopwatch | STV","players":null},{"server_id":24,"name":"Uncletopia | Frankfurt | 8 | Community","name_short":"frk-8","host":"frk-1.de.uncletopia.com","port":27085,"enabled":true,"region":"eu","cc":"de","latitude":50.110924,"longitude":8.682127,"reserved":0,"last_update":"0001-01-01T00:00:00Z","name_a2s":"Uncletopia | Frankfurt | 8 | Community","protocol":17,"map":"workshop/koth_trenchfoot_ab1.ugc731436616","folder":"tf","game":"Team Fortress","app_id":440,"player_count":0,"max_players":24,"Bots":0,"server_type":"Dedicated","server_os":"Linux","password":true,"vac":true,"version":"7961495","steam_id":85568392924742828,"keywords":["cp","nocrits","nodmgspread","uncletopia"],"game_id":440,"stv_port":27086,"stv_name":"Uncletopia | Frankfurt | 8 | Community | STV","players":null},{"server_id":202,"name":"Uncletopia | Hong Kong | 1 | All Maps","name_short":"hgk-1","host":"hgk-1.hk.uncletopia.com","port":27015,"enabled":true,"region":"asia","cc":"hk","latitude":22.302711,"longitude":114.177216,"reserved":0,"last_update":"0001-01-01T00:00:00Z","name_a2s":"Uncletopia | Hong Kong | 1 | All Maps","protocol":17,"map":"pl_upward","folder":"tf","game":"Team Fortress","app_id":440,"player_count":0,"max_players":24,"Bots":0,"server_type":"Dedicated","server_os":"Linux","password":true,"vac":true,"version":"7961495","steam_id":85568392924494504,"keywords":["nocrits","nodmgspread","payload","uncletopia"],"game_id":440,"stv_port":27016,"stv_name":"Uncletopia | Hong Kong | 1 | All Maps | STV","players":null},{"server_id":1,"name":"Uncletopia | Los Angeles | 1 | All Maps","name_short":"lax-1","host":"lax-1.us.uncletopia.com","port":27015,"enabled":true,"region":"us-west","cc":"us","latitude":33.94279,"longitude":-118.41004,"reserved":0,"last_update":"0001-01-01T00:00:00Z","name_a2s":"Uncletopia | Los Angeles | 1 | All Maps","protocol":17,"map":"pl_borneo","folder":"tf","game":"Team Fortress","app_id":440,"player_count":0,"max_players":24,"Bots":0,"server_type":"Dedicated","server_os":"Linux","password":true,"vac":true,"version":"7961495","steam_id":85568392924469991,"keywords":["nocrits","nodmgspread","payload","uncletopia"],"game_id":440,"stv_port":27016,"stv_name":"Uncletopia | Los Angeles | 1 | All Maps | STV","players":null},{"server_id":112,"name":"Uncletopia | Los Angeles | 2 | All Maps","name_short":"lax-2","host":"lax-1.us.uncletopia.com","port":27025,"enabled":true,"region":"us-west","cc":"us","latitude":33.94279,"longitude":-118.41004,"reserved":0,"last_update":"0001-01-01T00:00:00Z","name_a2s":"Uncletopia | Los Angeles | 2 | All Maps","protocol":17,"map":"cp_mountainlab","folder":"tf","game":"Team Fortress","app_id":440,"player_count":0,"max_players":24,"Bots":0,"server_type":"Dedicated","server_os":"Linux","password":true,"vac":true,"version":"7961495","steam_id":85568392924469992,"keywords":["cp","nocrits","nodmgspread","uncletopia"],"game_id":440,"stv_port":27026,"stv_name":"Uncletopia | Los Angeles | 2 | All Maps | STV","players":null},{"server_id":324,"name":"Uncletopia | Los Angeles | 3 | All Maps","name_short":"lax-3","host":"lax-1.us.uncletopia.com","port":27035,"enabled":true,"region":"us-west","cc":"us","latitude":33.94279,"longitude":-118.41004,"reserved":0,"last_update":"0001-01-01T00:00:00Z","name_a2s":"Uncletopia | Los Angeles | 3 | All Maps","protocol":17,"map":"pl_frontier_final","folder":"tf","game":"Team Fortress","app_id":440,"player_count":0,"max_players":24,"Bots":0,"server_type":"Dedicated","server_os":"Linux","password":true,"vac":true,"version":"7961495","steam_id":85568392924510198,"keywords":["nocrits","nodmgspread","payload","uncletopia"],"game_id":440,"stv_port":27036,"stv_name":"Uncletopia | Los Angeles | 3 | All Maps | STV","players":null},{"server_id":25,"name":"Uncletopia | Los Angeles | 4 | Stopwatch","name_short":"lax-4","host":"lax-1.us.uncletopia.com","port":27045,"enabled":true,"region":"us-west","cc":"us","latitude":33.94279,"longitude":-118.41004,"reserved":0,"last_update":"0001-01-01T00:00:00Z","name_a2s":"Uncletopia | Los Angeles | 4 | Stopwatch","protocol":17,"map":"pl_barnblitz","folder":"tf","game":"Team Fortress","app_id":440,"player_count":0,"max_players":24,"Bots":0,"server_type":"Dedicated","server_os":"Linux","password":true,"vac":true,"version":"7961495","steam_id":85568392924510199,"keywords":["nocrits","nodmgspread","payload","uncletopia"],"game_id":440,"stv_port":27046,"stv_name":"Uncletopia | Los Angeles | 4 | Stopwatch | STV","players":null},{"server_id":11,"name":"Uncletopia | London | 1 | All Maps","name_short":"lon-1","host":"lon-1.uk.uncletopia.com","port":27015,"enabled":true,"region":"eu","cc":"gb","latitude":51.509865,"longitude":-0.118092,"reserved":0,"last_update":"0001-01-01T00:00:00Z","name_a2s":"Uncletopia | London | 1 | All Maps","protocol":17,"map":"pl_rumford_event","folder":"tf","game":"Team Fortress","app_id":440,"player_count":23,"max_players":24,"Bots":0,"server_type":"Dedicated","server_os":"Linux","password":true,"vac":true,"version":"7961495","steam_id":85568392924367362,"keywords":["nocrits","nodmgspread","payload","uncletopia"],"game_id":440,"stv_port":27016,"stv_name":"Uncletopia | London | 1 | All Maps | STV","players":[{"user_id":447,"name":"Sandshee","steam_id":76561198088574666,"connected_time":739000000000,"state":"active","ping":44},{"user_id":455,"name":"The Empire Ant","steam_id":76561198082466790,"connected_time":27000000000,"state":"spawning","ping":63},{"user_id":419,"name":"albert","steam_id":76561198353496134,"connected_time":4032000000000,"state":"active","ping":59},{"user_id":456,"name":"LOBZIK","steam_id":76561198114830120,"connected_time":21000000000,"state":"spawning","ping":80},{"user_id":433,"name":"silversteellady","steam_id":76561198166953966,"connected_time":1949000000000,"state":"active","ping":68},{"user_id":444,"name":"Hildreth","steam_id":76561197995254867,"connected_time":800000000000,"state":"active","ping":32},{"user_id":452,"name":"clown gf","steam_id":76561198098111258,"connected_time":216000000000,"state":"active","ping":34},{"user_id":450,"name":"FurbyZone","steam_id":76561198268344503,"connected_time":626000000000,"state":"active","ping":45},{"user_id":364,"name":"whimsy.","steam_id":76561198878171763,"connected_time":9660000000000,"state":"spawning","ping":56},{"user_id":369,"name":"TomNoSocks","steam_id":76561198114071046,"connected_time":8609000000000,"state":"active","ping":63},{"user_id":454,"name":"Purps","steam_id":76561198053886680,"connected_time":42000000000,"state":"spawning","ping":45},{"user_id":446,"name":"Rebeliondog","steam_id":76561198056815609,"connected_time":765000000000,"state":"active","ping":65},{"user_id":431,"name":"Dan Dan the Furious","steam_id":76561198091032527,"connected_time":2470000000000,"state":"active","ping":44},{"user_id":438,"name":"goblin","steam_id":76561198170334258,"connected_time":1334000000000,"state":"active","ping":74},{"user_id":432,"name":"Andreus","steam_id":76561199403926001,"connected_time":2234000000000,"state":"spawning","ping":72},{"user_id":405,"name":"Zamorocian","steam_id":76561198076604017,"connected_time":5522000000000,"state":"active","ping":45},{"user_id":448,"name":"mary","steam_id":76561198014828037,"connected_time":719000000000,"state":"active","ping":52},{"user_id":422,"name":"Slifer the Sky Dragon","steam_id":76561198062255803,"connected_time":3802000000000,"state":"active","ping":70},{"user_id":449,"name":"Favi","steam_id":76561198013236935,"connected_time":706000000000,"state":"active","ping":88},{"user_id":457,"name":"PoorPocketsMcNewHold","steam_id":76561198111231970,"connected_time":9000000000,"state":"spawning","ping":120},{"user_id":435,"name":"jimmy bob","steam_id":76561198319583692,"connected_time":1906000000000,"state":"active","ping":62},{"user_id":417,"name":"charlotte","steam_id":76561198075129898,"connected_time":4464000000000,"state":"active","ping":38}]},{"server_id":114,"name":"Uncletopia | London | 2 | All Maps","name_short":"lon-2","host":"lon-1.uk.uncletopia.com","port":27025,"enabled":true,"region":"eu","cc":"gb","latitude":51.509865,"longitude":-0.118092,"reserved":0,"last_update":"0001-01-01T00:00:00Z","name_a2s":"Uncletopia | London | 2 | All Maps","protocol":17,"map":"pl_upward","folder":"tf","game":"Team Fortress","app_id":440,"player_count":24,"max_players":24,"Bots":0,"server_type":"Dedicated","server_os":"Linux","password":true,"vac":true,"version":"7961495","steam_id":85568392924470941,"keywords":["nocrits","nodmgspread","payload","uncletopia"],"game_id":440,"stv_port":27026,"stv_name":"Uncletopia | London | 2 | All Maps | STV","players":[{"user_id":396,"name":"General Grievous","steam_id":76561198087800030,"connected_time":370000000000,"state":"active","ping":32},{"user_id":353,"name":"Demicore","steam_id":76561197976922136,"connected_time":4062000000000,"state":"active","ping":71},{"user_id":341,"name":"m909","steam_id":76561198279621400,"connected_time":4488000000000,"state":"active","ping":116},{"user_id":354,"name":"(MAC) [BN] Crazyking","steam_id":76561198001668616,"connected_time":3552000000000,"state":"active","ping":57},{"user_id":363,"name":"The_Jaystone","steam_id":76561198126280691,"connected_time":2734000000000,"state":"active","ping":45},{"user_id":388,"name":"i have bomb","steam_id":76561199382978934,"connected_time":1305000000000,"state":"active","ping":94},{"user_id":392,"name":"MercuryPlate","steam_id":76561199154144220,"connected_time":858000000000,"state":"active","ping":160},{"user_id":397,"name":"lawn","steam_id":76561198001243486,"connected_time":236000000000,"state":"active","ping":44},{"user_id":383,"name":"sajnmdhndfgnnjaskjjnrghjngjnahj","steam_id":76561198963378933,"connected_time":1883000000000,"state":"active","ping":44},{"user_id":349,"name":"kluri","steam_id":76561198084518962,"connected_time":4381000000000,"state":"active","ping":75},{"user_id":365,"name":"Lonekus","steam_id":76561198055613110,"connected_time":2703000000000,"state":"active","ping":69},{"user_id":366,"name":"Wattseyy","steam_id":76561198248567360,"connected_time":2702000000000,"state":"active","ping":37},{"user_id":382,"name":"A Table","steam_id":76561198056456470,"connected_time":1931000000000,"state":"active","ping":69},{"user_id":384,"name":"highest noon","steam_id":76561199103959197,"connected_time":1816000000000,"state":"active","ping":97},{"user_id":367,"name":"fullmoon306","steam_id":76561198798803845,"connected_time":2695000000000,"state":"active","ping":53},{"user_id":368,"name":"WorthingFountain459","steam_id":76561198090146457,"connected_time":2689000000000,"state":"active","ping":39},{"user_id":398,"name":"james_bondage","steam_id":76561199476062624,"connected_time":166000000000,"state":"active","ping":142},{"user_id":314,"name":"Max Andrew","steam_id":76561198158955194,"connected_time":6391000000000,"state":"active","ping":60},{"user_id":390,"name":"pepper","steam_id":76561198059782462,"connected_time":1279000000000,"state":"active","ping":64},{"user_id":377,"name":"Touch Fwuffy Tail \u003ew\u003c :3","steam_id":76561198197606282,"connected_time":2377000000000,"state":"active","ping":40},{"user_id":395,"name":"Umme","steam_id":76561198053809566,"connected_time":435000000000,"state":"active","ping":92},{"user_id":381,"name":"beansontoast4901","steam_id":76561198307037169,"connected_time":1971000000000,"state":"active","ping":60},{"user_id":371,"name":"dg","steam_id":76561199074553825,"connected_time":2656000000000,"state":"active","ping":61},{"user_id":394,"name":"[D3RP] Meserion","steam_id":76561198038471890,"connected_time":616000000000,"state":"active","ping":122}]},{"server_id":320,"name":"Uncletopia | London | 3 | All Maps","name_short":"lon-3","host":"lon-1.uk.uncletopia.com","port":27035,"enabled":true,"region":"eu","cc":"gb","latitude":51.509865,"longitude":-0.118092,"reserved":0,"last_update":"0001-01-01T00:00:00Z","name_a2s":"Uncletopia | London | 3 | All Maps","protocol":17,"map":"pl_swiftwater_final1","folder":"tf","game":"Team Fortress","app_id":440,"player_count":24,"max_players":24,"Bots":0,"server_type":"Dedicated","server_os":"Linux","password":true,"vac":true,"version":"7961495","steam_id":85568392924510192,"keywords":["nocrits","nodmgspread","payload","uncletopia"],"game_id":440,"stv_port":27036,"stv_name":"Uncletopia | London | 3 | All Maps | STV","players":[{"user_id":201,"name":"Imperial City Guard","steam_id":76561198083355845,"connected_time":668000000000,"state":"active","ping":48},{"user_id":180,"name":"DrExplosive","steam_id":76561198063678579,"connected_time":1712000000000,"state":"active","ping":48},{"user_id":192,"name":"TheEventGuy","steam_id":76561197972797744,"connected_time":1113000000000,"state":"active","ping":75},{"user_id":203,"name":"Quinton Heckroth","steam_id":76561197979780972,"connected_time":387000000000,"state":"active","ping":31},{"user_id":179,"name":"Wardruna96","steam_id":76561199057083828,"connected_time":1815000000000,"state":"active","ping":75},{"user_id":198,"name":"minitel","steam_id":76561198056336216,"connected_time":875000000000,"state":"active","ping":52},{"user_id":202,"name":"Fuegisimo","steam_id":76561198033678698,"connected_time":393000000000,"state":"active","ping":138},{"user_id":204,"name":"VolcanicArts","steam_id":76561198063453246,"connected_time":363000000000,"state":"active","ping":59},{"user_id":197,"name":"Haha?","steam_id":76561198056882245,"connected_time":910000000000,"state":"active","ping":31},{"user_id":170,"name":"Android Device Connected","steam_id":76561199244250562,"connected_time":2811000000000,"state":"active","ping":90},{"user_id":196,"name":"Marcel","steam_id":76561198348686648,"connected_time":951000000000,"state":"active","ping":45},{"user_id":162,"name":"zayd","steam_id":76561198895235231,"connected_time":3121000000000,"state":"active","ping":60},{"user_id":205,"name":"blazeeight","steam_id":76561198159456502,"connected_time":348000000000,"state":"active","ping":52},{"user_id":200,"name":"LiterallyRyanGosling","steam_id":76561199017856691,"connected_time":731000000000,"state":"active","ping":57},{"user_id":111,"name":"LivEssense","steam_id":76561198052476979,"connected_time":6642000000000,"state":"active","ping":89},{"user_id":209,"name":"Master coitus","steam_id":76561198050416948,"connected_time":220000000000,"state":"active","ping":68},{"user_id":211,"name":"Rjay","steam_id":76561198026151229,"connected_time":111000000000,"state":"active","ping":107},{"user_id":212,"name":"wtabs","steam_id":76561198831766743,"connected_time":99000000000,"state":"active","ping":85},{"user_id":210,"name":"A literal heavy","steam_id":76561199219233587,"connected_time":203000000000,"state":"active","ping":78},{"user_id":100,"name":"★Lily","steam_id":76561198014774371,"connected_time":7288000000000,"state":"active","ping":45},{"user_id":158,"name":"Rubi","steam_id":76561198139410003,"connected_time":3322000000000,"state":"active","ping":79},{"user_id":109,"name":"Optimist 50","steam_id":76561198039631442,"connected_time":6737000000000,"state":"active","ping":82},{"user_id":188,"name":"maniac-baker","steam_id":76561198076966730,"connected_time":1514000000000,"state":"active","ping":56},{"user_id":173,"name":"VampireSunflower","steam_id":76561199007012355,"connected_time":2715000000000,"state":"active","ping":58}]},{"server_id":321,"name":"Uncletopia | London | 4 | All Maps","name_short":"lon-4","host":"lon-1.uk.uncletopia.com","port":27045,"enabled":true,"region":"eu","cc":"gb","latitude":51.509865,"longitude":-0.118092,"reserved":0,"last_update":"0001-01-01T00:00:00Z","name_a2s":"Uncletopia | London | 4 | All Maps","protocol":17,"map":"pl_snowycoast","folder":"tf","game":"Team Fortress","app_id":440,"player_count":24,"max_players":24,"Bots":0,"server_type":"Dedicated","server_os":"Linux","password":true,"vac":true,"version":"7961495","steam_id":85568392924510193,"keywords":["nocrits","nodmgspread","payload","uncletopia"],"game_id":440,"stv_port":27046,"stv_name":"Uncletopia | London | 4 | All Maps | STV","players":[{"user_id":198,"name":"limbicsystem","steam_id":76561198025612680,"connected_time":433000000000,"state":"active","ping":57},{"user_id":199,"name":"Lemon","steam_id":76561198188535947,"connected_time":401000000000,"state":"active","ping":83},{"user_id":200,"name":"ediheelo","steam_id":76561198363615045,"connected_time":378000000000,"state":"active","ping":53},{"user_id":192,"name":"SimplyJarvis","steam_id":76561198000654287,"connected_time":1084000000000,"state":"active","ping":67},{"user_id":174,"name":"bongo","steam_id":76561198015489880,"connected_time":2243000000000,"state":"active","ping":41},{"user_id":204,"name":"0x01A4","steam_id":76561199038801888,"connected_time":279000000000,"state":"active","ping":47},{"user_id":193,"name":"一龙马","steam_id":76561198364121077,"connected_time":995000000000,"state":"active","ping":98},{"user_id":146,"name":"The Twice-Gorped Morp","steam_id":76561198052636352,"connected_time":3705000000000,"state":"active","ping":45},{"user_id":164,"name":"Dagertul","steam_id":76561198102822860,"connected_time":2555000000000,"state":"active","ping":88},{"user_id":202,"name":"Tusho","steam_id":76561198115447383,"connected_time":299000000000,"state":"active","ping":84},{"user_id":206,"name":"Rui","steam_id":76561198263735498,"connected_time":85000000000,"state":"spawning","ping":88},{"user_id":114,"name":"A Very Disappointing Salad","steam_id":76561198020277939,"connected_time":5323000000000,"state":"active","ping":54},{"user_id":195,"name":"CrangSign","steam_id":76561198370580355,"connected_time":489000000000,"state":"active","ping":57},{"user_id":161,"name":"D4NTheProtogen","steam_id":76561198206460789,"connected_time":2749000000000,"state":"active","ping":55},{"user_id":189,"name":"simonjohna646","steam_id":76561199403481880,"connected_time":1241000000000,"state":"active","ping":128},{"user_id":194,"name":"Jackanackaknory","steam_id":76561198028044547,"connected_time":609000000000,"state":"active","ping":68},{"user_id":203,"name":"Axio","steam_id":76561198046826031,"connected_time":296000000000,"state":"active","ping":62},{"user_id":107,"name":"Bags.","steam_id":76561198045708372,"connected_time":5624000000000,"state":"active","ping":63},{"user_id":205,"name":"Nassu","steam_id":76561198147367577,"connected_time":264000000000,"state":"active","ping":161},{"user_id":185,"name":"Wolfy","steam_id":76561198077232111,"connected_time":1673000000000,"state":"active","ping":90},{"user_id":190,"name":"Astrizz ♥","steam_id":76561198066612279,"connected_time":1241000000000,"state":"active","ping":54},{"user_id":178,"name":"reichbober","steam_id":76561199095092309,"connected_time":2150000000000,"state":"active","ping":136},{"user_id":179,"name":"Dromeka","steam_id":76561198963557200,"connected_time":2145000000000,"state":"active","ping":58},{"user_id":191,"name":"n174","steam_id":76561199465285458,"connected_time":1214000000000,"state":"active","ping":58}]},{"server_id":21,"name":"Uncletopia | London | 5 | All Maps","name_short":"lon-5","host":"lon-1.uk.uncletopia.com","port":27055,"enabled":true,"region":"eu","cc":"gb","latitude":51.509865,"longitude":-0.118092,"reserved":0,"last_update":"0001-01-01T00:00:00Z","name_a2s":"Uncletopia | London | 5 | All Maps","protocol":17,"map":"pl_swiftwater_final1","folder":"tf","game":"Team Fortress","app_id":440,"player_count":23,"max_players":24,"Bots":0,"server_type":"Dedicated","server_os":"Linux","password":true,"vac":true,"version":"7961495","steam_id":85568392924742829,"keywords":["nocrits","nodmgspread","payload","uncletopia"],"game_id":440,"stv_port":27056,"stv_name":"Uncletopia | London | 5 | All Maps | STV","players":[{"user_id":57,"name":"Ghost","steam_id":76561198110914180,"connected_time":5717000000000,"state":"active","ping":99},{"user_id":108,"name":"Rusted","steam_id":76561198310605286,"connected_time":742000000000,"state":"active","ping":74},{"user_id":63,"name":"Hotdogs","steam_id":76561199112737347,"connected_time":5183000000000,"state":"active","ping":66},{"user_id":104,"name":"Javier dorsaless","steam_id":76561198179324075,"connected_time":1079000000000,"state":"active","ping":62},{"user_id":98,"name":"PUNK RECORDS","steam_id":76561197999954766,"connected_time":1842000000000,"state":"active","ping":43},{"user_id":106,"name":"smell_my_cheese","steam_id":76561198008517427,"connected_time":1017000000000,"state":"active","ping":42},{"user_id":100,"name":"ABSOLUTE UNIT","steam_id":76561197972287320,"connected_time":1721000000000,"state":"active","ping":67},{"user_id":95,"name":"juku06","steam_id":76561198953966982,"connected_time":2031000000000,"state":"active","ping":120},{"user_id":32,"name":"Dry","steam_id":76561198027164095,"connected_time":6503000000000,"state":"active","ping":135},{"user_id":72,"name":"Loot goblin","steam_id":76561198803330799,"connected_time":4399000000000,"state":"active","ping":105},{"user_id":114,"name":"Woman (Real)","steam_id":76561199151823932,"connected_time":298000000000,"state":"active","ping":82},{"user_id":115,"name":"FatCuddlyBear","steam_id":76561198133613253,"connected_time":84000000000,"state":"active","ping":160},{"user_id":103,"name":"Danny Mullen Freed The Slaves","steam_id":76561198198803773,"connected_time":1177000000000,"state":"active","ping":74},{"user_id":120,"name":"znunney","steam_id":76561199438501613,"connected_time":10000000000,"state":"spawning","ping":47},{"user_id":117,"name":"nefariousevilsorcerermoonGrass","steam_id":76561198799519725,"connected_time":50000000000,"state":"spawning","ping":83},{"user_id":111,"name":"McAtka","steam_id":76561198019759329,"connected_time":366000000000,"state":"active","ping":65},{"user_id":43,"name":"skittish maiden","steam_id":76561198096856475,"connected_time":6163000000000,"state":"active","ping":55},{"user_id":97,"name":"Wandrus[PL]","steam_id":76561198109051675,"connected_time":1940000000000,"state":"active","ping":108},{"user_id":90,"name":"Beanie","steam_id":76561198173882658,"connected_time":3398000000000,"state":"active","ping":55},{"user_id":75,"name":"xavier","steam_id":76561198076494034,"connected_time":4334000000000,"state":"active","ping":48},{"user_id":92,"name":"tully","steam_id":76561198058012525,"connected_time":2482000000000,"state":"active","ping":61},{"user_id":118,"name":"[HOL] Solringen","steam_id":76561198003584681,"connected_time":44000000000,"state":"active","ping":75},{"user_id":119,"name":"Tyren","steam_id":76561198993747516,"connected_time":42000000000,"state":"active","ping":45}]},{"server_id":22,"name":"Uncletopia | London | 6 | All Maps","name_short":"lon-6","host":"lon-1.uk.uncletopia.com","port":27065,"enabled":true,"region":"eu","cc":"gb","latitude":51.509865,"longitude":-0.118092,"reserved":0,"last_update":"0001-01-01T00:00:00Z","name_a2s":"Uncletopia | London | 6 | All Maps","protocol":17,"map":"cp_sunshine","folder":"tf","game":"Team Fortress","app_id":440,"player_count":24,"max_players":24,"Bots":0,"server_type":"Dedicated","server_os":"Linux","password":true,"vac":true,"version":"7961495","steam_id":85568392924742830,"keywords":["cp","nocrits","nodmgspread","uncletopia"],"game_id":440,"stv_port":27066,"stv_name":"Uncletopia | London | 6 | All Maps | STV","players":[{"user_id":215,"name":"Hugh","steam_id":76561198976348754,"connected_time":2776000000000,"state":"active","ping":45},{"user_id":240,"name":"nori","steam_id":76561198099077097,"connected_time":1542000000000,"state":"active","ping":82},{"user_id":251,"name":"Archer","steam_id":76561198132860299,"connected_time":746000000000,"state":"active","ping":58},{"user_id":269,"name":"belal tiger","steam_id":76561198977309417,"connected_time":51000000000,"state":"active","ping":362},{"user_id":270,"name":"sloppy transgirl toppy","steam_id":76561198057092208,"connected_time":50000000000,"state":"spawning","ping":77},{"user_id":249,"name":"butter hunt (caber gang)","steam_id":76561198192343263,"connected_time":1093000000000,"state":"active","ping":43},{"user_id":242,"name":"MagusCubed","steam_id":76561198083973944,"connected_time":1517000000000,"state":"active","ping":43},{"user_id":256,"name":"scott steiners strongest warrio","steam_id":76561198148888622,"connected_time":672000000000,"state":"active","ping":58},{"user_id":264,"name":"0xDEADBEEF","steam_id":76561199075416111,"connected_time":261000000000,"state":"active","ping":75},{"user_id":254,"name":"yum","steam_id":76561199103766971,"connected_time":685000000000,"state":"active","ping":138},{"user_id":260,"name":"Milk","steam_id":76561198125876588,"connected_time":556000000000,"state":"active","ping":39},{"user_id":257,"name":"stinko","steam_id":76561198358856044,"connected_time":670000000000,"state":"active","ping":46},{"user_id":207,"name":"Irme","steam_id":76561198161590299,"connected_time":2981000000000,"state":"active","ping":79},{"user_id":261,"name":"bryophyta","steam_id":76561197968945306,"connected_time":538000000000,"state":"active","ping":79},{"user_id":266,"name":":)","steam_id":76561198039964082,"connected_time":227000000000,"state":"active","ping":61},{"user_id":214,"name":"CarbonPan","steam_id":76561198072169983,"connected_time":2903000000000,"state":"active","ping":97},{"user_id":268,"name":"✦ Xayira ✦","steam_id":76561198079566786,"connected_time":128000000000,"state":"active","ping":61},{"user_id":238,"name":"Smelly penis sniffer","steam_id":76561198086132840,"connected_time":1614000000000,"state":"active","ping":61},{"user_id":223,"name":"FinlyTW","steam_id":76561199225424583,"connected_time":2108000000000,"state":"active","ping":112},{"user_id":246,"name":"N5LH","steam_id":76561199112528775,"connected_time":1435000000000,"state":"active","ping":105},{"user_id":244,"name":"Paulo Doutor","steam_id":76561198168674032,"connected_time":1482000000000,"state":"active","ping":85},{"user_id":224,"name":"Nudnuy00","steam_id":76561198251669430,"connected_time":2105000000000,"state":"active","ping":95},{"user_id":225,"name":"CallMe(づ￣ ³￣)づ","steam_id":76561198942630435,"connected_time":2104000000000,"state":"active","ping":151},{"user_id":245,"name":"heddwch","steam_id":76561198076097983,"connected_time":1475000000000,"state":"active","ping":85}]},{"server_id":40,"name":"Uncletopia | London | 7 | Stopwatch","name_short":"lon-7","host":"lon-1.uk.uncletopia.com","port":27075,"enabled":true,"region":"eu","cc":"gb","latitude":51.509865,"longitude":-0.118092,"reserved":0,"last_update":"0001-01-01T00:00:00Z","name_a2s":"Uncletopia | London | 7 | Stopwatch","protocol":17,"map":"koth_highpass","folder":"tf","game":"Team Fortress","app_id":440,"player_count":0,"max_players":24,"Bots":0,"server_type":"Dedicated","server_os":"Linux","password":true,"vac":true,"version":"7961495","steam_id":85568392924964314,"keywords":["cp","nocrits","nodmgspread","uncletopia"],"game_id":440,"stv_port":27076,"stv_name":"Uncletopia | London | 7 | Stopwatch | STV","players":null},{"server_id":41,"name":"Uncletopia | London | 8 | Community","name_short":"lon-8","host":"lon-1.uk.uncletopia.com","port":27085,"enabled":true,"region":"eu","cc":"gb","latitude":51.509865,"longitude":-0.118092,"reserved":0,"last_update":"0001-01-01T00:00:00Z","name_a2s":"Uncletopia | London | 8 | Community","protocol":17,"map":"workshop/koth_product_final.ugc454272353","folder":"tf","game":"Team Fortress","app_id":440,"player_count":0,"max_players":24,"Bots":0,"server_type":"Dedicated","server_os":"Linux","password":true,"vac":true,"version":"7961495","steam_id":85568392924964315,"keywords":["cp","nocrits","nodmgspread","uncletopia"],"game_id":440,"stv_port":27086,"stv_name":"Uncletopia | London | 8 | Community | STV","players":null},{"server_id":300,"name":"Uncletopia | Montréal | 1 | One Thousand Uncles","name_short":"mtl-1","host":"mtl-1.ca.uncletopia.com","port":27015,"enabled":true,"region":"us-east","cc":"ca","latitude":45.50889,"longitude":-73.56167,"reserved":0,"last_update":"0001-01-01T00:00:00Z","name_a2s":"","protocol":0,"map":"","folder":"","game":"","app_id":0,"player_count":6,"max_players":0,"Bots":0,"server_type":"","server_os":"","password":false,"vac":false,"version":"","steam_id":0,"keywords":null,"game_id":0,"stv_port":0,"stv_name":"","players":[{"user_id":113,"name":"Satchamo","steam_id":76561198012968239,"connected_time":2211000000000,"state":"active","ping":82},{"user_id":107,"name":"Pig master","steam_id":76561199388075545,"connected_time":3224000000000,"state":"active","ping":119},{"user_id":94,"name":"TheBoringEdward","steam_id":76561199061482992,"connected_time":5316000000000,"state":"active","ping":121},{"user_id":110,"name":"Ak","steam_id":76561199333659458,"connected_time":2688000000000,"state":"active","ping":60},{"user_id":111,"name":"Piercedemoss13","steam_id":76561198850170270,"connected_time":2633000000000,"state":"active","ping":117},{"user_id":112,"name":"rwrangler05","steam_id":76561198922899122,"connected_time":2451000000000,"state":"active","ping":96}]},{"server_id":301,"name":"Uncletopia | Montréal | 2 | One Thousand Uncles","name_short":"mtl-2","host":"mtl-1.ca.uncletopia.com","port":27025,"enabled":true,"region":"us-east","cc":"ca","latitude":45.50889,"longitude":-73.56167,"reserved":0,"last_update":"0001-01-01T00:00:00Z","name_a2s":"","protocol":0,"map":"","folder":"","game":"","app_id":0,"player_count":0,"max_players":0,"Bots":0,"server_type":"","server_os":"","password":false,"vac":false,"version":"","steam_id":0,"keywords":null,"game_id":0,"stv_port":0,"stv_name":"","players":null},{"server_id":302,"name":"Uncletopia | Montréal | 3 | One Thousand Uncles","name_short":"mtl-3","host":"mtl-1.ca.uncletopia.com","port":27035,"enabled":true,"region":"us-east","cc":"ca","latitude":45.50889,"longitude":-73.56167,"reserved":0,"last_update":"0001-01-01T00:00:00Z","name_a2s":"","protocol":0,"map":"","folder":"","game":"","app_id":0,"player_count":0,"max_players":0,"Bots":0,"server_type":"","server_os":"","password":false,"vac":false,"version":"","steam_id":0,"keywords":null,"game_id":0,"stv_port":0,"stv_name":"","players":null},{"server_id":13,"name":"Uncletopia | New York City | 1 | All Maps","name_short":"nyc-1","host":"nyc-1.us.uncletopia.com","port":27015,"enabled":true,"region":"us-east","cc":"us","latitude":40.73061,"longitude":-73.93524,"reserved":0,"last_update":"0001-01-01T00:00:00Z","name_a2s":"Uncletopia | New York City | 1 | All Maps","protocol":17,"map":"koth_cascade","folder":"tf","game":"Team Fortress","app_id":440,"player_count":0,"max_players":24,"Bots":0,"server_type":"Dedicated","server_os":"Linux","password":true,"vac":true,"version":"7961495","steam_id":85568392924469993,"keywords":["cp","nocrits","nodmgspread","uncletopia"],"game_id":440,"stv_port":27016,"stv_name":"Uncletopia | New York City | 1 | All Maps | STV","players":null},{"server_id":14,"name":"Uncletopia | New York City | 2 | All Maps","name_short":"nyc-2","host":"nyc-1.us.uncletopia.com","port":27025,"enabled":true,"region":"us-east","cc":"us","latitude":40.73061,"longitude":-73.93524,"reserved":0,"last_update":"0001-01-01T00:00:00Z","name_a2s":"Uncletopia | New York City | 2 | All Maps","protocol":17,"map":"pl_upward","folder":"tf","game":"Team Fortress","app_id":440,"player_count":24,"max_players":24,"Bots":0,"server_type":"Dedicated","server_os":"Linux","password":true,"vac":true,"version":"7961495","steam_id":85568392924469994,"keywords":["nocrits","nodmgspread","payload","uncletopia"],"game_id":440,"stv_port":27026,"stv_name":"Uncletopia | New York City | 2 | All Maps | STV","players":[{"user_id":259,"name":"✪Type_Alpha","steam_id":76561198122780598,"connected_time":542000000000,"state":"active","ping":53},{"user_id":86,"name":"Jin","steam_id":76561198119873148,"connected_time":10448000000000,"state":"active","ping":45},{"user_id":190,"name":"He rolls his own","steam_id":76561198058162684,"connected_time":5244000000000,"state":"active","ping":65},{"user_id":173,"name":"Seven","steam_id":76561198259947055,"connected_time":6367000000000,"state":"active","ping":60},{"user_id":254,"name":"Jeffery Jitterson","steam_id":76561199021400714,"connected_time":760000000000,"state":"active","ping":45},{"user_id":245,"name":"ZombieSlayer77","steam_id":76561199023974356,"connected_time":1507000000000,"state":"active","ping":83},{"user_id":251,"name":"Piss Man","steam_id":76561199446367874,"connected_time":1175000000000,"state":"active","ping":69},{"user_id":255,"name":"Kale","steam_id":76561198088293094,"connected_time":736000000000,"state":"active","ping":34},{"user_id":216,"name":"MechaSixVII","steam_id":76561198014927379,"connected_time":3720000000000,"state":"active","ping":71},{"user_id":231,"name":"MelonLikeAFelon","steam_id":76561198060170336,"connected_time":2338000000000,"state":"active","ping":87},{"user_id":238,"name":"Lamp","steam_id":76561198369922506,"connected_time":1634000000000,"state":"active","ping":49},{"user_id":236,"name":"Delahaunte","steam_id":76561198117148323,"connected_time":1978000000000,"state":"active","ping":73},{"user_id":185,"name":"pea ttv/peabeanz","steam_id":76561198119551968,"connected_time":5785000000000,"state":"active","ping":62},{"user_id":248,"name":"The All-Seeing Tim","steam_id":76561198075510786,"connected_time":1341000000000,"state":"active","ping":94},{"user_id":244,"name":"popfulmail","steam_id":76561198865971290,"connected_time":1536000000000,"state":"active","ping":83},{"user_id":183,"name":"hayes","steam_id":76561198057101042,"connected_time":5817000000000,"state":"active","ping":81},{"user_id":260,"name":"creeeeeee","steam_id":76561198392539722,"connected_time":364000000000,"state":"active","ping":77},{"user_id":233,"name":"Sentry Gun Main Man","steam_id":76561198327938247,"connected_time":2168000000000,"state":"active","ping":91},{"user_id":256,"name":"oink","steam_id":76561198111477518,"connected_time":582000000000,"state":"active","ping":152},{"user_id":192,"name":"innisfree","steam_id":76561198109065124,"connected_time":5202000000000,"state":"active","ping":60},{"user_id":249,"name":"Broadsword #LGM","steam_id":76561198011160411,"connected_time":1312000000000,"state":"active","ping":76},{"user_id":206,"name":"Big Yoshi","steam_id":76561199160576376,"connected_time":4701000000000,"state":"active","ping":130},{"user_id":253,"name":"Voracious Puma","steam_id":76561197963621649,"connected_time":1013000000000,"state":"active","ping":94},{"user_id":258,"name":"Chaotic Rushu","steam_id":76561198170054407,"connected_time":572000000000,"state":"active","ping":72}]},{"server_id":15,"name":"Uncletopia | New York City | 3 | Stopwatch","name_short":"nyc-3","host":"nyc-1.us.uncletopia.com","port":27035,"enabled":true,"region":"us-east","cc":"us","latitude":40.73061,"longitude":-73.93524,"reserved":0,"last_update":"0001-01-01T00:00:00Z","name_a2s":"Uncletopia | New York City | 3 | Stopwatch","protocol":17,"map":"workshop/koth_product_final.ugc454272353","folder":"tf","game":"Team Fortress","app_id":440,"player_count":0,"max_players":24,"Bots":0,"server_type":"Dedicated","server_os":"Linux","password":true,"vac":true,"version":"7961495","steam_id":85568392924742820,"keywords":["cp","nocrits","nodmgspread","uncletopia"],"game_id":440,"stv_port":27036,"stv_name":"Uncletopia | New York City | 3 | Stopwatch | STV","players":null},{"server_id":16,"name":"Uncletopia | New York City | 4 | Community","name_short":"nyc-4","host":"nyc-1.us.uncletopia.com","port":27045,"enabled":true,"region":"us-east","cc":"us","latitude":40.73061,"longitude":-73.93524,"reserved":0,"last_update":"0001-01-01T00:00:00Z","name_a2s":"Uncletopia | New York City | 4 | Community","protocol":17,"map":"workshop/cp_fulgur_rc2a.ugc2068252300","folder":"tf","game":"Team Fortress","app_id":440,"player_count":0,"max_players":24,"Bots":0,"server_type":"Dedicated","server_os":"Linux","password":true,"vac":true,"version":"7961495","steam_id":85568392924742821,"keywords":["cp","nocrits","nodmgspread","uncletopia"],"game_id":440,"stv_port":27046,"stv_name":"Uncletopia | New York City | 4 | Community | STV","players":null},{"server_id":142,"name":"Uncletopia | São Paulo | 1 | All Maps","name_short":"sao-1","host":"sao-1.br.uncletopia.com","port":27015,"enabled":true,"region":"sa","cc":"br","latitude":-23.533773,"longitude":-46.62529,"reserved":0,"last_update":"0001-01-01T00:00:00Z","name_a2s":"Uncletopia | São Paulo | 1 | All Maps","protocol":17,"map":"koth_viaduct","folder":"tf","game":"Team Fortress","app_id":440,"player_count":1,"max_players":24,"Bots":0,"server_type":"Dedicated","server_os":"Linux","password":true,"vac":true,"version":"7961495","steam_id":85568392924469996,"keywords":["cp","nocrits","nodmgspread","uncletopia"],"game_id":440,"stv_port":27016,"stv_name":"Uncletopia | São Paulo | 1 | All Maps | STV","players":[{"user_id":10,"name":"gelaby","steam_id":76561198106010211,"connected_time":262000000000,"state":"active","ping":91}]},{"server_id":143,"name":"Uncletopia | São Paulo | 2 | Community","name_short":"sao-2","host":"sao-2.br.uncletopia.com","port":27015,"enabled":true,"region":"sa","cc":"br","latitude":-23.533773,"longitude":-46.62529,"reserved":0,"last_update":"0001-01-01T00:00:00Z","name_a2s":"Uncletopia | São Paulo | 2 | Community","protocol":17,"map":"workshop/pl_highwood_b13.ugc1769496557","folder":"tf","game":"Team Fortress","app_id":440,"player_count":7,"max_players":24,"Bots":0,"server_type":"Dedicated","server_os":"Linux","password":true,"vac":true,"version":"7961495","steam_id":85568392924485349,"keywords":["nocrits","nodmgspread","payload","uncletopia"],"game_id":440,"stv_port":27016,"stv_name":"Uncletopia | São Paulo | 2 | Community | STV","players":[{"user_id":4,"name":"|AY|LazyCian","steam_id":76561199121786457,"connected_time":1027000000000,"state":"active","ping":34},{"user_id":5,"name":"modulador592","steam_id":76561198435468554,"connected_time":1023000000000,"state":"active","ping":45},{"user_id":10,"name":"Jovem","steam_id":76561199121405455,"connected_time":449000000000,"state":"active","ping":67},{"user_id":7,"name":"Marcoss0502","steam_id":76561198981104653,"connected_time":894000000000,"state":"active","ping":172},{"user_id":8,"name":"Adolf_Dripler_1945","steam_id":76561198963738808,"connected_time":508000000000,"state":"active","ping":45},{"user_id":9,"name":"RHD BRAZIL [\u003c O \u003e]","steam_id":76561198028190080,"connected_time":474000000000,"state":"active","ping":35},{"user_id":13,"name":"♕␠|LorÐ|♕␠","steam_id":76561198825481440,"connected_time":69000000000,"state":"active","ping":40}]},{"server_id":7,"name":"Uncletopia | Seattle | 1 | All Maps","name_short":"sea-1","host":"sea-1.us.uncletopia.com","port":27015,"enabled":true,"region":"us-west","cc":"us","latitude":47.608013,"longitude":-122.33517,"reserved":0,"last_update":"0001-01-01T00:00:00Z","name_a2s":"Uncletopia | Seattle | 1 | All Maps","protocol":17,"map":"pl_barnblitz","folder":"tf","game":"Team Fortress","app_id":440,"player_count":24,"max_players":24,"Bots":0,"server_type":"Dedicated","server_os":"Linux","password":true,"vac":true,"version":"7961495","steam_id":85568392924469997,"keywords":["nocrits","nodmgspread","payload","uncletopia"],"game_id":440,"stv_port":27016,"stv_name":"Uncletopia | Seattle | 1 | All Maps | STV","players":[{"user_id":170,"name":"TheGreythreat","steam_id":76561198021995538,"connected_time":1079000000000,"state":"active","ping":94},{"user_id":65,"name":"orbisg","steam_id":76561198004133638,"connected_time":8898000000000,"state":"active","ping":59},{"user_id":169,"name":"Dimple","steam_id":76561198980324190,"connected_time":1102000000000,"state":"active","ping":57},{"user_id":172,"name":"BlazedBunny","steam_id":76561198243610560,"connected_time":89000000000,"state":"active","ping":65},{"user_id":164,"name":"mboddy","steam_id":76561197997190809,"connected_time":1898000000000,"state":"active","ping":50},{"user_id":105,"name":"sudoku_fiend","steam_id":76561198152029104,"connected_time":5870000000000,"state":"active","ping":82},{"user_id":102,"name":"Doorstop","steam_id":76561198017707085,"connected_time":5999000000000,"state":"active","ping":115},{"user_id":167,"name":"you just got dyked on","steam_id":76561198018977723,"connected_time":1137000000000,"state":"active","ping":53},{"user_id":153,"name":"AttackCommander","steam_id":76561198111522679,"connected_time":2795000000000,"state":"active","ping":87},{"user_id":157,"name":"RC","steam_id":76561198048127881,"connected_time":2450000000000,"state":"active","ping":77},{"user_id":132,"name":"GH578","steam_id":76561199493262585,"connected_time":3811000000000,"state":"active","ping":72},{"user_id":171,"name":"Unlike_Morning0","steam_id":76561199225509657,"connected_time":385000000000,"state":"active","ping":71},{"user_id":173,"name":"LavenderSys","steam_id":76561198289106015,"connected_time":64000000000,"state":"active","ping":47},{"user_id":136,"name":"Little Linguine","steam_id":76561198816986370,"connected_time":3760000000000,"state":"active","ping":46},{"user_id":151,"name":"Leo x.x","steam_id":76561198309760791,"connected_time":2852000000000,"state":"active","ping":122},{"user_id":155,"name":"Bush.exe","steam_id":76561198124385307,"connected_time":2727000000000,"state":"active","ping":121},{"user_id":174,"name":"リク","steam_id":76561198272108529,"connected_time":57000000000,"state":"active","ping":86},{"user_id":112,"name":"Eden","steam_id":76561198081284664,"connected_time":5454000000000,"state":"active","ping":79},{"user_id":62,"name":"Bcuz","steam_id":76561197981318027,"connected_time":9494000000000,"state":"active","ping":90},{"user_id":175,"name":"Lunch","steam_id":76561199173852120,"connected_time":55000000000,"state":"active","ping":41},{"user_id":162,"name":"Skribbles","steam_id":76561198373073766,"connected_time":2205000000000,"state":"active","ping":75},{"user_id":176,"name":"mineblast99","steam_id":76561199065648954,"connected_time":40000000000,"state":"active","ping":143},{"user_id":177,"name":"asm_ghost","steam_id":76561199205363547,"connected_time":17000000000,"state":"active","ping":81},{"user_id":166,"name":"rad killl raccoon","steam_id":76561198980975595,"connected_time":1337000000000,"state":"active","ping":45}]},{"server_id":119,"name":"Uncletopia | Seattle | 2 | All Maps","name_short":"sea-2","host":"sea-1.us.uncletopia.com","port":27025,"enabled":true,"region":"us-west","cc":"us","latitude":47.608013,"longitude":-122.33517,"reserved":0,"last_update":"0001-01-01T00:00:00Z","name_a2s":"Uncletopia | Seattle | 2 | All Maps","protocol":17,"map":"koth_cascade","folder":"tf","game":"Team Fortress","app_id":440,"player_count":0,"max_players":24,"Bots":0,"server_type":"Dedicated","server_os":"Linux","password":true,"vac":true,"version":"7961495","steam_id":85568392924469998,"keywords":["cp","nocrits","nodmgspread","uncletopia"],"game_id":440,"stv_port":27026,"stv_name":"Uncletopia | Seattle | 2 | All Maps | STV","players":null},{"server_id":406,"name":"Uncletopia | Seattle | 3 | Stopwatch","name_short":"sea-3","host":"sea-1.us.uncletopia.com","port":27035,"enabled":true,"region":"us-west","cc":"us","latitude":47.608013,"longitude":-122.33517,"reserved":0,"last_update":"0001-01-01T00:00:00Z","name_a2s":"Uncletopia | Seattle | 3 | Stopwatch","protocol":17,"map":"pl_pier","folder":"tf","game":"Team Fortress","app_id":440,"player_count":0,"max_players":24,"Bots":0,"server_type":"Dedicated","server_os":"Linux","password":true,"vac":true,"version":"7961495","steam_id":85568392924515217,"keywords":["nocrits","nodmgspread","payload","uncletopia"],"game_id":440,"stv_port":27036,"stv_name":"Uncletopia | Seattle | 3 | Stopwatch | STV","players":null},{"server_id":17,"name":"Uncletopia | San Francisco | 1 | All Maps","name_short":"sfo-1","host":"sfo-1.us.uncletopia.com","port":27015,"enabled":true,"region":"us-west","cc":"us","latitude":37.77397,"longitude":-122.4313,"reserved":0,"last_update":"0001-01-01T00:00:00Z","name_a2s":"Uncletopia | San Francisco | 1 | All Maps","protocol":17,"map":"koth_cascade","folder":"tf","game":"Team Fortress","app_id":440,"player_count":0,"max_players":24,"Bots":0,"server_type":"Dedicated","server_os":"Linux","password":true,"vac":true,"version":"7961495","steam_id":85568392924469999,"keywords":["cp","nocrits","nodmgspread","uncletopia"],"game_id":440,"stv_port":27016,"stv_name":"Uncletopia | San Francisco | 1 | All Maps | STV","players":null},{"server_id":18,"name":"Uncletopia | San Francisco | 2 | All Maps","name_short":"sfo-2","host":"sfo-1.us.uncletopia.com","port":27025,"enabled":true,"region":"us-west","cc":"us","latitude":37.77397,"longitude":-122.4313,"reserved":0,"last_update":"0001-01-01T00:00:00Z","name_a2s":"Uncletopia | San Francisco | 2 | All Maps","protocol":17,"map":"pl_frontier_final","folder":"tf","game":"Team Fortress","app_id":440,"player_count":0,"max_players":24,"Bots":0,"server_type":"Dedicated","server_os":"Linux","password":true,"vac":true,"version":"7961495","steam_id":85568392924470000,"keywords":["nocrits","nodmgspread","payload","uncletopia"],"game_id":440,"stv_port":27026,"stv_name":"Uncletopia | San Francisco | 2 | All Maps | STV","players":null},{"server_id":19,"name":"Uncletopia | San Francisco | 3 | Stopwatch","name_short":"sfo-3","host":"sfo-1.us.uncletopia.com","port":27035,"enabled":true,"region":"us-west","cc":"us","latitude":37.77397,"longitude":-122.4313,"reserved":0,"last_update":"0001-01-01T00:00:00Z","name_a2s":"Uncletopia | San Francisco | 3 | Stopwatch","protocol":17,"map":"workshop/koth_clearcut_b15.ugc2107050255","folder":"tf","game":"Team Fortress","app_id":440,"player_count":0,"max_players":24,"Bots":0,"server_type":"Dedicated","server_os":"Linux","password":true,"vac":true,"version":"7961495","steam_id":85568392924742824,"keywords":["cp","nocrits","nodmgspread","uncletopia"],"game_id":440,"stv_port":27036,"stv_name":"Uncletopia | San Francisco | 3 | Stopwatch | STV","players":null},{"server_id":20,"name":"Uncletopia | San Francisco | 4 | Community","name_short":"sfo-4","host":"sfo-1.us.uncletopia.com","port":27045,"enabled":true,"region":"us-west","cc":"us","latitude":37.77397,"longitude":-122.4313,"reserved":0,"last_update":"0001-01-01T00:00:00Z","name_a2s":"Uncletopia | San Francisco | 4 | Community","protocol":17,"map":"pl_pier","folder":"tf","game":"Team Fortress","app_id":440,"player_count":0,"max_players":24,"Bots":0,"server_type":"Dedicated","server_os":"Linux","password":true,"vac":true,"version":"7961495","steam_id":85568392924742826,"keywords":["nocrits","nodmgspread","payload","uncletopia"],"game_id":440,"stv_port":27046,"stv_name":"Uncletopia | San Francisco | 4 | Community | STV","players":null},{"server_id":141,"name":"Uncletopia | Sydney | 1 | All Maps","name_short":"syd-1","host":"syd-1.au.uncletopia.com","port":27015,"enabled":true,"region":"au","cc":"au","latitude":-33.865143,"longitude":151.2099,"reserved":0,"last_update":"0001-01-01T00:00:00Z","name_a2s":"Uncletopia | Sydney | 1 | All Maps","protocol":17,"map":"koth_viaduct","folder":"tf","game":"Team Fortress","app_id":440,"player_count":0,"max_players":24,"Bots":0,"server_type":"Dedicated","server_os":"Linux","password":true,"vac":true,"version":"7961495","steam_id":85568392924470001,"keywords":["cp","nocrits","nodmgspread","uncletopia"],"game_id":440,"stv_port":27016,"stv_name":"Uncletopia | Sydney | 1 | All Maps | STV","players":null},{"server_id":123,"name":"Uncletopia | Sydney | 2 | All Maps","name_short":"syd-2","host":"syd-1.au.uncletopia.com","port":27025,"enabled":true,"region":"au","cc":"au","latitude":-33.865143,"longitude":151.2099,"reserved":0,"last_update":"0001-01-01T00:00:00Z","name_a2s":"Uncletopia | Sydney | 2 | All Maps","protocol":17,"map":"pl_pier","folder":"tf","game":"Team Fortress","app_id":440,"player_count":0,"max_players":24,"Bots":0,"server_type":"Dedicated","server_os":"Linux","password":true,"vac":true,"version":"7961495","steam_id":85568392924470002,"keywords":["nocrits","nodmgspread","payload","uncletopia"],"game_id":440,"stv_port":27026,"stv_name":"Uncletopia | Sydney | 2 | All Maps | STV","players":null},{"server_id":395,"name":"Uncletopia | Sydney | 3 | All Maps","name_short":"syd-3","host":"syd-1.au.uncletopia.com","port":27035,"enabled":true,"region":"au","cc":"au","latitude":-33.865143,"longitude":151.2099,"reserved":0,"last_update":"0001-01-01T00:00:00Z","name_a2s":"Uncletopia | Sydney | 3 | All Maps","protocol":17,"map":"pl_pier","folder":"tf","game":"Team Fortress","app_id":440,"player_count":0,"max_players":24,"Bots":0,"server_type":"Dedicated","server_os":"Linux","password":true,"vac":true,"version":"7961495","steam_id":85568392925194467,"keywords":["nocrits","nodmgspread","payload","uncletopia"],"game_id":440,"stv_port":27036,"stv_name":"Uncletopia | Sydney | 3 | All Maps | STV","players":null},{"server_id":396,"name":"Uncletopia | Sydney | 4 | All Maps","name_short":"syd-4","host":"syd-1.au.uncletopia.com","port":27045,"enabled":true,"region":"au","cc":"au","latitude":-33.865143,"longitude":151.2099,"reserved":0,"last_update":"0001-01-01T00:00:00Z","name_a2s":"Uncletopia | Sydney | 4 | All Maps","protocol":17,"map":"koth_lakeside_final","folder":"tf","game":"Team Fortress","app_id":440,"player_count":0,"max_players":24,"Bots":0,"server_type":"Dedicated","server_os":"Linux","password":true,"vac":true,"version":"7961495","steam_id":85568392925397958,"keywords":["cp","nocrits","nodmgspread","uncletopia"],"game_id":440,"stv_port":27046,"stv_name":"Uncletopia | Sydney | 4 | All Maps | STV","players":null},{"server_id":58,"name":"Uncletopia | Sydney | 5 | Stopwatch","name_short":"syd-5","host":"syd-1.au.uncletopia.com","port":27055,"enabled":true,"region":"au","cc":"au","latitude":-33.865143,"longitude":151.2099,"reserved":0,"last_update":"0001-01-01T00:00:00Z","name_a2s":"Uncletopia | Sydney | 5 | Stopwatch","protocol":17,"map":"workshop/pl_badwater_pro_v12.ugc2142942074","folder":"tf","game":"Team Fortress","app_id":440,"player_count":0,"max_players":24,"Bots":0,"server_type":"Dedicated","server_os":"Linux","password":true,"vac":true,"version":"7961495","steam_id":85568392925397959,"keywords":["nocrits","nodmgspread","payload","uncletopia"],"game_id":440,"stv_port":27056,"stv_name":"Uncletopia | Sydney | 5 | Stopwatch | STV","players":null},{"server_id":59,"name":"Uncletopia | Sydney | 6 | Community","name_short":"syd-6","host":"syd-1.au.uncletopia.com","port":27065,"enabled":true,"region":"au","cc":"au","latitude":-33.865143,"longitude":151.2099,"reserved":0,"last_update":"0001-01-01T00:00:00Z","name_a2s":"Uncletopia | Sydney | 6 | Community","protocol":17,"map":"workshop/pl_boundary_final1.ugc456799153","folder":"tf","game":"Team Fortress","app_id":440,"player_count":0,"max_players":24,"Bots":0,"server_type":"Dedicated","server_os":"Linux","password":true,"vac":true,"version":"7961495","steam_id":85568392925397960,"keywords":["nocrits","nodmgspread","payload","uncletopia"],"game_id":440,"stv_port":27066,"stv_name":"Uncletopia | Sydney | 6 | Community | STV","players":null},{"server_id":49,"name":"Uncletopia | Warsaw | 1 | One Thousand Uncles","name_short":"waw-1","host":"waw-1.pl.uncletopia.com","port":27015,"enabled":true,"region":"eu","cc":"pl","latitude":52.2297,"longitude":21.017532,"reserved":0,"last_update":"0001-01-01T00:00:00Z","name_a2s":"Uncletopia | Warsaw | 1 | One Thousand Uncles","protocol":17,"map":"pl_swiftwater_final1","folder":"tf","game":"Team Fortress","app_id":440,"player_count":29,"max_players":32,"Bots":16,"server_type":"Dedicated","server_os":"Linux","password":true,"vac":true,"version":"7961495","steam_id":85568392925397850,"keywords":["alltalk","bots","danepve","increased_maxplayers","nocrits","norespawntime","payload","uncletopia"],"game_id":440,"stv_port":0,"stv_name":"","players":[{"user_id":541,"name":"muztikmuztiko","steam_id":76561199272029074,"connected_time":1362000000000,"state":"active","ping":91},{"user_id":542,"name":"Janekowskii","steam_id":76561199131053042,"connected_time":1266000000000,"state":"active","ping":45},{"user_id":546,"name":"Apyr","steam_id":76561198175676326,"connected_time":916000000000,"state":"active","ping":191},{"user_id":440,"name":"PuPuruPuruPumPu","steam_id":76561198391950490,"connected_time":8297000000000,"state":"active","ping":104},{"user_id":557,"name":"monke","steam_id":76561199095477435,"connected_time":162000000000,"state":"active","ping":70},{"user_id":543,"name":"xanderomeister","steam_id":76561198882550389,"connected_time":1229000000000,"state":"active","ping":64},{"user_id":547,"name":"num","steam_id":76561198825467909,"connected_time":900000000000,"state":"active","ping":94},{"user_id":559,"name":"paryas","steam_id":76561199230608275,"connected_time":109000000000,"state":"active","ping":34},{"user_id":545,"name":"Momon","steam_id":76561199067860158,"connected_time":1097000000000,"state":"active","ping":157},{"user_id":548,"name":"Proud Noob","steam_id":76561198049626913,"connected_time":900000000000,"state":"active","ping":58},{"user_id":549,"name":"Brozy","steam_id":76561199014951849,"connected_time":810000000000,"state":"active","ping":132},{"user_id":556,"name":"Kryho22","steam_id":76561198854721303,"connected_time":299000000000,"state":"active","ping":45},{"user_id":553,"name":"Zombieslayer","steam_id":76561198407877826,"connected_time":621000000000,"state":"active","ping":174}]},{"server_id":50,"name":"Uncletopia | Warsaw | 2 | One Thousand Uncles","name_short":"waw-2","host":"waw-1.pl.uncletopia.com","port":27025,"enabled":true,"region":"eu","cc":"pl","latitude":52.2297,"longitude":21.017532,"reserved":0,"last_update":"0001-01-01T00:00:00Z","name_a2s":"Uncletopia | Warsaw | 2 | One Thousand Uncles","protocol":17,"map":"pl_goldrush","folder":"tf","game":"Team Fortress","app_id":440,"player_count":21,"max_players":32,"Bots":16,"server_type":"Dedicated","server_os":"Linux","password":true,"vac":true,"version":"7961495","steam_id":85568392925397851,"keywords":["alltalk","bots","danepve","increased_maxplayers","nocrits","norespawntime","payload","uncletopia"],"game_id":440,"stv_port":0,"stv_name":"","players":[{"user_id":181,"name":"Sallomone","steam_id":76561198878216775,"connected_time":973000000000,"state":"active","ping":104},{"user_id":203,"name":"[SQ UA] MartianDill","steam_id":76561198405382822,"connected_time":196000000000,"state":"active","ping":41},{"user_id":200,"name":"MetalSight","steam_id":76561198257781711,"connected_time":615000000000,"state":"active","ping":52},{"user_id":204,"name":"CutKan","steam_id":76561198809248662,"connected_time":116000000000,"state":"active","ping":110},{"user_id":169,"name":"bartoszmalaszkiewicz","steam_id":76561199157266817,"connected_time":3771000000000,"state":"active","ping":34}]},{"server_id":51,"name":"Uncletopia | Warsaw | 3 | All Maps","name_short":"waw-3","host":"waw-1.pl.uncletopia.com","port":27035,"enabled":true,"region":"eu","cc":"pl","latitude":52.2297,"longitude":21.017532,"reserved":0,"last_update":"0001-01-01T00:00:00Z","name_a2s":"Uncletopia | Warsaw | 3 | All Maps","protocol":17,"map":"koth_cascade","folder":"tf","game":"Team Fortress","app_id":440,"player_count":1,"max_players":24,"Bots":0,"server_type":"Dedicated","server_os":"Linux","password":true,"vac":true,"version":"7961495","steam_id":85568392925397852,"keywords":["cp","nocrits","nodmgspread","uncletopia"],"game_id":440,"stv_port":27036,"stv_name":"Uncletopia | Warsaw | 3 | All Maps | STV","players":[{"user_id":17,"name":"stellgigant","steam_id":76561199137018273,"connected_time":2407000000000,"state":"active","ping":62}]},{"server_id":52,"name":"Uncletopia | Warsaw | 4 | All Maps","name_short":"waw-4","host":"waw-1.pl.uncletopia.com","port":27045,"enabled":true,"region":"eu","cc":"pl","latitude":52.2297,"longitude":21.017532,"reserved":0,"last_update":"0001-01-01T00:00:00Z","name_a2s":"Uncletopia | Warsaw | 4 | All Maps","protocol":17,"map":"cp_altitude","folder":"tf","game":"Team Fortress","app_id":440,"player_count":0,"max_players":24,"Bots":0,"server_type":"Dedicated","server_os":"Linux","password":true,"vac":true,"version":"7961495","steam_id":85568392925397853,"keywords":["cp","nocrits","nodmgspread","uncletopia"],"game_id":440,"stv_port":27046,"stv_name":"Uncletopia | Warsaw | 4 | All Maps | STV","players":null},{"server_id":53,"name":"Uncletopia | Warsaw | 5 | Stopwatch","name_short":"waw-5","host":"waw-1.pl.uncletopia.com","port":27055,"enabled":true,"region":"eu","cc":"pl","latitude":52.2297,"longitude":21.017532,"reserved":0,"last_update":"0001-01-01T00:00:00Z","name_a2s":"Uncletopia | Warsaw | 5 | Stopwatch","protocol":17,"map":"workshop/koth_bagel_rc6.ugc2514036946","folder":"tf","game":"Team Fortress","app_id":440,"player_count":0,"max_players":24,"Bots":0,"server_type":"Dedicated","server_os":"Linux","password":true,"vac":true,"version":"7961495","steam_id":85568392925397854,"keywords":["cp","nocrits","nodmgspread","uncletopia"],"game_id":440,"stv_port":27056,"stv_name":"Uncletopia | Warsaw | 5 | Stopwatch | STV","players":null},{"server_id":54,"name":"Uncletopia | Warsaw | 6 | Community","name_short":"waw-6","host":"waw-1.pl.uncletopia.com","port":27065,"enabled":true,"region":"eu","cc":"pl","latitude":52.2297,"longitude":21.017532,"reserved":0,"last_update":"0001-01-01T00:00:00Z","name_a2s":"Uncletopia | Warsaw | 6 | Community","protocol":17,"map":"workshop/cp_mannbase_rc2a.ugc1900737467","folder":"tf","game":"Team Fortress","app_id":440,"player_count":0,"max_players":24,"Bots":0,"server_type":"Dedicated","server_os":"Linux","password":true,"vac":true,"version":"7961495","steam_id":85568392925397856,"keywords":["cp","nocrits","nodmgspread","uncletopia"],"game_id":440,"stv_port":27066,"stv_name":"Uncletopia | Warsaw | 6 | Community | STV","players":null}]}