{"status":true,"message":"","result":[{"server_id":9,"name":"Uncletopia | Atlanta | 1 | All Maps","name_short":"atl-1","host":"atl-1.us.uncletopia.com","port":27015,"enabled":true,"region":"us-east","cc":"us","latitude":33.753746,"longitude":-84.38633,"reserved":0,"last_update":"0001-01-01T00:00:00Z","name_a2s":"Uncletopia | Atlanta | 1 | All Maps","protocol":17,"map":"koth_cascade","folder":"tf","game":"Team Fortress","app_id":440,"player_count":24,"max_players":24,"Bots":0,"server_type":"Dedicated","server_os":"Linux","password":true,"vac":true,"version":"7742253","steam_id":85568392924469982,"keywords":["cp","nocrits","nodmgspread","uncletopia"],"game_id":440,"stv_port":27016,"stv_name":"Uncletopia | Atlanta | 1 | All Maps | STV","players":[{"user_id":252,"name":"cirkuu","steam_id":76561198053465042,"connected_time":1976000000000,"state":"active","ping":64},{"user_id":244,"name":"tj3002rocks","steam_id":76561199017921546,"connected_time":2531000000000,"state":"active","ping":79},{"user_id":168,"name":"dzcreeper","steam_id":76561198072250723,"connected_time":10466000000000,"state":"active","ping":128},{"user_id":249,"name":"The_Stomach_Stone_Surgeon","steam_id":76561198044643725,"connected_time":2294000000000,"state":"active","ping":37},{"user_id":185,"name":"War","steam_id":76561198837141652,"connected_time":9686000000000,"state":"active","ping":113},{"user_id":209,"name":"Vanguard","steam_id":76561198044844135,"connected_time":6070000000000,"state":"active","ping":93},{"user_id":254,"name":"sweaterfan","steam_id":76561199389567214,"connected_time":1872000000000,"state":"active","ping":88},{"user_id":264,"name":"Darnell","steam_id":76561198102182937,"connected_time":1433000000000,"state":"active","ping":46},{"user_id":271,"name":"About That Gift I Owed Ya","steam_id":76561198071506287,"connected_time":727000000000,"state":"active","ping":107},{"user_id":260,"name":"kingofsoup4168","steam_id":76561198968162492,"connected_time":1581000000000,"state":"active","ping":91},{"user_id":267,"name":"guy","steam_id":76561198196443262,"connected_time":861000000000,"state":"active","ping":102},{"user_id":257,"name":"merry trapmas","steam_id":76561198402801140,"connected_time":1592000000000,"state":"active","ping":85},{"user_id":269,"name":"iluvtoust","steam_id":76561198869269207,"connected_time":818000000000,"state":"active","ping":69},{"user_id":270,"name":"mega giga payload hater!","steam_id":76561198039727616,"connected_time":817000000000,"state":"active","ping":53},{"user_id":246,"name":"Yuhh","steam_id":76561199112894955,"connected_time":2515000000000,"state":"active","ping":155},{"user_id":266,"name":"⛧Alkahestry","steam_id":76561198109641497,"connected_time":892000000000,"state":"active","ping":92},{"user_id":175,"name":"daemon","steam_id":76561198001541433,"connected_time":10407000000000,"state":"active","ping":74},{"user_id":180,"name":"--_Cook_--","steam_id":76561198080855748,"connected_time":10308000000000,"state":"active","ping":61},{"user_id":250,"name":"saywhat_","steam_id":76561198088191503,"connected_time":2202000000000,"state":"active","ping":70},{"user_id":273,"name":"Poyo","steam_id":76561198389364816,"connected_time":402000000000,"state":"active","ping":86},{"user_id":228,"name":"Ducking Mad","steam_id":76561198023126167,"connected_time":4301000000000,"state":"active","ping":80},{"user_id":86,"name":"tell me about it","steam_id":76561198277799227,"connected_time":19663000000000,"state":"active","ping":63},{"user_id":184,"name":"Jesus Of Suburbia","steam_id":76561198941700660,"connected_time":9827000000000,"state":"active","ping":65},{"user_id":274,"name":"trans rights","steam_id":76561198044183038,"connected_time":305000000000,"state":"active","ping":59}]},{"server_id":400,"name":"Uncletopia | Atlanta | 3 | Stopwatch Beta","name_short":"atl-3","host":"atl-1.us.uncletopia.com","port":27035,"enabled":true,"region":"us-east","cc":"us","latitude":33.753746,"longitude":-84.38633,"reserved":0,"last_update":"0001-01-01T00:00:00Z","name_a2s":"Uncletopia | Atlanta | 3 | Stopwatch Beta","protocol":17,"map":"workshop/pl_badwater_pro_v12.ugc2142942074","folder":"tf","game":"Team Fortress","app_id":440,"player_count":0,"max_players":24,"Bots":0,"server_type":"Dedicated","server_os":"Linux","password":true,"vac":true,"version":"7742253","steam_id":85568392924515187,"keywords":["nocrits","nodmgspread","payload","uncletopia"],"game_id":440,"stv_port":27036,"stv_name":"Uncletopia | Atlanta | 3 | Stopwatch Beta | STV","players":null},{"server_id":401,"name":"Uncletopia | Atlanta | 4 | No Payload","name_short":"atl-4","host":"atl-1.us.uncletopia.com","port":27045,"enabled":true,"region":"us-east","cc":"us","latitude":33.753746,"longitude":-84.38633,"reserved":0,"last_update":"0001-01-01T00:00:00Z","name_a2s":"Uncletopia | Atlanta | 4 | No Payload","protocol":17,"map":"koth_brazil","folder":"tf","game":"Team Fortress","app_id":440,"player_count":0,"max_players":24,"Bots":0,"server_type":"Dedicated","server_os":"Linux","password":true,"vac":true,"version":"7723704","steam_id":85568392924515188,"keywords":["cp","nocrits","nodmgspread","uncletopia"],"game_id":440,"stv_port":27046,"stv_name":"Uncletopia | Atlanta | 4 | No Payload | STV","players":null},{"server_id":2,"name":"Uncletopia | Chicago | 1 | All Maps","name_short":"chi-1","host":"chi-1.us.uncletopia.com","port":27015,"enabled":true,"region":"us-central","cc":"us","latitude":41.881832,"longitude":-87.62318,"reserved":0,"last_update":"0001-01-01T00:00:00Z","name_a2s":"Uncletopia | Chicago | 1 | All Maps","protocol":17,"map":"cp_sunshine","folder":"tf","game":"Team Fortress","app_id":440,"player_count":0,"max_players":24,"Bots":0,"server_type":"Dedicated","server_os":"Linux","password":true,"vac":true,"version":"7742253","steam_id":85568392924469984,"keywords":["cp","nocrits","nodmgspread","uncletopia"],"game_id":440,"stv_port":27016,"stv_name":"Uncletopia | Chicago | 1 | All Maps | STV","players":null},{"server_id":106,"name":"Uncletopia | Chicago | 2 | All Maps","name_short":"chi-2","host":"chi-1.us.uncletopia.com","port":27025,"enabled":true,"region":"us-central","cc":"us","latitude":41.881832,"longitude":-87.62318,"reserved":0,"last_update":"0001-01-01T00:00:00Z","name_a2s":"Uncletopia | Chicago | 2 | All Maps","protocol":17,"map":"cp_altitude","folder":"tf","game":"Team Fortress","app_id":440,"player_count":0,"max_players":24,"Bots":0,"server_type":"Dedicated","server_os":"Linux","password":true,"vac":true,"version":"7742253","steam_id":85568392924469985,"keywords":["cp","nocrits","nodmgspread","uncletopia"],"game_id":440,"stv_port":27026,"stv_name":"Uncletopia | Chicago | 2 | All Maps | STV","players":null},{"server_id":402,"name":"Uncletopia | Chicago | 3 | All Maps","name_short":"chi-3","host":"chi-1.us.uncletopia.com","port":27035,"enabled":true,"region":"us-central","cc":"us","latitude":41.881832,"longitude":-87.62318,"reserved":0,"last_update":"0001-01-01T00:00:00Z","name_a2s":"Uncletopia | Chicago | 3 | All Maps","protocol":17,"map":"pl_upward","folder":"tf","game":"Team Fortress","app_id":440,"player_count":23,"max_players":24,"Bots":0,"server_type":"Dedicated","server_os":"Linux","password":true,"vac":true,"version":"7742253","steam_id":85568392924515191,"keywords":["nocrits","nodmgspread","payload","uncletopia"],"game_id":440,"stv_port":27036,"stv_name":"Uncletopia | Chicago | 3 | All Maps | STV","players":[{"user_id":320,"name":"peachy","steam_id":76561198026664629,"connected_time":2563000000000,"state":"active","ping":56},{"user_id":291,"name":"Nexus","steam_id":76561198156374282,"connected_time":3511000000000,"state":"active","ping":69},{"user_id":340,"name":"WoodsRunner","steam_id":76561198121812870,"connected_time":1795000000000,"state":"active","ping":51},{"user_id":357,"name":"FiveHoursLater...","steam_id":76561198092608339,"connected_time":270000000000,"state":"active","ping":79},{"user_id":360,"name":"AnOversizedBagel","steam_id":76561198220592943,"connected_time":56000000000,"state":"active","ping":226},{"user_id":318,"name":"RawLawson","steam_id":76561198398752800,"connected_time":2624000000000,"state":"active","ping":84},{"user_id":285,"name":"Brendan","steam_id":76561198041079914,"connected_time":4813000000000,"state":"active","ping":65},{"user_id":351,"name":"YellowMonkey","steam_id":76561198859337534,"connected_time":689000000000,"state":"active","ping":93},{"user_id":361,"name":"Sonic The Hedgehog","steam_id":76561198061661797,"connected_time":46000000000,"state":"active","ping":75},{"user_id":362,"name":"orangj","steam_id":76561198026604607,"connected_time":29000000000,"state":"active","ping":53},{"user_id":359,"name":"Kenny","steam_id":76561199116413509,"connected_time":186000000000,"state":"active","ping":161},{"user_id":355,"name":"Lucon","steam_id":76561198067147724,"connected_time":425000000000,"state":"active","ping":47},{"user_id":348,"name":"welcome to PLAY of the week","steam_id":76561198045964573,"connected_time":1131000000000,"state":"active","ping":82},{"user_id":284,"name":"coffee bagel","steam_id":76561198141198352,"connected_time":4873000000000,"state":"active","ping":44},{"user_id":352,"name":"13ricity","steam_id":76561198394291206,"connected_time":617000000000,"state":"active","ping":68},{"user_id":315,"name":"Kleine","steam_id":76561198042556857,"connected_time":2802000000000,"state":"active","ping":47},{"user_id":259,"name":"Faraday","steam_id":76561198089928357,"connected_time":6688000000000,"state":"active","ping":62},{"user_id":349,"name":"yoodle doodle","steam_id":76561198054897884,"connected_time":1125000000000,"state":"active","ping":72},{"user_id":342,"name":"toastman","steam_id":76561198207073088,"connected_time":1775000000000,"state":"active","ping":62},{"user_id":324,"name":"BrotherGrowly","steam_id":76561198086663043,"connected_time":2477000000000,"state":"active","ping":85},{"user_id":301,"name":"GOATBOYWINTER","steam_id":76561199384918606,"connected_time":3174000000000,"state":"active","ping":57},{"user_id":363,"name":"plutonium isotope","steam_id":76561198319442494,"connected_time":11000000000,"state":"active","ping":166},{"user_id":344,"name":"Elias","steam_id":76561198106431732,"connected_time":1729000000000,"state":"active","ping":76}]},{"server_id":403,"name":"Uncletopia | Chicago | 4 | All Maps","name_short":"chi-4","host":"chi-1.us.uncletopia.com","port":27045,"enabled":true,"region":"us-central","cc":"us","latitude":41.881832,"longitude":-87.62318,"reserved":0,"last_update":"0001-01-01T00:00:00Z","name_a2s":"Uncletopia | Chicago | 4 | All Maps","protocol":17,"map":"cp_mountainlab","folder":"tf","game":"Team Fortress","app_id":440,"player_count":0,"max_players":24,"Bots":0,"server_type":"Dedicated","server_os":"Linux","password":true,"vac":true,"version":"7742253","steam_id":85568392924515193,"keywords":["cp","nocrits","nodmgspread","uncletopia"],"game_id":440,"stv_port":27046,"stv_name":"Uncletopia | Chicago | 4 | All Maps | STV","players":null},{"server_id":36,"name":"Uncletopia | Chicago | 5 | All Maps","name_short":"chi-5","host":"chi-2.us.uncletopia.com","port":27015,"enabled":true,"region":"us-central","cc":"us","latitude":41.881832,"longitude":-87.62318,"reserved":0,"last_update":"0001-01-01T00:00:00Z","name_a2s":"Uncletopia | Chicago | 5 | All Maps","protocol":17,"map":"koth_lakeside_final","folder":"tf","game":"Team Fortress","app_id":440,"player_count":0,"max_players":24,"Bots":0,"server_type":"Dedicated","server_os":"Linux","password":true,"vac":true,"version":"7742253","steam_id":85568392924866362,"keywords":["cp","nocrits","nodmgspread","uncletopia"],"game_id":440,"stv_port":27016,"stv_name":"Uncletopia | Chicago | 5 | All Maps | STV","players":null},{"server_id":37,"name":"Uncletopia | Chicago | 6 | All Maps","name_short":"chi-6","host":"chi-2.us.uncletopia.com","port":27025,"enabled":true,"region":"us-central","cc":"us","latitude":41.881832,"longitude":-87.62318,"reserved":0,"last_update":"0001-01-01T00:00:00Z","name_a2s":"Uncletopia | Chicago | 6 | All Maps","protocol":17,"map":"pl_badwater","folder":"tf","game":"Team Fortress","app_id":440,"player_count":20,"max_players":24,"Bots":0,"server_type":"Dedicated","server_os":"Linux","password":true,"vac":true,"version":"7742253","steam_id":85568392924866363,"keywords":["nocrits","nodmgspread","payload","uncletopia"],"game_id":440,"stv_port":27026,"stv_name":"Uncletopia | Chicago | 6 | All Maps | STV","players":[{"user_id":222,"name":"gtec229","steam_id":76561198026589960,"connected_time":2375000000000,"state":"active","ping":44},{"user_id":233,"name":"Bromley","steam_id":76561197992298657,"connected_time":1746000000000,"state":"active","ping":88},{"user_id":235,"name":"grape juice -rng","steam_id":76561198093829623,"connected_time":1682000000000,"state":"active","ping":79},{"user_id":254,"name":"Ping","steam_id":76561199206514106,"connected_time":19000000000,"state":"active","ping":37},{"user_id":158,"name":"catface","steam_id":76561198096347625,"connected_time":5811000000000,"state":"active","ping":75},{"user_id":167,"name":"Michiru Kagemori","steam_id":76561198257241799,"connected_time":5534000000000,"state":"active","ping":60},{"user_id":234,"name":"dash23™","steam_id":76561198314951185,"connected_time":1717000000000,"state":"active","ping":104},{"user_id":246,"name":"Iru","steam_id":76561198077602040,"connected_time":1266000000000,"state":"active","ping":120},{"user_id":236,"name":"golia","steam_id":76561198000264266,"connected_time":1669000000000,"state":"active","ping":88},{"user_id":164,"name":"the 99","steam_id":76561198139802458,"connected_time":5674000000000,"state":"active","ping":70},{"user_id":231,"name":"Skadewsh","steam_id":76561198102772209,"connected_time":2036000000000,"state":"active","ping":53},{"user_id":160,"name":"lepel","steam_id":76561198021224745,"connected_time":5774000000000,"state":"active","ping":46},{"user_id":249,"name":"Jimmy","steam_id":76561197970838363,"connected_time":1205000000000,"state":"active","ping":49},{"user_id":250,"name":"glug slug","steam_id":76561197988690273,"connected_time":1035000000000,"state":"active","ping":68},{"user_id":253,"name":"Quentin","steam_id":76561198032941413,"connected_time":60000000000,"state":"active","ping":56},{"user_id":251,"name":"Jello","steam_id":76561198890633732,"connected_time":932000000000,"state":"active","ping":86},{"user_id":211,"name":"็You got Killed by --\u003e","steam_id":76561198039763676,"connected_time":2866000000000,"state":"active","ping":60},{"user_id":238,"name":"Alley_YAMBO","steam_id":76561198055651850,"connected_time":1627000000000,"state":"active","ping":93},{"user_id":226,"name":"itsudatte","steam_id":76561198048992536,"connected_time":2201000000000,"state":"active","ping":75},{"user_id":241,"name":"Dill","steam_id":76561197985091914,"connected_time":1543000000000,"state":"active","ping":62}]},{"server_id":38,"name":"Uncletopia | Chicago | 7 | Stopwatch Beta","name_short":"chi-7","host":"chi-2.us.uncletopia.com","port":27035,"enabled":true,"region":"us-central","cc":"us","latitude":41.881832,"longitude":-87.62318,"reserved":0,"last_update":"0001-01-01T00:00:00Z","name_a2s":"Uncletopia | Chicago | 7 | Stopwatch Beta","protocol":17,"map":"cp_altitude","folder":"tf","game":"Team Fortress","app_id":440,"player_count":0,"max_players":24,"Bots":0,"server_type":"Dedicated","server_os":"Linux","password":true,"vac":true,"version":"7742253","steam_id":85568392924866364,"keywords":["cp","nocrits","nodmgspread","uncletopia"],"game_id":440,"stv_port":27036,"stv_name":"Uncletopia | Chicago | 7 | Stopwatch Beta | STV","players":null},{"server_id":39,"name":"Uncletopia | Chicago | 8 | Community","name_short":"chi-8","host":"chi-2.us.uncletopia.com","port":27045,"enabled":true,"region":"us-central","cc":"us","latitude":41.881832,"longitude":-87.62318,"reserved":0,"last_update":"0001-01-01T00:00:00Z","name_a2s":"Uncletopia | Chicago | 8 | Community","protocol":17,"map":"workshop/koth_synthetic_rc6a.ugc1549817316","folder":"tf","game":"Team Fortress","app_id":440,"player_count":0,"max_players":24,"Bots":0,"server_type":"Dedicated","server_os":"Linux","password":true,"vac":true,"version":"7742253","steam_id":85568392924866365,"keywords":["cp","nocrits","nodmgspread","uncletopia"],"game_id":440,"stv_port":27046,"stv_name":"Uncletopia | Chicago | 8 | Community | STV","players":null},{"server_id":8,"name":"Uncletopia | Dallas | 1 | All Maps","name_short":"dal-1","host":"dal-1.us.uncletopia.com","port":27015,"enabled":true,"region":"us-central","cc":"us","latitude":32.779167,"longitude":-96.80889,"reserved":0,"last_update":"0001-01-01T00:00:00Z","name_a2s":"Uncletopia | Dallas | 1 | All Maps","protocol":17,"map":"pl_snowycoast","folder":"tf","game":"Team Fortress","app_id":440,"player_count":0,"max_players":24,"Bots":0,"server_type":"Dedicated","server_os":"Linux","password":true,"vac":true,"version":"7742253","steam_id":85568392924469986,"keywords":["nocrits","nodmgspread","payload","uncletopia"],"game_id":440,"stv_port":27016,"stv_name":"Uncletopia | Dallas | 1 | All Maps | STV","players":null},{"server_id":108,"name":"Uncletopia | Dallas | 2 | All Maps","name_short":"dal-2","host":"dal-1.us.uncletopia.com","port":27025,"enabled":true,"region":"us-central","cc":"us","latitude":32.779167,"longitude":-96.80889,"reserved":0,"last_update":"0001-01-01T00:00:00Z","name_a2s":"Uncletopia | Dallas | 2 | All Maps","protocol":17,"map":"koth_cascade","folder":"tf","game":"Team Fortress","app_id":440,"player_count":0,"max_players":24,"Bots":0,"server_type":"Dedicated","server_os":"Linux","password":true,"vac":true,"version":"7742253","steam_id":85568392924469988,"keywords":["cp","nocrits","nodmgspread","uncletopia"],"game_id":440,"stv_port":27026,"stv_name":"Uncletopia | Dallas | 2 | All Maps | STV","players":null},{"server_id":5,"name":"Uncletopia | Frankfurt | 1 | All Maps","name_short":"frk-1","host":"frk-1.de.uncletopia.com","port":27015,"enabled":true,"region":"eu","cc":"de","latitude":50.110924,"longitude":8.682127,"reserved":0,"last_update":"0001-01-01T00:00:00Z","name_a2s":"Uncletopia | Frankfurt | 1 | All Maps","protocol":17,"map":"pl_upward","folder":"tf","game":"Team Fortress","app_id":440,"player_count":0,"max_players":24,"Bots":0,"server_type":"Dedicated","server_os":"Linux","password":true,"vac":true,"version":"7742253","steam_id":85568392924469989,"keywords":["nocrits","nodmgspread","payload","uncletopia"],"game_id":440,"stv_port":27016,"stv_name":"Uncletopia | Frankfurt | 1 | All Maps | STV","players":null},{"server_id":110,"name":"Uncletopia | Frankfurt | 2 | All Maps","name_short":"frk-2","host":"frk-1.de.uncletopia.com","port":27025,"enabled":true,"region":"eu","cc":"de","latitude":50.110924,"longitude":8.682127,"reserved":0,"last_update":"0001-01-01T00:00:00Z","name_a2s":"Uncletopia | Frankfurt | 2 | All Maps","protocol":17,"map":"pl_upward","folder":"tf","game":"Team Fortress","app_id":440,"player_count":0,"max_players":24,"Bots":0,"server_type":"Dedicated","server_os":"Linux","password":true,"vac":true,"version":"7742253","steam_id":85568392924469990,"keywords":["nocrits","nodmgspread","payload","uncletopia"],"game_id":440,"stv_port":27026,"stv_name":"Uncletopia | Frankfurt | 2 | All Maps | STV","players":null},{"server_id":308,"name":"Uncletopia | Frankfurt | 3 | All Maps","name_short":"frk-3","host":"frk-1.de.uncletopia.com","port":27035,"enabled":true,"region":"eu","cc":"de","latitude":50.110924,"longitude":8.682127,"reserved":0,"last_update":"0001-01-01T00:00:00Z","name_a2s":"Uncletopia | Frankfurt | 3 | All Maps","protocol":17,"map":"koth_viaduct","folder":"tf","game":"Team Fortress","app_id":440,"player_count":0,"max_players":24,"Bots":0,"server_type":"Dedicated","server_os":"Linux","password":true,"vac":true,"version":"7742253","steam_id":85568392924504274,"keywords":["cp","nocrits","nodmgspread","uncletopia"],"game_id":440,"stv_port":27036,"stv_name":"Uncletopia | Frankfurt | 3 | All Maps | STV","players":null},{"server_id":309,"name":"Uncletopia | Frankfurt | 4 | All Maps","name_short":"frk-4","host":"frk-1.de.uncletopia.com","port":27045,"enabled":true,"region":"eu","cc":"de","latitude":50.110924,"longitude":8.682127,"reserved":0,"last_update":"0001-01-01T00:00:00Z","name_a2s":"Uncletopia | Frankfurt | 4 | All Maps","protocol":17,"map":"pl_frontier_final","folder":"tf","game":"Team Fortress","app_id":440,"player_count":0,"max_players":24,"Bots":0,"server_type":"Dedicated","server_os":"Linux","password":true,"vac":true,"version":"7742253","steam_id":85568392924504275,"keywords":["nocrits","nodmgspread","payload","uncletopia"],"game_id":440,"stv_port":27046,"stv_name":"Uncletopia | Frankfurt | 4 | All Maps | STV","players":null},{"server_id":310,"name":"Uncletopia | Frankfurt | 5 | All Maps","name_short":"frk-5","host":"frk-1.de.uncletopia.com","port":27055,"enabled":true,"region":"eu","cc":"de","latitude":50.110924,"longitude":8.682127,"reserved":0,"last_update":"0001-01-01T00:00:00Z","name_a2s":"Uncletopia | Frankfurt | 5 | All Maps","protocol":17,"map":"cp_sunshine","folder":"tf","game":"Team Fortress","app_id":440,"player_count":0,"max_players":24,"Bots":0,"server_type":"Dedicated","server_os":"Linux","password":true,"vac":true,"version":"7742253","steam_id":85568392924504277,"keywords":["cp","nocrits","nodmgspread","uncletopia"],"game_id":440,"stv_port":27056,"stv_name":"Uncletopia | Frankfurt | 5 | All Maps | STV","players":null},{"server_id":311,"name":"Uncletopia | Frankfurt | 6 | All Maps","name_short":"frk-6","host":"frk-1.de.uncletopia.com","port":27065,"enabled":true,"region":"eu","cc":"de","latitude":50.110924,"longitude":8.682127,"reserved":0,"last_update":"0001-01-01T00:00:00Z","name_a2s":"Uncletopia | Frankfurt | 6 | All Maps","protocol":17,"map":"pl_frontier_final","folder":"tf","game":"Team Fortress","app_id":440,"player_count":0,"max_players":24,"Bots":0,"server_type":"Dedicated","server_os":"Linux","password":true,"vac":true,"version":"7742253","steam_id":85568392924504278,"keywords":["nocrits","nodmgspread","payload","uncletopia"],"game_id":440,"stv_port":27066,"stv_name":"Uncletopia | Frankfurt | 6 | All Maps | STV","players":null},{"server_id":23,"name":"Uncletopia | Frankfurt | 7 | Stopwatch Beta","name_short":"frk-7","host":"frk-1.de.uncletopia.com","port":27075,"enabled":true,"region":"eu","cc":"de","latitude":50.110924,"longitude":8.682127,"reserved":0,"last_update":"0001-01-01T00:00:00Z","name_a2s":"Uncletopia | Frankfurt | 7 | Stopwatch Beta","protocol":17,"map":"koth_lakeside_final","folder":"tf","game":"Team Fortress","app_id":440,"player_count":0,"max_players":24,"Bots":0,"server_type":"Dedicated","server_os":"Linux","password":true,"vac":true,"version":"7742253","steam_id":85568392924742827,"keywords":["cp","nocrits","nodmgspread","uncletopia"],"game_id":440,"stv_port":27076,"stv_name":"Uncletopia | Frankfurt | 7 | Stopwatch Beta | STV","players":null},{"server_id":24,"name":"Uncletopia | Frankfurt | 8 | Community","name_short":"frk-8","host":"frk-1.de.uncletopia.com","port":27085,"enabled":true,"region":"eu","cc":"de","latitude":50.110924,"longitude":8.682127,"reserved":0,"last_update":"0001-01-01T00:00:00Z","name_a2s":"Uncletopia | Frankfurt | 8 | Community","protocol":17,"map":"pl_pier","folder":"tf","game":"Team Fortress","app_id":440,"player_count":0,"max_players":24,"Bots":0,"server_type":"Dedicated","server_os":"Linux","password":true,"vac":true,"version":"7742253","steam_id":85568392924742828,"keywords":["nocrits","nodmgspread","payload","uncletopia"],"game_id":440,"stv_port":27086,"stv_name":"Uncletopia | Frankfurt | 8 | Community | STV","players":null},{"server_id":202,"name":"Uncletopia | Hong Kong | 1 | All Maps","name_short":"hgk-1","host":"hgk-1.hk.uncletopia.com","port":27015,"enabled":true,"region":"asia","cc":"hk","latitude":22.302711,"longitude":114.177216,"reserved":0,"last_update":"0001-01-01T00:00:00Z","name_a2s":"Uncletopia | Hong Kong | 1 | All Maps","protocol":17,"map":"pl_pier","folder":"tf","game":"Team Fortress","app_id":440,"player_count":24,"max_players":24,"Bots":0,"server_type":"Dedicated","server_os":"Linux","password":true,"vac":true,"version":"7742253","steam_id":85568392924494504,"keywords":["nocrits","nodmgspread","payload","uncletopia"],"game_id":440,"stv_port":27016,"stv_name":"Uncletopia | Hong Kong | 1 | All Maps | STV","players":[{"user_id":155,"name":"+","steam_id":76561198121311286,"connected_time":4298000000000,"state":"active","ping":83},{"user_id":176,"name":"Half measure","steam_id":76561199135173894,"connected_time":1666000000000,"state":"active","ping":78},{"user_id":139,"name":"The Piss Man","steam_id":76561198136685157,"connected_time":6161000000000,"state":"active","ping":56},{"user_id":179,"name":"aisha","steam_id":76561198132172320,"connected_time":1230000000000,"state":"active","ping":78},{"user_id":117,"name":"ogey","steam_id":76561198074339034,"connected_time":8685000000000,"state":"active","ping":75},{"user_id":162,"name":"Corhix","steam_id":76561198968706355,"connected_time":3306000000000,"state":"active","ping":43},{"user_id":171,"name":"piyoko no english","steam_id":76561198088403016,"connected_time":2839000000000,"state":"active","ping":95},{"user_id":43,"name":"lilla laxum","steam_id":76561198230213828,"connected_time":15597000000000,"state":"active","ping":69},{"user_id":154,"name":"uptriste","steam_id":76561198158666692,"connected_time":4490000000000,"state":"active","ping":44},{"user_id":96,"name":"Shades on Goggles","steam_id":76561198406067629,"connected_time":11166000000000,"state":"active","ping":59},{"user_id":185,"name":"Rudolph","steam_id":76561199012678702,"connected_time":395000000000,"state":"active","ping":70},{"user_id":186,"name":"Basil","steam_id":76561199226479857,"connected_time":225000000000,"state":"active","ping":79},{"user_id":172,"name":"Lud","steam_id":76561198828840546,"connected_time":2639000000000,"state":"active","ping":75},{"user_id":187,"name":"can we get much higher","steam_id":76561199390507975,"connected_time":196000000000,"state":"active","ping":48},{"user_id":156,"name":"Telekhine","steam_id":76561198387120618,"connected_time":4193000000000,"state":"active","ping":57},{"user_id":170,"name":"変態の神","steam_id":76561199017344476,"connected_time":2932000000000,"state":"active","ping":107},{"user_id":178,"name":"screaming sniper","steam_id":76561199085568674,"connected_time":1243000000000,"state":"active","ping":75},{"user_id":161,"name":"Windmill","steam_id":76561199230997986,"connected_time":3345000000000,"state":"active","ping":78},{"user_id":164,"name":"Cá Tháng 4","steam_id":76561198047162026,"connected_time":3306000000000,"state":"active","ping":69},{"user_id":181,"name":"silversol","steam_id":76561198004570036,"connected_time":1219000000000,"state":"active","ping":99},{"user_id":182,"name":"Lizard Wizard","steam_id":76561198062225011,"connected_time":1218000000000,"state":"active","ping":104},{"user_id":165,"name":"Wakka Wakka!","steam_id":76561198339657566,"connected_time":3301000000000,"state":"active","ping":74},{"user_id":152,"name":"mikkusu","steam_id":76561198306574432,"connected_time":4783000000000,"state":"active","ping":90},{"user_id":94,"name":"LOLGAL","steam_id":76561198347418251,"connected_time":11181000000000,"state":"active","ping":71}]},{"server_id":1,"name":"Uncletopia | Los Angeles | 1 | All Maps","name_short":"lax-1","host":"lax-1.us.uncletopia.com","port":27015,"enabled":true,"region":"us-west","cc":"us","latitude":33.94279,"longitude":-118.41004,"reserved":0,"last_update":"0001-01-01T00:00:00Z","name_a2s":"Uncletopia | Los Angeles | 1 | All Maps","protocol":17,"map":"cp_sunshine","folder":"tf","game":"Team Fortress","app_id":440,"player_count":0,"max_players":24,"Bots":0,"server_type":"Dedicated","server_os":"Linux","password":true,"vac":true,"version":"7742253","steam_id":85568392924469991,"keywords":["cp","nocrits","nodmgspread","uncletopia"],"game_id":440,"stv_port":27016,"stv_name":"Uncletopia | Los Angeles | 1 | All Maps | STV","players":null},{"server_id":112,"name":"Uncletopia | Los Angeles | 2 | All Maps","name_short":"lax-2","host":"lax-1.us.uncletopia.com","port":27025,"enabled":true,"region":"us-west","cc":"us","latitude":33.94279,"longitude":-118.41004,"reserved":0,"last_update":"0001-01-01T00:00:00Z","name_a2s":"Uncletopia | Los Angeles | 2 | All Maps","protocol":17,"map":"pl_snowycoast","folder":"tf","game":"Team Fortress","app_id":440,"player_count":17,"max_players":24,"Bots":0,"server_type":"Dedicated","server_os":"Linux","password":true,"vac":true,"version":"7742253","steam_id":85568392924469992,"keywords":["nocrits","nodmgspread","payload","uncletopia"],"game_id":440,"stv_port":27026,"stv_name":"Uncletopia | Los Angeles | 2 | All Maps | STV","players":[{"user_id":331,"name":"Facepalm","steam_id":76561198001935226,"connected_time":1609000000000,"state":"active","ping":64},{"user_id":338,"name":"Drog0nXV | Trade.tf","steam_id":76561198864720623,"connected_time":1307000000000,"state":"active","ping":62},{"user_id":361,"name":"Grumbo Jumbo","steam_id":76561198072709775,"connected_time":570000000000,"state":"active","ping":43},{"user_id":351,"name":"Mormon Jesus","steam_id":76561198042262933,"connected_time":1145000000000,"state":"active","ping":94},{"user_id":334,"name":"Sabaman55","steam_id":76561198212267979,"connected_time":1545000000000,"state":"active","ping":86},{"user_id":353,"name":"THE NUT","steam_id":76561198067813626,"connected_time":966000000000,"state":"active","ping":74},{"user_id":354,"name":"THIRDPIERCE","steam_id":76561198405366314,"connected_time":956000000000,"state":"active","ping":89},{"user_id":341,"name":"Juri Han","steam_id":76561198041678517,"connected_time":1280000000000,"state":"active","ping":63},{"user_id":343,"name":"Mr. Jenkins","steam_id":76561198078233200,"connected_time":1254000000000,"state":"active","ping":29},{"user_id":359,"name":"Psych03","steam_id":76561198061753667,"connected_time":685000000000,"state":"active","ping":46},{"user_id":355,"name":"Kamin","steam_id":76561198255299559,"connected_time":899000000000,"state":"active","ping":88},{"user_id":344,"name":"FrostMcFire","steam_id":76561198144717580,"connected_time":1248000000000,"state":"active","ping":121},{"user_id":356,"name":"0","steam_id":76561197961095970,"connected_time":819000000000,"state":"active","ping":106},{"user_id":364,"name":"wilson7*","steam_id":76561198109989416,"connected_time":473000000000,"state":"active","ping":59},{"user_id":322,"name":"Achy_Blitz","steam_id":76561198090433209,"connected_time":2570000000000,"state":"active","ping":109},{"user_id":347,"name":"rat","steam_id":76561198314129652,"connected_time":1230000000000,"state":"active","ping":101},{"user_id":365,"name":"Japanese_Spaghetti","steam_id":76561198081019897,"connected_time":422000000000,"state":"active","ping":57}]},{"server_id":324,"name":"Uncletopia | Los Angeles | 3 | All Maps","name_short":"lax-3","host":"lax-1.us.uncletopia.com","port":27035,"enabled":true,"region":"us-west","cc":"us","latitude":33.94279,"longitude":-118.41004,"reserved":0,"last_update":"0001-01-01T00:00:00Z","name_a2s":"Uncletopia | Los Angeles | 3 | All Maps","protocol":17,"map":"cp_sunshine","folder":"tf","game":"Team Fortress","app_id":440,"player_count":0,"max_players":24,"Bots":0,"server_type":"Dedicated","server_os":"Linux","password":true,"vac":true,"version":"7742253","steam_id":85568392924510198,"keywords":["cp","nocrits","nodmgspread","uncletopia"],"game_id":440,"stv_port":27036,"stv_name":"Uncletopia | Los Angeles | 3 | All Maps | STV","players":null},{"server_id":25,"name":"Uncletopia | Los Angeles | 4 | Stopwatch Beta","name_short":"lax-4","host":"lax-1.us.uncletopia.com","port":27045,"enabled":true,"region":"us-west","cc":"us","latitude":33.94279,"longitude":-118.41004,"reserved":0,"last_update":"0001-01-01T00:00:00Z","name_a2s":"Uncletopia | Los Angeles | 4 | Stopwatch Beta","protocol":17,"map":"cp_process_final","folder":"tf","game":"Team Fortress","app_id":440,"player_count":0,"max_players":24,"Bots":0,"server_type":"Dedicated","server_os":"Linux","password":true,"vac":true,"version":"7742253","steam_id":85568392924510199,"keywords":["cp","nocrits","nodmgspread","uncletopia"],"game_id":440,"stv_port":27046,"stv_name":"Uncletopia | Los Angeles | 4 | Stopwatch Beta | STV","players":null},{"server_id":11,"name":"Uncletopia | London | 1 | All Maps","name_short":"lon-1","host":"lon-1.uk.uncletopia.com","port":27015,"enabled":true,"region":"eu","cc":"gb","latitude":51.509865,"longitude":-0.118092,"reserved":0,"last_update":"0001-01-01T00:00:00Z","name_a2s":"Uncletopia | London | 1 | All Maps","protocol":17,"map":"koth_king","folder":"tf","game":"Team Fortress","app_id":440,"player_count":24,"max_players":24,"Bots":0,"server_type":"Dedicated","server_os":"Linux","password":true,"vac":true,"version":"7742253","steam_id":85568392924367362,"keywords":["cp","nocrits","nodmgspread","uncletopia"],"game_id":440,"stv_port":27016,"stv_name":"Uncletopia | London | 1 | All Maps | STV","players":[{"user_id":76,"name":"Juustin","steam_id":76561198121922413,"connected_time":364000000000,"state":"active","ping":194},{"user_id":48,"name":"Martoro","steam_id":76561199022278314,"connected_time":1914000000000,"state":"active","ping":65},{"user_id":69,"name":"Carrot","steam_id":76561198119340863,"connected_time":690000000000,"state":"active","ping":96},{"user_id":81,"name":"MoonMerchant","steam_id":76561198959592471,"connected_time":20000000000,"state":"active","ping":255},{"user_id":58,"name":"Whatever","steam_id":76561198003946394,"connected_time":1418000000000,"state":"active","ping":90},{"user_id":71,"name":"Perci","steam_id":76561198097789669,"connected_time":603000000000,"state":"active","ping":73},{"user_id":13,"name":"Grand Wizard","steam_id":76561199414716848,"connected_time":4255000000000,"state":"active","ping":77},{"user_id":82,"name":"desu","steam_id":76561198052878585,"connected_time":19000000000,"state":"active","ping":176},{"user_id":68,"name":"OutOfRage","steam_id":76561198211205791,"connected_time":726000000000,"state":"active","ping":45},{"user_id":59,"name":"Jeg","steam_id":76561198405291408,"connected_time":1381000000000,"state":"active","ping":72},{"user_id":74,"name":"naaaa","steam_id":76561198136259553,"connected_time":453000000000,"state":"active","ping":105},{"user_id":25,"name":"germanhamburgers96","steam_id":76561198044189114,"connected_time":3161000000000,"state":"active","ping":65},{"user_id":56,"name":"Murk Wahlberg","steam_id":76561198131467867,"connected_time":1564000000000,"state":"active","ping":182},{"user_id":50,"name":"Cat","steam_id":76561198344276348,"connected_time":1892000000000,"state":"active","ping":86},{"user_id":62,"name":"Kanny","steam_id":76561198058810184,"connected_time":1176000000000,"state":"active","ping":57},{"user_id":31,"name":"KaeinN27","steam_id":76561199433598069,"connected_time":2723000000000,"state":"active","ping":124},{"user_id":73,"name":"Xayir","steam_id":76561198079566786,"connected_time":495000000000,"state":"active","ping":73},{"user_id":75,"name":"MateMO","steam_id":76561198146180114,"connected_time":423000000000,"state":"active","ping":82},{"user_id":65,"name":"Momo The Crystal Maiden","steam_id":76561198140327406,"connected_time":1101000000000,"state":"active","ping":82},{"user_id":47,"name":"MONKEYBOYXD","steam_id":76561198156224952,"connected_time":1955000000000,"state":"active","ping":47},{"user_id":66,"name":"Мисье. Лошадка","steam_id":76561198063246279,"connected_time":953000000000,"state":"active","ping":101},{"user_id":77,"name":"Senfbaron","steam_id":76561198070370608,"connected_time":363000000000,"state":"active","ping":72},{"user_id":79,"name":"T1 (ted1)","steam_id":76561199229022826,"connected_time":245000000000,"state":"active","ping":90},{"user_id":80,"name":"leminsc8","steam_id":76561198825084995,"connected_time":212000000000,"state":"active","ping":53}]},{"server_id":114,"name":"Uncletopia | London | 2 | All Maps","name_short":"lon-2","host":"lon-1.uk.uncletopia.com","port":27025,"enabled":true,"region":"eu","cc":"gb","latitude":51.509865,"longitude":-0.118092,"reserved":0,"last_update":"0001-01-01T00:00:00Z","name_a2s":"Uncletopia | London | 2 | All Maps","protocol":17,"map":"pl_swiftwater_final1","folder":"tf","game":"Team Fortress","app_id":440,"player_count":0,"max_players":24,"Bots":0,"server_type":"Dedicated","server_os":"Linux","password":true,"vac":true,"version":"7742253","steam_id":85568392924470941,"keywords":["nocrits","nodmgspread","payload","uncletopia"],"game_id":440,"stv_port":27026,"stv_name":"Uncletopia | London | 2 | All Maps | STV","players":null},{"server_id":320,"name":"Uncletopia | London | 3 | All Maps","name_short":"lon-3","host":"lon-1.uk.uncletopia.com","port":27035,"enabled":true,"region":"eu","cc":"gb","latitude":51.509865,"longitude":-0.118092,"reserved":0,"last_update":"0001-01-01T00:00:00Z","name_a2s":"Uncletopia | London | 3 | All Maps","protocol":17,"map":"cp_mountainlab","folder":"tf","game":"Team Fortress","app_id":440,"player_count":0,"max_players":24,"Bots":0,"server_type":"Dedicated","server_os":"Linux","password":true,"vac":true,"version":"7742253","steam_id":85568392924510192,"keywords":["cp","nocrits","nodmgspread","uncletopia"],"game_id":440,"stv_port":27036,"stv_name":"Uncletopia | London | 3 | All Maps | STV","players":null},{"server_id":321,"name":"Uncletopia | London | 4 | All Maps","name_short":"lon-4","host":"lon-1.uk.uncletopia.com","port":27045,"enabled":true,"region":"eu","cc":"gb","latitude":51.509865,"longitude":-0.118092,"reserved":0,"last_update":"0001-01-01T00:00:00Z","name_a2s":"Uncletopia | London | 4 | All Maps","protocol":17,"map":"pl_borneo","folder":"tf","game":"Team Fortress","app_id":440,"player_count":0,"max_players":24,"Bots":0,"server_type":"Dedicated","server_os":"Linux","password":true,"vac":true,"version":"7742253","steam_id":85568392924510193,"keywords":["nocrits","nodmgspread","payload","uncletopia"],"game_id":440,"stv_port":27046,"stv_name":"Uncletopia | London | 4 | All Maps | STV","players":null},{"server_id":21,"name":"Uncletopia | London | 5 | All Maps","name_short":"lon-5","host":"lon-1.uk.uncletopia.com","port":27055,"enabled":true,"region":"eu","cc":"gb","latitude":51.509865,"longitude":-0.118092,"reserved":0,"last_update":"0001-01-01T00:00:00Z","name_a2s":"Uncletopia | London | 5 | All Maps","protocol":17,"map":"pl_upward","folder":"tf","game":"Team Fortress","app_id":440,"player_count":0,"max_players":24,"Bots":0,"server_type":"Dedicated","server_os":"Linux","password":true,"vac":true,"version":"7742253","steam_id":85568392924742829,"keywords":["nocrits","nodmgspread","payload","uncletopia"],"game_id":440,"stv_port":27056,"stv_name":"Uncletopia | London | 5 | All Maps | STV","players":null},{"server_id":22,"name":"Uncletopia | London | 6 | All Maps","name_short":"lon-6","host":"lon-1.uk.uncletopia.com","port":27065,"enabled":true,"region":"eu","cc":"gb","latitude":51.509865,"longitude":-0.118092,"reserved":0,"last_update":"0001-01-01T00:00:00Z","name_a2s":"Uncletopia | London | 6 | All Maps","protocol":17,"map":"pl_badwater","folder":"tf","game":"Team Fortress","app_id":440,"player_count":0,"max_players":24,"Bots":0,"server_type":"Dedicated","server_os":"Linux","password":true,"vac":true,"version":"7742253","steam_id":85568392924742830,"keywords":["nocrits","nodmgspread","payload","uncletopia"],"game_id":440,"stv_port":27066,"stv_name":"Uncletopia | London | 6 | All Maps | STV","players":null},{"server_id":40,"name":"Uncletopia | London | 7 | No Payload","name_short":"lon-7","host":"lon-1.uk.uncletopia.com","port":27075,"enabled":true,"region":"eu","cc":"gb","latitude":51.509865,"longitude":-0.118092,"reserved":0,"last_update":"0001-01-01T00:00:00Z","name_a2s":"Uncletopia | London | 7 | No Payload","protocol":17,"map":"pl_borneo","folder":"tf","game":"Team Fortress","app_id":440,"player_count":0,"max_players":24,"Bots":0,"server_type":"Dedicated","server_os":"Linux","password":true,"vac":true,"version":"7742253","steam_id":85568392924964314,"keywords":["nocrits","nodmgspread","payload","uncletopia"],"game_id":440,"stv_port":27076,"stv_name":"Uncletopia | London | 7 | No Payload | STV","players":null},{"server_id":41,"name":"Uncletopia | London | 8 | Community","name_short":"lon-8","host":"lon-1.uk.uncletopia.com","port":27085,"enabled":true,"region":"eu","cc":"gb","latitude":51.509865,"longitude":-0.118092,"reserved":0,"last_update":"0001-01-01T00:00:00Z","name_a2s":"Uncletopia | London | 8 | Community","protocol":17,"map":"cp_process_final","folder":"tf","game":"Team Fortress","app_id":440,"player_count":0,"max_players":24,"Bots":0,"server_type":"Dedicated","server_os":"Linux","password":true,"vac":true,"version":"7742253","steam_id":85568392924964315,"keywords":["cp","nocrits","nodmgspread","uncletopia"],"game_id":440,"stv_port":27086,"stv_name":"Uncletopia | London | 8 | Community | STV","players":null},{"server_id":300,"name":"Uncletopia | Montréal | 1 | All Maps","name_short":"mtl-1","host":"mtl-1.ca.uncletopia.com","port":27015,"enabled":true,"region":"us-east","cc":"ca","latitude":45.50889,"longitude":-73.56167,"reserved":0,"last_update":"0001-01-01T00:00:00Z","name_a2s":"Uncletopia | Montréal | 1 | All Maps","protocol":17,"map":"koth_viaduct","folder":"tf","game":"Team Fortress","app_id":440,"player_count":0,"max_players":24,"Bots":0,"server_type":"Dedicated","server_os":"Linux","password":true,"vac":true,"version":"7742253","steam_id":85568392924500087,"keywords":["cp","nocrits","nodmgspread","uncletopia"],"game_id":440,"stv_port":27016,"stv_name":"Uncletopia | Montréal | 1 | All Maps | STV","players":null},{"server_id":301,"name":"Uncletopia | Montréal | 2 | All Maps","name_short":"mtl-2","host":"mtl-1.ca.uncletopia.com","port":27025,"enabled":true,"region":"us-east","cc":"ca","latitude":45.50889,"longitude":-73.56167,"reserved":0,"last_update":"0001-01-01T00:00:00Z","name_a2s":"Uncletopia | Montréal | 2 | All Maps","protocol":17,"map":"koth_lakeside_final","folder":"tf","game":"Team Fortress","app_id":440,"player_count":0,"max_players":24,"Bots":0,"server_type":"Dedicated","server_os":"Linux","password":true,"vac":true,"version":"7742253","steam_id":85568392924500088,"keywords":["cp","nocrits","nodmgspread","uncletopia"],"game_id":440,"stv_port":27026,"stv_name":"Uncletopia | Montréal | 2 | All Maps | STV","players":null},{"server_id":302,"name":"Uncletopia | Montréal | 3 | All Maps","name_short":"mtl-3","host":"mtl-1.ca.uncletopia.com","port":27035,"enabled":true,"region":"us-east","cc":"ca","latitude":45.50889,"longitude":-73.56167,"reserved":0,"last_update":"0001-01-01T00:00:00Z","name_a2s":"Uncletopia | Montréal | 3 | All Maps","protocol":17,"map":"pl_badwater","folder":"tf","game":"Team Fortress","app_id":440,"player_count":0,"max_players":24,"Bots":0,"server_type":"Dedicated","server_os":"Linux","password":true,"vac":true,"version":"7742253","steam_id":85568392924500089,"keywords":["nocrits","nodmgspread","payload","uncletopia"],"game_id":440,"stv_port":27036,"stv_name":"Uncletopia | Montréal | 3 | All Maps | STV","players":null},{"server_id":303,"name":"Uncletopia | Montréal | 4 | No Payload","name_short":"mtl-4","host":"mtl-1.ca.uncletopia.com","port":27045,"enabled":true,"region":"us-east","cc":"ca","latitude":45.50889,"longitude":-73.56167,"reserved":0,"last_update":"0001-01-01T00:00:00Z","name_a2s":"Uncletopia | Montréal | 4 | No Payload","protocol":17,"map":"koth_highpass","folder":"tf","game":"Team Fortress","app_id":440,"player_count":0,"max_players":24,"Bots":0,"server_type":"Dedicated","server_os":"Linux","password":true,"vac":true,"version":"7742253","steam_id":85568392924500090,"keywords":["cp","nocrits","nodmgspread","uncletopia"],"game_id":440,"stv_port":27046,"stv_name":"Uncletopia | Montréal | 4 | No Payload | STV","players":null},{"server_id":13,"name":"Uncletopia | New York City | 1 | All Maps","name_short":"nyc-1","host":"nyc-1.us.uncletopia.com","port":27015,"enabled":true,"region":"us-east","cc":"us","latitude":40.73061,"longitude":-73.93524,"reserved":0,"last_update":"0001-01-01T00:00:00Z","name_a2s":"Uncletopia | New York City | 1 | All Maps","protocol":17,"map":"koth_cascade","folder":"tf","game":"Team Fortress","app_id":440,"player_count":0,"max_players":24,"Bots":0,"server_type":"Dedicated","server_os":"Linux","password":true,"vac":true,"version":"7742253","steam_id":85568392924469993,"keywords":["cp","nocrits","nodmgspread","uncletopia"],"game_id":440,"stv_port":27016,"stv_name":"Uncletopia | New York City | 1 | All Maps | STV","players":null},{"server_id":14,"name":"Uncletopia | New York City | 2 | All Maps","name_short":"nyc-2","host":"nyc-1.us.uncletopia.com","port":27025,"enabled":true,"region":"us-east","cc":"us","latitude":40.73061,"longitude":-73.93524,"reserved":0,"last_update":"0001-01-01T00:00:00Z","name_a2s":"Uncletopia | New York City | 2 | All Maps","protocol":17,"map":"cp_process_final","folder":"tf","game":"Team Fortress","app_id":440,"player_count":0,"max_players":24,"Bots":0,"server_type":"Dedicated","server_os":"Linux","password":true,"vac":true,"version":"7742253","steam_id":85568392924469994,"keywords":["cp","nocrits","nodmgspread","uncletopia"],"game_id":440,"stv_port":27026,"stv_name":"Uncletopia | New York City | 2 | All Maps | STV","players":null},{"server_id":15,"name":"Uncletopia | New York City | 3 | Stopwatch Beta","name_short":"nyc-3","host":"nyc-1.us.uncletopia.com","port":27035,"enabled":true,"region":"us-east","cc":"us","latitude":40.73061,"longitude":-73.93524,"reserved":0,"last_update":"0001-01-01T00:00:00Z","name_a2s":"Uncletopia | New York City | 3 | Stopwatch Beta","protocol":17,"map":"workshop/pl_vigil_rc9.ugc1266210012","folder":"tf","game":"Team Fortress","app_id":440,"player_count":0,"max_players":24,"Bots":0,"server_type":"Dedicated","server_os":"Linux","password":true,"vac":true,"version":"7742253","steam_id":85568392924742820,"keywords":["nocrits","nodmgspread","payload","uncletopia"],"game_id":440,"stv_port":27036,"stv_name":"Uncletopia | New York City | 3 | Stopwatch Beta | STV","players":null},{"server_id":16,"name":"Uncletopia | New York City | 4 | Community","name_short":"nyc-4","host":"nyc-1.us.uncletopia.com","port":27045,"enabled":true,"region":"us-east","cc":"us","latitude":40.73061,"longitude":-73.93524,"reserved":0,"last_update":"0001-01-01T00:00:00Z","name_a2s":"Uncletopia | New York City | 4 | Community","protocol":17,"map":"workshop/koth_synthetic_rc6a.ugc1549817316","folder":"tf","game":"Team Fortress","app_id":440,"player_count":0,"max_players":24,"Bots":0,"server_type":"Dedicated","server_os":"Linux","password":true,"vac":true,"version":"7742253","steam_id":85568392924742821,"keywords":["cp","nocrits","nodmgspread","uncletopia"],"game_id":440,"stv_port":27046,"stv_name":"Uncletopia | New York City | 4 | Community | STV","players":null},{"server_id":142,"name":"Uncletopia | São Paulo | 1 | All Maps","name_short":"sao-1","host":"sao-1.br.uncletopia.com","port":27015,"enabled":true,"region":"sa","cc":"br","latitude":-23.533773,"longitude":-46.62529,"reserved":0,"last_update":"0001-01-01T00:00:00Z","name_a2s":"Uncletopia | São Paulo | 1 | All Maps","protocol":17,"map":"cp_process_final","folder":"tf","game":"Team Fortress","app_id":440,"player_count":0,"max_players":24,"Bots":0,"server_type":"Dedicated","server_os":"Linux","password":true,"vac":true,"version":"7742253","steam_id":85568392924469996,"keywords":["cp","nocrits","nodmgspread","uncletopia"],"game_id":440,"stv_port":27016,"stv_name":"Uncletopia | São Paulo | 1 | All Maps | STV","players":null},{"server_id":143,"name":"Uncletopia | São Paulo | 2 | All Maps","name_short":"sao-2","host":"sao-2.br.uncletopia.com","port":27015,"enabled":true,"region":"sa","cc":"br","latitude":-23.533773,"longitude":-46.62529,"reserved":0,"last_update":"0001-01-01T00:00:00Z","name_a2s":"Uncletopia | São Paulo | 2 | All Maps","protocol":17,"map":"cp_process_final","folder":"tf","game":"Team Fortress","app_id":440,"player_count":0,"max_players":24,"Bots":0,"server_type":"Dedicated","server_os":"Linux","password":true,"vac":true,"version":"7742253","steam_id":85568392924485349,"keywords":["cp","nocrits","nodmgspread","uncletopia"],"game_id":440,"stv_port":27016,"stv_name":"Uncletopia | São Paulo | 2 | All Maps | STV","players":null},{"server_id":7,"name":"Uncletopia | Seattle | 1 | All Maps","name_short":"sea-1","host":"sea-1.us.uncletopia.com","port":27015,"enabled":true,"region":"us-west","cc":"us","latitude":47.608013,"longitude":-122.33517,"reserved":0,"last_update":"0001-01-01T00:00:00Z","name_a2s":"Uncletopia | Seattle | 1 | All Maps","protocol":17,"map":"pl_badwater","folder":"tf","game":"Team Fortress","app_id":440,"player_count":23,"max_players":24,"Bots":0,"server_type":"Dedicated","server_os":"Linux","password":true,"vac":true,"version":"7742253","steam_id":85568392924469997,"keywords":["nocrits","nodmgspread","payload","uncletopia"],"game_id":440,"stv_port":27016,"stv_name":"Uncletopia | Seattle | 1 | All Maps | STV","players":[{"user_id":260,"name":"gorlab","steam_id":76561198025089694,"connected_time":5694000000000,"state":"spawning","ping":233},{"user_id":298,"name":"rat gets the cheese","steam_id":76561198031234032,"connected_time":1178000000000,"state":"spawning","ping":87},{"user_id":299,"name":"An Old Lady","steam_id":76561198047480318,"connected_time":1178000000000,"state":"spawning","ping":188},{"user_id":252,"name":"P=9Florist","steam_id":76561198009121060,"connected_time":6945000000000,"state":"active","ping":126},{"user_id":213,"name":"Violet K.","steam_id":76561198062963842,"connected_time":11136000000000,"state":"spawning","ping":70},{"user_id":288,"name":"Mr Bones","steam_id":76561198148667535,"connected_time":2295000000000,"state":"active","ping":163},{"user_id":302,"name":"Vladakus","steam_id":76561198195649605,"connected_time":420000000000,"state":"spawning","ping":93},{"user_id":272,"name":"Tom","steam_id":76561198070630154,"connected_time":5164000000000,"state":"spawning","ping":80},{"user_id":237,"name":"Ayayahuasca","steam_id":76561199002906056,"connected_time":8313000000000,"state":"spawning","ping":61},{"user_id":293,"name":"Ducks","steam_id":76561198130038345,"connected_time":1265000000000,"state":"spawning","ping":54},{"user_id":292,"name":"0xFUL","steam_id":76561198081684676,"connected_time":2031000000000,"state":"spawning","ping":72},{"user_id":193,"name":"Level 99 Mudcrab","steam_id":76561198077452771,"connected_time":12925000000000,"state":"spawning","ping":92},{"user_id":273,"name":"soup","steam_id":76561198043209046,"connected_time":5121000000000,"state":"spawning","ping":62},{"user_id":281,"name":"p=9rorytherednosedreindeer","steam_id":76561198065825165,"connected_time":3743000000000,"state":"spawning","ping":85},{"user_id":268,"name":"resh","steam_id":76561198239598834,"connected_time":5174000000000,"state":"spawning","ping":128},{"user_id":287,"name":"mega","steam_id":76561198089520959,"connected_time":2343000000000,"state":"spawning","ping":119},{"user_id":271,"name":"ed","steam_id":76561198080475712,"connected_time":5169000000000,"state":"spawning","ping":79},{"user_id":295,"name":"Stev the Prurient Oxymoron","steam_id":76561197999442625,"connected_time":1191000000000,"state":"spawning","ping":67},{"user_id":296,"name":"profile name","steam_id":76561198032625036,"connected_time":1191000000000,"state":"spawning","ping":66},{"user_id":259,"name":"Google","steam_id":76561198857237473,"connected_time":5788000000000,"state":"active","ping":182},{"user_id":211,"name":"alaska thunderfuck","steam_id":76561198017030029,"connected_time":11278000000000,"state":"spawning","ping":130},{"user_id":275,"name":"p=9HIGHjorts","steam_id":76561199041179985,"connected_time":4885000000000,"state":"spawning","ping":84},{"user_id":297,"name":"SSBM Pelican","steam_id":76561198040697907,"connected_time":1190000000000,"state":"spawning","ping":129}]},{"server_id":119,"name":"Uncletopia | Seattle | 2 | All Maps","name_short":"sea-2","host":"sea-1.us.uncletopia.com","port":27025,"enabled":true,"region":"us-west","cc":"us","latitude":47.608013,"longitude":-122.33517,"reserved":0,"last_update":"0001-01-01T00:00:00Z","name_a2s":"Uncletopia | Seattle | 2 | All Maps","protocol":17,"map":"pl_snowycoast","folder":"tf","game":"Team Fortress","app_id":440,"player_count":23,"max_players":24,"Bots":0,"server_type":"Dedicated","server_os":"Linux","password":true,"vac":true,"version":"7742253","steam_id":85568392924469998,"keywords":["nocrits","nodmgspread","payload","uncletopia"],"game_id":440,"stv_port":27026,"stv_name":"Uncletopia | Seattle | 2 | All Maps | STV","players":[{"user_id":341,"name":"2.jump.studio","steam_id":76561199098290495,"connected_time":1628000000000,"state":"active","ping":54},{"user_id":179,"name":"Nolan","steam_id":76561198169648081,"connected_time":9380000000000,"state":"active","ping":91},{"user_id":340,"name":"The Big Stew","steam_id":76561198164279539,"connected_time":1651000000000,"state":"active","ping":49},{"user_id":350,"name":"radio","steam_id":76561198010226481,"connected_time":1250000000000,"state":"active","ping":79},{"user_id":342,"name":"The Ghast Hunter","steam_id":76561198092979473,"connected_time":1624000000000,"state":"active","ping":49},{"user_id":359,"name":"FCKGW-RHQQ2-YXRKT-8TG6W-2B7Q8","steam_id":76561197993138592,"connected_time":368000000000,"state":"active","ping":36},{"user_id":351,"name":"CheeseCake488","steam_id":76561199407617942,"connected_time":1166000000000,"state":"active","ping":104},{"user_id":355,"name":"neeko go fishing","steam_id":76561198108938632,"connected_time":628000000000,"state":"active","ping":90},{"user_id":347,"name":"33","steam_id":76561198894676484,"connected_time":1459000000000,"state":"active","ping":82},{"user_id":324,"name":"TimeSnake","steam_id":76561198052098233,"connected_time":2036000000000,"state":"active","ping":60},{"user_id":352,"name":"PerKnuckleChuckle","steam_id":76561198023221596,"connected_time":976000000000,"state":"active","ping":77},{"user_id":358,"name":"HunnyHawk","steam_id":76561198389215692,"connected_time":419000000000,"state":"active","ping":119},{"user_id":356,"name":"bee","steam_id":76561198025553902,"connected_time":517000000000,"state":"active","ping":89},{"user_id":363,"name":"RayLee","steam_id":76561198086161771,"connected_time":159000000000,"state":"active","ping":123},{"user_id":325,"name":"mango","steam_id":76561198099941188,"connected_time":2032000000000,"state":"active","ping":76},{"user_id":364,"name":"Finkly","steam_id":76561198049828110,"connected_time":127000000000,"state":"active","ping":45},{"user_id":327,"name":"Zebruh","steam_id":76561198128297356,"connected_time":1981000000000,"state":"active","ping":55},{"user_id":360,"name":"squid game","steam_id":76561199248960166,"connected_time":296000000000,"state":"active","ping":41},{"user_id":361,"name":"Marv_L","steam_id":76561198035709541,"connected_time":233000000000,"state":"active","ping":74},{"user_id":332,"name":"Chump-Action","steam_id":76561198025809566,"connected_time":1857000000000,"state":"active","ping":63},{"user_id":362,"name":"Yo, merry Christmas!","steam_id":76561198421913648,"connected_time":220000000000,"state":"active","ping":45},{"user_id":294,"name":"tiggy","steam_id":76561198197643703,"connected_time":3417000000000,"state":"active","ping":52},{"user_id":354,"name":"big car","steam_id":76561198067082350,"connected_time":713000000000,"state":"active","ping":66}]},{"server_id":406,"name":"Uncletopia | Seattle | 3 | Stopwatch Beta","name_short":"sea-3","host":"sea-1.us.uncletopia.com","port":27035,"enabled":true,"region":"us-west","cc":"us","latitude":47.608013,"longitude":-122.33517,"reserved":0,"last_update":"0001-01-01T00:00:00Z","name_a2s":"Uncletopia | Seattle | 3 | Stopwatch Beta","protocol":17,"map":"pl_upward","folder":"tf","game":"Team Fortress","app_id":440,"player_count":1,"max_players":24,"Bots":0,"server_type":"Dedicated","server_os":"Linux","password":true,"vac":false,"version":"7742253","steam_id":0,"keywords":["nocrits","nodmgspread","payload","uncletopia"],"game_id":440,"stv_port":27036,"stv_name":"Uncletopia | Seattle | 3 | Stopwatch Beta | STV","players":[{"user_id":3,"name":"Mr.Thirteen","steam_id":76561198047468836,"connected_time":23000000000,"state":"active","ping":57}]},{"server_id":17,"name":"Uncletopia | San Francisco | 1 | All Maps","name_short":"sfo-1","host":"sfo-1.us.uncletopia.com","port":27015,"enabled":true,"region":"us-west","cc":"us","latitude":37.77397,"longitude":-122.4313,"reserved":0,"last_update":"0001-01-01T00:00:00Z","name_a2s":"Uncletopia | San Francisco | 1 | All Maps","protocol":17,"map":"pl_pier","folder":"tf","game":"Team Fortress","app_id":440,"player_count":23,"max_players":24,"Bots":0,"server_type":"Dedicated","server_os":"Linux","password":true,"vac":true,"version":"7742253","steam_id":85568392924469999,"keywords":["nocrits","nodmgspread","payload","uncletopia"],"game_id":440,"stv_port":27016,"stv_name":"Uncletopia | San Francisco | 1 | All Maps | STV","players":[{"user_id":308,"name":"Terribad","steam_id":76561198120844785,"connected_time":728000000000,"state":"active","ping":63},{"user_id":311,"name":"Mom","steam_id":76561198207936000,"connected_time":642000000000,"state":"active","ping":50},{"user_id":291,"name":"zEtriaN","steam_id":76561198150137369,"connected_time":1346000000000,"state":"active","ping":58},{"user_id":306,"name":"SirZane","steam_id":76561198851064316,"connected_time":876000000000,"state":"active","ping":49},{"user_id":300,"name":"gamer_hater","steam_id":76561198973306314,"connected_time":1056000000000,"state":"active","ping":49},{"user_id":305,"name":"Can You Believe It Guys?","steam_id":76561198401455467,"connected_time":951000000000,"state":"active","ping":60},{"user_id":137,"name":"Dali","steam_id":76561198077593486,"connected_time":13843000000000,"state":"active","ping":67},{"user_id":324,"name":"Larry Gooseman","steam_id":76561198018696922,"connected_time":92000000000,"state":"active","ping":60},{"user_id":307,"name":"agolem3214","steam_id":76561198121844002,"connected_time":816000000000,"state":"active","ping":41},{"user_id":309,"name":"Tyronus","steam_id":76561198033606628,"connected_time":723000000000,"state":"active","ping":70},{"user_id":312,"name":"fox point ranger","steam_id":76561198000765454,"connected_time":545000000000,"state":"active","ping":56},{"user_id":290,"name":"Earth","steam_id":76561198108908550,"connected_time":1362000000000,"state":"active","ping":59},{"user_id":320,"name":"soup mode","steam_id":76561198071451771,"connected_time":224000000000,"state":"active","ping":40},{"user_id":314,"name":"doozy","steam_id":76561198033106776,"connected_time":443000000000,"state":"active","ping":103},{"user_id":315,"name":"ena - d","steam_id":76561198072329335,"connected_time":430000000000,"state":"active","ping":107},{"user_id":243,"name":"Anthid","steam_id":76561198074493797,"connected_time":6791000000000,"state":"active","ping":74},{"user_id":322,"name":"MR. MODE","steam_id":76561198046775352,"connected_time":130000000000,"state":"active","ping":54},{"user_id":317,"name":"Hoenut","steam_id":76561198079676597,"connected_time":416000000000,"state":"active","ping":96},{"user_id":318,"name":"Kachinga","steam_id":76561198193342205,"connected_time":347000000000,"state":"active","ping":69},{"user_id":323,"name":"yaoi waoi","steam_id":76561198046073848,"connected_time":119000000000,"state":"active","ping":67},{"user_id":276,"name":"Zell Da Sheepy","steam_id":76561198978753666,"connected_time":2900000000000,"state":"active","ping":70},{"user_id":293,"name":"Masonator #savetf2","steam_id":76561198409682030,"connected_time":1324000000000,"state":"active","ping":45},{"user_id":297,"name":"Magitrex","steam_id":76561199088811754,"connected_time":1241000000000,"state":"active","ping":84}]},{"server_id":18,"name":"Uncletopia | San Francisco | 2 | All Maps","name_short":"sfo-2","host":"sfo-1.us.uncletopia.com","port":27025,"enabled":true,"region":"us-west","cc":"us","latitude":37.77397,"longitude":-122.4313,"reserved":0,"last_update":"0001-01-01T00:00:00Z","name_a2s":"Uncletopia | San Francisco | 2 | All Maps","protocol":17,"map":"cp_process_final","folder":"tf","game":"Team Fortress","app_id":440,"player_count":0,"max_players":24,"Bots":0,"server_type":"Dedicated","server_os":"Linux","password":true,"vac":true,"version":"7742253","steam_id":85568392924470000,"keywords":["cp","nocrits","nodmgspread","uncletopia"],"game_id":440,"stv_port":27026,"stv_name":"Uncletopia | San Francisco | 2 | All Maps | STV","players":null},{"server_id":19,"name":"Uncletopia | San Francisco | 3 | Stopwatch Beta","name_short":"sfo-3","host":"sfo-1.us.uncletopia.com","port":27035,"enabled":true,"region":"us-west","cc":"us","latitude":37.77397,"longitude":-122.4313,"reserved":0,"last_update":"0001-01-01T00:00:00Z","name_a2s":"Uncletopia | San Francisco | 3 | Stopwatch Beta","protocol":17,"map":"workshop/koth_ashville_final.ugc2130459942","folder":"tf","game":"Team Fortress","app_id":440,"player_count":0,"max_players":24,"Bots":0,"server_type":"Dedicated","server_os":"Linux","password":true,"vac":true,"version":"7742253","steam_id":85568392924742824,"keywords":["cp","nocrits","nodmgspread","uncletopia"],"game_id":440,"stv_port":27036,"stv_name":"Uncletopia | San Francisco | 3 | Stopwatch Beta | STV","players":null},{"server_id":20,"name":"Uncletopia | San Francisco | 4 | Community","name_short":"sfo-4","host":"sfo-1.us.uncletopia.com","port":27045,"enabled":true,"region":"us-west","cc":"us","latitude":37.77397,"longitude":-122.4313,"reserved":0,"last_update":"0001-01-01T00:00:00Z","name_a2s":"Uncletopia | San Francisco | 4 | Community","protocol":17,"map":"workshop/koth_ashville_final.ugc2130459942","folder":"tf","game":"Team Fortress","app_id":440,"player_count":6,"max_players":24,"Bots":0,"server_type":"Dedicated","server_os":"Linux","password":true,"vac":true,"version":"7742253","steam_id":85568392924742826,"keywords":["cp","nocrits","nodmgspread","uncletopia"],"game_id":440,"stv_port":27046,"stv_name":"Uncletopia | San Francisco | 4 | Community | STV","players":[{"user_id":133,"name":"󠀡󠀡","steam_id":76561198878940647,"connected_time":2923000000000,"state":"active","ping":48},{"user_id":128,"name":"KING GLIZZARD","steam_id":76561198831617384,"connected_time":8762000000000,"state":"active","ping":94},{"user_id":134,"name":"CrackedSanity","steam_id":76561198279841251,"connected_time":1808000000000,"state":"active","ping":46},{"user_id":137,"name":"SpiderString","steam_id":76561198092409181,"connected_time":971000000000,"state":"active","ping":126},{"user_id":138,"name":"banana","steam_id":76561199205336397,"connected_time":166000000000,"state":"active","ping":219},{"user_id":139,"name":"Happy Gabby","steam_id":76561198402633349,"connected_time":110000000000,"state":"active","ping":229}]},{"server_id":141,"name":"Uncletopia | Sydney | 1 | All Maps","name_short":"syd-1","host":"syd-1.au.uncletopia.com","port":27015,"enabled":true,"region":"au","cc":"au","latitude":-33.865143,"longitude":151.2099,"reserved":0,"last_update":"0001-01-01T00:00:00Z","name_a2s":"Uncletopia | Sydney | 1 | All Maps","protocol":17,"map":"pl_badwater","folder":"tf","game":"Team Fortress","app_id":440,"player_count":24,"max_players":24,"Bots":0,"server_type":"Dedicated","server_os":"Linux","password":true,"vac":true,"version":"7742253","steam_id":85568392924470001,"keywords":["nocrits","nodmgspread","payload","uncletopia"],"game_id":440,"stv_port":27016,"stv_name":"Uncletopia | Sydney | 1 | All Maps | STV","players":[{"user_id":177,"name":"Paradon YT","steam_id":76561198060176705,"connected_time":3153000000000,"state":"active","ping":106},{"user_id":156,"name":":)","steam_id":76561198025225448,"connected_time":4343000000000,"state":"active","ping":76},{"user_id":157,"name":"plaything","steam_id":76561198132937542,"connected_time":4342000000000,"state":"active","ping":64},{"user_id":224,"name":"PowerPoint","steam_id":76561198273534645,"connected_time":1104000000000,"state":"active","ping":62},{"user_id":161,"name":"(◕‿◕✿)","steam_id":76561197972786509,"connected_time":4267000000000,"state":"active","ping":81},{"user_id":242,"name":"Mungbean","steam_id":76561198192300679,"connected_time":449000000000,"state":"active","ping":74},{"user_id":236,"name":"Smae ⎊ ⎊","steam_id":76561198161497327,"connected_time":687000000000,"state":"active","ping":65},{"user_id":243,"name":"FrOStY","steam_id":76561198088155805,"connected_time":81000000000,"state":"active","ping":69},{"user_id":176,"name":"Cat","steam_id":76561199262196710,"connected_time":3266000000000,"state":"active","ping":43},{"user_id":180,"name":"var","steam_id":76561198164892406,"connected_time":3001000000000,"state":"active","ping":61},{"user_id":216,"name":"APVC","steam_id":76561199090168813,"connected_time":1775000000000,"state":"active","ping":49},{"user_id":209,"name":"Bamooxa","steam_id":76561198067160709,"connected_time":2213000000000,"state":"active","ping":87},{"user_id":219,"name":"lapisss","steam_id":76561198828325267,"connected_time":1572000000000,"state":"active","ping":66},{"user_id":227,"name":"rims","steam_id":76561198093828661,"connected_time":990000000000,"state":"active","ping":76},{"user_id":185,"name":"carrot monster","steam_id":76561199056025092,"connected_time":2869000000000,"state":"active","ping":35},{"user_id":229,"name":"Pete","steam_id":76561198160832579,"connected_time":871000000000,"state":"active","ping":135},{"user_id":234,"name":"Diavolo Diablo","steam_id":76561198166295333,"connected_time":760000000000,"state":"active","ping":161},{"user_id":230,"name":"Pompadouraus","steam_id":76561198327530525,"connected_time":838000000000,"state":"active","ping":74},{"user_id":238,"name":"Psycho Pyro","steam_id":76561198062187870,"connected_time":659000000000,"state":"active","ping":43},{"user_id":231,"name":"Darren","steam_id":76561198988128327,"connected_time":835000000000,"state":"active","ping":44},{"user_id":202,"name":"Whomobile","steam_id":76561198005831324,"connected_time":2330000000000,"state":"active","ping":83},{"user_id":203,"name":"Abraham Lincoln","steam_id":76561198095292515,"connected_time":2308000000000,"state":"active","ping":51},{"user_id":233,"name":"qionglu","steam_id":76561198421797441,"connected_time":798000000000,"state":"active","ping":58},{"user_id":240,"name":"bro","steam_id":76561198310908346,"connected_time":602000000000,"state":"active","ping":61}]},{"server_id":123,"name":"Uncletopia | Sydney | 2 | All Maps","name_short":"syd-2","host":"syd-1.au.uncletopia.com","port":27025,"enabled":true,"region":"au","cc":"au","latitude":-33.865143,"longitude":151.2099,"reserved":0,"last_update":"0001-01-01T00:00:00Z","name_a2s":"Uncletopia | Sydney | 2 | All Maps","protocol":17,"map":"pl_frontier_final","folder":"tf","game":"Team Fortress","app_id":440,"player_count":24,"max_players":24,"Bots":0,"server_type":"Dedicated","server_os":"Linux","password":true,"vac":true,"version":"7742253","steam_id":85568392924470002,"keywords":["nocrits","nodmgspread","payload","uncletopia"],"game_id":440,"stv_port":27026,"stv_name":"Uncletopia | Sydney | 2 | All Maps | STV","players":[{"user_id":321,"name":"mike oxlong","steam_id":76561199005605438,"connected_time":404000000000,"state":"active","ping":43},{"user_id":293,"name":"rastaFROG730","steam_id":76561198058812647,"connected_time":2585000000000,"state":"active","ping":45},{"user_id":326,"name":"korpz","steam_id":76561197996888637,"connected_time":243000000000,"state":"active","ping":60},{"user_id":314,"name":"Jandal","steam_id":76561198982058787,"connected_time":715000000000,"state":"active","ping":65},{"user_id":280,"name":"Gasoline","steam_id":76561198879023728,"connected_time":3352000000000,"state":"active","ping":72},{"user_id":318,"name":"nutti ^v^","steam_id":76561198315858984,"connected_time":509000000000,"state":"active","ping":73},{"user_id":211,"name":"IamDinosaur","steam_id":76561198081540507,"connected_time":6604000000000,"state":"active","ping":64},{"user_id":322,"name":"krandlez` (Any/All)","steam_id":76561198044839726,"connected_time":377000000000,"state":"active","ping":45},{"user_id":330,"name":"Orsn","steam_id":76561198297074145,"connected_time":49000000000,"state":"active","ping":95},{"user_id":292,"name":"suitdummy22","steam_id":76561198042198744,"connected_time":2640000000000,"state":"active","ping":45},{"user_id":323,"name":"I HATE DUSTBOWL","steam_id":76561198117785377,"connected_time":364000000000,"state":"active","ping":60},{"user_id":306,"name":"john","steam_id":76561199222027878,"connected_time":1391000000000,"state":"active","ping":62},{"user_id":212,"name":"SpazzticDwarf","steam_id":76561198861737121,"connected_time":6592000000000,"state":"active","ping":60},{"user_id":308,"name":"terrablade_master","steam_id":76561198997249192,"connected_time":1138000000000,"state":"active","ping":67},{"user_id":284,"name":"Marleynator","steam_id":76561198042517985,"connected_time":3229000000000,"state":"active","ping":100},{"user_id":327,"name":"normans on sabbatical honey","steam_id":76561198082423230,"connected_time":223000000000,"state":"active","ping":75},{"user_id":324,"name":"burfdae boi","steam_id":76561199000827969,"connected_time":340000000000,"state":"active","ping":44},{"user_id":214,"name":"Armapillow","steam_id":76561198060386357,"connected_time":6561000000000,"state":"active","ping":68},{"user_id":309,"name":"canned tuna","steam_id":76561198420727269,"connected_time":1136000000000,"state":"active","ping":43},{"user_id":325,"name":"TigerThorn","steam_id":76561198930701873,"connected_time":328000000000,"state":"active","ping":60},{"user_id":328,"name":"TheSticky_Studio","steam_id":76561198428683022,"connected_time":160000000000,"state":"active","ping":162},{"user_id":283,"name":"Wake'n'Bake'n'Make'n'Bacon","steam_id":76561198061960926,"connected_time":3328000000000,"state":"active","ping":88},{"user_id":329,"name":"what_happy","steam_id":76561198971334734,"connected_time":138000000000,"state":"active","ping":63},{"user_id":276,"name":"mrgonzales123","steam_id":76561199052767588,"connected_time":3584000000000,"state":"active","ping":76}]},{"server_id":395,"name":"Uncletopia | Sydney | 3 | All Maps","name_short":"syd-3","host":"syd-1.au.uncletopia.com","port":27035,"enabled":true,"region":"au","cc":"au","latitude":-33.865143,"longitude":151.2099,"reserved":0,"last_update":"0001-01-01T00:00:00Z","name_a2s":"Uncletopia | Sydney | 3 | All Maps","protocol":17,"map":"cp_snakewater_final1","folder":"tf","game":"Team Fortress","app_id":440,"player_count":0,"max_players":24,"Bots":0,"server_type":"Dedicated","server_os":"Linux","password":true,"vac":true,"version":"7742253","steam_id":85568392925194467,"keywords":["cp","nocrits","nodmgspread","uncletopia"],"game_id":440,"stv_port":27036,"stv_name":"Uncletopia | Sydney | 3 | All Maps | STV","players":null},{"server_id":396,"name":"Uncletopia | Sydney | 4 | All Maps","name_short":"syd-4","host":"syd-1.au.uncletopia.com","port":27045,"enabled":true,"region":"au","cc":"au","latitude":-33.865143,"longitude":151.2099,"reserved":0,"last_update":"0001-01-01T00:00:00Z","name_a2s":"Uncletopia | Sydney | 4 | All Maps","protocol":17,"map":"cp_mountainlab","folder":"tf","game":"Team Fortress","app_id":440,"player_count":0,"max_players":24,"Bots":0,"server_type":"Dedicated","server_os":"Linux","password":true,"vac":true,"version":"7742253","steam_id":85568392925397958,"keywords":["cp","nocrits","nodmgspread","uncletopia"],"game_id":440,"stv_port":27046,"stv_name":"Uncletopia | Sydney | 4 | All Maps | STV","players":null},{"server_id":58,"name":"Uncletopia | Sydney | 5 | Stopwatch Beta","name_short":"syd-5","host":"syd-1.au.uncletopia.com","port":27055,"enabled":true,"region":"au","cc":"au","latitude":-33.865143,"longitude":151.2099,"reserved":0,"last_update":"0001-01-01T00:00:00Z","name_a2s":"Uncletopia | Sydney | 5 | Stopwatch Beta","protocol":17,"map":"cp_snakewater_final1","folder":"tf","game":"Team Fortress","app_id":440,"player_count":0,"max_players":24,"Bots":0,"server_type":"Dedicated","server_os":"Linux","password":true,"vac":true,"version":"7742253","steam_id":85568392925397959,"keywords":["cp","nocrits","nodmgspread","uncletopia"],"game_id":440,"stv_port":27056,"stv_name":"Uncletopia | Sydney | 5 | Stopwatch Beta | STV","players":null},{"server_id":59,"name":"Uncletopia | Sydney | 6 | Community","name_short":"syd-6","host":"syd-1.au.uncletopia.com","port":27065,"enabled":true,"region":"au","cc":"au","latitude":-33.865143,"longitude":151.2099,"reserved":0,"last_update":"0001-01-01T00:00:00Z","name_a2s":"Uncletopia | Sydney | 6 | Community","protocol":17,"map":"workshop/koth_slaughter_rc1.ugc1712845210","folder":"tf","game":"Team Fortress","app_id":440,"player_count":0,"max_players":24,"Bots":0,"server_type":"Dedicated","server_os":"Linux","password":true,"vac":true,"version":"7742253","steam_id":85568392925397960,"keywords":["cp","nocrits","nodmgspread","uncletopia"],"game_id":440,"stv_port":27066,"stv_name":"Uncletopia | Sydney | 6 | Community | STV","players":null},{"server_id":49,"name":"Uncletopia | Warsaw | 1 | All Maps","name_short":"waw-1","host":"waw-1.pl.uncletopia.com","port":27015,"enabled":true,"region":"eu","cc":"pl","latitude":52.2297,"longitude":21.017532,"reserved":0,"last_update":"0001-01-01T00:00:00Z","name_a2s":"Uncletopia | Warsaw | 1 | All Maps","protocol":17,"map":"koth_lakeside_final","folder":"tf","game":"Team Fortress","app_id":440,"player_count":0,"max_players":24,"Bots":0,"server_type":"Dedicated","server_os":"Linux","password":true,"vac":true,"version":"7723704","steam_id":85568392925397850,"keywords":["cp","nocrits","nodmgspread","uncletopia"],"game_id":440,"stv_port":27016,"stv_name":"Uncletopia | Warsaw | 1 | All Maps | STV","players":null},{"server_id":50,"name":"Uncletopia | Warsaw | 2 | All Maps","name_short":"waw-2","host":"waw-1.pl.uncletopia.com","port":27025,"enabled":true,"region":"eu","cc":"pl","latitude":52.2297,"longitude":21.017532,"reserved":0,"last_update":"0001-01-01T00:00:00Z","name_a2s":"Uncletopia | Warsaw | 2 | All Maps","protocol":17,"map":"pl_frontier_final","folder":"tf","game":"Team Fortress","app_id":440,"player_count":0,"max_players":24,"Bots":0,"server_type":"Dedicated","server_os":"Linux","password":true,"vac":true,"version":"7742253","steam_id":85568392925397851,"keywords":["nocrits","nodmgspread","payload","uncletopia"],"game_id":440,"stv_port":27026,"stv_name":"Uncletopia | Warsaw | 2 | All Maps | STV","players":null},{"server_id":51,"name":"Uncletopia | Warsaw | 3 | All Maps","name_short":"waw-3","host":"waw-1.pl.uncletopia.com","port":27035,"enabled":true,"region":"eu","cc":"pl","latitude":52.2297,"longitude":21.017532,"reserved":0,"last_update":"0001-01-01T00:00:00Z","name_a2s":"Uncletopia | Warsaw | 3 | All Maps","protocol":17,"map":"pl_frontier_final","folder":"tf","game":"Team Fortress","app_id":440,"player_count":0,"max_players":24,"Bots":0,"server_type":"Dedicated","server_os":"Linux","password":true,"vac":true,"version":"7742253","steam_id":85568392925397852,"keywords":["nocrits","nodmgspread","payload","uncletopia"],"game_id":440,"stv_port":27036,"stv_name":"Uncletopia | Warsaw | 3 | All Maps | STV","players":null},{"server_id":52,"name":"Uncletopia | Warsaw | 4 | All Maps","name_short":"waw-4","host":"waw-1.pl.uncletopia.com","port":27045,"enabled":true,"region":"eu","cc":"pl","latitude":52.2297,"longitude":21.017532,"reserved":0,"last_update":"0001-01-01T00:00:00Z","name_a2s":"Uncletopia | Warsaw | 4 | All Maps","protocol":17,"map":"pl_swiftwater_final1","folder":"tf","game":"Team Fortress","app_id":440,"player_count":0,"max_players":24,"Bots":0,"server_type":"Dedicated","server_os":"Linux","password":true,"vac":true,"version":"7742253","steam_id":85568392925397853,"keywords":["nocrits","nodmgspread","payload","uncletopia"],"game_id":440,"stv_port":27046,"stv_name":"Uncletopia | Warsaw | 4 | All Maps | STV","players":null},{"server_id":53,"name":"Uncletopia | Warsaw | 5 | Stopwatch Beta","name_short":"waw-5","host":"waw-1.pl.uncletopia.com","port":27055,"enabled":true,"region":"eu","cc":"pl","latitude":52.2297,"longitude":21.017532,"reserved":0,"last_update":"0001-01-01T00:00:00Z","name_a2s":"Uncletopia | Warsaw | 5 | Stopwatch Beta","protocol":17,"map":"pl_pier","folder":"tf","game":"Team Fortress","app_id":440,"player_count":0,"max_players":24,"Bots":0,"server_type":"Dedicated","server_os":"Linux","password":true,"vac":true,"version":"7742253","steam_id":85568392925397854,"keywords":["nocrits","nodmgspread","payload","uncletopia"],"game_id":440,"stv_port":27056,"stv_name":"Uncletopia | Warsaw | 5 | Stopwatch Beta | STV","players":null},{"server_id":54,"name":"Uncletopia | Warsaw | 6 | Community","name_short":"waw-6","host":"waw-1.pl.uncletopia.com","port":27065,"enabled":true,"region":"eu","cc":"pl","latitude":52.2297,"longitude":21.017532,"reserved":0,"last_update":"0001-01-01T00:00:00Z","name_a2s":"Uncletopia | Warsaw | 6 | Community","protocol":17,"map":"cp_sunshine","folder":"tf","game":"Team Fortress","app_id":440,"player_count":0,"max_players":24,"Bots":0,"server_type":"Dedicated","server_os":"Linux","password":true,"vac":true,"version":"7742253","steam_id":85568392925397856,"keywords":["cp","nocrits","nodmgspread","uncletopia"],"game_id":440,"stv_port":27066,"stv_name":"Uncletopia | Warsaw | 6 | Community | STV","players":null}]}