{"status":true,"message":"","result":[{"server_id":9,"name":"Uncletopia | Atlanta | 1 | All Maps","name_short":"atl-1","host":"atl-1.us.uncletopia.com","port":27015,"enabled":true,"region":"us-east","cc":"us","latitude":33.753746,"longitude":-84.38633,"reserved":0,"last_update":"0001-01-01T00:00:00Z","name_a2s":"Uncletopia | Atlanta | 1 | All Maps","protocol":17,"map":"koth_cascade","folder":"tf","game":"Team Fortress","app_id":440,"player_count":0,"max_players":24,"Bots":0,"server_type":"Dedicated","server_os":"Linux","password":true,"vac":true,"version":"7932396","steam_id":85568392924469982,"keywords":["cp","nocrits","nodmgspread","uncletopia"],"game_id":440,"stv_port":27016,"stv_name":"Uncletopia | Atlanta | 1 | All Maps | STV","players":null},{"server_id":104,"name":"Uncletopia | Atlanta | 2 | All Maps","name_short":"atl-2","host":"atl-1.us.uncletopia.com","port":27025,"enabled":true,"region":"us-east","cc":"us","latitude":33.753746,"longitude":-84.38633,"reserved":0,"last_update":"0001-01-01T00:00:00Z","name_a2s":"Uncletopia | Atlanta | 2 | All Maps","protocol":17,"map":"pl_upward","folder":"tf","game":"Team Fortress","app_id":440,"player_count":10,"max_players":24,"Bots":0,"server_type":"Dedicated","server_os":"Linux","password":true,"vac":true,"version":"7932396","steam_id":85568392924469983,"keywords":["nocrits","nodmgspread","payload","uncletopia"],"game_id":440,"stv_port":27026,"stv_name":"Uncletopia | Atlanta | 2 | All Maps | STV","players":[{"user_id":1188,"name":"Isotope","steam_id":76561199480883504,"connected_time":4735000000000,"state":"active","ping":78},{"user_id":1245,"name":"cabannoahn","steam_id":76561199232960410,"connected_time":2220000000000,"state":"active","ping":102},{"user_id":1246,"name":"Major","steam_id":76561198334210109,"connected_time":1829000000000,"state":"active","ping":91},{"user_id":1248,"name":"Revenant-6","steam_id":76561198124566666,"connected_time":1547000000000,"state":"active","ping":89},{"user_id":1249,"name":"Nebulous","steam_id":76561198289990049,"connected_time":1538000000000,"state":"active","ping":119},{"user_id":1256,"name":"Portaljumper02","steam_id":76561199199139402,"connected_time":1109000000000,"state":"active","ping":113},{"user_id":1259,"name":"Linkedfurhire","steam_id":76561198149363268,"connected_time":1042000000000,"state":"active","ping":36},{"user_id":1265,"name":"grillbyssisoloeso","steam_id":76561199105132740,"connected_time":641000000000,"state":"active","ping":119},{"user_id":1276,"name":"BroBama","steam_id":76561198203732587,"connected_time":190000000000,"state":"active","ping":94},{"user_id":1268,"name":"ChozoChorizo","steam_id":76561198272609196,"connected_time":510000000000,"state":"active","ping":64}]},{"server_id":400,"name":"Uncletopia | Atlanta | 3 | Community","name_short":"atl-3","host":"atl-1.us.uncletopia.com","port":27035,"enabled":true,"region":"us-east","cc":"us","latitude":33.753746,"longitude":-84.38633,"reserved":0,"last_update":"0001-01-01T00:00:00Z","name_a2s":"Uncletopia | Atlanta | 3 | Community","protocol":17,"map":"workshop/rd_asteroid_redux_b1.ugc2154902912","folder":"tf","game":"Team Fortress","app_id":440,"player_count":0,"max_players":24,"Bots":0,"server_type":"Dedicated","server_os":"Linux","password":true,"vac":true,"version":"7932396","steam_id":85568392924515187,"keywords":["beta","nocrits","nodmgspread","rd","uncletopia"],"game_id":440,"stv_port":27036,"stv_name":"Uncletopia | Atlanta | 3 | Community | STV","players":null},{"server_id":401,"name":"Uncletopia | Atlanta | 4 | No Payload","name_short":"atl-4","host":"atl-1.us.uncletopia.com","port":27045,"enabled":true,"region":"us-east","cc":"us","latitude":33.753746,"longitude":-84.38633,"reserved":0,"last_update":"0001-01-01T00:00:00Z","name_a2s":"","protocol":0,"map":"","folder":"","game":"","app_id":0,"player_count":0,"max_players":0,"Bots":0,"server_type":"","server_os":"","password":false,"vac":false,"version":"","steam_id":0,"keywords":null,"game_id":0,"stv_port":0,"stv_name":"","players":null},{"server_id":2,"name":"Uncletopia | Chicago | 1 | All Maps","name_short":"chi-1","host":"chi-1.us.uncletopia.com","port":27015,"enabled":true,"region":"us-central","cc":"us","latitude":41.881832,"longitude":-87.62318,"reserved":0,"last_update":"0001-01-01T00:00:00Z","name_a2s":"Uncletopia | Chicago | 1 | All Maps","protocol":17,"map":"pl_upward","folder":"tf","game":"Team Fortress","app_id":440,"player_count":24,"max_players":24,"Bots":0,"server_type":"Dedicated","server_os":"Linux","password":true,"vac":true,"version":"7932396","steam_id":85568392924469984,"keywords":["nocrits","nodmgspread","payload","uncletopia"],"game_id":440,"stv_port":27016,"stv_name":"Uncletopia | Chicago | 1 | All Maps | STV","players":[{"user_id":525,"name":"DragonFalcon™","steam_id":76561198044559930,"connected_time":4000000000,"state":"spawning","ping":80},{"user_id":510,"name":"SeaCrane1","steam_id":76561198025723233,"connected_time":918000000000,"state":"active","ping":63},{"user_id":504,"name":"TheGhostThatWas","steam_id":76561198055836483,"connected_time":1716000000000,"state":"active","ping":58},{"user_id":506,"name":"TF2C | fac -AA-","steam_id":76561198009818412,"connected_time":1675000000000,"state":"active","ping":70},{"user_id":524,"name":"(TPT) Ghost","steam_id":76561198123262873,"connected_time":323000000000,"state":"active","ping":113},{"user_id":483,"name":"Wizard Raccoon","steam_id":76561198072562591,"connected_time":4548000000000,"state":"active","ping":80},{"user_id":472,"name":"Melody","steam_id":76561198407789232,"connected_time":5793000000000,"state":"active","ping":131},{"user_id":521,"name":"Katy","steam_id":76561198079395814,"connected_time":387000000000,"state":"active","ping":59},{"user_id":516,"name":"Ridna","steam_id":76561198131627599,"connected_time":609000000000,"state":"active","ping":89},{"user_id":485,"name":"eveie0mlets","steam_id":76561198259172011,"connected_time":4414000000000,"state":"active","ping":81},{"user_id":519,"name":"Lore","steam_id":76561198098407538,"connected_time":447000000000,"state":"active","ping":52},{"user_id":512,"name":"Goober Gaming","steam_id":76561198095550617,"connected_time":914000000000,"state":"active","ping":65},{"user_id":486,"name":"Drapph","steam_id":76561199384213314,"connected_time":3920000000000,"state":"active","ping":64},{"user_id":474,"name":"SquishyDog","steam_id":76561198059014380,"connected_time":5330000000000,"state":"active","ping":45},{"user_id":517,"name":"Dr. Wario","steam_id":76561198901238861,"connected_time":548000000000,"state":"active","ping":103},{"user_id":513,"name":"Wolf Hat","steam_id":76561198099996051,"connected_time":906000000000,"state":"active","ping":65},{"user_id":509,"name":"Spy Gaming","steam_id":76561198453295613,"connected_time":920000000000,"state":"active","ping":111},{"user_id":515,"name":"Meh","steam_id":76561198078187920,"connected_time":886000000000,"state":"active","ping":82},{"user_id":500,"name":"Horrizan","steam_id":76561197965028480,"connected_time":1883000000000,"state":"active","ping":87},{"user_id":522,"name":"Olly","steam_id":76561198054273611,"connected_time":373000000000,"state":"active","ping":65},{"user_id":482,"name":"fudge lord","steam_id":76561198118318422,"connected_time":5115000000000,"state":"active","ping":94},{"user_id":523,"name":"OmniMoto","steam_id":76561198091298557,"connected_time":350000000000,"state":"active","ping":81},{"user_id":508,"name":"sunset in miami","steam_id":76561198172732375,"connected_time":1643000000000,"state":"active","ping":62},{"user_id":503,"name":"Zephyr","steam_id":76561198129785553,"connected_time":1799000000000,"state":"active","ping":90}]},{"server_id":106,"name":"Uncletopia | Chicago | 2 | All Maps","name_short":"chi-2","host":"chi-1.us.uncletopia.com","port":27025,"enabled":true,"region":"us-central","cc":"us","latitude":41.881832,"longitude":-87.62318,"reserved":0,"last_update":"0001-01-01T00:00:00Z","name_a2s":"Uncletopia | Chicago | 2 | All Maps","protocol":17,"map":"pl_snowycoast","folder":"tf","game":"Team Fortress","app_id":440,"player_count":24,"max_players":24,"Bots":0,"server_type":"Dedicated","server_os":"Linux","password":true,"vac":true,"version":"7932396","steam_id":85568392924469985,"keywords":["nocrits","nodmgspread","payload","uncletopia"],"game_id":440,"stv_port":27026,"stv_name":"Uncletopia | Chicago | 2 | All Maps | STV","players":[{"user_id":776,"name":"E P H E M E R A L","steam_id":76561198128614882,"connected_time":364000000000,"state":"active","ping":84},{"user_id":747,"name":"OWEENIE","steam_id":76561198083135927,"connected_time":3329000000000,"state":"active","ping":45},{"user_id":775,"name":"Servitz","steam_id":76561198194446835,"connected_time":487000000000,"state":"active","ping":68},{"user_id":765,"name":"Spid3y","steam_id":76561198084573643,"connected_time":1298000000000,"state":"active","ping":102},{"user_id":758,"name":"uwuziel","steam_id":76561198143355561,"connected_time":1425000000000,"state":"active","ping":64},{"user_id":768,"name":"Tree","steam_id":76561198195445331,"connected_time":1227000000000,"state":"active","ping":120},{"user_id":777,"name":"frank","steam_id":76561198137777483,"connected_time":344000000000,"state":"active","ping":62},{"user_id":724,"name":"Disco Fever","steam_id":76561198069532215,"connected_time":5876000000000,"state":"active","ping":72},{"user_id":730,"name":"venomew2","steam_id":76561198327081077,"connected_time":5604000000000,"state":"active","ping":85},{"user_id":759,"name":"Duncan Idaho","steam_id":76561197988963861,"connected_time":1407000000000,"state":"active","ping":72},{"user_id":725,"name":"Gason Homoa","steam_id":76561199000180522,"connected_time":5866000000000,"state":"active","ping":90},{"user_id":672,"name":"Dead_Stranger","steam_id":76561198120804563,"connected_time":10067000000000,"state":"active","ping":107},{"user_id":770,"name":"StevieNicholai","steam_id":76561198327310266,"connected_time":1058000000000,"state":"active","ping":62},{"user_id":778,"name":"westward (was/were)","steam_id":76561198805512350,"connected_time":246000000000,"state":"active","ping":112},{"user_id":693,"name":"Grand","steam_id":76561198290143399,"connected_time":8146000000000,"state":"active","ping":68},{"user_id":744,"name":"Jo","steam_id":76561198060447015,"connected_time":3339000000000,"state":"active","ping":78},{"user_id":757,"name":"Truffles","steam_id":76561198095868800,"connected_time":1488000000000,"state":"active","ping":83},{"user_id":781,"name":"Load Lord","steam_id":76561197962831078,"connected_time":13000000000,"state":"active","ping":131},{"user_id":763,"name":"Real Azure #SaveTF2","steam_id":76561198095912284,"connected_time":1341000000000,"state":"active","ping":99},{"user_id":780,"name":"HanakoToast","steam_id":76561198045233131,"connected_time":170000000000,"state":"active","ping":121},{"user_id":769,"name":"object permanence","steam_id":76561198050393061,"connected_time":1213000000000,"state":"active","ping":71},{"user_id":720,"name":"American Dad","steam_id":76561198059711448,"connected_time":5991000000000,"state":"active","ping":72},{"user_id":772,"name":"Captain Eagle Gun","steam_id":76561198049948219,"connected_time":632000000000,"state":"active","ping":70},{"user_id":734,"name":"captainspatklz","steam_id":76561198432167270,"connected_time":5307000000000,"state":"active","ping":82}]},{"server_id":402,"name":"Uncletopia | Chicago | 3 | All Maps","name_short":"chi-3","host":"chi-1.us.uncletopia.com","port":27035,"enabled":true,"region":"us-central","cc":"us","latitude":41.881832,"longitude":-87.62318,"reserved":0,"last_update":"0001-01-01T00:00:00Z","name_a2s":"Uncletopia | Chicago | 3 | All Maps","protocol":17,"map":"pl_badwater","folder":"tf","game":"Team Fortress","app_id":440,"player_count":17,"max_players":24,"Bots":0,"server_type":"Dedicated","server_os":"Linux","password":true,"vac":true,"version":"7932396","steam_id":85568392924515191,"keywords":["cp","nocrits","nodmgspread","uncletopia"],"game_id":440,"stv_port":27036,"stv_name":"Uncletopia | Chicago | 3 | All Maps | STV","players":[{"user_id":563,"name":"charm quark","steam_id":76561198098770777,"connected_time":3018000000000,"state":"connecting","ping":135},{"user_id":583,"name":"Mastermind","steam_id":76561198127783432,"connected_time":1240000000000,"state":"connecting","ping":80},{"user_id":574,"name":"[SK] Punish ♥ 牧濑红莉栖","steam_id":76561198207987376,"connected_time":2296000000000,"state":"connecting","ping":75},{"user_id":593,"name":"DragonJimmy","steam_id":76561198272966565,"connected_time":25000000000,"state":"connecting","ping":98},{"user_id":503,"name":"AlcoholicDad454","steam_id":76561198157414556,"connected_time":6712000000000,"state":"connecting","ping":90},{"user_id":585,"name":"Lemontap","steam_id":76561198064304141,"connected_time":1153000000000,"state":"connecting","ping":105},{"user_id":588,"name":"Uncle Sam","steam_id":76561197978674870,"connected_time":582000000000,"state":"connecting","ping":70},{"user_id":547,"name":"Luh Gëeky","steam_id":76561198053621664,"connected_time":4552000000000,"state":"connecting","ping":61},{"user_id":550,"name":"Conclusion E²","steam_id":76561198100017156,"connected_time":4522000000000,"state":"connecting","ping":81},{"user_id":581,"name":"pirate pete","steam_id":76561198151048590,"connected_time":1268000000000,"state":"connecting","ping":67},{"user_id":592,"name":"Jeff the 19th","steam_id":76561198189315491,"connected_time":82000000000,"state":"connecting","ping":83},{"user_id":562,"name":"feed lips","steam_id":76561197971152439,"connected_time":3720000000000,"state":"connecting","ping":88},{"user_id":552,"name":"toes","steam_id":76561198221151676,"connected_time":4484000000000,"state":"connecting","ping":116},{"user_id":586,"name":"901329032","steam_id":76561198110145844,"connected_time":903000000000,"state":"connecting","ping":112},{"user_id":559,"name":"A Can of AriZona Green Tea","steam_id":76561198062481133,"connected_time":4049000000000,"state":"connecting","ping":79},{"user_id":561,"name":"Sariff","steam_id":76561198136446352,"connected_time":3952000000000,"state":"connecting","ping":70}]},{"server_id":403,"name":"Uncletopia | Chicago | 4 | All Maps","name_short":"chi-4","host":"chi-1.us.uncletopia.com","port":27045,"enabled":true,"region":"us-central","cc":"us","latitude":41.881832,"longitude":-87.62318,"reserved":0,"last_update":"0001-01-01T00:00:00Z","name_a2s":"Uncletopia | Chicago | 4 | All Maps","protocol":17,"map":"pl_upward","folder":"tf","game":"Team Fortress","app_id":440,"player_count":25,"max_players":24,"Bots":0,"server_type":"Dedicated","server_os":"Linux","password":true,"vac":true,"version":"7932396","steam_id":85568392924515193,"keywords":["nocrits","nodmgspread","payload","uncletopia"],"game_id":440,"stv_port":27046,"stv_name":"Uncletopia | Chicago | 4 | All Maps | STV","players":[{"user_id":639,"name":"Grassman (Cc)","steam_id":76561198026488532,"connected_time":1059000000000,"state":"active","ping":91},{"user_id":569,"name":"postgres","steam_id":76561198011204750,"connected_time":7527000000000,"state":"active","ping":105},{"user_id":621,"name":"xFactr","steam_id":76561198129007422,"connected_time":3140000000000,"state":"active","ping":56},{"user_id":655,"name":"ANTONYMPH","steam_id":76561198319992602,"connected_time":4000000000,"state":"spawning","ping":70},{"user_id":632,"name":"Q47","steam_id":76561198087128341,"connected_time":2705000000000,"state":"active","ping":131},{"user_id":656,"name":"feel alive","steam_id":76561198173047169,"connected_time":3000000000,"state":"spawning","ping":58},{"user_id":651,"name":"petergriffinreal","steam_id":76561198170171923,"connected_time":537000000000,"state":"active","ping":105},{"user_id":638,"name":"t","steam_id":76561198175988929,"connected_time":1707000000000,"state":"active","ping":64},{"user_id":637,"name":"ultralisk52","steam_id":76561198051666604,"connected_time":1869000000000,"state":"active","ping":62},{"user_id":652,"name":"Skipluff","steam_id":76561198084734554,"connected_time":490000000000,"state":"active","ping":71},{"user_id":628,"name":"wwwillsux","steam_id":76561198201819066,"connected_time":2946000000000,"state":"active","ping":85},{"user_id":648,"name":"Facehurt","steam_id":76561198028504034,"connected_time":770000000000,"state":"active","ping":67},{"user_id":614,"name":"zod","steam_id":76561198071374501,"connected_time":3675000000000,"state":"active","ping":60},{"user_id":642,"name":"sleeperino","steam_id":76561198061504714,"connected_time":1009000000000,"state":"active","ping":60},{"user_id":630,"name":"IMM0RTAL","steam_id":76561198013747901,"connected_time":2711000000000,"state":"active","ping":75},{"user_id":636,"name":"ZigZag","steam_id":76561198261037986,"connected_time":2189000000000,"state":"active","ping":59},{"user_id":605,"name":"AudaCD","steam_id":76561198202775853,"connected_time":4120000000000,"state":"active","ping":52},{"user_id":561,"name":"daemon","steam_id":76561198001541433,"connected_time":8029000000000,"state":"active","ping":56},{"user_id":644,"name":"C Papi","steam_id":76561198027779564,"connected_time":985000000000,"state":"active","ping":54},{"user_id":649,"name":"Merapsco","steam_id":76561198029898337,"connected_time":763000000000,"state":"active","ping":83},{"user_id":657,"name":"Doctor Bad Dragon","steam_id":76561198058773212,"connected_time":2000000000,"state":"spawning","ping":135},{"user_id":645,"name":"bober","steam_id":76561198085762430,"connected_time":985000000000,"state":"active","ping":73},{"user_id":610,"name":"Feel the bern","steam_id":76561198078824519,"connected_time":3976000000000,"state":"active","ping":100},{"user_id":654,"name":"nullptr","steam_id":76561198111790388,"connected_time":453000000000,"state":"active","ping":87},{"user_id":626,"name":"Cyanide","steam_id":76561198289684083,"connected_time":3125000000000,"state":"active","ping":71}]},{"server_id":36,"name":"Uncletopia | Chicago | 5 | All Maps","name_short":"chi-5","host":"chi-2.us.uncletopia.com","port":27015,"enabled":true,"region":"us-central","cc":"us","latitude":41.881832,"longitude":-87.62318,"reserved":0,"last_update":"0001-01-01T00:00:00Z","name_a2s":"Uncletopia | Chicago | 5 | All Maps","protocol":17,"map":"cp_snakewater_final1","folder":"tf","game":"Team Fortress","app_id":440,"player_count":23,"max_players":24,"Bots":0,"server_type":"Dedicated","server_os":"Linux","password":true,"vac":true,"version":"7932396","steam_id":85568392924866362,"keywords":["cp","nocrits","nodmgspread","uncletopia"],"game_id":440,"stv_port":27016,"stv_name":"Uncletopia | Chicago | 5 | All Maps | STV","players":[{"user_id":824,"name":"beyond","steam_id":76561198051009126,"connected_time":2607000000000,"state":"active","ping":72},{"user_id":825,"name":"ATL","steam_id":76561198431196926,"connected_time":2599000000000,"state":"active","ping":82},{"user_id":788,"name":"Zollap","steam_id":76561198056269568,"connected_time":5557000000000,"state":"active","ping":103},{"user_id":849,"name":"big boobs","steam_id":76561198151150175,"connected_time":682000000000,"state":"active","ping":59},{"user_id":860,"name":"roach","steam_id":76561199487692335,"connected_time":342000000000,"state":"active","ping":75},{"user_id":838,"name":"Dreamzapp","steam_id":76561199084936632,"connected_time":2010000000000,"state":"active","ping":118},{"user_id":826,"name":"who ate the cheese","steam_id":76561198275408467,"connected_time":2577000000000,"state":"active","ping":48},{"user_id":851,"name":"▽","steam_id":76561198232617936,"connected_time":663000000000,"state":"active","ping":59},{"user_id":827,"name":"♿","steam_id":76561198296145819,"connected_time":2560000000000,"state":"active","ping":82},{"user_id":828,"name":"prson404","steam_id":76561199094698591,"connected_time":2529000000000,"state":"active","ping":74},{"user_id":852,"name":"Bytor2121","steam_id":76561197991263350,"connected_time":660000000000,"state":"active","ping":35},{"user_id":829,"name":"sc67","steam_id":76561199302471485,"connected_time":2504000000000,"state":"active","ping":39},{"user_id":830,"name":"Nav","steam_id":76561198238895786,"connected_time":2435000000000,"state":"active","ping":74},{"user_id":863,"name":"Strangelove","steam_id":76561198353773611,"connected_time":166000000000,"state":"active","ping":85},{"user_id":782,"name":"tf2pyro","steam_id":76561198388184353,"connected_time":5798000000000,"state":"active","ping":85},{"user_id":819,"name":"D4NMAR","steam_id":76561198056453091,"connected_time":3389000000000,"state":"active","ping":58},{"user_id":859,"name":"bigGRy_fri","steam_id":76561199153548304,"connected_time":531000000000,"state":"active","ping":131},{"user_id":854,"name":"¥","steam_id":76561198037518646,"connected_time":630000000000,"state":"active","ping":60},{"user_id":817,"name":"Urbanzpinapple","steam_id":76561198115426938,"connected_time":3969000000000,"state":"active","ping":60},{"user_id":837,"name":"olga gurlukovich ♡","steam_id":76561198165615964,"connected_time":2086000000000,"state":"active","ping":79},{"user_id":862,"name":"STILLZ","steam_id":76561198131892406,"connected_time":306000000000,"state":"active","ping":87},{"user_id":847,"name":"LtK","steam_id":76561197993180943,"connected_time":947000000000,"state":"active","ping":65},{"user_id":848,"name":"moneymoneyganggang464","steam_id":76561199228490429,"connected_time":911000000000,"state":"active","ping":78}]},{"server_id":37,"name":"Uncletopia | Chicago | 6 | All Maps","name_short":"chi-6","host":"chi-2.us.uncletopia.com","port":27025,"enabled":true,"region":"us-central","cc":"us","latitude":41.881832,"longitude":-87.62318,"reserved":0,"last_update":"0001-01-01T00:00:00Z","name_a2s":"Uncletopia | Chicago | 6 | All Maps","protocol":17,"map":"pl_pier","folder":"tf","game":"Team Fortress","app_id":440,"player_count":23,"max_players":24,"Bots":0,"server_type":"Dedicated","server_os":"Linux","password":true,"vac":true,"version":"7932396","steam_id":85568392924866363,"keywords":["nocrits","nodmgspread","payload","uncletopia"],"game_id":440,"stv_port":27026,"stv_name":"Uncletopia | Chicago | 6 | All Maps | STV","players":[{"user_id":920,"name":"bikerkid207","steam_id":76561198390782783,"connected_time":1163000000000,"state":"active","ping":67},{"user_id":906,"name":"Tomoko2001","steam_id":76561198047117990,"connected_time":2165000000000,"state":"active","ping":79},{"user_id":938,"name":"Lift_","steam_id":76561198863467430,"connected_time":254000000000,"state":"active","ping":62},{"user_id":927,"name":"hayley ♥","steam_id":76561198093125555,"connected_time":716000000000,"state":"active","ping":135},{"user_id":875,"name":"Joey Lemons","steam_id":76561198068104187,"connected_time":4874000000000,"state":"active","ping":40},{"user_id":926,"name":"BigDeac","steam_id":76561198091237274,"connected_time":720000000000,"state":"active","ping":56},{"user_id":876,"name":"wanye","steam_id":76561198216398577,"connected_time":4869000000000,"state":"active","ping":63},{"user_id":939,"name":"devmunk","steam_id":76561198090807130,"connected_time":139000000000,"state":"active","ping":85},{"user_id":873,"name":"A Large Side Salad","steam_id":76561198106937700,"connected_time":4962000000000,"state":"active","ping":76},{"user_id":900,"name":"Ace Attorney","steam_id":76561198133011705,"connected_time":3298000000000,"state":"active","ping":65},{"user_id":918,"name":"Crazed Gunman","steam_id":76561198806972543,"connected_time":1492000000000,"state":"active","ping":89},{"user_id":919,"name":"slep.py","steam_id":76561197988287144,"connected_time":1314000000000,"state":"active","ping":57},{"user_id":929,"name":"turntechBasedGod","steam_id":76561198183239782,"connected_time":627000000000,"state":"active","ping":79},{"user_id":910,"name":"MOM","steam_id":76561198057884377,"connected_time":2074000000000,"state":"active","ping":56},{"user_id":937,"name":"Kidzbopsicle","steam_id":76561198047660691,"connected_time":397000000000,"state":"active","ping":59},{"user_id":899,"name":"Provocator","steam_id":76561197961830410,"connected_time":3528000000000,"state":"active","ping":70},{"user_id":882,"name":"stardust!","steam_id":76561198123721061,"connected_time":4791000000000,"state":"active","ping":45},{"user_id":932,"name":"FizzleWizard","steam_id":76561198045990868,"connected_time":482000000000,"state":"active","ping":63},{"user_id":838,"name":"bagel sandwich","steam_id":76561198087971968,"connected_time":8070000000000,"state":"active","ping":63},{"user_id":933,"name":"SirKnight5067","steam_id":76561198377306047,"connected_time":473000000000,"state":"active","ping":61},{"user_id":936,"name":"Kravixx","steam_id":76561197995777255,"connected_time":430000000000,"state":"active","ping":63},{"user_id":913,"name":"Brendan","steam_id":76561198041079914,"connected_time":2030000000000,"state":"active","ping":74},{"user_id":914,"name":"dissociate","steam_id":76561198867798847,"connected_time":2018000000000,"state":"active","ping":105}]},{"server_id":38,"name":"Uncletopia | Chicago | 7 | Stopwatch Beta","name_short":"chi-7","host":"chi-2.us.uncletopia.com","port":27035,"enabled":true,"region":"us-central","cc":"us","latitude":41.881832,"longitude":-87.62318,"reserved":0,"last_update":"0001-01-01T00:00:00Z","name_a2s":"Uncletopia | Chicago | 7 | Stopwatch Beta","protocol":17,"map":"pl_swiftwater_final1","folder":"tf","game":"Team Fortress","app_id":440,"player_count":0,"max_players":24,"Bots":0,"server_type":"Dedicated","server_os":"Linux","password":true,"vac":true,"version":"7932396","steam_id":85568392924866364,"keywords":["nocrits","nodmgspread","payload","uncletopia"],"game_id":440,"stv_port":27036,"stv_name":"Uncletopia | Chicago | 7 | Stopwatch Beta | STV","players":null},{"server_id":39,"name":"Uncletopia | Chicago | 8 | Community","name_short":"chi-8","host":"chi-2.us.uncletopia.com","port":27045,"enabled":true,"region":"us-central","cc":"us","latitude":41.881832,"longitude":-87.62318,"reserved":0,"last_update":"0001-01-01T00:00:00Z","name_a2s":"Uncletopia | Chicago | 8 | Community","protocol":17,"map":"workshop/cp_logjam_rc12.ugc454812035","folder":"tf","game":"Team Fortress","app_id":440,"player_count":0,"max_players":24,"Bots":0,"server_type":"Dedicated","server_os":"Linux","password":true,"vac":true,"version":"7932396","steam_id":85568392924866365,"keywords":["cp","nocrits","nodmgspread","uncletopia"],"game_id":440,"stv_port":27046,"stv_name":"Uncletopia | Chicago | 8 | Community | STV","players":null},{"server_id":8,"name":"Uncletopia | Dallas | 1 | All Maps","name_short":"dal-1","host":"dal-1.us.uncletopia.com","port":27015,"enabled":true,"region":"us-central","cc":"us","latitude":32.779167,"longitude":-96.80889,"reserved":0,"last_update":"0001-01-01T00:00:00Z","name_a2s":"Uncletopia | Dallas | 1 | All Maps","protocol":17,"map":"cp_process_final","folder":"tf","game":"Team Fortress","app_id":440,"player_count":24,"max_players":24,"Bots":0,"server_type":"Dedicated","server_os":"Linux","password":true,"vac":true,"version":"7932396","steam_id":85568392924469986,"keywords":["cp","nocrits","nodmgspread","uncletopia"],"game_id":440,"stv_port":27016,"stv_name":"Uncletopia | Dallas | 1 | All Maps | STV","players":[{"user_id":548,"name":"CFGU || RAWRWAFL","steam_id":76561198032118386,"connected_time":170000000000,"state":"active","ping":65},{"user_id":549,"name":"Halo","steam_id":76561198144909435,"connected_time":122000000000,"state":"active","ping":79},{"user_id":541,"name":"Punished \"Venom\" Snick","steam_id":76561198066566813,"connected_time":800000000000,"state":"active","ping":107},{"user_id":521,"name":"GuyGoom","steam_id":76561198254522178,"connected_time":2358000000000,"state":"active","ping":75},{"user_id":545,"name":"Double Donk Gaming","steam_id":76561198209881263,"connected_time":650000000000,"state":"active","ping":79},{"user_id":539,"name":"EatSports","steam_id":76561198009384115,"connected_time":825000000000,"state":"active","ping":55},{"user_id":546,"name":"Ruby Gillman","steam_id":76561198366299848,"connected_time":509000000000,"state":"active","ping":72},{"user_id":534,"name":"harison86","steam_id":76561198060100647,"connected_time":1447000000000,"state":"active","ping":92},{"user_id":505,"name":"||:♩♩♩♪:|| Opplydead","steam_id":76561198028630334,"connected_time":3233000000000,"state":"active","ping":78},{"user_id":515,"name":"RoxyRubyG (she/her)","steam_id":76561198451067525,"connected_time":2815000000000,"state":"active","ping":63},{"user_id":543,"name":"happy man!!! :D!!!!","steam_id":76561198128468316,"connected_time":773000000000,"state":"active","ping":62},{"user_id":538,"name":"pipeline","steam_id":76561198212263380,"connected_time":835000000000,"state":"active","ping":52},{"user_id":528,"name":"Rickbot","steam_id":76561198036798608,"connected_time":2034000000000,"state":"active","ping":77},{"user_id":523,"name":"Major_Pippy","steam_id":76561198004482878,"connected_time":2318000000000,"state":"active","ping":97},{"user_id":531,"name":"cliftoce","steam_id":76561197998912007,"connected_time":1567000000000,"state":"active","ping":87},{"user_id":550,"name":"je'mond #RunThatBack","steam_id":76561198113990147,"connected_time":113000000000,"state":"active","ping":100},{"user_id":540,"name":"indec","steam_id":76561198978404397,"connected_time":819000000000,"state":"active","ping":124},{"user_id":542,"name":"mendokusai","steam_id":76561197965022076,"connected_time":786000000000,"state":"active","ping":77},{"user_id":510,"name":"UneditedAndy","steam_id":76561198982544947,"connected_time":3125000000000,"state":"active","ping":84},{"user_id":547,"name":"HeatedArtist","steam_id":76561198961937603,"connected_time":237000000000,"state":"active","ping":112},{"user_id":527,"name":"Bread Makes you Fat","steam_id":76561198985126532,"connected_time":2287000000000,"state":"active","ping":46},{"user_id":525,"name":"RagingRoosevelt","steam_id":76561197985483153,"connected_time":2314000000000,"state":"active","ping":104},{"user_id":511,"name":"Daperlin (LP!)","steam_id":76561198091299113,"connected_time":3046000000000,"state":"active","ping":109},{"user_id":520,"name":"Local Babyfur Unicorn","steam_id":76561198155526516,"connected_time":2486000000000,"state":"active","ping":36}]},{"server_id":108,"name":"Uncletopia | Dallas | 2 | All Maps","name_short":"dal-2","host":"dal-1.us.uncletopia.com","port":27025,"enabled":true,"region":"us-central","cc":"us","latitude":32.779167,"longitude":-96.80889,"reserved":0,"last_update":"0001-01-01T00:00:00Z","name_a2s":"Uncletopia | Dallas | 2 | All Maps","protocol":17,"map":"ctf_2fort","folder":"tf","game":"Team Fortress","app_id":440,"player_count":24,"max_players":24,"Bots":0,"server_type":"Dedicated","server_os":"Linux","password":true,"vac":true,"version":"7932396","steam_id":85568392924469988,"keywords":["ctf","nocrits","nodmgspread","uncletopia"],"game_id":440,"stv_port":27026,"stv_name":"Uncletopia | Dallas | 2 | All Maps | STV","players":[{"user_id":460,"name":"MyTeamIsAzz","steam_id":76561198241921220,"connected_time":797000000000,"state":"active","ping":98},{"user_id":464,"name":"Spicy Within Reason","steam_id":76561198066700370,"connected_time":640000000000,"state":"active","ping":105},{"user_id":440,"name":"The Hunter of Hunters","steam_id":76561198079508469,"connected_time":2755000000000,"state":"active","ping":59},{"user_id":469,"name":"Splash","steam_id":76561198271994269,"connected_time":267000000000,"state":"active","ping":70},{"user_id":437,"name":"mae","steam_id":76561198116842967,"connected_time":2838000000000,"state":"active","ping":64},{"user_id":452,"name":"Mush","steam_id":76561198393461065,"connected_time":1667000000000,"state":"active","ping":99},{"user_id":470,"name":"coWolves","steam_id":76561198171921618,"connected_time":249000000000,"state":"active","ping":211},{"user_id":462,"name":"aVO","steam_id":76561198161429389,"connected_time":725000000000,"state":"active","ping":51},{"user_id":430,"name":"Lord Peebs","steam_id":76561198129864896,"connected_time":2958000000000,"state":"active","ping":77},{"user_id":446,"name":"Anderred","steam_id":76561198149983847,"connected_time":1750000000000,"state":"active","ping":101},{"user_id":467,"name":"nori_420","steam_id":76561199117134203,"connected_time":472000000000,"state":"active","ping":84},{"user_id":441,"name":"Compiavelli","steam_id":76561198152535839,"connected_time":2545000000000,"state":"active","ping":100},{"user_id":431,"name":"Father Jon","steam_id":76561198324730919,"connected_time":2955000000000,"state":"active","ping":67},{"user_id":449,"name":"The Careless","steam_id":76561198202934601,"connected_time":1733000000000,"state":"active","ping":96},{"user_id":423,"name":"Goldensliv","steam_id":76561198161673891,"connected_time":3140000000000,"state":"active","ping":62},{"user_id":473,"name":"R.Y.","steam_id":76561199384459715,"connected_time":70000000000,"state":"active","ping":166},{"user_id":455,"name":"[MT]KingCyrus20","steam_id":76561198042337527,"connected_time":1516000000000,"state":"active","ping":48},{"user_id":422,"name":"Sprit ♥","steam_id":76561198268780781,"connected_time":3143000000000,"state":"active","ping":74},{"user_id":433,"name":"noot","steam_id":76561198201575581,"connected_time":2933000000000,"state":"active","ping":102},{"user_id":458,"name":"Catmasta","steam_id":76561198819255576,"connected_time":1088000000000,"state":"active","ping":69},{"user_id":474,"name":"Walrusto","steam_id":76561198829644616,"connected_time":0,"state":"spawning","ping":27},{"user_id":435,"name":"Saucy Boy","steam_id":76561198178332031,"connected_time":2929000000000,"state":"active","ping":92},{"user_id":419,"name":"spiderguy","steam_id":76561198412074955,"connected_time":3160000000000,"state":"active","ping":62},{"user_id":472,"name":"zeplinnn","steam_id":76561198301300987,"connected_time":94000000000,"state":"active","ping":87}]},{"server_id":5,"name":"Uncletopia | Frankfurt | 1 | All Maps","name_short":"frk-1","host":"frk-1.de.uncletopia.com","port":27015,"enabled":true,"region":"eu","cc":"de","latitude":50.110924,"longitude":8.682127,"reserved":0,"last_update":"0001-01-01T00:00:00Z","name_a2s":"Uncletopia | Frankfurt | 1 | All Maps","protocol":17,"map":"pl_snowycoast","folder":"tf","game":"Team Fortress","app_id":440,"player_count":0,"max_players":24,"Bots":0,"server_type":"Dedicated","server_os":"Linux","password":true,"vac":true,"version":"7932396","steam_id":85568392924469989,"keywords":["nocrits","nodmgspread","payload","uncletopia"],"game_id":440,"stv_port":27016,"stv_name":"Uncletopia | Frankfurt | 1 | All Maps | STV","players":null},{"server_id":110,"name":"Uncletopia | Frankfurt | 2 | All Maps","name_short":"frk-2","host":"frk-1.de.uncletopia.com","port":27025,"enabled":true,"region":"eu","cc":"de","latitude":50.110924,"longitude":8.682127,"reserved":0,"last_update":"0001-01-01T00:00:00Z","name_a2s":"Uncletopia | Frankfurt | 2 | All Maps","protocol":17,"map":"koth_lakeside_final","folder":"tf","game":"Team Fortress","app_id":440,"player_count":0,"max_players":24,"Bots":0,"server_type":"Dedicated","server_os":"Linux","password":true,"vac":true,"version":"7932396","steam_id":85568392924469990,"keywords":["cp","nocrits","nodmgspread","uncletopia"],"game_id":440,"stv_port":27026,"stv_name":"Uncletopia | Frankfurt | 2 | All Maps | STV","players":null},{"server_id":308,"name":"Uncletopia | Frankfurt | 3 | All Maps","name_short":"frk-3","host":"frk-1.de.uncletopia.com","port":27035,"enabled":true,"region":"eu","cc":"de","latitude":50.110924,"longitude":8.682127,"reserved":0,"last_update":"0001-01-01T00:00:00Z","name_a2s":"Uncletopia | Frankfurt | 3 | All Maps","protocol":17,"map":"pl_barnblitz","folder":"tf","game":"Team Fortress","app_id":440,"player_count":0,"max_players":24,"Bots":0,"server_type":"Dedicated","server_os":"Linux","password":true,"vac":true,"version":"7932396","steam_id":85568392924504274,"keywords":["nocrits","nodmgspread","payload","uncletopia"],"game_id":440,"stv_port":27036,"stv_name":"Uncletopia | Frankfurt | 3 | All Maps | STV","players":null},{"server_id":309,"name":"Uncletopia | Frankfurt | 4 | All Maps","name_short":"frk-4","host":"frk-1.de.uncletopia.com","port":27045,"enabled":true,"region":"eu","cc":"de","latitude":50.110924,"longitude":8.682127,"reserved":0,"last_update":"0001-01-01T00:00:00Z","name_a2s":"Uncletopia | Frankfurt | 4 | All Maps","protocol":17,"map":"koth_lakeside_final","folder":"tf","game":"Team Fortress","app_id":440,"player_count":0,"max_players":24,"Bots":0,"server_type":"Dedicated","server_os":"Linux","password":true,"vac":true,"version":"7932396","steam_id":85568392924504275,"keywords":["cp","nocrits","nodmgspread","uncletopia"],"game_id":440,"stv_port":27046,"stv_name":"Uncletopia | Frankfurt | 4 | All Maps | STV","players":null},{"server_id":310,"name":"Uncletopia | Frankfurt | 5 | All Maps","name_short":"frk-5","host":"frk-1.de.uncletopia.com","port":27055,"enabled":true,"region":"eu","cc":"de","latitude":50.110924,"longitude":8.682127,"reserved":0,"last_update":"0001-01-01T00:00:00Z","name_a2s":"Uncletopia | Frankfurt | 5 | All Maps","protocol":17,"map":"koth_viaduct","folder":"tf","game":"Team Fortress","app_id":440,"player_count":0,"max_players":24,"Bots":0,"server_type":"Dedicated","server_os":"Linux","password":true,"vac":true,"version":"7932396","steam_id":85568392924504277,"keywords":["cp","nocrits","nodmgspread","uncletopia"],"game_id":440,"stv_port":27056,"stv_name":"Uncletopia | Frankfurt | 5 | All Maps | STV","players":null},{"server_id":311,"name":"Uncletopia | Frankfurt | 6 | All Maps","name_short":"frk-6","host":"frk-1.de.uncletopia.com","port":27065,"enabled":true,"region":"eu","cc":"de","latitude":50.110924,"longitude":8.682127,"reserved":0,"last_update":"0001-01-01T00:00:00Z","name_a2s":"Uncletopia | Frankfurt | 6 | All Maps","protocol":17,"map":"pl_borneo","folder":"tf","game":"Team Fortress","app_id":440,"player_count":0,"max_players":24,"Bots":0,"server_type":"Dedicated","server_os":"Linux","password":true,"vac":true,"version":"7932396","steam_id":85568392924504278,"keywords":["nocrits","nodmgspread","payload","uncletopia"],"game_id":440,"stv_port":27066,"stv_name":"Uncletopia | Frankfurt | 6 | All Maps | STV","players":null},{"server_id":23,"name":"Uncletopia | Frankfurt | 7 | Stopwatch Beta","name_short":"frk-7","host":"frk-1.de.uncletopia.com","port":27075,"enabled":true,"region":"eu","cc":"de","latitude":50.110924,"longitude":8.682127,"reserved":0,"last_update":"0001-01-01T00:00:00Z","name_a2s":"Uncletopia | Frankfurt | 7 | Stopwatch Beta","protocol":17,"map":"cp_sunshine","folder":"tf","game":"Team Fortress","app_id":440,"player_count":0,"max_players":24,"Bots":0,"server_type":"Dedicated","server_os":"Linux","password":true,"vac":true,"version":"7932396","steam_id":85568392924742827,"keywords":["cp","nocrits","nodmgspread","uncletopia"],"game_id":440,"stv_port":27076,"stv_name":"Uncletopia | Frankfurt | 7 | Stopwatch Beta | STV","players":null},{"server_id":24,"name":"Uncletopia | Frankfurt | 8 | Community","name_short":"frk-8","host":"frk-1.de.uncletopia.com","port":27085,"enabled":true,"region":"eu","cc":"de","latitude":50.110924,"longitude":8.682127,"reserved":0,"last_update":"0001-01-01T00:00:00Z","name_a2s":"Uncletopia | Frankfurt | 8 | Community","protocol":17,"map":"pl_pier","folder":"tf","game":"Team Fortress","app_id":440,"player_count":0,"max_players":24,"Bots":0,"server_type":"Dedicated","server_os":"Linux","password":true,"vac":true,"version":"7932396","steam_id":85568392924742828,"keywords":["nocrits","nodmgspread","payload","uncletopia"],"game_id":440,"stv_port":27086,"stv_name":"Uncletopia | Frankfurt | 8 | Community | STV","players":null},{"server_id":202,"name":"Uncletopia | Hong Kong | 1 | All Maps","name_short":"hgk-1","host":"hgk-1.hk.uncletopia.com","port":27015,"enabled":true,"region":"asia","cc":"hk","latitude":22.302711,"longitude":114.177216,"reserved":0,"last_update":"0001-01-01T00:00:00Z","name_a2s":"Uncletopia | Hong Kong | 1 | All Maps","protocol":17,"map":"pl_barnblitz","folder":"tf","game":"Team Fortress","app_id":440,"player_count":0,"max_players":24,"Bots":0,"server_type":"Dedicated","server_os":"Linux","password":true,"vac":true,"version":"7932396","steam_id":85568392924494504,"keywords":["nocrits","nodmgspread","payload","uncletopia"],"game_id":440,"stv_port":27016,"stv_name":"Uncletopia | Hong Kong | 1 | All Maps | STV","players":null},{"server_id":1,"name":"Uncletopia | Los Angeles | 1 | All Maps","name_short":"lax-1","host":"lax-1.us.uncletopia.com","port":27015,"enabled":true,"region":"us-west","cc":"us","latitude":33.94279,"longitude":-118.41004,"reserved":0,"last_update":"0001-01-01T00:00:00Z","name_a2s":"Uncletopia | Los Angeles | 1 | All Maps","protocol":17,"map":"pl_snowycoast","folder":"tf","game":"Team Fortress","app_id":440,"player_count":11,"max_players":24,"Bots":0,"server_type":"Dedicated","server_os":"Linux","password":true,"vac":true,"version":"7932396","steam_id":85568392924469991,"keywords":["nocrits","nodmgspread","payload","uncletopia"],"game_id":440,"stv_port":27016,"stv_name":"Uncletopia | Los Angeles | 1 | All Maps | STV","players":[{"user_id":485,"name":"benji","steam_id":76561198084417967,"connected_time":682000000000,"state":"active","ping":92},{"user_id":487,"name":"Schnitz","steam_id":76561198265484253,"connected_time":485000000000,"state":"active","ping":50},{"user_id":488,"name":"FrostyBoiGrim [Honcho Guy]","steam_id":76561198114335037,"connected_time":402000000000,"state":"active","ping":47},{"user_id":475,"name":"jerss","steam_id":76561199034027802,"connected_time":1845000000000,"state":"active","ping":84},{"user_id":489,"name":"BJ","steam_id":76561198004307563,"connected_time":283000000000,"state":"active","ping":160},{"user_id":490,"name":"One Horned Bitch Destroyer","steam_id":76561198045810191,"connected_time":224000000000,"state":"active","ping":65},{"user_id":433,"name":"DefinitelyATurtle","steam_id":76561199023218568,"connected_time":5187000000000,"state":"active","ping":72},{"user_id":450,"name":"thebaconnator2016","steam_id":76561199100270424,"connected_time":4297000000000,"state":"active","ping":82},{"user_id":446,"name":"SQbuilder","steam_id":76561198076473375,"connected_time":4617000000000,"state":"active","ping":40},{"user_id":451,"name":"Taps","steam_id":76561198976946972,"connected_time":4138000000000,"state":"active","ping":64},{"user_id":478,"name":"[loser] mpawn","steam_id":76561198115611066,"connected_time":1683000000000,"state":"active","ping":86}]},{"server_id":112,"name":"Uncletopia | Los Angeles | 2 | All Maps","name_short":"lax-2","host":"lax-1.us.uncletopia.com","port":27025,"enabled":true,"region":"us-west","cc":"us","latitude":33.94279,"longitude":-118.41004,"reserved":0,"last_update":"0001-01-01T00:00:00Z","name_a2s":"Uncletopia | Los Angeles | 2 | All Maps","protocol":17,"map":"pl_barnblitz","folder":"tf","game":"Team Fortress","app_id":440,"player_count":24,"max_players":24,"Bots":0,"server_type":"Dedicated","server_os":"Linux","password":true,"vac":true,"version":"7932396","steam_id":85568392924469992,"keywords":["nocrits","nodmgspread","payload","uncletopia"],"game_id":440,"stv_port":27026,"stv_name":"Uncletopia | Los Angeles | 2 | All Maps | STV","players":[{"user_id":293,"name":"a_lilypup","steam_id":76561198163640324,"connected_time":1073000000000,"state":"active","ping":48},{"user_id":252,"name":"Drive-By-Fish-Guy","steam_id":76561198105513652,"connected_time":3410000000000,"state":"active","ping":55},{"user_id":274,"name":"cringeass nae-nae girl","steam_id":76561198108753857,"connected_time":2668000000000,"state":"active","ping":111},{"user_id":291,"name":"sussycheese","steam_id":76561198384139570,"connected_time":1326000000000,"state":"active","ping":52},{"user_id":282,"name":"Medic Boyfriend","steam_id":76561198104086771,"connected_time":2319000000000,"state":"active","ping":47},{"user_id":294,"name":"KiwifruitDev","steam_id":76561198042912823,"connected_time":1073000000000,"state":"active","ping":47},{"user_id":267,"name":"maddie","steam_id":76561198164460801,"connected_time":2736000000000,"state":"active","ping":62},{"user_id":297,"name":"Old_Hendrek_VII","steam_id":76561198997763068,"connected_time":1019000000000,"state":"active","ping":70},{"user_id":305,"name":"[ G R * T T Y ]","steam_id":76561198048986218,"connected_time":283000000000,"state":"active","ping":63},{"user_id":243,"name":"gragam","steam_id":76561198093346068,"connected_time":3784000000000,"state":"active","ping":69},{"user_id":289,"name":"SleeplessCollin","steam_id":76561198968140914,"connected_time":1431000000000,"state":"active","ping":49},{"user_id":304,"name":"confused","steam_id":76561199391930993,"connected_time":659000000000,"state":"active","ping":54},{"user_id":295,"name":"fonz!E","steam_id":76561197987165510,"connected_time":1028000000000,"state":"active","ping":56},{"user_id":301,"name":"SCUD missile up your ass","steam_id":76561198066452726,"connected_time":872000000000,"state":"active","ping":56},{"user_id":277,"name":"RUF","steam_id":76561198062315805,"connected_time":2569000000000,"state":"active","ping":61},{"user_id":296,"name":"AT✪MIC","steam_id":76561198100385184,"connected_time":1024000000000,"state":"active","ping":52},{"user_id":292,"name":"MrSigma","steam_id":76561198046600641,"connected_time":1315000000000,"state":"active","ping":88},{"user_id":288,"name":"Zirael","steam_id":76561198057143358,"connected_time":1442000000000,"state":"active","ping":132},{"user_id":280,"name":"KellyKapoor","steam_id":76561198040828123,"connected_time":2455000000000,"state":"active","ping":73},{"user_id":298,"name":"ǰếţţ ヅ","steam_id":76561198355883165,"connected_time":995000000000,"state":"active","ping":120},{"user_id":256,"name":"blobmasterer","steam_id":76561198001131403,"connected_time":3131000000000,"state":"active","ping":53},{"user_id":302,"name":"..flop","steam_id":76561197989058876,"connected_time":804000000000,"state":"active","ping":62},{"user_id":299,"name":"golia","steam_id":76561198000264266,"connected_time":978000000000,"state":"active","ping":62},{"user_id":303,"name":"moopmop","steam_id":76561198065224965,"connected_time":762000000000,"state":"active","ping":58}]},{"server_id":324,"name":"Uncletopia | Los Angeles | 3 | All Maps","name_short":"lax-3","host":"lax-1.us.uncletopia.com","port":27035,"enabled":true,"region":"us-west","cc":"us","latitude":33.94279,"longitude":-118.41004,"reserved":0,"last_update":"0001-01-01T00:00:00Z","name_a2s":"Uncletopia | Los Angeles | 3 | All Maps","protocol":17,"map":"pl_barnblitz","folder":"tf","game":"Team Fortress","app_id":440,"player_count":24,"max_players":24,"Bots":0,"server_type":"Dedicated","server_os":"Linux","password":true,"vac":true,"version":"7932396","steam_id":85568392924510198,"keywords":["nocrits","nodmgspread","payload","uncletopia"],"game_id":440,"stv_port":27036,"stv_name":"Uncletopia | Los Angeles | 3 | All Maps | STV","players":[{"user_id":180,"name":"Chap","steam_id":76561198294226443,"connected_time":1924000000000,"state":"active","ping":54},{"user_id":176,"name":"Every Villain Is Lemons","steam_id":76561198041440563,"connected_time":2403000000000,"state":"active","ping":83},{"user_id":161,"name":"Giorno_Giovanna","steam_id":76561199014402406,"connected_time":2877000000000,"state":"active","ping":97},{"user_id":174,"name":"O-mega","steam_id":76561199175970696,"connected_time":2573000000000,"state":"active","ping":105},{"user_id":162,"name":"Zom_Named_Zam","steam_id":76561198328066203,"connected_time":2852000000000,"state":"active","ping":60},{"user_id":163,"name":"Quon Grene for Vice Prez","steam_id":76561198127545817,"connected_time":2847000000000,"state":"active","ping":73},{"user_id":190,"name":"NaxRat","steam_id":76561198992710128,"connected_time":844000000000,"state":"active","ping":64},{"user_id":191,"name":"california jew","steam_id":76561198914032112,"connected_time":683000000000,"state":"active","ping":45},{"user_id":172,"name":"JohnnyGitGud","steam_id":76561198401455467,"connected_time":2641000000000,"state":"active","ping":61},{"user_id":189,"name":"cringy","steam_id":76561198323000455,"connected_time":987000000000,"state":"active","ping":64},{"user_id":125,"name":"CadenLCheese","steam_id":76561199105517435,"connected_time":6485000000000,"state":"active","ping":88},{"user_id":178,"name":"PinguEnjoyer6","steam_id":76561199186723516,"connected_time":2171000000000,"state":"active","ping":42},{"user_id":183,"name":"Lumberjane37 (birthday time!!)","steam_id":76561198014841793,"connected_time":1679000000000,"state":"active","ping":64},{"user_id":51,"name":"Joe Biden TF2","steam_id":76561198837570484,"connected_time":11318000000000,"state":"active","ping":48},{"user_id":184,"name":"line","steam_id":76561198086222096,"connected_time":1671000000000,"state":"active","ping":75},{"user_id":188,"name":"what","steam_id":76561198133617085,"connected_time":1462000000000,"state":"active","ping":89},{"user_id":103,"name":"vioxynteris","steam_id":76561198161428666,"connected_time":8205000000000,"state":"active","ping":31},{"user_id":157,"name":"Baggage","steam_id":76561198215128080,"connected_time":3823000000000,"state":"active","ping":66},{"user_id":179,"name":"A Stinky Lizard","steam_id":76561198334119508,"connected_time":2131000000000,"state":"active","ping":57},{"user_id":169,"name":"incredirocks","steam_id":76561198061079993,"connected_time":2754000000000,"state":"active","ping":105},{"user_id":187,"name":"Lucas","steam_id":76561198399704604,"connected_time":1596000000000,"state":"active","ping":84},{"user_id":50,"name":"lasagnalarry12","steam_id":76561198162688146,"connected_time":11325000000000,"state":"active","ping":56},{"user_id":186,"name":"「Slime」","steam_id":76561198062019138,"connected_time":1652000000000,"state":"active","ping":75},{"user_id":148,"name":"Ratchet55","steam_id":76561198208655521,"connected_time":5186000000000,"state":"active","ping":89}]},{"server_id":25,"name":"Uncletopia | Los Angeles | 4 | Stopwatch Beta","name_short":"lax-4","host":"lax-1.us.uncletopia.com","port":27045,"enabled":true,"region":"us-west","cc":"us","latitude":33.94279,"longitude":-118.41004,"reserved":0,"last_update":"0001-01-01T00:00:00Z","name_a2s":"Uncletopia | Los Angeles | 4 | Stopwatch Beta","protocol":17,"map":"cp_granary","folder":"tf","game":"Team Fortress","app_id":440,"player_count":0,"max_players":24,"Bots":0,"server_type":"Dedicated","server_os":"Linux","password":true,"vac":true,"version":"7932396","steam_id":85568392924510199,"keywords":["cp","nocrits","nodmgspread","uncletopia"],"game_id":440,"stv_port":27046,"stv_name":"Uncletopia | Los Angeles | 4 | Stopwatch Beta | STV","players":null},{"server_id":11,"name":"Uncletopia | London | 1 | All Maps","name_short":"lon-1","host":"lon-1.uk.uncletopia.com","port":27015,"enabled":true,"region":"eu","cc":"gb","latitude":51.509865,"longitude":-0.118092,"reserved":0,"last_update":"0001-01-01T00:00:00Z","name_a2s":"Uncletopia | London | 1 | All Maps","protocol":17,"map":"cp_dustbowl","folder":"tf","game":"Team Fortress","app_id":440,"player_count":22,"max_players":24,"Bots":0,"server_type":"Dedicated","server_os":"Linux","password":true,"vac":true,"version":"7932396","steam_id":85568392924367362,"keywords":["cp","nocrits","nodmgspread","uncletopia"],"game_id":440,"stv_port":27016,"stv_name":"Uncletopia | London | 1 | All Maps | STV","players":[{"user_id":960,"name":"[CC]Nyafka","steam_id":76561198289878090,"connected_time":353000000000,"state":"active","ping":128},{"user_id":909,"name":"Neimon","steam_id":76561198343485710,"connected_time":2049000000000,"state":"active","ping":126},{"user_id":965,"name":"deloreg (playing soldier)","steam_id":76561199487318962,"connected_time":254000000000,"state":"active","ping":74},{"user_id":968,"name":"Bada Bing!","steam_id":76561198073332036,"connected_time":67000000000,"state":"active","ping":115},{"user_id":907,"name":"Worm","steam_id":76561198296497176,"connected_time":2204000000000,"state":"active","ping":45},{"user_id":958,"name":"jonbob","steam_id":76561197963506620,"connected_time":477000000000,"state":"active","ping":57},{"user_id":891,"name":"Eidolon","steam_id":76561198043919565,"connected_time":3222000000000,"state":"active","ping":61},{"user_id":969,"name":"ja","steam_id":76561199228540618,"connected_time":28000000000,"state":"active","ping":78},{"user_id":925,"name":"Draco","steam_id":76561198031226933,"connected_time":1195000000000,"state":"active","ping":45},{"user_id":876,"name":"Xx_EpicGaymer_xX","steam_id":76561198846784757,"connected_time":4504000000000,"state":"active","ping":55},{"user_id":959,"name":"spxcy","steam_id":76561198080296853,"connected_time":422000000000,"state":"active","ping":75},{"user_id":905,"name":"thats a big problem","steam_id":76561198080310253,"connected_time":2374000000000,"state":"active","ping":45},{"user_id":877,"name":"Fr3unen","steam_id":76561198096044051,"connected_time":4495000000000,"state":"active","ping":74},{"user_id":900,"name":"A3517","steam_id":76561198346434027,"connected_time":2760000000000,"state":"active","ping":123},{"user_id":854,"name":"snowycoast","steam_id":76561198346638308,"connected_time":6293000000000,"state":"active","ping":49},{"user_id":923,"name":"S_ApplePie","steam_id":76561198106947669,"connected_time":1446000000000,"state":"active","ping":72},{"user_id":914,"name":"Salesman Doren","steam_id":76561198076098142,"connected_time":1833000000000,"state":"active","ping":38},{"user_id":928,"name":"Stistows","steam_id":76561198147065988,"connected_time":1113000000000,"state":"active","ping":60},{"user_id":921,"name":"Bucket","steam_id":76561199165494885,"connected_time":1487000000000,"state":"active","ping":125},{"user_id":922,"name":"Solarwolf64 #SaveTF2","steam_id":76561198023570251,"connected_time":1478000000000,"state":"active","ping":48},{"user_id":929,"name":"Mr. Skerpentine","steam_id":76561198137244892,"connected_time":1105000000000,"state":"active","ping":172},{"user_id":949,"name":"Vix The Nickit","steam_id":76561198292181452,"connected_time":673000000000,"state":"active","ping":150}]},{"server_id":114,"name":"Uncletopia | London | 2 | All Maps","name_short":"lon-2","host":"lon-1.uk.uncletopia.com","port":27025,"enabled":true,"region":"eu","cc":"gb","latitude":51.509865,"longitude":-0.118092,"reserved":0,"last_update":"0001-01-01T00:00:00Z","name_a2s":"Uncletopia | London | 2 | All Maps","protocol":17,"map":"koth_viaduct","folder":"tf","game":"Team Fortress","app_id":440,"player_count":0,"max_players":24,"Bots":0,"server_type":"Dedicated","server_os":"Linux","password":true,"vac":true,"version":"7932396","steam_id":85568392924470941,"keywords":["cp","nocrits","nodmgspread","uncletopia"],"game_id":440,"stv_port":27026,"stv_name":"Uncletopia | London | 2 | All Maps | STV","players":null},{"server_id":320,"name":"Uncletopia | London | 3 | All Maps","name_short":"lon-3","host":"lon-1.uk.uncletopia.com","port":27035,"enabled":true,"region":"eu","cc":"gb","latitude":51.509865,"longitude":-0.118092,"reserved":0,"last_update":"0001-01-01T00:00:00Z","name_a2s":"Uncletopia | London | 3 | All Maps","protocol":17,"map":"koth_lakeside_final","folder":"tf","game":"Team Fortress","app_id":440,"player_count":0,"max_players":24,"Bots":0,"server_type":"Dedicated","server_os":"Linux","password":true,"vac":true,"version":"7932396","steam_id":85568392924510192,"keywords":["cp","nocrits","nodmgspread","uncletopia"],"game_id":440,"stv_port":27036,"stv_name":"Uncletopia | London | 3 | All Maps | STV","players":null},{"server_id":321,"name":"Uncletopia | London | 4 | All Maps","name_short":"lon-4","host":"lon-1.uk.uncletopia.com","port":27045,"enabled":true,"region":"eu","cc":"gb","latitude":51.509865,"longitude":-0.118092,"reserved":0,"last_update":"0001-01-01T00:00:00Z","name_a2s":"Uncletopia | London | 4 | All Maps","protocol":17,"map":"koth_viaduct","folder":"tf","game":"Team Fortress","app_id":440,"player_count":0,"max_players":24,"Bots":0,"server_type":"Dedicated","server_os":"Linux","password":true,"vac":true,"version":"7932396","steam_id":85568392924510193,"keywords":["cp","nocrits","nodmgspread","uncletopia"],"game_id":440,"stv_port":27046,"stv_name":"Uncletopia | London | 4 | All Maps | STV","players":null},{"server_id":21,"name":"Uncletopia | London | 5 | All Maps","name_short":"lon-5","host":"lon-1.uk.uncletopia.com","port":27055,"enabled":true,"region":"eu","cc":"gb","latitude":51.509865,"longitude":-0.118092,"reserved":0,"last_update":"0001-01-01T00:00:00Z","name_a2s":"Uncletopia | London | 5 | All Maps","protocol":17,"map":"koth_lakeside_final","folder":"tf","game":"Team Fortress","app_id":440,"player_count":0,"max_players":24,"Bots":0,"server_type":"Dedicated","server_os":"Linux","password":true,"vac":true,"version":"7932396","steam_id":85568392924742829,"keywords":["cp","nocrits","nodmgspread","uncletopia"],"game_id":440,"stv_port":27056,"stv_name":"Uncletopia | London | 5 | All Maps | STV","players":null},{"server_id":22,"name":"Uncletopia | London | 6 | All Maps","name_short":"lon-6","host":"lon-1.uk.uncletopia.com","port":27065,"enabled":true,"region":"eu","cc":"gb","latitude":51.509865,"longitude":-0.118092,"reserved":0,"last_update":"0001-01-01T00:00:00Z","name_a2s":"Uncletopia | London | 6 | All Maps","protocol":17,"map":"koth_highpass","folder":"tf","game":"Team Fortress","app_id":440,"player_count":0,"max_players":24,"Bots":0,"server_type":"Dedicated","server_os":"Linux","password":true,"vac":true,"version":"7932396","steam_id":85568392924742830,"keywords":["cp","nocrits","nodmgspread","uncletopia"],"game_id":440,"stv_port":27066,"stv_name":"Uncletopia | London | 6 | All Maps | STV","players":null},{"server_id":40,"name":"Uncletopia | London | 7 | No Payload","name_short":"lon-7","host":"lon-1.uk.uncletopia.com","port":27075,"enabled":true,"region":"eu","cc":"gb","latitude":51.509865,"longitude":-0.118092,"reserved":0,"last_update":"0001-01-01T00:00:00Z","name_a2s":"Uncletopia | London | 7 | No Payload","protocol":17,"map":"koth_highpass","folder":"tf","game":"Team Fortress","app_id":440,"player_count":0,"max_players":24,"Bots":0,"server_type":"Dedicated","server_os":"Linux","password":true,"vac":true,"version":"7932396","steam_id":85568392924964314,"keywords":["cp","nocrits","nodmgspread","uncletopia"],"game_id":440,"stv_port":27076,"stv_name":"Uncletopia | London | 7 | No Payload | STV","players":null},{"server_id":41,"name":"Uncletopia | London | 8 | Community","name_short":"lon-8","host":"lon-1.uk.uncletopia.com","port":27085,"enabled":true,"region":"eu","cc":"gb","latitude":51.509865,"longitude":-0.118092,"reserved":0,"last_update":"0001-01-01T00:00:00Z","name_a2s":"Uncletopia | London | 8 | Community","protocol":17,"map":"workshop/pl_eruption_b9a.ugc2807898013","folder":"tf","game":"Team Fortress","app_id":440,"player_count":0,"max_players":24,"Bots":0,"server_type":"Dedicated","server_os":"Linux","password":true,"vac":true,"version":"7932396","steam_id":85568392924964315,"keywords":["nocrits","nodmgspread","payload","uncletopia"],"game_id":440,"stv_port":27086,"stv_name":"Uncletopia | London | 8 | Community | STV","players":null},{"server_id":300,"name":"Uncletopia | Montréal | 1 | All Maps","name_short":"mtl-1","host":"mtl-1.ca.uncletopia.com","port":27015,"enabled":true,"region":"us-east","cc":"ca","latitude":45.50889,"longitude":-73.56167,"reserved":0,"last_update":"0001-01-01T00:00:00Z","name_a2s":"Uncletopia | Montréal | 1 | All Maps","protocol":17,"map":"pl_barnblitz","folder":"tf","game":"Team Fortress","app_id":440,"player_count":0,"max_players":24,"Bots":0,"server_type":"Dedicated","server_os":"Linux","password":true,"vac":true,"version":"7932396","steam_id":85568392924500087,"keywords":["nocrits","nodmgspread","payload","uncletopia"],"game_id":440,"stv_port":27016,"stv_name":"Uncletopia | Montréal | 1 | All Maps | STV","players":null},{"server_id":301,"name":"Uncletopia | Montréal | 2 | All Maps","name_short":"mtl-2","host":"mtl-1.ca.uncletopia.com","port":27025,"enabled":true,"region":"us-east","cc":"ca","latitude":45.50889,"longitude":-73.56167,"reserved":0,"last_update":"0001-01-01T00:00:00Z","name_a2s":"Uncletopia | Montréal | 2 | All Maps","protocol":17,"map":"cp_mountainlab","folder":"tf","game":"Team Fortress","app_id":440,"player_count":0,"max_players":24,"Bots":0,"server_type":"Dedicated","server_os":"Linux","password":true,"vac":true,"version":"7932396","steam_id":85568392924500088,"keywords":["cp","nocrits","nodmgspread","uncletopia"],"game_id":440,"stv_port":27026,"stv_name":"Uncletopia | Montréal | 2 | All Maps | STV","players":null},{"server_id":302,"name":"Uncletopia | Montréal | 3 | All Maps","name_short":"mtl-3","host":"mtl-1.ca.uncletopia.com","port":27035,"enabled":true,"region":"us-east","cc":"ca","latitude":45.50889,"longitude":-73.56167,"reserved":0,"last_update":"0001-01-01T00:00:00Z","name_a2s":"Uncletopia | Montréal | 3 | All Maps","protocol":17,"map":"pl_badwater","folder":"tf","game":"Team Fortress","app_id":440,"player_count":0,"max_players":24,"Bots":0,"server_type":"Dedicated","server_os":"Linux","password":true,"vac":true,"version":"7932396","steam_id":85568392924500089,"keywords":["nocrits","nodmgspread","payload","uncletopia"],"game_id":440,"stv_port":27036,"stv_name":"Uncletopia | Montréal | 3 | All Maps | STV","players":null},{"server_id":303,"name":"Uncletopia | Montréal | 4 | No Payload","name_short":"mtl-4","host":"mtl-1.ca.uncletopia.com","port":27045,"enabled":true,"region":"us-east","cc":"ca","latitude":45.50889,"longitude":-73.56167,"reserved":0,"last_update":"0001-01-01T00:00:00Z","name_a2s":"Uncletopia | Montréal | 4 | No Payload","protocol":17,"map":"koth_harvest_final","folder":"tf","game":"Team Fortress","app_id":440,"player_count":0,"max_players":24,"Bots":0,"server_type":"Dedicated","server_os":"Linux","password":true,"vac":true,"version":"7932396","steam_id":85568392924500090,"keywords":["cp","nocrits","nodmgspread","uncletopia"],"game_id":440,"stv_port":27046,"stv_name":"Uncletopia | Montréal | 4 | No Payload | STV","players":null},{"server_id":13,"name":"Uncletopia | New York City | 1 | All Maps","name_short":"nyc-1","host":"nyc-1.us.uncletopia.com","port":27015,"enabled":true,"region":"us-east","cc":"us","latitude":40.73061,"longitude":-73.93524,"reserved":0,"last_update":"0001-01-01T00:00:00Z","name_a2s":"Uncletopia | New York City | 1 | All Maps","protocol":17,"map":"koth_suijin","folder":"tf","game":"Team Fortress","app_id":440,"player_count":2,"max_players":24,"Bots":0,"server_type":"Dedicated","server_os":"Linux","password":true,"vac":true,"version":"7932396","steam_id":85568392924469993,"keywords":["cp","nocrits","nodmgspread","uncletopia"],"game_id":440,"stv_port":27016,"stv_name":"Uncletopia | New York City | 1 | All Maps | STV","players":[{"user_id":402,"name":"SomethingUnusual","steam_id":76561198217824760,"connected_time":2529000000000,"state":"active","ping":126},{"user_id":403,"name":"King STAZE","steam_id":76561198190731506,"connected_time":2477000000000,"state":"active","ping":116}]},{"server_id":14,"name":"Uncletopia | New York City | 2 | All Maps","name_short":"nyc-2","host":"nyc-1.us.uncletopia.com","port":27025,"enabled":true,"region":"us-east","cc":"us","latitude":40.73061,"longitude":-73.93524,"reserved":0,"last_update":"0001-01-01T00:00:00Z","name_a2s":"Uncletopia | New York City | 2 | All Maps","protocol":17,"map":"pl_swiftwater_final1","folder":"tf","game":"Team Fortress","app_id":440,"player_count":24,"max_players":24,"Bots":0,"server_type":"Dedicated","server_os":"Linux","password":true,"vac":true,"version":"7932396","steam_id":85568392924469994,"keywords":["nocrits","nodmgspread","payload","uncletopia"],"game_id":440,"stv_port":27026,"stv_name":"Uncletopia | New York City | 2 | All Maps | STV","players":[{"user_id":375,"name":"Anji's onlyfans","steam_id":76561198353160282,"connected_time":747000000000,"state":"active","ping":85},{"user_id":380,"name":"bread","steam_id":76561199207479862,"connected_time":566000000000,"state":"active","ping":97},{"user_id":371,"name":"Toonice","steam_id":76561198402994885,"connected_time":837000000000,"state":"active","ping":57},{"user_id":344,"name":"marcie","steam_id":76561198170642407,"connected_time":3959000000000,"state":"active","ping":60},{"user_id":326,"name":"mastercoms","steam_id":76561198046110893,"connected_time":6391000000000,"state":"active","ping":59},{"user_id":349,"name":"Mr. Chi City","steam_id":76561198131467867,"connected_time":3776000000000,"state":"active","ping":104},{"user_id":341,"name":"just call me joe","steam_id":76561198043911582,"connected_time":4805000000000,"state":"active","ping":45},{"user_id":268,"name":"SHADY SWEATER SALESMAN","steam_id":76561198014616865,"connected_time":9957000000000,"state":"active","ping":48},{"user_id":376,"name":"Mr.Deer","steam_id":76561198967106276,"connected_time":725000000000,"state":"active","ping":103},{"user_id":372,"name":"dolly","steam_id":76561198440779667,"connected_time":837000000000,"state":"active","ping":70},{"user_id":345,"name":"StraySheep","steam_id":76561198256003811,"connected_time":3801000000000,"state":"active","ping":54},{"user_id":364,"name":"GROOVYROOM","steam_id":76561199153684166,"connected_time":2604000000000,"state":"active","ping":83},{"user_id":377,"name":"oof aim small brain","steam_id":76561198079925551,"connected_time":699000000000,"state":"active","ping":45},{"user_id":362,"name":"bog","steam_id":76561198086008437,"connected_time":2646000000000,"state":"active","ping":90},{"user_id":332,"name":"SadVeggie","steam_id":76561198163430099,"connected_time":5903000000000,"state":"active","ping":109},{"user_id":373,"name":"chainsaw chains for teeth.","steam_id":76561198294013916,"connected_time":836000000000,"state":"active","ping":46},{"user_id":367,"name":"Buck","steam_id":76561198064244796,"connected_time":1821000000000,"state":"active","ping":80},{"user_id":356,"name":"CardPenguin","steam_id":76561198153669555,"connected_time":3611000000000,"state":"active","ping":66},{"user_id":370,"name":"Heat My Justice","steam_id":76561197995252750,"connected_time":869000000000,"state":"active","ping":82},{"user_id":339,"name":"Punkin","steam_id":76561198334301755,"connected_time":4874000000000,"state":"active","ping":53},{"user_id":378,"name":"Big Tonka","steam_id":76561198891584971,"connected_time":694000000000,"state":"active","ping":74},{"user_id":365,"name":"sad boi","steam_id":76561198395577807,"connected_time":2603000000000,"state":"active","ping":46},{"user_id":381,"name":"The Horselords and Animal Gods","steam_id":76561197975094050,"connected_time":416000000000,"state":"active","ping":126},{"user_id":338,"name":"♥ kiss me! ♥","steam_id":76561198014557455,"connected_time":5005000000000,"state":"active","ping":88}]},{"server_id":15,"name":"Uncletopia | New York City | 3 | Stopwatch Beta","name_short":"nyc-3","host":"nyc-1.us.uncletopia.com","port":27035,"enabled":true,"region":"us-east","cc":"us","latitude":40.73061,"longitude":-73.93524,"reserved":0,"last_update":"0001-01-01T00:00:00Z","name_a2s":"Uncletopia | New York City | 3 | Stopwatch Beta","protocol":17,"map":"workshop/pl_barnblitz_pro7.ugc582280235","folder":"tf","game":"Team Fortress","app_id":440,"player_count":0,"max_players":24,"Bots":0,"server_type":"Dedicated","server_os":"Linux","password":true,"vac":true,"version":"7932396","steam_id":85568392924742820,"keywords":["nocrits","nodmgspread","payload","uncletopia"],"game_id":440,"stv_port":27036,"stv_name":"Uncletopia | New York City | 3 | Stopwatch Beta | STV","players":null},{"server_id":16,"name":"Uncletopia | New York City | 4 | Community","name_short":"nyc-4","host":"nyc-1.us.uncletopia.com","port":27045,"enabled":true,"region":"us-east","cc":"us","latitude":40.73061,"longitude":-73.93524,"reserved":0,"last_update":"0001-01-01T00:00:00Z","name_a2s":"Uncletopia | New York City | 4 | Community","protocol":17,"map":"workshop/koth_ramjam_rc1.ugc459778887","folder":"tf","game":"Team Fortress","app_id":440,"player_count":4,"max_players":24,"Bots":0,"server_type":"Dedicated","server_os":"Linux","password":true,"vac":true,"version":"7932396","steam_id":85568392924742821,"keywords":["cp","nocrits","nodmgspread","uncletopia"],"game_id":440,"stv_port":27046,"stv_name":"Uncletopia | New York City | 4 | Community | STV","players":[{"user_id":19,"name":"Benis Gonzalez","steam_id":76561198799391259,"connected_time":356000000000,"state":"active","ping":144},{"user_id":20,"name":"Demoslow","steam_id":76561198805592656,"connected_time":322000000000,"state":"active","ping":130},{"user_id":21,"name":"epicgameslauncherplaer878","steam_id":76561198360279519,"connected_time":250000000000,"state":"active","ping":165},{"user_id":22,"name":"Sgt. Satire","steam_id":76561198104193483,"connected_time":220000000000,"state":"active","ping":130}]},{"server_id":142,"name":"Uncletopia | São Paulo | 1 | All Maps","name_short":"sao-1","host":"sao-1.br.uncletopia.com","port":27015,"enabled":true,"region":"sa","cc":"br","latitude":-23.533773,"longitude":-46.62529,"reserved":0,"last_update":"0001-01-01T00:00:00Z","name_a2s":"Uncletopia | São Paulo | 1 | All Maps","protocol":17,"map":"koth_highpass","folder":"tf","game":"Team Fortress","app_id":440,"player_count":0,"max_players":24,"Bots":0,"server_type":"Dedicated","server_os":"Linux","password":true,"vac":true,"version":"7932396","steam_id":85568392924469996,"keywords":["cp","nocrits","nodmgspread","uncletopia"],"game_id":440,"stv_port":27016,"stv_name":"Uncletopia | São Paulo | 1 | All Maps | STV","players":null},{"server_id":143,"name":"Uncletopia | São Paulo | 2 | All Maps","name_short":"sao-2","host":"sao-2.br.uncletopia.com","port":27015,"enabled":true,"region":"sa","cc":"br","latitude":-23.533773,"longitude":-46.62529,"reserved":0,"last_update":"0001-01-01T00:00:00Z","name_a2s":"Uncletopia | São Paulo | 2 | All Maps","protocol":17,"map":"koth_cascade","folder":"tf","game":"Team Fortress","app_id":440,"player_count":0,"max_players":24,"Bots":0,"server_type":"Dedicated","server_os":"Linux","password":true,"vac":true,"version":"7932396","steam_id":85568392924485349,"keywords":["cp","nocrits","nodmgspread","uncletopia"],"game_id":440,"stv_port":27016,"stv_name":"Uncletopia | São Paulo | 2 | All Maps | STV","players":null},{"server_id":7,"name":"Uncletopia | Seattle | 1 | All Maps","name_short":"sea-1","host":"sea-1.us.uncletopia.com","port":27015,"enabled":true,"region":"us-west","cc":"us","latitude":47.608013,"longitude":-122.33517,"reserved":0,"last_update":"0001-01-01T00:00:00Z","name_a2s":"Uncletopia | Seattle | 1 | All Maps","protocol":17,"map":"koth_viaduct","folder":"tf","game":"Team Fortress","app_id":440,"player_count":24,"max_players":24,"Bots":0,"server_type":"Dedicated","server_os":"Linux","password":true,"vac":true,"version":"7932396","steam_id":85568392924469997,"keywords":["cp","nocrits","nodmgspread","uncletopia"],"game_id":440,"stv_port":27016,"stv_name":"Uncletopia | Seattle | 1 | All Maps | STV","players":[{"user_id":526,"name":"goldhed","steam_id":76561198051751133,"connected_time":4707000000000,"state":"active","ping":54},{"user_id":568,"name":"Can of Oranges","steam_id":76561199121813529,"connected_time":773000000000,"state":"active","ping":77},{"user_id":561,"name":"Google","steam_id":76561198857237473,"connected_time":1703000000000,"state":"active","ping":61},{"user_id":543,"name":"NEBULA","steam_id":76561198086878595,"connected_time":2966000000000,"state":"active","ping":76},{"user_id":565,"name":"VerminKing","steam_id":76561198060887391,"connected_time":1225000000000,"state":"active","ping":58},{"user_id":538,"name":"Sniff","steam_id":76561198010270922,"connected_time":3199000000000,"state":"active","ping":41},{"user_id":564,"name":"Corpe","steam_id":76561198054490549,"connected_time":1229000000000,"state":"active","ping":50},{"user_id":533,"name":"An Old Lady","steam_id":76561198047480318,"connected_time":3918000000000,"state":"active","ping":75},{"user_id":402,"name":"Lord Hater","steam_id":76561199158148782,"connected_time":17344000000000,"state":"active","ping":55},{"user_id":555,"name":"oil","steam_id":76561198099980149,"connected_time":2340000000000,"state":"active","ping":75},{"user_id":567,"name":"roryisn'tfullyhere","steam_id":76561198065825165,"connected_time":1166000000000,"state":"active","ping":103},{"user_id":571,"name":"Chol","steam_id":76561198122054259,"connected_time":350000000000,"state":"active","ping":126},{"user_id":488,"name":"lusty","steam_id":76561198138478947,"connected_time":8369000000000,"state":"active","ping":44},{"user_id":537,"name":"Crabby","steam_id":76561198040023173,"connected_time":3664000000000,"state":"active","ping":58},{"user_id":527,"name":"lavender","steam_id":76561199069518286,"connected_time":4264000000000,"state":"active","ping":74},{"user_id":503,"name":"lasky","steam_id":76561198017030029,"connected_time":6903000000000,"state":"active","ping":78},{"user_id":572,"name":"Doctor™","steam_id":76561198134309750,"connected_time":244000000000,"state":"active","ping":113},{"user_id":439,"name":"Ayayayayayahuasca","steam_id":76561199002906056,"connected_time":13731000000000,"state":"active","ping":52},{"user_id":552,"name":"Wavelengths of gender or someth","steam_id":76561197997621320,"connected_time":2463000000000,"state":"active","ping":115},{"user_id":569,"name":"Yack Skag","steam_id":76561198068251493,"connected_time":695000000000,"state":"active","ping":77},{"user_id":539,"name":"Breadman","steam_id":76561198097979919,"connected_time":3191000000000,"state":"active","ping":78},{"user_id":563,"name":"jorts","steam_id":76561199041179985,"connected_time":1501000000000,"state":"active","ping":57},{"user_id":492,"name":"rat gets the cheese","steam_id":76561198031234032,"connected_time":8075000000000,"state":"active","ping":90},{"user_id":570,"name":"Mikey Decoy","steam_id":76561198070496601,"connected_time":590000000000,"state":"active","ping":52}]},{"server_id":119,"name":"Uncletopia | Seattle | 2 | All Maps","name_short":"sea-2","host":"sea-1.us.uncletopia.com","port":27025,"enabled":true,"region":"us-west","cc":"us","latitude":47.608013,"longitude":-122.33517,"reserved":0,"last_update":"0001-01-01T00:00:00Z","name_a2s":"Uncletopia | Seattle | 2 | All Maps","protocol":17,"map":"pl_borneo","folder":"tf","game":"Team Fortress","app_id":440,"player_count":13,"max_players":24,"Bots":0,"server_type":"Dedicated","server_os":"Linux","password":true,"vac":true,"version":"7932396","steam_id":85568392924469998,"keywords":["nocrits","nodmgspread","payload","uncletopia"],"game_id":440,"stv_port":27026,"stv_name":"Uncletopia | Seattle | 2 | All Maps | STV","players":[{"user_id":422,"name":"rad killl raccoon","steam_id":76561198980975595,"connected_time":1018000000000,"state":"active","ping":61},{"user_id":417,"name":"TrumpShallPurgetheAnimeScourge","steam_id":76561199128200999,"connected_time":1828000000000,"state":"active","ping":57},{"user_id":412,"name":"Chicanery","steam_id":76561198977589038,"connected_time":2307000000000,"state":"active","ping":111},{"user_id":418,"name":"The Comedian","steam_id":76561198037780226,"connected_time":1749000000000,"state":"active","ping":72},{"user_id":431,"name":"Red-Leg-On","steam_id":76561198176519614,"connected_time":20000000000,"state":"active","ping":47},{"user_id":419,"name":"drain gang gf","steam_id":76561198983196117,"connected_time":1249000000000,"state":"active","ping":36},{"user_id":432,"name":"io_est","steam_id":76561198079538952,"connected_time":18000000000,"state":"active","ping":56},{"user_id":389,"name":"Owl Of Delos","steam_id":76561198437116566,"connected_time":4270000000000,"state":"active","ping":60},{"user_id":427,"name":"lurch fighter","steam_id":76561198088239763,"connected_time":423000000000,"state":"active","ping":80},{"user_id":421,"name":"Price","steam_id":76561198134680043,"connected_time":1235000000000,"state":"active","ping":82},{"user_id":424,"name":"lilypad\u003c/3","steam_id":76561198094140669,"connected_time":740000000000,"state":"active","ping":115},{"user_id":428,"name":"Pyro mains are not real people","steam_id":76561199093733603,"connected_time":262000000000,"state":"active","ping":78},{"user_id":415,"name":"Ira","steam_id":76561198855586261,"connected_time":1962000000000,"state":"active","ping":76}]},{"server_id":406,"name":"Uncletopia | Seattle | 3 | Stopwatch Beta","name_short":"sea-3","host":"sea-1.us.uncletopia.com","port":27035,"enabled":true,"region":"us-west","cc":"us","latitude":47.608013,"longitude":-122.33517,"reserved":0,"last_update":"0001-01-01T00:00:00Z","name_a2s":"Uncletopia | Seattle | 3 | Stopwatch Beta","protocol":17,"map":"workshop/koth_bagel_rc6.ugc2514036946","folder":"tf","game":"Team Fortress","app_id":440,"player_count":0,"max_players":24,"Bots":0,"server_type":"Dedicated","server_os":"Linux","password":true,"vac":true,"version":"7932396","steam_id":85568392924515217,"keywords":["cp","nocrits","nodmgspread","uncletopia"],"game_id":440,"stv_port":27036,"stv_name":"Uncletopia | Seattle | 3 | Stopwatch Beta | STV","players":null},{"server_id":17,"name":"Uncletopia | San Francisco | 1 | All Maps","name_short":"sfo-1","host":"sfo-1.us.uncletopia.com","port":27015,"enabled":true,"region":"us-west","cc":"us","latitude":37.77397,"longitude":-122.4313,"reserved":0,"last_update":"0001-01-01T00:00:00Z","name_a2s":"Uncletopia | San Francisco | 1 | All Maps","protocol":17,"map":"cp_gorge","folder":"tf","game":"Team Fortress","app_id":440,"player_count":23,"max_players":24,"Bots":0,"server_type":"Dedicated","server_os":"Linux","password":true,"vac":true,"version":"7932396","steam_id":85568392924469999,"keywords":["cp","nocrits","nodmgspread","uncletopia"],"game_id":440,"stv_port":27016,"stv_name":"Uncletopia | San Francisco | 1 | All Maps | STV","players":[{"user_id":371,"name":"Power Jake","steam_id":76561198051510260,"connected_time":876000000000,"state":"active","ping":61},{"user_id":383,"name":"Nobongo","steam_id":76561198137957455,"connected_time":80000000000,"state":"active","ping":119},{"user_id":380,"name":"Vincy","steam_id":76561198003539813,"connected_time":224000000000,"state":"active","ping":96},{"user_id":345,"name":"NotAWeeb","steam_id":76561198165530739,"connected_time":3562000000000,"state":"active","ping":45},{"user_id":381,"name":"ZEALOT","steam_id":76561198044584712,"connected_time":181000000000,"state":"active","ping":107},{"user_id":382,"name":"Lumina","steam_id":76561198089227368,"connected_time":130000000000,"state":"active","ping":166},{"user_id":384,"name":"Hatfam","steam_id":76561199192629036,"connected_time":73000000000,"state":"active","ping":59},{"user_id":352,"name":"joethefool","steam_id":76561199015436319,"connected_time":3177000000000,"state":"active","ping":114},{"user_id":385,"name":"Typha","steam_id":76561198350099066,"connected_time":65000000000,"state":"spawning","ping":53},{"user_id":386,"name":"Gentle Opp 3","steam_id":76561198150406851,"connected_time":65000000000,"state":"active","ping":43},{"user_id":387,"name":"Downie Dan","steam_id":76561198098400520,"connected_time":56000000000,"state":"active","ping":141},{"user_id":388,"name":"Farseer Ulwithy","steam_id":76561197965179245,"connected_time":46000000000,"state":"active","ping":127},{"user_id":377,"name":"Sidekick","steam_id":76561198392740835,"connected_time":665000000000,"state":"active","ping":68},{"user_id":389,"name":"erth:)","steam_id":76561198148439635,"connected_time":4000000000,"state":"spawning","ping":63},{"user_id":338,"name":"Junko","steam_id":76561198146089003,"connected_time":4176000000000,"state":"active","ping":105},{"user_id":390,"name":"Solifuga","steam_id":76561198119569902,"connected_time":3000000000,"state":"spawning","ping":61},{"user_id":349,"name":"Maid 'n' China","steam_id":76561198423392976,"connected_time":3403000000000,"state":"active","ping":50},{"user_id":299,"name":"Taco+Taco=Burrito","steam_id":76561198063128663,"connected_time":6135000000000,"state":"active","ping":59},{"user_id":376,"name":"carbonated milk","steam_id":76561198089845705,"connected_time":708000000000,"state":"active","ping":52},{"user_id":378,"name":"Tiny Fisto","steam_id":76561198446888505,"connected_time":409000000000,"state":"active","ping":123},{"user_id":334,"name":"Pudsla","steam_id":76561198258974036,"connected_time":4270000000000,"state":"active","ping":47},{"user_id":363,"name":"craftylongsword","steam_id":76561198340102940,"connected_time":2352000000000,"state":"active","ping":88},{"user_id":333,"name":"Reisen Udongein Inaba","steam_id":76561198051082314,"connected_time":4289000000000,"state":"active","ping":53}]},{"server_id":18,"name":"Uncletopia | San Francisco | 2 | All Maps","name_short":"sfo-2","host":"sfo-1.us.uncletopia.com","port":27025,"enabled":true,"region":"us-west","cc":"us","latitude":37.77397,"longitude":-122.4313,"reserved":0,"last_update":"0001-01-01T00:00:00Z","name_a2s":"Uncletopia | San Francisco | 2 | All Maps","protocol":17,"map":"cp_dustbowl","folder":"tf","game":"Team Fortress","app_id":440,"player_count":24,"max_players":24,"Bots":0,"server_type":"Dedicated","server_os":"Linux","password":true,"vac":true,"version":"7932396","steam_id":85568392924470000,"keywords":["cp","nocrits","nodmgspread","uncletopia"],"game_id":440,"stv_port":27026,"stv_name":"Uncletopia | San Francisco | 2 | All Maps | STV","players":[{"user_id":160,"name":"Pikemen","steam_id":76561198141338432,"connected_time":993000000000,"state":"active","ping":60},{"user_id":174,"name":"Mr. Boombox","steam_id":76561198070609120,"connected_time":756000000000,"state":"active","ping":107},{"user_id":178,"name":"Phlogging Solly","steam_id":76561198020580071,"connected_time":582000000000,"state":"active","ping":74},{"user_id":175,"name":"snek","steam_id":76561198124848994,"connected_time":740000000000,"state":"active","ping":200},{"user_id":153,"name":"Thomas Chavira Gaming","steam_id":76561198313671617,"connected_time":1418000000000,"state":"active","ping":55},{"user_id":148,"name":"SolarusD","steam_id":76561198029279861,"connected_time":1833000000000,"state":"active","ping":46},{"user_id":168,"name":"Lambchop","steam_id":76561198043900363,"connected_time":897000000000,"state":"active","ping":60},{"user_id":159,"name":"Mike Bean Burritos","steam_id":76561198173430607,"connected_time":1075000000000,"state":"active","ping":92},{"user_id":141,"name":"✿ Flores","steam_id":76561198106938500,"connected_time":4070000000000,"state":"active","ping":58},{"user_id":149,"name":"Tibalt Nyahuma","steam_id":76561198034779431,"connected_time":1818000000000,"state":"active","ping":115},{"user_id":176,"name":"Gary Sinfeld","steam_id":76561198042274074,"connected_time":698000000000,"state":"active","ping":69},{"user_id":171,"name":"TJThomas","steam_id":76561198038292405,"connected_time":810000000000,"state":"active","ping":110},{"user_id":132,"name":"Ian","steam_id":76561198159334435,"connected_time":5335000000000,"state":"active","ping":179},{"user_id":164,"name":"Rygan Sharpside","steam_id":76561198069514400,"connected_time":939000000000,"state":"active","ping":116},{"user_id":150,"name":"Mapachito Lindo","steam_id":76561198031359995,"connected_time":1805000000000,"state":"active","ping":62},{"user_id":125,"name":"Stan_The_Stick_Man","steam_id":76561198158340112,"connected_time":7383000000000,"state":"active","ping":67},{"user_id":161,"name":"Boxy Brown [AS]","steam_id":76561198137958976,"connected_time":970000000000,"state":"active","ping":90},{"user_id":144,"name":"azlondon","steam_id":76561197995819002,"connected_time":3736000000000,"state":"active","ping":66},{"user_id":172,"name":"Chiaki Nanami","steam_id":76561198164782653,"connected_time":808000000000,"state":"active","ping":116},{"user_id":173,"name":"gerg","steam_id":76561197997127387,"connected_time":807000000000,"state":"active","ping":58},{"user_id":179,"name":"Tommy da bird","steam_id":76561198136340711,"connected_time":551000000000,"state":"active","ping":81},{"user_id":99,"name":"Juevos","steam_id":76561198066142119,"connected_time":9609000000000,"state":"active","ping":70},{"user_id":151,"name":"AtomSQRRL","steam_id":76561199151951364,"connected_time":1796000000000,"state":"active","ping":51},{"user_id":180,"name":"cletismckloskey","steam_id":76561198020014376,"connected_time":527000000000,"state":"active","ping":67}]},{"server_id":19,"name":"Uncletopia | San Francisco | 3 | Stopwatch Beta","name_short":"sfo-3","host":"sfo-1.us.uncletopia.com","port":27035,"enabled":true,"region":"us-west","cc":"us","latitude":37.77397,"longitude":-122.4313,"reserved":0,"last_update":"0001-01-01T00:00:00Z","name_a2s":"Uncletopia | San Francisco | 3 | Stopwatch Beta","protocol":17,"map":"workshop/pl_vigil_rc9.ugc1266210012","folder":"tf","game":"Team Fortress","app_id":440,"player_count":0,"max_players":24,"Bots":0,"server_type":"Dedicated","server_os":"Linux","password":true,"vac":true,"version":"7932396","steam_id":85568392924742824,"keywords":["nocrits","nodmgspread","payload","uncletopia"],"game_id":440,"stv_port":27036,"stv_name":"Uncletopia | San Francisco | 3 | Stopwatch Beta | STV","players":null},{"server_id":20,"name":"Uncletopia | San Francisco | 4 | Community","name_short":"sfo-4","host":"sfo-1.us.uncletopia.com","port":27045,"enabled":true,"region":"us-west","cc":"us","latitude":37.77397,"longitude":-122.4313,"reserved":0,"last_update":"0001-01-01T00:00:00Z","name_a2s":"Uncletopia | San Francisco | 4 | Community","protocol":17,"map":"workshop/koth_ashville_final.ugc2130459942","folder":"tf","game":"Team Fortress","app_id":440,"player_count":0,"max_players":24,"Bots":0,"server_type":"Dedicated","server_os":"Linux","password":true,"vac":true,"version":"7932396","steam_id":85568392924742826,"keywords":["cp","nocrits","nodmgspread","uncletopia"],"game_id":440,"stv_port":27046,"stv_name":"Uncletopia | San Francisco | 4 | Community | STV","players":null},{"server_id":141,"name":"Uncletopia | Sydney | 1 | All Maps","name_short":"syd-1","host":"syd-1.au.uncletopia.com","port":27015,"enabled":true,"region":"au","cc":"au","latitude":-33.865143,"longitude":151.2099,"reserved":0,"last_update":"0001-01-01T00:00:00Z","name_a2s":"Uncletopia | Sydney | 1 | All Maps","protocol":17,"map":"pl_goldrush","folder":"tf","game":"Team Fortress","app_id":440,"player_count":24,"max_players":24,"Bots":0,"server_type":"Dedicated","server_os":"Linux","password":true,"vac":true,"version":"7932396","steam_id":85568392924470001,"keywords":["nocrits","nodmgspread","payload","uncletopia"],"game_id":440,"stv_port":27016,"stv_name":"Uncletopia | Sydney | 1 | All Maps | STV","players":[{"user_id":92,"name":"uven","steam_id":76561198080981482,"connected_time":3583000000000,"state":"active","ping":35},{"user_id":120,"name":"BigLadBoyga","steam_id":76561198985263763,"connected_time":2175000000000,"state":"active","ping":70},{"user_id":143,"name":"Float","steam_id":76561198021812511,"connected_time":842000000000,"state":"active","ping":51},{"user_id":113,"name":"perturb (feed/seed)","steam_id":76561198085124297,"connected_time":2384000000000,"state":"active","ping":60},{"user_id":121,"name":"alex","steam_id":76561198053382248,"connected_time":2160000000000,"state":"active","ping":37},{"user_id":144,"name":"chonk","steam_id":76561198002924796,"connected_time":835000000000,"state":"active","ping":56},{"user_id":127,"name":"Pompadouraus","steam_id":76561198327530525,"connected_time":1981000000000,"state":"active","ping":76},{"user_id":128,"name":"sav","steam_id":76561198058760041,"connected_time":1969000000000,"state":"active","ping":75},{"user_id":102,"name":"Benskii","steam_id":76561198070130470,"connected_time":3070000000000,"state":"active","ping":54},{"user_id":111,"name":"Das Ist Scheisse","steam_id":76561198886094239,"connected_time":2563000000000,"state":"active","ping":52},{"user_id":146,"name":"Jay Lamar","steam_id":76561198107504114,"connected_time":573000000000,"state":"active","ping":39},{"user_id":135,"name":"Loaf","steam_id":76561198295941652,"connected_time":1499000000000,"state":"active","ping":55},{"user_id":122,"name":"callum.jones2008","steam_id":76561198050053720,"connected_time":2152000000000,"state":"active","ping":76},{"user_id":138,"name":"BOT Gary","steam_id":76561198376950841,"connected_time":1277000000000,"state":"active","ping":56},{"user_id":54,"name":"DARLING","steam_id":76561198057146794,"connected_time":7358000000000,"state":"active","ping":68},{"user_id":153,"name":"ow","steam_id":76561198133277383,"connected_time":270000000000,"state":"active","ping":45},{"user_id":124,"name":"discord espionage","steam_id":76561198238031616,"connected_time":2080000000000,"state":"active","ping":84},{"user_id":157,"name":"sf/k","steam_id":76561198047758776,"connected_time":98000000000,"state":"active","ping":43},{"user_id":155,"name":"Blu Scout","steam_id":76561199229466711,"connected_time":190000000000,"state":"active","ping":101},{"user_id":140,"name":"WEEABOO69420","steam_id":76561198114276713,"connected_time":1246000000000,"state":"active","ping":95},{"user_id":148,"name":"MindlessTie","steam_id":76561198107844324,"connected_time":460000000000,"state":"active","ping":71},{"user_id":151,"name":"LaFleur","steam_id":76561198869499113,"connected_time":342000000000,"state":"active","ping":59},{"user_id":80,"name":"Jodelkönig Franzl Lang","steam_id":76561198007667830,"connected_time":5481000000000,"state":"active","ping":55},{"user_id":152,"name":"OverTasked ッ","steam_id":76561198829465540,"connected_time":335000000000,"state":"active","ping":63}]},{"server_id":123,"name":"Uncletopia | Sydney | 2 | All Maps","name_short":"syd-2","host":"syd-1.au.uncletopia.com","port":27025,"enabled":true,"region":"au","cc":"au","latitude":-33.865143,"longitude":151.2099,"reserved":0,"last_update":"0001-01-01T00:00:00Z","name_a2s":"Uncletopia | Sydney | 2 | All Maps","protocol":17,"map":"cp_snakewater_final1","folder":"tf","game":"Team Fortress","app_id":440,"player_count":1,"max_players":24,"Bots":0,"server_type":"Dedicated","server_os":"Linux","password":true,"vac":true,"version":"7932396","steam_id":85568392924470002,"keywords":["cp","nocrits","nodmgspread","uncletopia"],"game_id":440,"stv_port":27026,"stv_name":"Uncletopia | Sydney | 2 | All Maps | STV","players":[{"user_id":3,"name":"APVC","steam_id":76561199090168813,"connected_time":1310000000000,"state":"active","ping":48}]},{"server_id":395,"name":"Uncletopia | Sydney | 3 | All Maps","name_short":"syd-3","host":"syd-1.au.uncletopia.com","port":27035,"enabled":true,"region":"au","cc":"au","latitude":-33.865143,"longitude":151.2099,"reserved":0,"last_update":"0001-01-01T00:00:00Z","name_a2s":"Uncletopia | Sydney | 3 | All Maps","protocol":17,"map":"cp_mountainlab","folder":"tf","game":"Team Fortress","app_id":440,"player_count":0,"max_players":24,"Bots":0,"server_type":"Dedicated","server_os":"Linux","password":true,"vac":true,"version":"7932396","steam_id":85568392925194467,"keywords":["cp","nocrits","nodmgspread","uncletopia"],"game_id":440,"stv_port":27036,"stv_name":"Uncletopia | Sydney | 3 | All Maps | STV","players":null},{"server_id":396,"name":"Uncletopia | Sydney | 4 | All Maps","name_short":"syd-4","host":"syd-1.au.uncletopia.com","port":27045,"enabled":true,"region":"au","cc":"au","latitude":-33.865143,"longitude":151.2099,"reserved":0,"last_update":"0001-01-01T00:00:00Z","name_a2s":"Uncletopia | Sydney | 4 | All Maps","protocol":17,"map":"koth_viaduct","folder":"tf","game":"Team Fortress","app_id":440,"player_count":0,"max_players":24,"Bots":0,"server_type":"Dedicated","server_os":"Linux","password":true,"vac":true,"version":"7932396","steam_id":85568392925397958,"keywords":["cp","nocrits","nodmgspread","uncletopia"],"game_id":440,"stv_port":27046,"stv_name":"Uncletopia | Sydney | 4 | All Maps | STV","players":null},{"server_id":58,"name":"Uncletopia | Sydney | 5 | Stopwatch Beta","name_short":"syd-5","host":"syd-1.au.uncletopia.com","port":27055,"enabled":true,"region":"au","cc":"au","latitude":-33.865143,"longitude":151.2099,"reserved":0,"last_update":"0001-01-01T00:00:00Z","name_a2s":"Uncletopia | Sydney | 5 | Stopwatch Beta","protocol":17,"map":"workshop/pl_vigil_rc9.ugc1266210012","folder":"tf","game":"Team Fortress","app_id":440,"player_count":0,"max_players":24,"Bots":0,"server_type":"Dedicated","server_os":"Linux","password":true,"vac":true,"version":"7932396","steam_id":85568392925397959,"keywords":["nocrits","nodmgspread","payload","uncletopia"],"game_id":440,"stv_port":27056,"stv_name":"Uncletopia | Sydney | 5 | Stopwatch Beta | STV","players":null},{"server_id":59,"name":"Uncletopia | Sydney | 6 | Community","name_short":"syd-6","host":"syd-1.au.uncletopia.com","port":27065,"enabled":true,"region":"au","cc":"au","latitude":-33.865143,"longitude":151.2099,"reserved":0,"last_update":"0001-01-01T00:00:00Z","name_a2s":"Uncletopia | Sydney | 6 | Community","protocol":17,"map":"cp_altitude","folder":"tf","game":"Team Fortress","app_id":440,"player_count":0,"max_players":24,"Bots":0,"server_type":"Dedicated","server_os":"Linux","password":true,"vac":true,"version":"7932396","steam_id":85568392925397960,"keywords":["cp","nocrits","nodmgspread","uncletopia"],"game_id":440,"stv_port":27066,"stv_name":"Uncletopia | Sydney | 6 | Community | STV","players":null},{"server_id":49,"name":"Uncletopia | Warsaw | 1 | All Maps","name_short":"waw-1","host":"waw-1.pl.uncletopia.com","port":27015,"enabled":true,"region":"eu","cc":"pl","latitude":52.2297,"longitude":21.017532,"reserved":0,"last_update":"0001-01-01T00:00:00Z","name_a2s":"","protocol":0,"map":"","folder":"","game":"","app_id":0,"player_count":0,"max_players":0,"Bots":0,"server_type":"","server_os":"","password":false,"vac":false,"version":"","steam_id":0,"keywords":null,"game_id":0,"stv_port":0,"stv_name":"","players":null},{"server_id":50,"name":"Uncletopia | Warsaw | 2 | All Maps","name_short":"waw-2","host":"waw-1.pl.uncletopia.com","port":27025,"enabled":true,"region":"eu","cc":"pl","latitude":52.2297,"longitude":21.017532,"reserved":0,"last_update":"0001-01-01T00:00:00Z","name_a2s":"Uncletopia | Warsaw | 2 | All Maps","protocol":17,"map":"pl_borneo","folder":"tf","game":"Team Fortress","app_id":440,"player_count":0,"max_players":24,"Bots":0,"server_type":"Dedicated","server_os":"Linux","password":true,"vac":true,"version":"7932396","steam_id":85568392925397851,"keywords":["nocrits","nodmgspread","payload","uncletopia"],"game_id":440,"stv_port":27026,"stv_name":"Uncletopia | Warsaw | 2 | All Maps | STV","players":null},{"server_id":51,"name":"Uncletopia | Warsaw | 3 | All Maps","name_short":"waw-3","host":"waw-1.pl.uncletopia.com","port":27035,"enabled":true,"region":"eu","cc":"pl","latitude":52.2297,"longitude":21.017532,"reserved":0,"last_update":"0001-01-01T00:00:00Z","name_a2s":"Uncletopia | Warsaw | 3 | All Maps","protocol":17,"map":"pl_pier","folder":"tf","game":"Team Fortress","app_id":440,"player_count":0,"max_players":24,"Bots":0,"server_type":"Dedicated","server_os":"Linux","password":true,"vac":true,"version":"7932396","steam_id":85568392925397852,"keywords":["nocrits","nodmgspread","payload","uncletopia"],"game_id":440,"stv_port":27036,"stv_name":"Uncletopia | Warsaw | 3 | All Maps | STV","players":null},{"server_id":52,"name":"Uncletopia | Warsaw | 4 | All Maps","name_short":"waw-4","host":"waw-1.pl.uncletopia.com","port":27045,"enabled":true,"region":"eu","cc":"pl","latitude":52.2297,"longitude":21.017532,"reserved":0,"last_update":"0001-01-01T00:00:00Z","name_a2s":"Uncletopia | Warsaw | 4 | All Maps","protocol":17,"map":"pl_borneo","folder":"tf","game":"Team Fortress","app_id":440,"player_count":0,"max_players":24,"Bots":0,"server_type":"Dedicated","server_os":"Linux","password":true,"vac":true,"version":"7932396","steam_id":85568392925397853,"keywords":["nocrits","nodmgspread","payload","uncletopia"],"game_id":440,"stv_port":27046,"stv_name":"Uncletopia | Warsaw | 4 | All Maps | STV","players":null},{"server_id":53,"name":"Uncletopia | Warsaw | 5 | Stopwatch Beta","name_short":"waw-5","host":"waw-1.pl.uncletopia.com","port":27055,"enabled":true,"region":"eu","cc":"pl","latitude":52.2297,"longitude":21.017532,"reserved":0,"last_update":"0001-01-01T00:00:00Z","name_a2s":"Uncletopia | Warsaw | 5 | Stopwatch Beta","protocol":17,"map":"koth_cascade","folder":"tf","game":"Team Fortress","app_id":440,"player_count":0,"max_players":24,"Bots":0,"server_type":"Dedicated","server_os":"Linux","password":true,"vac":true,"version":"7932396","steam_id":85568392925397854,"keywords":["cp","nocrits","nodmgspread","uncletopia"],"game_id":440,"stv_port":27056,"stv_name":"Uncletopia | Warsaw | 5 | Stopwatch Beta | STV","players":null},{"server_id":54,"name":"Uncletopia | Warsaw | 6 | Community","name_short":"waw-6","host":"waw-1.pl.uncletopia.com","port":27065,"enabled":true,"region":"eu","cc":"pl","latitude":52.2297,"longitude":21.017532,"reserved":0,"last_update":"0001-01-01T00:00:00Z","name_a2s":"Uncletopia | Warsaw | 6 | Community","protocol":17,"map":"pl_frontier_final","folder":"tf","game":"Team Fortress","app_id":440,"player_count":0,"max_players":24,"Bots":0,"server_type":"Dedicated","server_os":"Linux","password":true,"vac":true,"version":"7932396","steam_id":85568392925397856,"keywords":["nocrits","nodmgspread","payload","uncletopia"],"game_id":440,"stv_port":27066,"stv_name":"Uncletopia | Warsaw | 6 | Community | STV","players":null}]}