{"status":true,"message":"","result":[{"server_id":9,"name":"Uncletopia | Atlanta | 1 | All Maps","name_short":"atl-1","host":"atl-1.us.uncletopia.com","port":27015,"enabled":true,"region":"us-east","cc":"us","latitude":33.753746,"longitude":-84.38633,"reserved":0,"last_update":"0001-01-01T00:00:00Z","name_a2s":"Uncletopia | Atlanta | 1 | All Maps","protocol":17,"map":"pl_snowycoast","folder":"tf","game":"Team Fortress","app_id":440,"player_count":24,"max_players":24,"Bots":0,"server_type":"Dedicated","server_os":"Linux","password":true,"vac":true,"version":"7882260","steam_id":85568392924469982,"keywords":["nocrits","nodmgspread","payload","uncletopia"],"game_id":440,"stv_port":27016,"stv_name":"Uncletopia | Atlanta | 1 | All Maps | STV","players":[{"user_id":456,"name":"Pheonix","steam_id":76561199470538309,"connected_time":4258000000000,"state":"active","ping":75},{"user_id":493,"name":"HarryjusttHarry","steam_id":76561198982810452,"connected_time":484000000000,"state":"active","ping":79},{"user_id":417,"name":"Lucky","steam_id":76561198418262145,"connected_time":6471000000000,"state":"active","ping":113},{"user_id":463,"name":"rive","steam_id":76561198216487540,"connected_time":3289000000000,"state":"active","ping":105},{"user_id":494,"name":"Oddball","steam_id":76561198040440984,"connected_time":482000000000,"state":"active","ping":88},{"user_id":489,"name":"Chernov","steam_id":76561198014463424,"connected_time":1391000000000,"state":"active","ping":59},{"user_id":483,"name":"emily","steam_id":76561198148132163,"connected_time":1664000000000,"state":"active","ping":76},{"user_id":486,"name":"Waffle Wannabe","steam_id":76561198064510650,"connected_time":1478000000000,"state":"active","ping":63},{"user_id":317,"name":"Wahooka","steam_id":76561197962240925,"connected_time":12834000000000,"state":"active","ping":59},{"user_id":495,"name":"smoking on 100crits 2fort pack","steam_id":76561198079416036,"connected_time":481000000000,"state":"active","ping":81},{"user_id":504,"name":"MENTAL ATHLETE","steam_id":76561198100942212,"connected_time":219000000000,"state":"active","ping":60},{"user_id":496,"name":"Xuey","steam_id":76561199120960187,"connected_time":470000000000,"state":"active","ping":82},{"user_id":475,"name":"L + Ratio","steam_id":76561198263786953,"connected_time":2447000000000,"state":"active","ping":69},{"user_id":466,"name":"FHC | Nyle","steam_id":76561198045652639,"connected_time":2580000000000,"state":"active","ping":119},{"user_id":503,"name":"hot chocolate","steam_id":76561198880909559,"connected_time":270000000000,"state":"active","ping":92},{"user_id":468,"name":"SparkStorm","steam_id":76561198095817025,"connected_time":2547000000000,"state":"active","ping":44},{"user_id":498,"name":":()","steam_id":76561198071991975,"connected_time":468000000000,"state":"active","ping":73},{"user_id":500,"name":"stevert99","steam_id":76561198116762032,"connected_time":388000000000,"state":"active","ping":69},{"user_id":474,"name":"Horse","steam_id":76561198004583631,"connected_time":2477000000000,"state":"active","ping":94},{"user_id":416,"name":"Pios Chicken","steam_id":76561198167304707,"connected_time":6569000000000,"state":"active","ping":132},{"user_id":501,"name":"Surprise !!","steam_id":76561198047558484,"connected_time":386000000000,"state":"active","ping":77},{"user_id":502,"name":"A Twin-Seat Meat Bicycle","steam_id":76561198358757709,"connected_time":385000000000,"state":"active","ping":81},{"user_id":471,"name":"Voyager","steam_id":76561199128786637,"connected_time":2519000000000,"state":"active","ping":86},{"user_id":505,"name":"chaffy","steam_id":76561198021754567,"connected_time":196000000000,"state":"active","ping":60}]},{"server_id":104,"name":"Uncletopia | Atlanta | 2 | All Maps","name_short":"atl-2","host":"atl-1.us.uncletopia.com","port":27025,"enabled":true,"region":"us-east","cc":"us","latitude":33.753746,"longitude":-84.38633,"reserved":0,"last_update":"0001-01-01T00:00:00Z","name_a2s":"Uncletopia | Atlanta | 2 | All Maps","protocol":17,"map":"plr_hightower","folder":"tf","game":"Team Fortress","app_id":440,"player_count":10,"max_players":24,"Bots":0,"server_type":"Dedicated","server_os":"Linux","password":true,"vac":true,"version":"7882260","steam_id":85568392924469983,"keywords":["nocrits","nodmgspread","payload","uncletopia"],"game_id":440,"stv_port":27026,"stv_name":"Uncletopia | Atlanta | 2 | All Maps | STV","players":[{"user_id":401,"name":"Rivet","steam_id":76561198122059898,"connected_time":291000000000,"state":"active","ping":81},{"user_id":403,"name":"ZooWeeMama","steam_id":76561198353593569,"connected_time":158000000000,"state":"active","ping":45},{"user_id":404,"name":"SPEEDY","steam_id":76561199468686359,"connected_time":148000000000,"state":"active","ping":111},{"user_id":393,"name":"Yoru","steam_id":76561198119698950,"connected_time":1395000000000,"state":"active","ping":113},{"user_id":386,"name":"WeebMeisterJoel","steam_id":76561198124159574,"connected_time":2320000000000,"state":"active","ping":84},{"user_id":346,"name":"Ralser (no audio)","steam_id":76561199038370433,"connected_time":5020000000000,"state":"active","ping":165},{"user_id":321,"name":"Okpar","steam_id":76561199221067945,"connected_time":7375000000000,"state":"active","ping":76},{"user_id":383,"name":"Tomato","steam_id":76561197996472649,"connected_time":2571000000000,"state":"active","ping":65},{"user_id":380,"name":"Aloha :3","steam_id":76561198148517055,"connected_time":2805000000000,"state":"active","ping":110},{"user_id":391,"name":"Chaotic Rushu","steam_id":76561198170054407,"connected_time":2101000000000,"state":"active","ping":74}]},{"server_id":400,"name":"Uncletopia | Atlanta | 3 | Community","name_short":"atl-3","host":"atl-1.us.uncletopia.com","port":27035,"enabled":true,"region":"us-east","cc":"us","latitude":33.753746,"longitude":-84.38633,"reserved":0,"last_update":"0001-01-01T00:00:00Z","name_a2s":"Uncletopia | Atlanta | 3 | Community","protocol":17,"map":"workshop/cp_croissant_final.ugc458840209","folder":"tf","game":"Team Fortress","app_id":440,"player_count":24,"max_players":24,"Bots":0,"server_type":"Dedicated","server_os":"Linux","password":true,"vac":true,"version":"7882260","steam_id":85568392924515187,"keywords":["cp","nocrits","nodmgspread","uncletopia"],"game_id":440,"stv_port":27036,"stv_name":"Uncletopia | Atlanta | 3 | Community | STV","players":[{"user_id":32,"name":"thisisnotaustin","steam_id":76561198074463510,"connected_time":4380000000000,"state":"active","ping":71},{"user_id":26,"name":"maia0707","steam_id":76561198852393113,"connected_time":5576000000000,"state":"active","ping":87},{"user_id":51,"name":"Goblin","steam_id":76561198400060882,"connected_time":1570000000000,"state":"active","ping":90},{"user_id":31,"name":"WeegeePJ","steam_id":76561199383362382,"connected_time":4543000000000,"state":"active","ping":91},{"user_id":34,"name":"TheMistyMagixen","steam_id":76561198064512422,"connected_time":3931000000000,"state":"active","ping":80},{"user_id":68,"name":"Mathatguy","steam_id":76561198225432188,"connected_time":1221000000000,"state":"active","ping":82},{"user_id":69,"name":"BrendenMad","steam_id":76561198031250581,"connected_time":1187000000000,"state":"active","ping":64},{"user_id":80,"name":"(Ô)Ô)Wandering Singer(Ô(Ô)","steam_id":76561198126477141,"connected_time":145000000000,"state":"active","ping":91},{"user_id":52,"name":"DufsterYT","steam_id":76561199122486848,"connected_time":1563000000000,"state":"active","ping":95},{"user_id":55,"name":"Hate of War","steam_id":76561199178358956,"connected_time":1489000000000,"state":"active","ping":128},{"user_id":56,"name":"Batman","steam_id":76561199258292786,"connected_time":1450000000000,"state":"active","ping":54},{"user_id":60,"name":"trashbin","steam_id":76561198838109964,"connected_time":1311000000000,"state":"active","ping":43},{"user_id":58,"name":"kazoo2","steam_id":76561198260473504,"connected_time":1421000000000,"state":"active","ping":91},{"user_id":72,"name":"Cluckimus Prime","steam_id":76561198051346739,"connected_time":1014000000000,"state":"active","ping":77},{"user_id":61,"name":"Sapphire_Star","steam_id":76561198010016621,"connected_time":1288000000000,"state":"active","ping":82},{"user_id":62,"name":"Mr. Soupman","steam_id":76561198021649598,"connected_time":1283000000000,"state":"active","ping":61},{"user_id":81,"name":"cppie","steam_id":76561198418564403,"connected_time":144000000000,"state":"active","ping":55},{"user_id":64,"name":"OwlNoir","steam_id":76561198331895751,"connected_time":1262000000000,"state":"active","ping":76},{"user_id":75,"name":"Yattas? for ye dog??","steam_id":76561198066450438,"connected_time":956000000000,"state":"active","ping":84},{"user_id":66,"name":"Crafty Catgirl","steam_id":76561198007903454,"connected_time":1253000000000,"state":"active","ping":67},{"user_id":74,"name":"Garfield Expert","steam_id":76561198092452824,"connected_time":983000000000,"state":"active","ping":87},{"user_id":82,"name":"Silverkeys","steam_id":76561197986012496,"connected_time":124000000000,"state":"active","ping":70},{"user_id":79,"name":"BB Lorexav","steam_id":76561198207565988,"connected_time":485000000000,"state":"active","ping":54},{"user_id":83,"name":"Thermalpwn","steam_id":76561198027552989,"connected_time":91000000000,"state":"active","ping":83}]},{"server_id":401,"name":"Uncletopia | Atlanta | 4 | No Payload","name_short":"atl-4","host":"atl-1.us.uncletopia.com","port":27045,"enabled":true,"region":"us-east","cc":"us","latitude":33.753746,"longitude":-84.38633,"reserved":0,"last_update":"0001-01-01T00:00:00Z","name_a2s":"","protocol":0,"map":"","folder":"","game":"","app_id":0,"player_count":0,"max_players":0,"Bots":0,"server_type":"","server_os":"","password":false,"vac":false,"version":"","steam_id":0,"keywords":null,"game_id":0,"stv_port":0,"stv_name":"","players":null},{"server_id":2,"name":"Uncletopia | Chicago | 1 | All Maps","name_short":"chi-1","host":"chi-1.us.uncletopia.com","port":27015,"enabled":true,"region":"us-central","cc":"us","latitude":41.881832,"longitude":-87.62318,"reserved":0,"last_update":"0001-01-01T00:00:00Z","name_a2s":"Uncletopia | Chicago | 1 | All Maps","protocol":17,"map":"cp_altitude","folder":"tf","game":"Team Fortress","app_id":440,"player_count":21,"max_players":24,"Bots":0,"server_type":"Dedicated","server_os":"Linux","password":true,"vac":true,"version":"7882260","steam_id":85568392924469984,"keywords":["cp","nocrits","nodmgspread","uncletopia"],"game_id":440,"stv_port":27016,"stv_name":"Uncletopia | Chicago | 1 | All Maps | STV","players":[{"user_id":423,"name":"twitch.tv/frimpimy","steam_id":76561198142605675,"connected_time":1107000000000,"state":"active","ping":58},{"user_id":424,"name":"Takyon","steam_id":76561198172075186,"connected_time":1003000000000,"state":"active","ping":173},{"user_id":384,"name":"Gay Weed \u003c3","steam_id":76561198158240142,"connected_time":3915000000000,"state":"active","ping":59},{"user_id":436,"name":"oat milf","steam_id":76561198805266653,"connected_time":97000000000,"state":"active","ping":81},{"user_id":381,"name":"Undertime Slopper","steam_id":76561198396789061,"connected_time":4160000000000,"state":"active","ping":77},{"user_id":426,"name":"Hector Salamanca","steam_id":76561199103213955,"connected_time":929000000000,"state":"active","ping":119},{"user_id":435,"name":"blue dream","steam_id":76561198048992536,"connected_time":140000000000,"state":"connecting","ping":0},{"user_id":425,"name":"Mr. Garfield","steam_id":76561198357316376,"connected_time":974000000000,"state":"active","ping":90},{"user_id":393,"name":"[BR5DY]","steam_id":76561198036989764,"connected_time":3211000000000,"state":"active","ping":71},{"user_id":379,"name":"blob","steam_id":76561198122375328,"connected_time":4355000000000,"state":"active","ping":60},{"user_id":403,"name":"SoundByte_","steam_id":76561198173284173,"connected_time":2500000000000,"state":"active","ping":100},{"user_id":389,"name":"Wolf Hat","steam_id":76561198099996051,"connected_time":3619000000000,"state":"active","ping":70},{"user_id":432,"name":"wrist pain","steam_id":76561198088384838,"connected_time":550000000000,"state":"active","ping":67},{"user_id":414,"name":"RURU","steam_id":76561198039758987,"connected_time":1387000000000,"state":"active","ping":93},{"user_id":356,"name":"MrDarkc","steam_id":76561199233053848,"connected_time":6628000000000,"state":"active","ping":101},{"user_id":420,"name":"Letters","steam_id":76561198035508148,"connected_time":1216000000000,"state":"active","ping":97},{"user_id":413,"name":"Iceman10a","steam_id":76561198171922098,"connected_time":1449000000000,"state":"active","ping":115},{"user_id":401,"name":"teleportless husk","steam_id":76561198882404753,"connected_time":2542000000000,"state":"active","ping":82},{"user_id":421,"name":"terrathulu","steam_id":76561198930881753,"connected_time":1215000000000,"state":"active","ping":61},{"user_id":380,"name":"Ras","steam_id":76561198123546775,"connected_time":4267000000000,"state":"active","ping":66},{"user_id":392,"name":"coodge","steam_id":76561198139080439,"connected_time":3242000000000,"state":"active","ping":75}]},{"server_id":106,"name":"Uncletopia | Chicago | 2 | All Maps","name_short":"chi-2","host":"chi-1.us.uncletopia.com","port":27025,"enabled":true,"region":"us-central","cc":"us","latitude":41.881832,"longitude":-87.62318,"reserved":0,"last_update":"0001-01-01T00:00:00Z","name_a2s":"Uncletopia | Chicago | 2 | All Maps","protocol":17,"map":"cp_mountainlab","folder":"tf","game":"Team Fortress","app_id":440,"player_count":24,"max_players":24,"Bots":0,"server_type":"Dedicated","server_os":"Linux","password":true,"vac":true,"version":"7882260","steam_id":85568392924469985,"keywords":["cp","nocrits","nodmgspread","uncletopia"],"game_id":440,"stv_port":27026,"stv_name":"Uncletopia | Chicago | 2 | All Maps | STV","players":[{"user_id":510,"name":"Master John Thursday","steam_id":76561197987593154,"connected_time":778000000000,"state":"active","ping":63},{"user_id":518,"name":"[DEEP] Fitts1099","steam_id":76561198044986906,"connected_time":472000000000,"state":"active","ping":47},{"user_id":470,"name":"triangleman","steam_id":76561198972733542,"connected_time":3609000000000,"state":"active","ping":60},{"user_id":490,"name":"MedRed™ #IATAH","steam_id":76561198002962970,"connected_time":2076000000000,"state":"active","ping":94},{"user_id":500,"name":"Toottoot","steam_id":76561197992404836,"connected_time":1751000000000,"state":"active","ping":45},{"user_id":524,"name":"cavemanDv","steam_id":76561198111927196,"connected_time":180000000000,"state":"active","ping":72},{"user_id":503,"name":"ranroll, Ph.D.","steam_id":76561197980733511,"connected_time":1295000000000,"state":"active","ping":69},{"user_id":481,"name":"Scrib Nibbler","steam_id":76561198042227832,"connected_time":2580000000000,"state":"active","ping":73},{"user_id":511,"name":"rumes","steam_id":76561198349219467,"connected_time":774000000000,"state":"active","ping":90},{"user_id":519,"name":"Mediocre Gaming","steam_id":76561199230467980,"connected_time":470000000000,"state":"active","ping":62},{"user_id":487,"name":"hej","steam_id":76561197996366940,"connected_time":2299000000000,"state":"active","ping":60},{"user_id":507,"name":"LerN","steam_id":76561198083463877,"connected_time":869000000000,"state":"active","ping":56},{"user_id":525,"name":"Zemlynn","steam_id":76561198072474034,"connected_time":29000000000,"state":"active","ping":67},{"user_id":520,"name":"Quakedad","steam_id":76561198055811307,"connected_time":424000000000,"state":"active","ping":136},{"user_id":494,"name":"The Loveable CHI.I.BI.","steam_id":76561198039262228,"connected_time":1899000000000,"state":"active","ping":85},{"user_id":521,"name":"Farseer Ulwithy","steam_id":76561197965179245,"connected_time":420000000000,"state":"active","ping":72},{"user_id":522,"name":"gabagool","steam_id":76561198012131766,"connected_time":405000000000,"state":"active","ping":53},{"user_id":516,"name":"tyson","steam_id":76561198135028860,"connected_time":598000000000,"state":"active","ping":65},{"user_id":496,"name":"Poacher","steam_id":76561198867626964,"connected_time":1865000000000,"state":"active","ping":116},{"user_id":499,"name":"G_Bob","steam_id":76561198098133233,"connected_time":1788000000000,"state":"active","ping":75},{"user_id":517,"name":"Lexabyte","steam_id":76561198065032237,"connected_time":507000000000,"state":"active","ping":101},{"user_id":489,"name":"Ta5K","steam_id":76561198939558155,"connected_time":2130000000000,"state":"active","ping":44},{"user_id":478,"name":"stock","steam_id":76561198849461209,"connected_time":3148000000000,"state":"active","ping":67},{"user_id":523,"name":"Wan Shi Tong","steam_id":76561198076441225,"connected_time":280000000000,"state":"active","ping":68}]},{"server_id":402,"name":"Uncletopia | Chicago | 3 | All Maps","name_short":"chi-3","host":"chi-1.us.uncletopia.com","port":27035,"enabled":true,"region":"us-central","cc":"us","latitude":41.881832,"longitude":-87.62318,"reserved":0,"last_update":"0001-01-01T00:00:00Z","name_a2s":"Uncletopia | Chicago | 3 | All Maps","protocol":17,"map":"ctf_2fort","folder":"tf","game":"Team Fortress","app_id":440,"player_count":23,"max_players":24,"Bots":0,"server_type":"Dedicated","server_os":"Linux","password":true,"vac":true,"version":"7882260","steam_id":85568392924515191,"keywords":["ctf","nocrits","nodmgspread","uncletopia"],"game_id":440,"stv_port":27036,"stv_name":"Uncletopia | Chicago | 3 | All Maps | STV","players":[{"user_id":313,"name":"Spicy Jumbo Big Daddy","steam_id":76561198076364318,"connected_time":281000000000,"state":"active","ping":54},{"user_id":303,"name":"Frenemy \u003e:D","steam_id":76561198011363677,"connected_time":864000000000,"state":"active","ping":46},{"user_id":309,"name":"Oopsie Daisy ❋","steam_id":76561198042144492,"connected_time":571000000000,"state":"active","ping":72},{"user_id":280,"name":"RiverEgg","steam_id":76561198888913405,"connected_time":1784000000000,"state":"active","ping":53},{"user_id":314,"name":"Smoker Lung","steam_id":76561198077167395,"connected_time":235000000000,"state":"active","ping":60},{"user_id":285,"name":"send dudes","steam_id":76561198084277762,"connected_time":1616000000000,"state":"active","ping":55},{"user_id":301,"name":"Rornir","steam_id":76561198081829615,"connected_time":943000000000,"state":"active","ping":43},{"user_id":291,"name":"Sh/7 Stain","steam_id":76561198408817739,"connected_time":1156000000000,"state":"active","ping":66},{"user_id":294,"name":"CyberZayne","steam_id":76561198002351356,"connected_time":1113000000000,"state":"active","ping":103},{"user_id":261,"name":"DragoThe\"Fork\"Head","steam_id":76561199163626811,"connected_time":2772000000000,"state":"active","ping":110},{"user_id":287,"name":"DemoPan enjoyer","steam_id":76561198211703603,"connected_time":1229000000000,"state":"active","ping":53},{"user_id":302,"name":"SuperFresh","steam_id":76561198200723198,"connected_time":938000000000,"state":"active","ping":44},{"user_id":288,"name":"Soul_Intern","steam_id":76561198310238109,"connected_time":1223000000000,"state":"active","ping":95},{"user_id":305,"name":"Mal","steam_id":76561198066074151,"connected_time":789000000000,"state":"active","ping":89},{"user_id":311,"name":"Adum","steam_id":76561198181162382,"connected_time":346000000000,"state":"active","ping":75},{"user_id":306,"name":"Rec","steam_id":76561198022813906,"connected_time":668000000000,"state":"active","ping":47},{"user_id":312,"name":"nemesis","steam_id":76561198115050507,"connected_time":314000000000,"state":"active","ping":70},{"user_id":307,"name":"Jak(i)","steam_id":76561198076823144,"connected_time":616000000000,"state":"active","ping":81},{"user_id":299,"name":"Likely Scripting","steam_id":76561199173343569,"connected_time":1034000000000,"state":"active","ping":99},{"user_id":260,"name":"fasterbum","steam_id":76561198142577444,"connected_time":2856000000000,"state":"active","ping":63},{"user_id":271,"name":"lexi","steam_id":76561198176299759,"connected_time":2370000000000,"state":"active","ping":81},{"user_id":246,"name":"PyroEagle","steam_id":76561198296434231,"connected_time":4539000000000,"state":"active","ping":59},{"user_id":282,"name":"HOTA","steam_id":76561199002778841,"connected_time":1693000000000,"state":"active","ping":90}]},{"server_id":403,"name":"Uncletopia | Chicago | 4 | All Maps","name_short":"chi-4","host":"chi-1.us.uncletopia.com","port":27045,"enabled":true,"region":"us-central","cc":"us","latitude":41.881832,"longitude":-87.62318,"reserved":0,"last_update":"0001-01-01T00:00:00Z","name_a2s":"Uncletopia | Chicago | 4 | All Maps","protocol":17,"map":"cp_sunshine","folder":"tf","game":"Team Fortress","app_id":440,"player_count":23,"max_players":24,"Bots":0,"server_type":"Dedicated","server_os":"Linux","password":true,"vac":true,"version":"7882260","steam_id":85568392924515193,"keywords":["cp","nocrits","nodmgspread","uncletopia"],"game_id":440,"stv_port":27046,"stv_name":"Uncletopia | Chicago | 4 | All Maps | STV","players":[{"user_id":246,"name":"Tank Chili","steam_id":76561198161183031,"connected_time":1678000000000,"state":"active","ping":83},{"user_id":254,"name":"Atomic Ursa","steam_id":76561198032246421,"connected_time":1059000000000,"state":"active","ping":83},{"user_id":227,"name":"Fightin Cow","steam_id":76561198080941486,"connected_time":2757000000000,"state":"active","ping":72},{"user_id":237,"name":"Ulrich Stern","steam_id":76561198101739682,"connected_time":2196000000000,"state":"active","ping":106},{"user_id":249,"name":"Mr Bit","steam_id":76561198406074422,"connected_time":1649000000000,"state":"active","ping":67},{"user_id":250,"name":"Schmingus","steam_id":76561199476148332,"connected_time":1645000000000,"state":"active","ping":106},{"user_id":245,"name":"KFC Rat","steam_id":76561198135128086,"connected_time":1710000000000,"state":"active","ping":117},{"user_id":240,"name":"Twissim","steam_id":76561198141842291,"connected_time":2039000000000,"state":"active","ping":108},{"user_id":265,"name":"Wild Ginger","steam_id":76561198099458157,"connected_time":411000000000,"state":"active","ping":86},{"user_id":229,"name":"nav","steam_id":76561198872608266,"connected_time":2735000000000,"state":"active","ping":83},{"user_id":238,"name":"☆Atomic Waffle☆","steam_id":76561198100385184,"connected_time":2102000000000,"state":"active","ping":104},{"user_id":223,"name":"AreYouMyMummy?","steam_id":76561197995101745,"connected_time":2969000000000,"state":"active","ping":62},{"user_id":264,"name":"Mr. Mime","steam_id":76561199197676776,"connected_time":516000000000,"state":"active","ping":72},{"user_id":267,"name":"[Champ] Marssygurl","steam_id":76561198014928241,"connected_time":237000000000,"state":"connecting","ping":0},{"user_id":258,"name":"imng","steam_id":76561198014988031,"connected_time":1033000000000,"state":"active","ping":71},{"user_id":268,"name":"Ry58","steam_id":76561199083841480,"connected_time":186000000000,"state":"active","ping":92},{"user_id":253,"name":"kimshwim","steam_id":76561198287933134,"connected_time":1073000000000,"state":"active","ping":84},{"user_id":255,"name":"Retro Phoenix","steam_id":76561198077176271,"connected_time":1058000000000,"state":"active","ping":62},{"user_id":252,"name":"Olifont","steam_id":76561198141162919,"connected_time":1455000000000,"state":"active","ping":82},{"user_id":259,"name":"President Atticus","steam_id":76561198157557477,"connected_time":1006000000000,"state":"active","ping":66},{"user_id":242,"name":"Ridna","steam_id":76561198131627599,"connected_time":1969000000000,"state":"active","ping":85},{"user_id":256,"name":"a table","steam_id":76561198158461279,"connected_time":1058000000000,"state":"active","ping":61},{"user_id":269,"name":"SwagRoxas","steam_id":76561198109759891,"connected_time":55000000000,"state":"active","ping":60}]},{"server_id":36,"name":"Uncletopia | Chicago | 5 | All Maps","name_short":"chi-5","host":"chi-2.us.uncletopia.com","port":27015,"enabled":true,"region":"us-central","cc":"us","latitude":41.881832,"longitude":-87.62318,"reserved":0,"last_update":"0001-01-01T00:00:00Z","name_a2s":"Uncletopia | Chicago | 5 | All Maps","protocol":17,"map":"pl_pier","folder":"tf","game":"Team Fortress","app_id":440,"player_count":24,"max_players":24,"Bots":0,"server_type":"Dedicated","server_os":"Linux","password":true,"vac":true,"version":"7882260","steam_id":85568392924866362,"keywords":["nocrits","nodmgspread","payload","uncletopia"],"game_id":440,"stv_port":27016,"stv_name":"Uncletopia | Chicago | 5 | All Maps | STV","players":[{"user_id":140,"name":"Barely","steam_id":76561198121326917,"connected_time":5026000000000,"state":"active","ping":60},{"user_id":210,"name":"Stapler","steam_id":76561198099295077,"connected_time":530000000000,"state":"active","ping":90},{"user_id":195,"name":"Torrensz64(But weezer)","steam_id":76561198239036482,"connected_time":1657000000000,"state":"active","ping":70},{"user_id":187,"name":"bobbymcbobington","steam_id":76561199089411172,"connected_time":1941000000000,"state":"active","ping":119},{"user_id":206,"name":"Ranger","steam_id":76561198829369360,"connected_time":831000000000,"state":"active","ping":55},{"user_id":162,"name":"H-manFTW","steam_id":76561198316122689,"connected_time":3801000000000,"state":"active","ping":47},{"user_id":185,"name":"MAXIMUM OVERDRIVE","steam_id":76561198113992547,"connected_time":2043000000000,"state":"active","ping":86},{"user_id":217,"name":"Shield12","steam_id":76561198857193675,"connected_time":88000000000,"state":"active","ping":59},{"user_id":211,"name":"fatmonkeyflowey","steam_id":76561199245293641,"connected_time":526000000000,"state":"active","ping":119},{"user_id":207,"name":"loser","steam_id":76561198171507451,"connected_time":561000000000,"state":"active","ping":90},{"user_id":214,"name":"marlboro_mike.6256","steam_id":76561198174428289,"connected_time":492000000000,"state":"active","ping":75},{"user_id":218,"name":"Michaelpc1","steam_id":76561198088365519,"connected_time":87000000000,"state":"active","ping":75},{"user_id":216,"name":"A Loaf Of Fetus","steam_id":76561198058016214,"connected_time":342000000000,"state":"active","ping":107},{"user_id":201,"name":"Burf","steam_id":76561198019341161,"connected_time":1160000000000,"state":"active","ping":69},{"user_id":208,"name":"Vortiger","steam_id":76561198275813176,"connected_time":556000000000,"state":"active","ping":108},{"user_id":219,"name":"bean d eafs","steam_id":76561199481822977,"connected_time":84000000000,"state":"active","ping":72},{"user_id":204,"name":"recycle","steam_id":76561198819562111,"connected_time":860000000000,"state":"active","ping":74},{"user_id":202,"name":"ceres","steam_id":76561198291976960,"connected_time":1055000000000,"state":"active","ping":104},{"user_id":189,"name":"Wooflakes","steam_id":76561198331401950,"connected_time":1903000000000,"state":"active","ping":111},{"user_id":222,"name":"Mint Jelly","steam_id":76561197991286751,"connected_time":0,"state":"connecting","ping":0},{"user_id":221,"name":"Hell's Reindeer","steam_id":76561198065310364,"connected_time":70000000000,"state":"active","ping":54},{"user_id":212,"name":"Old_Reluctant","steam_id":76561198018185967,"connected_time":521000000000,"state":"active","ping":72},{"user_id":213,"name":"gnome zone","steam_id":76561198883349445,"connected_time":517000000000,"state":"active","ping":101},{"user_id":159,"name":"RyInc","steam_id":76561198874261643,"connected_time":4268000000000,"state":"active","ping":46}]},{"server_id":37,"name":"Uncletopia | Chicago | 6 | All Maps","name_short":"chi-6","host":"chi-2.us.uncletopia.com","port":27025,"enabled":true,"region":"us-central","cc":"us","latitude":41.881832,"longitude":-87.62318,"reserved":0,"last_update":"0001-01-01T00:00:00Z","name_a2s":"Uncletopia | Chicago | 6 | All Maps","protocol":17,"map":"pl_pier","folder":"tf","game":"Team Fortress","app_id":440,"player_count":22,"max_players":24,"Bots":0,"server_type":"Dedicated","server_os":"Linux","password":true,"vac":true,"version":"7882260","steam_id":85568392924866363,"keywords":["nocrits","nodmgspread","payload","uncletopia"],"game_id":440,"stv_port":27026,"stv_name":"Uncletopia | Chicago | 6 | All Maps | STV","players":[{"user_id":143,"name":"Portal2Player","steam_id":76561198062870114,"connected_time":331000000000,"state":"active","ping":86},{"user_id":69,"name":"big golden rock boy","steam_id":76561199384986721,"connected_time":5974000000000,"state":"active","ping":79},{"user_id":129,"name":"Iron","steam_id":76561198247918478,"connected_time":1632000000000,"state":"active","ping":69},{"user_id":145,"name":"Skip Hop Doo Bop","steam_id":76561199161571849,"connected_time":233000000000,"state":"active","ping":95},{"user_id":21,"name":"jimmyfnaf172198yay","steam_id":76561198311446636,"connected_time":8437000000000,"state":"active","ping":59},{"user_id":128,"name":"Gildedire","steam_id":76561198063959574,"connected_time":1693000000000,"state":"active","ping":80},{"user_id":121,"name":"Bluedemon","steam_id":76561199212058684,"connected_time":2459000000000,"state":"active","ping":107},{"user_id":141,"name":"Saucy Boy","steam_id":76561198178332031,"connected_time":396000000000,"state":"active","ping":77},{"user_id":57,"name":"Duds","steam_id":76561199231052134,"connected_time":7003000000000,"state":"active","ping":115},{"user_id":139,"name":"PirateJet","steam_id":76561198050858744,"connected_time":513000000000,"state":"active","ping":113},{"user_id":131,"name":"TwoBit","steam_id":76561198062437559,"connected_time":1559000000000,"state":"active","ping":77},{"user_id":136,"name":"Fuzzy Toast","steam_id":76561198028067781,"connected_time":648000000000,"state":"active","ping":45},{"user_id":140,"name":"Milf n' Cookies","steam_id":76561198104805359,"connected_time":500000000000,"state":"active","ping":65},{"user_id":116,"name":"SquishyDog","steam_id":76561198059014380,"connected_time":2701000000000,"state":"active","ping":51},{"user_id":80,"name":"seldom","steam_id":76561198166193756,"connected_time":5134000000000,"state":"active","ping":54},{"user_id":43,"name":"andyiscolorless","steam_id":76561199239870921,"connected_time":7481000000000,"state":"active","ping":144},{"user_id":147,"name":"urine trouble","steam_id":76561199013266640,"connected_time":23000000000,"state":"active","ping":49},{"user_id":148,"name":"Raydn","steam_id":76561198418414338,"connected_time":3000000000,"state":"spawning","ping":74},{"user_id":112,"name":"Rukh","steam_id":76561197999361315,"connected_time":2862000000000,"state":"active","ping":99},{"user_id":144,"name":"Jonatello","steam_id":76561198045699189,"connected_time":249000000000,"state":"active","ping":121},{"user_id":135,"name":"Talvisota","steam_id":76561199190574223,"connected_time":684000000000,"state":"active","ping":61},{"user_id":134,"name":"coco","steam_id":76561199112844022,"connected_time":998000000000,"state":"active","ping":800}]},{"server_id":38,"name":"Uncletopia | Chicago | 7 | Stopwatch Beta","name_short":"chi-7","host":"chi-2.us.uncletopia.com","port":27035,"enabled":true,"region":"us-central","cc":"us","latitude":41.881832,"longitude":-87.62318,"reserved":0,"last_update":"0001-01-01T00:00:00Z","name_a2s":"Uncletopia | Chicago | 7 | Stopwatch Beta","protocol":17,"map":"workshop/koth_bagel_rc6.ugc2514036946","folder":"tf","game":"Team Fortress","app_id":440,"player_count":0,"max_players":24,"Bots":0,"server_type":"Dedicated","server_os":"Linux","password":true,"vac":true,"version":"7882260","steam_id":85568392924866364,"keywords":["cp","nocrits","nodmgspread","uncletopia"],"game_id":440,"stv_port":27036,"stv_name":"Uncletopia | Chicago | 7 | Stopwatch Beta | STV","players":null},{"server_id":39,"name":"Uncletopia | Chicago | 8 | Community","name_short":"chi-8","host":"chi-2.us.uncletopia.com","port":27045,"enabled":true,"region":"us-central","cc":"us","latitude":41.881832,"longitude":-87.62318,"reserved":0,"last_update":"0001-01-01T00:00:00Z","name_a2s":"Uncletopia | Chicago | 8 | Community","protocol":17,"map":"workshop/pl_fifthcurve_rc1.ugc648227046","folder":"tf","game":"Team Fortress","app_id":440,"player_count":20,"max_players":24,"Bots":0,"server_type":"Dedicated","server_os":"Linux","password":true,"vac":true,"version":"7882260","steam_id":85568392924866365,"keywords":["nocrits","nodmgspread","payload","uncletopia"],"game_id":440,"stv_port":27046,"stv_name":"Uncletopia | Chicago | 8 | Community | STV","players":[{"user_id":271,"name":"Dead Face","steam_id":76561198857643139,"connected_time":3260000000000,"state":"active","ping":75},{"user_id":331,"name":"all toasters toast toast","steam_id":76561198140846580,"connected_time":190000000000,"state":"active","ping":63},{"user_id":329,"name":"I'mWillow","steam_id":76561198229691912,"connected_time":328000000000,"state":"active","ping":61},{"user_id":316,"name":"The Hose on Upward","steam_id":76561197965092192,"connected_time":1866000000000,"state":"active","ping":84},{"user_id":333,"name":"Garbo","steam_id":76561198192120869,"connected_time":27000000000,"state":"spawning","ping":448},{"user_id":320,"name":"J O S H³²","steam_id":76561198122603779,"connected_time":1372000000000,"state":"active","ping":93},{"user_id":273,"name":"BetoelAff es","steam_id":76561198377842585,"connected_time":3240000000000,"state":"active","ping":120},{"user_id":268,"name":"corygaming","steam_id":76561198035669409,"connected_time":3456000000000,"state":"active","ping":115},{"user_id":254,"name":"squishy","steam_id":76561198015034116,"connected_time":4343000000000,"state":"active","ping":48},{"user_id":209,"name":"Yayifications","steam_id":76561198066227208,"connected_time":6768000000000,"state":"active","ping":50},{"user_id":319,"name":"Smoothicc","steam_id":76561197980790325,"connected_time":1746000000000,"state":"active","ping":86},{"user_id":326,"name":"LeNoobe","steam_id":76561199092079229,"connected_time":920000000000,"state":"active","ping":113},{"user_id":307,"name":"jel","steam_id":76561199088154374,"connected_time":2164000000000,"state":"active","ping":55},{"user_id":309,"name":"-π- BakaD","steam_id":76561197960559169,"connected_time":2102000000000,"state":"active","ping":54},{"user_id":330,"name":"mari_","steam_id":76561198137855741,"connected_time":251000000000,"state":"active","ping":49},{"user_id":325,"name":"Kozaky","steam_id":76561198047144993,"connected_time":947000000000,"state":"active","ping":102},{"user_id":327,"name":"warrior","steam_id":76561198074500319,"connected_time":918000000000,"state":"active","ping":106},{"user_id":324,"name":"GreekGoat_Coffee","steam_id":76561198129331088,"connected_time":960000000000,"state":"active","ping":47},{"user_id":299,"name":"real","steam_id":76561199030879048,"connected_time":2453000000000,"state":"active","ping":60},{"user_id":285,"name":"Chiki","steam_id":76561198063590320,"connected_time":2898000000000,"state":"active","ping":76}]},{"server_id":8,"name":"Uncletopia | Dallas | 1 | All Maps","name_short":"dal-1","host":"dal-1.us.uncletopia.com","port":27015,"enabled":true,"region":"us-central","cc":"us","latitude":32.779167,"longitude":-96.80889,"reserved":0,"last_update":"0001-01-01T00:00:00Z","name_a2s":"Uncletopia | Dallas | 1 | All Maps","protocol":17,"map":"cp_egypt_final","folder":"tf","game":"Team Fortress","app_id":440,"player_count":22,"max_players":24,"Bots":0,"server_type":"Dedicated","server_os":"Linux","password":true,"vac":true,"version":"7882260","steam_id":85568392924469986,"keywords":["nocrits","nodmgspread","payload","uncletopia"],"game_id":440,"stv_port":27016,"stv_name":"Uncletopia | Dallas | 1 | All Maps | STV","players":[{"user_id":577,"name":"MoonWolf","steam_id":76561198095735033,"connected_time":1512000000000,"state":"connecting","ping":59},{"user_id":561,"name":"Abom","steam_id":76561198167974713,"connected_time":4787000000000,"state":"connecting","ping":98},{"user_id":572,"name":"BlueStar","steam_id":76561198214317468,"connected_time":2059000000000,"state":"connecting","ping":70},{"user_id":482,"name":"Yam Jazzy Jim","steam_id":76561198000788950,"connected_time":11426000000000,"state":"connecting","ping":94},{"user_id":529,"name":"lester375jimenez","steam_id":76561199301390498,"connected_time":6988000000000,"state":"connecting","ping":126},{"user_id":524,"name":"lemon","steam_id":76561198329179651,"connected_time":7202000000000,"state":"connecting","ping":127},{"user_id":578,"name":"Tuvok Shakur","steam_id":76561198018875334,"connected_time":1508000000000,"state":"connecting","ping":111},{"user_id":518,"name":"fantasies","steam_id":76561198188722751,"connected_time":7801000000000,"state":"connecting","ping":113},{"user_id":516,"name":"Rappitor","steam_id":76561198105613110,"connected_time":8324000000000,"state":"connecting","ping":95},{"user_id":584,"name":"CHIEF","steam_id":76561198011209422,"connected_time":986000000000,"state":"connecting","ping":57},{"user_id":559,"name":"plink","steam_id":76561198057829889,"connected_time":4829000000000,"state":"connecting","ping":69},{"user_id":522,"name":".-.","steam_id":76561198820617005,"connected_time":7614000000000,"state":"connecting","ping":139},{"user_id":587,"name":"Ace","steam_id":76561198878661482,"connected_time":402000000000,"state":"connecting","ping":56},{"user_id":588,"name":"死","steam_id":76561198127525888,"connected_time":24000000000,"state":"connecting","ping":59},{"user_id":576,"name":"harison86","steam_id":76561198060100647,"connected_time":1565000000000,"state":"connecting","ping":131},{"user_id":511,"name":"Mando","steam_id":76561198139662905,"connected_time":9381000000000,"state":"connecting","ping":69},{"user_id":585,"name":"Bluedime","steam_id":76561198123181025,"connected_time":725000000000,"state":"connecting","ping":96},{"user_id":574,"name":"give me ur osrs gold","steam_id":76561197997990613,"connected_time":1784000000000,"state":"connecting","ping":115},{"user_id":586,"name":"AttackCommander","steam_id":76561198111522679,"connected_time":720000000000,"state":"connecting","ping":62},{"user_id":565,"name":"errant","steam_id":76561197961758410,"connected_time":3056000000000,"state":"connecting","ping":56},{"user_id":566,"name":"TERRASITE","steam_id":76561199124341459,"connected_time":2830000000000,"state":"connecting","ping":112}]},{"server_id":108,"name":"Uncletopia | Dallas | 2 | All Maps","name_short":"dal-2","host":"dal-1.us.uncletopia.com","port":27025,"enabled":true,"region":"us-central","cc":"us","latitude":32.779167,"longitude":-96.80889,"reserved":0,"last_update":"0001-01-01T00:00:00Z","name_a2s":"Uncletopia | Dallas | 2 | All Maps","protocol":17,"map":"pl_frontier_final","folder":"tf","game":"Team Fortress","app_id":440,"player_count":24,"max_players":24,"Bots":0,"server_type":"Dedicated","server_os":"Linux","password":true,"vac":true,"version":"7882260","steam_id":85568392924469988,"keywords":["nocrits","nodmgspread","payload","uncletopia"],"game_id":440,"stv_port":27026,"stv_name":"Uncletopia | Dallas | 2 | All Maps | STV","players":[{"user_id":431,"name":"FranckyFox2468","steam_id":76561198037679126,"connected_time":3089000000000,"state":"active","ping":90},{"user_id":491,"name":"payload","steam_id":76561198063475894,"connected_time":1761000000000,"state":"active","ping":63},{"user_id":412,"name":"Wiener Hole Paper Cut","steam_id":76561198000808203,"connected_time":3658000000000,"state":"active","ping":86},{"user_id":505,"name":"[FOFS]billyburl","steam_id":76561198079535159,"connected_time":1158000000000,"state":"active","ping":76},{"user_id":507,"name":"wehNirate","steam_id":76561197999730721,"connected_time":862000000000,"state":"active","ping":64},{"user_id":398,"name":"Nyplestheclown","steam_id":76561198028600291,"connected_time":5204000000000,"state":"active","ping":52},{"user_id":405,"name":"Panda Loser","steam_id":76561198828745176,"connected_time":4311000000000,"state":"active","ping":94},{"user_id":456,"name":"Goomba","steam_id":76561198211815183,"connected_time":2417000000000,"state":"active","ping":75},{"user_id":511,"name":"JonBoy","steam_id":76561198082052480,"connected_time":219000000000,"state":"active","ping":94},{"user_id":510,"name":"cp_feels","steam_id":76561198009121060,"connected_time":548000000000,"state":"active","ping":94},{"user_id":448,"name":"Doomagedden","steam_id":76561198272589475,"connected_time":2564000000000,"state":"active","ping":57},{"user_id":506,"name":"Holdie","steam_id":76561198070378200,"connected_time":893000000000,"state":"active","ping":75},{"user_id":509,"name":"goopshit","steam_id":76561198126489501,"connected_time":623000000000,"state":"active","ping":74},{"user_id":420,"name":"Coffee_Addict@Home","steam_id":76561198297673004,"connected_time":3470000000000,"state":"active","ping":103},{"user_id":512,"name":"Victrok","steam_id":76561199441398791,"connected_time":166000000000,"state":"active","ping":74},{"user_id":496,"name":"BraggerCrab","steam_id":76561198153310992,"connected_time":1656000000000,"state":"active","ping":84},{"user_id":403,"name":"baconandx","steam_id":76561198355074004,"connected_time":4740000000000,"state":"active","ping":98},{"user_id":498,"name":"JimFrel","steam_id":76561199476029852,"connected_time":1644000000000,"state":"active","ping":100},{"user_id":499,"name":"Tis_Me_Hacksoulslayer1","steam_id":76561198340064206,"connected_time":1640000000000,"state":"active","ping":55},{"user_id":501,"name":"Pig master","steam_id":76561199388075545,"connected_time":1595000000000,"state":"active","ping":121},{"user_id":503,"name":"Gm_Trash","steam_id":76561199445091548,"connected_time":1590000000000,"state":"active","ping":78},{"user_id":425,"name":"ElectricBurger36","steam_id":76561198847607639,"connected_time":3332000000000,"state":"active","ping":87},{"user_id":427,"name":"my piss is neon yellow","steam_id":76561198257023512,"connected_time":3232000000000,"state":"active","ping":52},{"user_id":407,"name":"BigPimpin","steam_id":76561198119549348,"connected_time":4311000000000,"state":"active","ping":50}]},{"server_id":5,"name":"Uncletopia | Frankfurt | 1 | All Maps","name_short":"frk-1","host":"frk-1.de.uncletopia.com","port":27015,"enabled":true,"region":"eu","cc":"de","latitude":50.110924,"longitude":8.682127,"reserved":0,"last_update":"0001-01-01T00:00:00Z","name_a2s":"Uncletopia | Frankfurt | 1 | All Maps","protocol":17,"map":"cp_dustbowl","folder":"tf","game":"Team Fortress","app_id":440,"player_count":0,"max_players":24,"Bots":0,"server_type":"Dedicated","server_os":"Linux","password":true,"vac":true,"version":"7882260","steam_id":85568392924469989,"keywords":["cp","nocrits","nodmgspread","uncletopia"],"game_id":440,"stv_port":27016,"stv_name":"Uncletopia | Frankfurt | 1 | All Maps | STV","players":null},{"server_id":110,"name":"Uncletopia | Frankfurt | 2 | All Maps","name_short":"frk-2","host":"frk-1.de.uncletopia.com","port":27025,"enabled":true,"region":"eu","cc":"de","latitude":50.110924,"longitude":8.682127,"reserved":0,"last_update":"0001-01-01T00:00:00Z","name_a2s":"Uncletopia | Frankfurt | 2 | All Maps","protocol":17,"map":"koth_cascade","folder":"tf","game":"Team Fortress","app_id":440,"player_count":0,"max_players":24,"Bots":0,"server_type":"Dedicated","server_os":"Linux","password":true,"vac":true,"version":"7882260","steam_id":85568392924469990,"keywords":["cp","nocrits","nodmgspread","uncletopia"],"game_id":440,"stv_port":27026,"stv_name":"Uncletopia | Frankfurt | 2 | All Maps | STV","players":null},{"server_id":308,"name":"Uncletopia | Frankfurt | 3 | All Maps","name_short":"frk-3","host":"frk-1.de.uncletopia.com","port":27035,"enabled":true,"region":"eu","cc":"de","latitude":50.110924,"longitude":8.682127,"reserved":0,"last_update":"0001-01-01T00:00:00Z","name_a2s":"Uncletopia | Frankfurt | 3 | All Maps","protocol":17,"map":"pl_barnblitz","folder":"tf","game":"Team Fortress","app_id":440,"player_count":24,"max_players":24,"Bots":0,"server_type":"Dedicated","server_os":"Linux","password":true,"vac":true,"version":"7882260","steam_id":85568392924504274,"keywords":["nocrits","nodmgspread","payload","uncletopia"],"game_id":440,"stv_port":27036,"stv_name":"Uncletopia | Frankfurt | 3 | All Maps | STV","players":[{"user_id":626,"name":"Kanye VEST","steam_id":76561198294476402,"connected_time":4402000000000,"state":"active","ping":88},{"user_id":667,"name":"madijo","steam_id":76561198012617400,"connected_time":1261000000000,"state":"active","ping":60},{"user_id":657,"name":"roll me","steam_id":76561198179392402,"connected_time":1639000000000,"state":"active","ping":49},{"user_id":672,"name":"Steen","steam_id":76561198122992510,"connected_time":476000000000,"state":"active","ping":46},{"user_id":659,"name":"Runyohell","steam_id":76561198309876860,"connected_time":1485000000000,"state":"active","ping":92},{"user_id":654,"name":"VampiuS","steam_id":76561197998827007,"connected_time":1939000000000,"state":"active","ping":53},{"user_id":588,"name":"Hecht","steam_id":76561198119603548,"connected_time":10228000000000,"state":"active","ping":66},{"user_id":674,"name":"lacurio","steam_id":76561198059701776,"connected_time":447000000000,"state":"active","ping":47},{"user_id":670,"name":"Ted Kaczynski","steam_id":76561198064795519,"connected_time":1163000000000,"state":"active","ping":76},{"user_id":677,"name":"threesystem","steam_id":76561198092435877,"connected_time":312000000000,"state":"active","ping":57},{"user_id":613,"name":"Ducky[WADZ]","steam_id":76561198060341245,"connected_time":7446000000000,"state":"active","ping":55},{"user_id":655,"name":"Not A Fake Uncletopia Server","steam_id":76561198152871288,"connected_time":1710000000000,"state":"active","ping":57},{"user_id":660,"name":"Owenter","steam_id":76561198083201886,"connected_time":1474000000000,"state":"active","ping":49},{"user_id":676,"name":"Auro","steam_id":76561198224421624,"connected_time":330000000000,"state":"active","ping":68},{"user_id":605,"name":"Jucatron","steam_id":76561198044259577,"connected_time":7755000000000,"state":"active","ping":92},{"user_id":649,"name":"Начальник","steam_id":76561198422028453,"connected_time":2745000000000,"state":"active","ping":75},{"user_id":665,"name":"dirty rascal","steam_id":76561198000871038,"connected_time":1386000000000,"state":"active","ping":60},{"user_id":653,"name":"core","steam_id":76561198090152271,"connected_time":2111000000000,"state":"active","ping":46},{"user_id":678,"name":"Sn_Aske","steam_id":76561198252471782,"connected_time":306000000000,"state":"active","ping":80},{"user_id":664,"name":"Bill Carr","steam_id":76561198110033943,"connected_time":1422000000000,"state":"active","ping":49},{"user_id":666,"name":"Honker","steam_id":76561198119283288,"connected_time":1374000000000,"state":"active","ping":56},{"user_id":680,"name":"Daemerling","steam_id":76561198108751915,"connected_time":46000000000,"state":"active","ping":59},{"user_id":643,"name":"Russenluster","steam_id":76561198118016220,"connected_time":3217000000000,"state":"active","ping":55},{"user_id":632,"name":"Peen","steam_id":76561198124862665,"connected_time":4274000000000,"state":"active","ping":109}]},{"server_id":309,"name":"Uncletopia | Frankfurt | 4 | All Maps","name_short":"frk-4","host":"frk-1.de.uncletopia.com","port":27045,"enabled":true,"region":"eu","cc":"de","latitude":50.110924,"longitude":8.682127,"reserved":0,"last_update":"0001-01-01T00:00:00Z","name_a2s":"Uncletopia | Frankfurt | 4 | All Maps","protocol":17,"map":"koth_viaduct","folder":"tf","game":"Team Fortress","app_id":440,"player_count":0,"max_players":24,"Bots":0,"server_type":"Dedicated","server_os":"Linux","password":true,"vac":true,"version":"7882260","steam_id":85568392924504275,"keywords":["cp","nocrits","nodmgspread","uncletopia"],"game_id":440,"stv_port":27046,"stv_name":"Uncletopia | Frankfurt | 4 | All Maps | STV","players":null},{"server_id":310,"name":"Uncletopia | Frankfurt | 5 | All Maps","name_short":"frk-5","host":"frk-1.de.uncletopia.com","port":27055,"enabled":true,"region":"eu","cc":"de","latitude":50.110924,"longitude":8.682127,"reserved":0,"last_update":"0001-01-01T00:00:00Z","name_a2s":"Uncletopia | Frankfurt | 5 | All Maps","protocol":17,"map":"cp_dustbowl","folder":"tf","game":"Team Fortress","app_id":440,"player_count":0,"max_players":24,"Bots":0,"server_type":"Dedicated","server_os":"Linux","password":true,"vac":true,"version":"7882260","steam_id":85568392924504277,"keywords":["cp","nocrits","nodmgspread","uncletopia"],"game_id":440,"stv_port":27056,"stv_name":"Uncletopia | Frankfurt | 5 | All Maps | STV","players":null},{"server_id":311,"name":"Uncletopia | Frankfurt | 6 | All Maps","name_short":"frk-6","host":"frk-1.de.uncletopia.com","port":27065,"enabled":true,"region":"eu","cc":"de","latitude":50.110924,"longitude":8.682127,"reserved":0,"last_update":"0001-01-01T00:00:00Z","name_a2s":"Uncletopia | Frankfurt | 6 | All Maps","protocol":17,"map":"pl_borneo","folder":"tf","game":"Team Fortress","app_id":440,"player_count":21,"max_players":24,"Bots":0,"server_type":"Dedicated","server_os":"Linux","password":true,"vac":true,"version":"7882260","steam_id":85568392924504278,"keywords":["nocrits","nodmgspread","payload","uncletopia"],"game_id":440,"stv_port":27066,"stv_name":"Uncletopia | Frankfurt | 6 | All Maps | STV","players":[{"user_id":581,"name":"Government Agent","steam_id":76561198021409554,"connected_time":5399000000000,"state":"active","ping":52},{"user_id":584,"name":"Schelemago","steam_id":76561198074733578,"connected_time":5291000000000,"state":"active","ping":45},{"user_id":624,"name":"wieto","steam_id":76561198050626427,"connected_time":563000000000,"state":"active","ping":59},{"user_id":629,"name":"BK","steam_id":76561198165211479,"connected_time":163000000000,"state":"active","ping":143},{"user_id":626,"name":"Ignoramus Khan","steam_id":76561198111695218,"connected_time":453000000000,"state":"active","ping":85},{"user_id":554,"name":"HerrMyrddin","steam_id":76561198045778215,"connected_time":8033000000000,"state":"active","ping":56},{"user_id":627,"name":"Dreamhunter","steam_id":76561199385065567,"connected_time":221000000000,"state":"active","ping":300},{"user_id":628,"name":"mun ♿","steam_id":76561198389852292,"connected_time":200000000000,"state":"active","ping":121},{"user_id":636,"name":"etc","steam_id":76561197998394797,"connected_time":19000000000,"state":"active","ping":57},{"user_id":631,"name":"♥ Emma ♥","steam_id":76561198046796406,"connected_time":122000000000,"state":"active","ping":59},{"user_id":632,"name":"pvtemback","steam_id":76561198887302382,"connected_time":101000000000,"state":"active","ping":219},{"user_id":633,"name":"tone","steam_id":76561197975301462,"connected_time":75000000000,"state":"active","ping":64},{"user_id":634,"name":"Ptahotep","steam_id":76561198008708645,"connected_time":57000000000,"state":"active","ping":68},{"user_id":635,"name":"i wanna make new friends","steam_id":76561199169154431,"connected_time":55000000000,"state":"active","ping":58},{"user_id":606,"name":"Melford","steam_id":76561198319650677,"connected_time":2892000000000,"state":"active","ping":138},{"user_id":621,"name":"AestheticalZ","steam_id":76561198269554197,"connected_time":1303000000000,"state":"active","ping":67},{"user_id":637,"name":"Bruce Wang","steam_id":76561198890409949,"connected_time":19000000000,"state":"active","ping":90},{"user_id":603,"name":"Snowmotion","steam_id":76561198075022454,"connected_time":3727000000000,"state":"active","ping":58},{"user_id":638,"name":"Samuel L. Jackson","steam_id":76561198130427881,"connected_time":17000000000,"state":"active","ping":165},{"user_id":623,"name":"John Daly","steam_id":76561197993849325,"connected_time":852000000000,"state":"active","ping":84},{"user_id":547,"name":"Mr_Pulse_","steam_id":76561198095001602,"connected_time":8403000000000,"state":"active","ping":99}]},{"server_id":23,"name":"Uncletopia | Frankfurt | 7 | Stopwatch Beta","name_short":"frk-7","host":"frk-1.de.uncletopia.com","port":27075,"enabled":true,"region":"eu","cc":"de","latitude":50.110924,"longitude":8.682127,"reserved":0,"last_update":"0001-01-01T00:00:00Z","name_a2s":"Uncletopia | Frankfurt | 7 | Stopwatch Beta","protocol":17,"map":"cp_gullywash_final1","folder":"tf","game":"Team Fortress","app_id":440,"player_count":0,"max_players":24,"Bots":0,"server_type":"Dedicated","server_os":"Linux","password":true,"vac":true,"version":"7882260","steam_id":85568392924742827,"keywords":["cp","nocrits","nodmgspread","uncletopia"],"game_id":440,"stv_port":27076,"stv_name":"Uncletopia | Frankfurt | 7 | Stopwatch Beta | STV","players":null},{"server_id":24,"name":"Uncletopia | Frankfurt | 8 | Community","name_short":"frk-8","host":"frk-1.de.uncletopia.com","port":27085,"enabled":true,"region":"eu","cc":"de","latitude":50.110924,"longitude":8.682127,"reserved":0,"last_update":"0001-01-01T00:00:00Z","name_a2s":"Uncletopia | Frankfurt | 8 | Community","protocol":17,"map":"workshop/cp_alloy_rc3.ugc592805587","folder":"tf","game":"Team Fortress","app_id":440,"player_count":0,"max_players":24,"Bots":0,"server_type":"Dedicated","server_os":"Linux","password":true,"vac":true,"version":"7882260","steam_id":85568392924742828,"keywords":["cp","nocrits","nodmgspread","uncletopia"],"game_id":440,"stv_port":27086,"stv_name":"Uncletopia | Frankfurt | 8 | Community | STV","players":null},{"server_id":202,"name":"Uncletopia | Hong Kong | 1 | All Maps","name_short":"hgk-1","host":"hgk-1.hk.uncletopia.com","port":27015,"enabled":true,"region":"asia","cc":"hk","latitude":22.302711,"longitude":114.177216,"reserved":0,"last_update":"0001-01-01T00:00:00Z","name_a2s":"Uncletopia | Hong Kong | 1 | All Maps","protocol":17,"map":"koth_cascade","folder":"tf","game":"Team Fortress","app_id":440,"player_count":0,"max_players":24,"Bots":0,"server_type":"Dedicated","server_os":"Linux","password":true,"vac":true,"version":"7882260","steam_id":85568392924494504,"keywords":["cp","nocrits","nodmgspread","uncletopia"],"game_id":440,"stv_port":27016,"stv_name":"Uncletopia | Hong Kong | 1 | All Maps | STV","players":null},{"server_id":1,"name":"Uncletopia | Los Angeles | 1 | All Maps","name_short":"lax-1","host":"lax-1.us.uncletopia.com","port":27015,"enabled":true,"region":"us-west","cc":"us","latitude":33.94279,"longitude":-118.41004,"reserved":0,"last_update":"0001-01-01T00:00:00Z","name_a2s":"Uncletopia | Los Angeles | 1 | All Maps","protocol":17,"map":"koth_lakeside_final","folder":"tf","game":"Team Fortress","app_id":440,"player_count":24,"max_players":24,"Bots":0,"server_type":"Dedicated","server_os":"Linux","password":true,"vac":true,"version":"7882260","steam_id":85568392924469991,"keywords":["cp","nocrits","nodmgspread","uncletopia"],"game_id":440,"stv_port":27016,"stv_name":"Uncletopia | Los Angeles | 1 | All Maps | STV","players":[{"user_id":282,"name":"June","steam_id":76561198141803658,"connected_time":2264000000000,"state":"active","ping":45},{"user_id":308,"name":"ForAPessimistImPrettyOptimistic","steam_id":76561198170128009,"connected_time":154000000000,"state":"active","ping":60},{"user_id":298,"name":"r u guys going trick or treatin","steam_id":76561199074585110,"connected_time":506000000000,"state":"active","ping":41},{"user_id":293,"name":"Alltrex","steam_id":76561198202254225,"connected_time":1786000000000,"state":"active","ping":75},{"user_id":228,"name":"diggyhazard","steam_id":76561198206506481,"connected_time":6523000000000,"state":"active","ping":52},{"user_id":309,"name":"confused","steam_id":76561199391930993,"connected_time":150000000000,"state":"active","ping":53},{"user_id":297,"name":"Maurice","steam_id":76561198809072757,"connected_time":533000000000,"state":"active","ping":94},{"user_id":279,"name":"Sartupial","steam_id":76561198443169940,"connected_time":2898000000000,"state":"active","ping":74},{"user_id":295,"name":"Ralph Kramden (Slim Charles)","steam_id":76561197981687895,"connected_time":592000000000,"state":"active","ping":57},{"user_id":299,"name":"Unwavering Flavor","steam_id":76561198053306065,"connected_time":503000000000,"state":"active","ping":79},{"user_id":310,"name":"Probably Still a Furry","steam_id":76561198816076211,"connected_time":141000000000,"state":"active","ping":58},{"user_id":252,"name":"cielael","steam_id":76561198043971956,"connected_time":5013000000000,"state":"active","ping":47},{"user_id":290,"name":"tkeati","steam_id":76561198056356574,"connected_time":2110000000000,"state":"active","ping":70},{"user_id":267,"name":"Vintage TV","steam_id":76561198800334545,"connected_time":4119000000000,"state":"active","ping":47},{"user_id":302,"name":"Hottodoggu","steam_id":76561198084080712,"connected_time":301000000000,"state":"active","ping":89},{"user_id":303,"name":"Yamilk","steam_id":76561199188294858,"connected_time":298000000000,"state":"active","ping":169},{"user_id":260,"name":"nori_420 (mute)","steam_id":76561199117134203,"connected_time":4603000000000,"state":"active","ping":50},{"user_id":311,"name":"BurdBrain","steam_id":76561197962097737,"connected_time":94000000000,"state":"active","ping":61},{"user_id":281,"name":"BobBallin","steam_id":76561198355299724,"connected_time":2723000000000,"state":"active","ping":57},{"user_id":276,"name":"The Benefactor","steam_id":76561198307247913,"connected_time":3336000000000,"state":"active","ping":45},{"user_id":312,"name":"Flare Dance","steam_id":76561198260443137,"connected_time":91000000000,"state":"active","ping":67},{"user_id":313,"name":"NFL.com","steam_id":76561198113405376,"connected_time":43000000000,"state":"active","ping":52},{"user_id":305,"name":"Nez","steam_id":76561197963109059,"connected_time":240000000000,"state":"active","ping":65},{"user_id":307,"name":"CBUR","steam_id":76561198437498149,"connected_time":226000000000,"state":"active","ping":64}]},{"server_id":112,"name":"Uncletopia | Los Angeles | 2 | All Maps","name_short":"lax-2","host":"lax-1.us.uncletopia.com","port":27025,"enabled":true,"region":"us-west","cc":"us","latitude":33.94279,"longitude":-118.41004,"reserved":0,"last_update":"0001-01-01T00:00:00Z","name_a2s":"Uncletopia | Los Angeles | 2 | All Maps","protocol":17,"map":"pl_snowycoast","folder":"tf","game":"Team Fortress","app_id":440,"player_count":0,"max_players":24,"Bots":0,"server_type":"Dedicated","server_os":"Linux","password":true,"vac":true,"version":"7882260","steam_id":85568392924469992,"keywords":["nocrits","nodmgspread","payload","uncletopia"],"game_id":440,"stv_port":27026,"stv_name":"Uncletopia | Los Angeles | 2 | All Maps | STV","players":null},{"server_id":324,"name":"Uncletopia | Los Angeles | 3 | All Maps","name_short":"lax-3","host":"lax-1.us.uncletopia.com","port":27035,"enabled":true,"region":"us-west","cc":"us","latitude":33.94279,"longitude":-118.41004,"reserved":0,"last_update":"0001-01-01T00:00:00Z","name_a2s":"Uncletopia | Los Angeles | 3 | All Maps","protocol":17,"map":"koth_lakeside_final","folder":"tf","game":"Team Fortress","app_id":440,"player_count":0,"max_players":24,"Bots":0,"server_type":"Dedicated","server_os":"Linux","password":true,"vac":true,"version":"7882260","steam_id":85568392924510198,"keywords":["cp","nocrits","nodmgspread","uncletopia"],"game_id":440,"stv_port":27036,"stv_name":"Uncletopia | Los Angeles | 3 | All Maps | STV","players":null},{"server_id":25,"name":"Uncletopia | Los Angeles | 4 | Stopwatch Beta","name_short":"lax-4","host":"lax-1.us.uncletopia.com","port":27045,"enabled":true,"region":"us-west","cc":"us","latitude":33.94279,"longitude":-118.41004,"reserved":0,"last_update":"0001-01-01T00:00:00Z","name_a2s":"Uncletopia | Los Angeles | 4 | Stopwatch Beta","protocol":17,"map":"cp_sunshine","folder":"tf","game":"Team Fortress","app_id":440,"player_count":0,"max_players":24,"Bots":0,"server_type":"Dedicated","server_os":"Linux","password":true,"vac":true,"version":"7882260","steam_id":85568392924510199,"keywords":["cp","nocrits","nodmgspread","uncletopia"],"game_id":440,"stv_port":27046,"stv_name":"Uncletopia | Los Angeles | 4 | Stopwatch Beta | STV","players":null},{"server_id":11,"name":"Uncletopia | London | 1 | All Maps","name_short":"lon-1","host":"lon-1.uk.uncletopia.com","port":27015,"enabled":true,"region":"eu","cc":"gb","latitude":51.509865,"longitude":-0.118092,"reserved":0,"last_update":"0001-01-01T00:00:00Z","name_a2s":"Uncletopia | London | 1 | All Maps","protocol":17,"map":"pl_frontier_final","folder":"tf","game":"Team Fortress","app_id":440,"player_count":24,"max_players":24,"Bots":0,"server_type":"Dedicated","server_os":"Linux","password":true,"vac":true,"version":"7882260","steam_id":85568392924367362,"keywords":["nocrits","nodmgspread","payload","uncletopia"],"game_id":440,"stv_port":27016,"stv_name":"Uncletopia | London | 1 | All Maps | STV","players":[{"user_id":778,"name":"something","steam_id":76561198198581615,"connected_time":1879000000000,"state":"active","ping":66},{"user_id":819,"name":"buried","steam_id":76561198969003413,"connected_time":169000000000,"state":"active","ping":61},{"user_id":757,"name":"Masiher","steam_id":76561198257965547,"connected_time":4340000000000,"state":"active","ping":88},{"user_id":769,"name":"Sandshee","steam_id":76561198088574666,"connected_time":2642000000000,"state":"active","ping":32},{"user_id":793,"name":"LWP","steam_id":76561197995750602,"connected_time":788000000000,"state":"active","ping":76},{"user_id":799,"name":"klizeći","steam_id":76561198073320621,"connected_time":651000000000,"state":"active","ping":110},{"user_id":816,"name":"cloud ☁︎⋆｡˚","steam_id":76561199013510779,"connected_time":249000000000,"state":"active","ping":171},{"user_id":800,"name":"Blake shae","steam_id":76561199002352354,"connected_time":639000000000,"state":"active","ping":172},{"user_id":754,"name":"Atmospheric Death Metal","steam_id":76561198046033631,"connected_time":4399000000000,"state":"active","ping":69},{"user_id":810,"name":":)","steam_id":76561198043201482,"connected_time":506000000000,"state":"active","ping":82},{"user_id":786,"name":"Vitamin Weee","steam_id":76561199183937747,"connected_time":1321000000000,"state":"active","ping":90},{"user_id":729,"name":"teddy","steam_id":76561198007436837,"connected_time":6241000000000,"state":"active","ping":44},{"user_id":798,"name":"D0kai","steam_id":76561198389271720,"connected_time":673000000000,"state":"active","ping":49},{"user_id":802,"name":"Cryo","steam_id":76561198007769092,"connected_time":613000000000,"state":"active","ping":52},{"user_id":803,"name":"Herr Großer Schaft","steam_id":76561198054122270,"connected_time":613000000000,"state":"active","ping":44},{"user_id":728,"name":"Purps","steam_id":76561198053886680,"connected_time":6266000000000,"state":"active","ping":46},{"user_id":804,"name":"koziol","steam_id":76561198014716232,"connected_time":606000000000,"state":"active","ping":75},{"user_id":792,"name":"epic gamer moment","steam_id":76561198299515070,"connected_time":795000000000,"state":"active","ping":100},{"user_id":673,"name":"CubiCub","steam_id":76561198063875960,"connected_time":9672000000000,"state":"active","ping":101},{"user_id":774,"name":"bachusa1657","steam_id":76561198202175911,"connected_time":2469000000000,"state":"active","ping":81},{"user_id":820,"name":"ricky pee pee","steam_id":76561198152620745,"connected_time":31000000000,"state":"active","ping":66},{"user_id":814,"name":"GREGOR(Cheshire)","steam_id":76561198068535614,"connected_time":262000000000,"state":"active","ping":90},{"user_id":815,"name":"IM SO CRAZY","steam_id":76561199051809734,"connected_time":257000000000,"state":"active","ping":122},{"user_id":818,"name":"Orange-Juice","steam_id":76561198118783596,"connected_time":236000000000,"state":"active","ping":122}]},{"server_id":114,"name":"Uncletopia | London | 2 | All Maps","name_short":"lon-2","host":"lon-1.uk.uncletopia.com","port":27025,"enabled":true,"region":"eu","cc":"gb","latitude":51.509865,"longitude":-0.118092,"reserved":0,"last_update":"0001-01-01T00:00:00Z","name_a2s":"Uncletopia | London | 2 | All Maps","protocol":17,"map":"plr_hightower","folder":"tf","game":"Team Fortress","app_id":440,"player_count":23,"max_players":24,"Bots":0,"server_type":"Dedicated","server_os":"Linux","password":true,"vac":true,"version":"7882260","steam_id":85568392924470941,"keywords":["nocrits","nodmgspread","payload","uncletopia"],"game_id":440,"stv_port":27026,"stv_name":"Uncletopia | London | 2 | All Maps | STV","players":[{"user_id":407,"name":"Lucker","steam_id":76561198079469430,"connected_time":940000000000,"state":"active","ping":67},{"user_id":401,"name":"Wade Wilson's Spoilt C4","steam_id":76561198013884709,"connected_time":1922000000000,"state":"active","ping":79},{"user_id":423,"name":"Ducktor Who","steam_id":76561198140199123,"connected_time":453000000000,"state":"active","ping":43},{"user_id":380,"name":"Wonton","steam_id":76561198026843002,"connected_time":3450000000000,"state":"active","ping":64},{"user_id":396,"name":"The Subway Scientist","steam_id":76561198193757646,"connected_time":2143000000000,"state":"active","ping":45},{"user_id":412,"name":"игла","steam_id":76561198120760515,"connected_time":899000000000,"state":"active","ping":90},{"user_id":424,"name":"cold","steam_id":76561199017901552,"connected_time":442000000000,"state":"active","ping":151},{"user_id":429,"name":"Providence","steam_id":76561198003920270,"connected_time":53000000000,"state":"active","ping":71},{"user_id":403,"name":"BOB","steam_id":76561198797287684,"connected_time":1603000000000,"state":"active","ping":52},{"user_id":363,"name":"Bang Bang","steam_id":76561198844050650,"connected_time":4026000000000,"state":"active","ping":98},{"user_id":417,"name":"icy_spicy","steam_id":76561199481524657,"connected_time":823000000000,"state":"active","ping":60},{"user_id":406,"name":"Twiggu","steam_id":76561198070853128,"connected_time":1158000000000,"state":"active","ping":79},{"user_id":402,"name":"2D girlfriend","steam_id":76561198042593027,"connected_time":1836000000000,"state":"active","ping":98},{"user_id":411,"name":"xd","steam_id":76561198103583326,"connected_time":928000000000,"state":"active","ping":60},{"user_id":366,"name":"Regan","steam_id":76561198100631086,"connected_time":3997000000000,"state":"active","ping":56},{"user_id":377,"name":"SparkPhoenix","steam_id":76561198012953574,"connected_time":3589000000000,"state":"active","ping":56},{"user_id":428,"name":"SoupER","steam_id":76561198063056668,"connected_time":158000000000,"state":"active","ping":44},{"user_id":375,"name":"Pixie","steam_id":76561198044038797,"connected_time":3680000000000,"state":"active","ping":86},{"user_id":418,"name":"randompixel","steam_id":76561198003941207,"connected_time":816000000000,"state":"active","ping":57},{"user_id":427,"name":"/ff deli69","steam_id":76561198124859583,"connected_time":320000000000,"state":"active","ping":51},{"user_id":378,"name":"kel584","steam_id":76561199484115378,"connected_time":3575000000000,"state":"active","ping":80},{"user_id":384,"name":"theimmortalsirk","steam_id":76561198269637334,"connected_time":3346000000000,"state":"active","ping":47},{"user_id":400,"name":"Peanut","steam_id":76561198018865486,"connected_time":1978000000000,"state":"active","ping":65}]},{"server_id":320,"name":"Uncletopia | London | 3 | All Maps","name_short":"lon-3","host":"lon-1.uk.uncletopia.com","port":27035,"enabled":true,"region":"eu","cc":"gb","latitude":51.509865,"longitude":-0.118092,"reserved":0,"last_update":"0001-01-01T00:00:00Z","name_a2s":"Uncletopia | London | 3 | All Maps","protocol":17,"map":"pl_upward","folder":"tf","game":"Team Fortress","app_id":440,"player_count":24,"max_players":24,"Bots":0,"server_type":"Dedicated","server_os":"Linux","password":true,"vac":true,"version":"7882260","steam_id":85568392924510192,"keywords":["nocrits","nodmgspread","payload","uncletopia"],"game_id":440,"stv_port":27036,"stv_name":"Uncletopia | London | 3 | All Maps | STV","players":[{"user_id":820,"name":"tm`","steam_id":76561197993580412,"connected_time":2337000000000,"state":"active","ping":74},{"user_id":816,"name":"weedda","steam_id":76561198449953655,"connected_time":2622000000000,"state":"active","ping":73},{"user_id":839,"name":"Mr. Luigi","steam_id":76561198167312951,"connected_time":716000000000,"state":"active","ping":38},{"user_id":829,"name":"[Sheep] Tomco","steam_id":76561198388549261,"connected_time":1253000000000,"state":"active","ping":69},{"user_id":657,"name":"sarii ☆","steam_id":76561199155102111,"connected_time":15086000000000,"state":"active","ping":80},{"user_id":801,"name":"IKEA Self-Checkout Station","steam_id":76561198386873511,"connected_time":3135000000000,"state":"active","ping":46},{"user_id":821,"name":"Valen","steam_id":76561198049614521,"connected_time":2285000000000,"state":"active","ping":71},{"user_id":734,"name":"Aroo","steam_id":76561198132601368,"connected_time":9750000000000,"state":"active","ping":76},{"user_id":763,"name":"big carrot field. growing well","steam_id":76561198069649097,"connected_time":6711000000000,"state":"active","ping":55},{"user_id":656,"name":"Finn","steam_id":76561198179960193,"connected_time":15199000000000,"state":"active","ping":43},{"user_id":841,"name":"kris ♥","steam_id":76561198134746536,"connected_time":476000000000,"state":"active","ping":80},{"user_id":846,"name":"MistaHezakiah","steam_id":76561198004668029,"connected_time":175000000000,"state":"active","ping":44},{"user_id":772,"name":"Christmas Ham","steam_id":76561198119601623,"connected_time":6023000000000,"state":"active","ping":48},{"user_id":827,"name":"Cabbch","steam_id":76561198045955679,"connected_time":1286000000000,"state":"active","ping":54},{"user_id":826,"name":"Reno Boi","steam_id":76561198139179377,"connected_time":1606000000000,"state":"active","ping":66},{"user_id":840,"name":"rajAs","steam_id":76561198035928111,"connected_time":512000000000,"state":"active","ping":87},{"user_id":837,"name":"Orange :p","steam_id":76561198963378933,"connected_time":1086000000000,"state":"active","ping":42},{"user_id":842,"name":"ff:ff:ff:ff:ff:ff","steam_id":76561198072122983,"connected_time":387000000000,"state":"active","ping":77},{"user_id":845,"name":"Xx_EpicGaymer_xX","steam_id":76561198846784757,"connected_time":188000000000,"state":"active","ping":58},{"user_id":843,"name":"superad1","steam_id":76561198067001129,"connected_time":267000000000,"state":"active","ping":142},{"user_id":813,"name":"sz(k)","steam_id":76561198118500940,"connected_time":2877000000000,"state":"active","ping":71},{"user_id":814,"name":"Ch4bby","steam_id":76561198058792875,"connected_time":2858000000000,"state":"active","ping":55},{"user_id":835,"name":"Max Power","steam_id":76561198019269089,"connected_time":1226000000000,"state":"active","ping":59}]},{"server_id":321,"name":"Uncletopia | London | 4 | All Maps","name_short":"lon-4","host":"lon-1.uk.uncletopia.com","port":27045,"enabled":true,"region":"eu","cc":"gb","latitude":51.509865,"longitude":-0.118092,"reserved":0,"last_update":"0001-01-01T00:00:00Z","name_a2s":"Uncletopia | London | 4 | All Maps","protocol":17,"map":"pl_pier","folder":"tf","game":"Team Fortress","app_id":440,"player_count":0,"max_players":24,"Bots":0,"server_type":"Dedicated","server_os":"Linux","password":true,"vac":true,"version":"7882260","steam_id":85568392924510193,"keywords":["nocrits","nodmgspread","payload","uncletopia"],"game_id":440,"stv_port":27046,"stv_name":"Uncletopia | London | 4 | All Maps | STV","players":null},{"server_id":21,"name":"Uncletopia | London | 5 | All Maps","name_short":"lon-5","host":"lon-1.uk.uncletopia.com","port":27055,"enabled":true,"region":"eu","cc":"gb","latitude":51.509865,"longitude":-0.118092,"reserved":0,"last_update":"0001-01-01T00:00:00Z","name_a2s":"Uncletopia | London | 5 | All Maps","protocol":17,"map":"cp_mountainlab","folder":"tf","game":"Team Fortress","app_id":440,"player_count":0,"max_players":24,"Bots":0,"server_type":"Dedicated","server_os":"Linux","password":true,"vac":true,"version":"7882260","steam_id":85568392924742829,"keywords":["cp","nocrits","nodmgspread","uncletopia"],"game_id":440,"stv_port":27056,"stv_name":"Uncletopia | London | 5 | All Maps | STV","players":null},{"server_id":22,"name":"Uncletopia | London | 6 | All Maps","name_short":"lon-6","host":"lon-1.uk.uncletopia.com","port":27065,"enabled":true,"region":"eu","cc":"gb","latitude":51.509865,"longitude":-0.118092,"reserved":0,"last_update":"0001-01-01T00:00:00Z","name_a2s":"Uncletopia | London | 6 | All Maps","protocol":17,"map":"koth_lakeside_final","folder":"tf","game":"Team Fortress","app_id":440,"player_count":16,"max_players":24,"Bots":0,"server_type":"Dedicated","server_os":"Linux","password":true,"vac":true,"version":"7882260","steam_id":85568392924742830,"keywords":["cp","nocrits","nodmgspread","uncletopia"],"game_id":440,"stv_port":27066,"stv_name":"Uncletopia | London | 6 | All Maps | STV","players":[{"user_id":676,"name":"miss paulings secret lover","steam_id":76561199403298146,"connected_time":32000000000,"state":"active","ping":56},{"user_id":656,"name":"N.M.E","steam_id":76561198012351470,"connected_time":1802000000000,"state":"active","ping":31},{"user_id":657,"name":"zoinks!","steam_id":76561198068645362,"connected_time":1799000000000,"state":"active","ping":36},{"user_id":675,"name":"Adopted?","steam_id":76561198118667043,"connected_time":40000000000,"state":"active","ping":30},{"user_id":674,"name":"Vratis","steam_id":76561198062957725,"connected_time":45000000000,"state":"active","ping":96},{"user_id":631,"name":"la tempete qui approche","steam_id":76561198826468580,"connected_time":2837000000000,"state":"active","ping":85},{"user_id":622,"name":"Pistol Mags","steam_id":76561198075085966,"connected_time":3226000000000,"state":"active","ping":30},{"user_id":665,"name":"LiterallyRyanGosling","steam_id":76561199017856691,"connected_time":866000000000,"state":"active","ping":53},{"user_id":660,"name":"test2ube","steam_id":76561198102459034,"connected_time":1743000000000,"state":"active","ping":44},{"user_id":628,"name":"Neklausk","steam_id":76561198174895762,"connected_time":2940000000000,"state":"active","ping":86},{"user_id":641,"name":"Michał","steam_id":76561198320346362,"connected_time":2465000000000,"state":"active","ping":62},{"user_id":627,"name":"ThisGuy","steam_id":76561198152296391,"connected_time":3026000000000,"state":"active","ping":126},{"user_id":652,"name":"Magnus Carlsen","steam_id":76561198267298999,"connected_time":1972000000000,"state":"active","ping":96},{"user_id":645,"name":"free back real estate","steam_id":76561197999437155,"connected_time":2374000000000,"state":"active","ping":41},{"user_id":661,"name":"Buk Lau","steam_id":76561197993573576,"connected_time":1728000000000,"state":"active","ping":91},{"user_id":648,"name":"Sleepy","steam_id":76561198273471153,"connected_time":2317000000000,"state":"active","ping":125}]},{"server_id":40,"name":"Uncletopia | London | 7 | No Payload","name_short":"lon-7","host":"lon-1.uk.uncletopia.com","port":27075,"enabled":true,"region":"eu","cc":"gb","latitude":51.509865,"longitude":-0.118092,"reserved":0,"last_update":"0001-01-01T00:00:00Z","name_a2s":"Uncletopia | London | 7 | No Payload","protocol":17,"map":"koth_harvest_final","folder":"tf","game":"Team Fortress","app_id":440,"player_count":0,"max_players":24,"Bots":0,"server_type":"Dedicated","server_os":"Linux","password":true,"vac":true,"version":"7882260","steam_id":85568392924964314,"keywords":["cp","nocrits","nodmgspread","uncletopia"],"game_id":440,"stv_port":27076,"stv_name":"Uncletopia | London | 7 | No Payload | STV","players":null},{"server_id":41,"name":"Uncletopia | London | 8 | Community","name_short":"lon-8","host":"lon-1.uk.uncletopia.com","port":27085,"enabled":true,"region":"eu","cc":"gb","latitude":51.509865,"longitude":-0.118092,"reserved":0,"last_update":"0001-01-01T00:00:00Z","name_a2s":"Uncletopia | London | 8 | Community","protocol":17,"map":"workshop/cp_croissant_final.ugc458840209","folder":"tf","game":"Team Fortress","app_id":440,"player_count":0,"max_players":24,"Bots":0,"server_type":"Dedicated","server_os":"Linux","password":true,"vac":true,"version":"7882260","steam_id":85568392924964315,"keywords":["cp","nocrits","nodmgspread","uncletopia"],"game_id":440,"stv_port":27086,"stv_name":"Uncletopia | London | 8 | Community | STV","players":null},{"server_id":300,"name":"Uncletopia | Montréal | 1 | All Maps","name_short":"mtl-1","host":"mtl-1.ca.uncletopia.com","port":27015,"enabled":true,"region":"us-east","cc":"ca","latitude":45.50889,"longitude":-73.56167,"reserved":0,"last_update":"0001-01-01T00:00:00Z","name_a2s":"Uncletopia | Montréal | 1 | All Maps","protocol":17,"map":"koth_lakeside_final","folder":"tf","game":"Team Fortress","app_id":440,"player_count":0,"max_players":24,"Bots":0,"server_type":"Dedicated","server_os":"Linux","password":true,"vac":true,"version":"7882260","steam_id":85568392924500087,"keywords":["cp","nocrits","nodmgspread","uncletopia"],"game_id":440,"stv_port":27016,"stv_name":"Uncletopia | Montréal | 1 | All Maps | STV","players":null},{"server_id":301,"name":"Uncletopia | Montréal | 2 | All Maps","name_short":"mtl-2","host":"mtl-1.ca.uncletopia.com","port":27025,"enabled":true,"region":"us-east","cc":"ca","latitude":45.50889,"longitude":-73.56167,"reserved":0,"last_update":"0001-01-01T00:00:00Z","name_a2s":"Uncletopia | Montréal | 2 | All Maps","protocol":17,"map":"cp_process_final","folder":"tf","game":"Team Fortress","app_id":440,"player_count":23,"max_players":24,"Bots":0,"server_type":"Dedicated","server_os":"Linux","password":true,"vac":true,"version":"7882260","steam_id":85568392924500088,"keywords":["cp","nocrits","nodmgspread","uncletopia"],"game_id":440,"stv_port":27026,"stv_name":"Uncletopia | Montréal | 2 | All Maps | STV","players":[{"user_id":5,"name":"jun.","steam_id":76561198820058199,"connected_time":2712000000000,"state":"active","ping":69},{"user_id":6,"name":"ZerCroix","steam_id":76561198199523226,"connected_time":2711000000000,"state":"active","ping":134},{"user_id":36,"name":"LazyKoala99","steam_id":76561199183623672,"connected_time":522000000000,"state":"active","ping":57},{"user_id":8,"name":"purpleboi8056YT","steam_id":76561199386977971,"connected_time":2277000000000,"state":"active","ping":131},{"user_id":34,"name":"Sprinklingmydoughnut","steam_id":76561198168009092,"connected_time":615000000000,"state":"active","ping":73},{"user_id":15,"name":"I LOVE COOKIES","steam_id":76561199082237494,"connected_time":1271000000000,"state":"active","ping":130},{"user_id":32,"name":"Sputnix","steam_id":76561198236857310,"connected_time":708000000000,"state":"active","ping":48},{"user_id":12,"name":"George Bossington","steam_id":76561197993127608,"connected_time":1610000000000,"state":"active","ping":82},{"user_id":45,"name":"Brominican Republic","steam_id":76561198055237069,"connected_time":138000000000,"state":"active","ping":65},{"user_id":17,"name":"basil smoking weed","steam_id":76561198119590214,"connected_time":1254000000000,"state":"active","ping":75},{"user_id":18,"name":"The flaming soup","steam_id":76561198202815522,"connected_time":1206000000000,"state":"active","ping":93},{"user_id":22,"name":"ttv/SpectrieGhost","steam_id":76561198342800302,"connected_time":990000000000,"state":"active","ping":126},{"user_id":47,"name":"Zoratunictoon","steam_id":76561199475066871,"connected_time":99000000000,"state":"active","ping":133},{"user_id":24,"name":"Allyn","steam_id":76561198999161827,"connected_time":976000000000,"state":"active","ping":52},{"user_id":25,"name":"That One Tall Guy","steam_id":76561199086031848,"connected_time":971000000000,"state":"active","ping":97},{"user_id":26,"name":"cakgamin","steam_id":76561199088909749,"connected_time":943000000000,"state":"active","ping":83},{"user_id":35,"name":"Gaming123","steam_id":76561198801780168,"connected_time":605000000000,"state":"active","ping":54},{"user_id":37,"name":"rider_of_brohan15","steam_id":76561198172978817,"connected_time":486000000000,"state":"active","ping":78},{"user_id":48,"name":"TommySalami69","steam_id":76561198180275926,"connected_time":14000000000,"state":"spawning","ping":77},{"user_id":39,"name":"Mugenman88","steam_id":76561198041261388,"connected_time":451000000000,"state":"active","ping":81},{"user_id":40,"name":"joshtrademark","steam_id":76561198097422133,"connected_time":437000000000,"state":"active","ping":67},{"user_id":41,"name":"yoodle doodle","steam_id":76561198054897884,"connected_time":429000000000,"state":"active","ping":80},{"user_id":44,"name":"Butters495","steam_id":76561197998689042,"connected_time":267000000000,"state":"active","ping":74}]},{"server_id":302,"name":"Uncletopia | Montréal | 3 | All Maps","name_short":"mtl-3","host":"mtl-1.ca.uncletopia.com","port":27035,"enabled":true,"region":"us-east","cc":"ca","latitude":45.50889,"longitude":-73.56167,"reserved":0,"last_update":"0001-01-01T00:00:00Z","name_a2s":"Uncletopia | Montréal | 3 | All Maps","protocol":17,"map":"pl_snowycoast","folder":"tf","game":"Team Fortress","app_id":440,"player_count":0,"max_players":24,"Bots":0,"server_type":"Dedicated","server_os":"Linux","password":true,"vac":true,"version":"7882260","steam_id":85568392924500089,"keywords":["nocrits","nodmgspread","payload","uncletopia"],"game_id":440,"stv_port":27036,"stv_name":"Uncletopia | Montréal | 3 | All Maps | STV","players":null},{"server_id":303,"name":"Uncletopia | Montréal | 4 | No Payload","name_short":"mtl-4","host":"mtl-1.ca.uncletopia.com","port":27045,"enabled":true,"region":"us-east","cc":"ca","latitude":45.50889,"longitude":-73.56167,"reserved":0,"last_update":"0001-01-01T00:00:00Z","name_a2s":"Uncletopia | Montréal | 4 | No Payload","protocol":17,"map":"koth_lazarus","folder":"tf","game":"Team Fortress","app_id":440,"player_count":0,"max_players":24,"Bots":0,"server_type":"Dedicated","server_os":"Linux","password":true,"vac":true,"version":"7882260","steam_id":85568392924500090,"keywords":["cp","nocrits","nodmgspread","uncletopia"],"game_id":440,"stv_port":27046,"stv_name":"Uncletopia | Montréal | 4 | No Payload | STV","players":null},{"server_id":13,"name":"Uncletopia | New York City | 1 | All Maps","name_short":"nyc-1","host":"nyc-1.us.uncletopia.com","port":27015,"enabled":true,"region":"us-east","cc":"us","latitude":40.73061,"longitude":-73.93524,"reserved":0,"last_update":"0001-01-01T00:00:00Z","name_a2s":"Uncletopia | New York City | 1 | All Maps","protocol":17,"map":"pl_pier","folder":"tf","game":"Team Fortress","app_id":440,"player_count":24,"max_players":24,"Bots":0,"server_type":"Dedicated","server_os":"Linux","password":true,"vac":true,"version":"7882260","steam_id":85568392924469993,"keywords":["nocrits","nodmgspread","payload","uncletopia"],"game_id":440,"stv_port":27016,"stv_name":"Uncletopia | New York City | 1 | All Maps | STV","players":[{"user_id":372,"name":"SublunarFox","steam_id":76561198886387474,"connected_time":3594000000000,"state":"active","ping":56},{"user_id":422,"name":"Acto","steam_id":76561198043025164,"connected_time":736000000000,"state":"active","ping":117},{"user_id":407,"name":"meat glasses","steam_id":76561198046742645,"connected_time":2229000000000,"state":"active","ping":60},{"user_id":377,"name":"littleNoOne","steam_id":76561199026432524,"connected_time":3320000000000,"state":"active","ping":70},{"user_id":426,"name":"WibbyOne","steam_id":76561198052843846,"connected_time":493000000000,"state":"active","ping":41},{"user_id":428,"name":"yellowcat","steam_id":76561198346054736,"connected_time":255000000000,"state":"active","ping":70},{"user_id":429,"name":"asbestos","steam_id":76561198079178866,"connected_time":210000000000,"state":"active","ping":54},{"user_id":393,"name":"Chin","steam_id":76561198247426906,"connected_time":2766000000000,"state":"active","ping":78},{"user_id":373,"name":"glue sniffer","steam_id":76561198044689778,"connected_time":3591000000000,"state":"active","ping":46},{"user_id":423,"name":"Gr4ywullf","steam_id":76561198271637621,"connected_time":629000000000,"state":"active","ping":74},{"user_id":411,"name":"BasicPeaches","steam_id":76561198190890150,"connected_time":1515000000000,"state":"active","ping":76},{"user_id":430,"name":"felalewhpre","steam_id":76561198123056791,"connected_time":24000000000,"state":"active","ping":49},{"user_id":412,"name":"laddie","steam_id":76561198063029230,"connected_time":1273000000000,"state":"active","ping":55},{"user_id":397,"name":"DiscoTraveler","steam_id":76561199240168088,"connected_time":2531000000000,"state":"active","ping":49},{"user_id":421,"name":"Gentoo Linux Gaming","steam_id":76561197999657118,"connected_time":757000000000,"state":"active","ping":64},{"user_id":346,"name":"concrete_car","steam_id":76561198388207363,"connected_time":5509000000000,"state":"active","ping":68},{"user_id":416,"name":"edvaldo 60hz","steam_id":76561198415484497,"connected_time":1131000000000,"state":"active","ping":169},{"user_id":419,"name":"supersam2315","steam_id":76561198273479999,"connected_time":875000000000,"state":"active","ping":69},{"user_id":417,"name":"EthanDinoMan","steam_id":76561199122331390,"connected_time":1128000000000,"state":"active","ping":115},{"user_id":410,"name":"Toripoll0","steam_id":76561198251665862,"connected_time":1887000000000,"state":"active","ping":103},{"user_id":432,"name":"Ace Attorney","steam_id":76561198133011705,"connected_time":10000000000,"state":"spawning","ping":44},{"user_id":424,"name":"Sam","steam_id":76561198043918040,"connected_time":538000000000,"state":"active","ping":90},{"user_id":427,"name":"Floaty","steam_id":76561198100029503,"connected_time":492000000000,"state":"active","ping":127}]},{"server_id":14,"name":"Uncletopia | New York City | 2 | All Maps","name_short":"nyc-2","host":"nyc-1.us.uncletopia.com","port":27025,"enabled":true,"region":"us-east","cc":"us","latitude":40.73061,"longitude":-73.93524,"reserved":0,"last_update":"0001-01-01T00:00:00Z","name_a2s":"Uncletopia | New York City | 2 | All Maps","protocol":17,"map":"pl_goldrush","folder":"tf","game":"Team Fortress","app_id":440,"player_count":24,"max_players":24,"Bots":0,"server_type":"Dedicated","server_os":"Linux","password":true,"vac":true,"version":"7882260","steam_id":85568392924469994,"keywords":["nocrits","nodmgspread","payload","uncletopia"],"game_id":440,"stv_port":27026,"stv_name":"Uncletopia | New York City | 2 | All Maps | STV","players":[{"user_id":450,"name":"Apetometrist","steam_id":76561198045391635,"connected_time":326000000000,"state":"active","ping":77},{"user_id":421,"name":"Bullwinkle J. Moose","steam_id":76561198075977196,"connected_time":3924000000000,"state":"active","ping":90},{"user_id":430,"name":"Drapph","steam_id":76561199384213314,"connected_time":2623000000000,"state":"active","ping":72},{"user_id":445,"name":"A Real American","steam_id":76561198061679524,"connected_time":1090000000000,"state":"active","ping":53},{"user_id":407,"name":"Snoogs","steam_id":76561198444880931,"connected_time":4605000000000,"state":"active","ping":59},{"user_id":446,"name":"Chris P. Bacon","steam_id":76561198000851038,"connected_time":1076000000000,"state":"active","ping":56},{"user_id":424,"name":"cave johnson","steam_id":76561199389283507,"connected_time":3540000000000,"state":"active","ping":72},{"user_id":353,"name":"Mrs.Frizzle","steam_id":76561198117157085,"connected_time":9187000000000,"state":"active","ping":55},{"user_id":425,"name":"bojack from the show bojack hor","steam_id":76561198053006712,"connected_time":3388000000000,"state":"active","ping":45},{"user_id":438,"name":"Ice Teea","steam_id":76561198195673201,"connected_time":2241000000000,"state":"active","ping":93},{"user_id":444,"name":"Moyaimya","steam_id":76561198116525682,"connected_time":1234000000000,"state":"active","ping":68},{"user_id":435,"name":"Goomby","steam_id":76561198079416561,"connected_time":2438000000000,"state":"active","ping":58},{"user_id":431,"name":"Queso2469","steam_id":76561197993024580,"connected_time":2618000000000,"state":"active","ping":49},{"user_id":408,"name":"turd ferguson","steam_id":76561198071620782,"connected_time":4466000000000,"state":"active","ping":70},{"user_id":441,"name":"Pib","steam_id":76561197994926573,"connected_time":1240000000000,"state":"active","ping":79},{"user_id":448,"name":"Draco6257","steam_id":76561199147322448,"connected_time":500000000000,"state":"active","ping":35},{"user_id":386,"name":"Merganser","steam_id":76561198044550447,"connected_time":7151000000000,"state":"active","ping":157},{"user_id":451,"name":"Doctor Yum Yums","steam_id":76561198826717792,"connected_time":268000000000,"state":"active","ping":68},{"user_id":434,"name":"TrashCanGaming","steam_id":76561199150746424,"connected_time":2515000000000,"state":"active","ping":76},{"user_id":449,"name":"SpectraUnseen","steam_id":76561198073501022,"connected_time":384000000000,"state":"active","ping":55},{"user_id":428,"name":"ghastlierest gamer","steam_id":76561198057374871,"connected_time":3251000000000,"state":"active","ping":72},{"user_id":439,"name":"Fizz","steam_id":76561197985230931,"connected_time":2179000000000,"state":"active","ping":45},{"user_id":384,"name":"Battery Acid Slurper","steam_id":76561198439793697,"connected_time":7208000000000,"state":"active","ping":84},{"user_id":420,"name":"Kyzer","steam_id":76561198048034600,"connected_time":4137000000000,"state":"active","ping":78}]},{"server_id":15,"name":"Uncletopia | New York City | 3 | Stopwatch Beta","name_short":"nyc-3","host":"nyc-1.us.uncletopia.com","port":27035,"enabled":true,"region":"us-east","cc":"us","latitude":40.73061,"longitude":-73.93524,"reserved":0,"last_update":"0001-01-01T00:00:00Z","name_a2s":"Uncletopia | New York City | 3 | Stopwatch Beta","protocol":17,"map":"koth_highpass","folder":"tf","game":"Team Fortress","app_id":440,"player_count":0,"max_players":24,"Bots":0,"server_type":"Dedicated","server_os":"Linux","password":true,"vac":true,"version":"7882260","steam_id":85568392924742820,"keywords":["cp","nocrits","nodmgspread","uncletopia"],"game_id":440,"stv_port":27036,"stv_name":"Uncletopia | New York City | 3 | Stopwatch Beta | STV","players":null},{"server_id":16,"name":"Uncletopia | New York City | 4 | Community","name_short":"nyc-4","host":"nyc-1.us.uncletopia.com","port":27045,"enabled":true,"region":"us-east","cc":"us","latitude":40.73061,"longitude":-73.93524,"reserved":0,"last_update":"0001-01-01T00:00:00Z","name_a2s":"Uncletopia | New York City | 4 | Community","protocol":17,"map":"workshop/pl_cashworks_final1.ugc2904065412","folder":"tf","game":"Team Fortress","app_id":440,"player_count":19,"max_players":24,"Bots":0,"server_type":"Dedicated","server_os":"Linux","password":true,"vac":true,"version":"7882260","steam_id":85568392924742821,"keywords":["nocrits","nodmgspread","payload","uncletopia"],"game_id":440,"stv_port":27046,"stv_name":"Uncletopia | New York City | 4 | Community | STV","players":[{"user_id":248,"name":"BigFloppa","steam_id":76561199011056745,"connected_time":3822000000000,"state":"active","ping":100},{"user_id":315,"name":"Dua Ligma","steam_id":76561198329087915,"connected_time":303000000000,"state":"active","ping":116},{"user_id":319,"name":"Fashion","steam_id":76561198056788026,"connected_time":123000000000,"state":"active","ping":66},{"user_id":322,"name":"slafflow","steam_id":76561199381012350,"connected_time":4000000000,"state":"spawning","ping":97},{"user_id":291,"name":"Epicgamer92","steam_id":76561198312448484,"connected_time":1848000000000,"state":"active","ping":71},{"user_id":303,"name":"Shiny","steam_id":76561198092628930,"connected_time":1321000000000,"state":"active","ping":111},{"user_id":301,"name":"Puke Skyfucker","steam_id":76561198012846213,"connected_time":1388000000000,"state":"active","ping":85},{"user_id":289,"name":"Frantic Slug","steam_id":76561197995607923,"connected_time":1872000000000,"state":"active","ping":54},{"user_id":321,"name":"Comfy Monkey","steam_id":76561197998434936,"connected_time":79000000000,"state":"active","ping":33},{"user_id":309,"name":"Barlon","steam_id":76561198023717515,"connected_time":1048000000000,"state":"active","ping":54},{"user_id":255,"name":"Muromasa","steam_id":76561198069883531,"connected_time":3386000000000,"state":"active","ping":72},{"user_id":318,"name":"Mom's Spaghetti","steam_id":76561198131338197,"connected_time":207000000000,"state":"active","ping":76},{"user_id":314,"name":"mulligan0727","steam_id":76561199122006169,"connected_time":629000000000,"state":"active","ping":83},{"user_id":265,"name":"BEETLEMAN","steam_id":76561198100017156,"connected_time":2825000000000,"state":"active","ping":41},{"user_id":267,"name":"fb","steam_id":76561197988802856,"connected_time":2801000000000,"state":"active","ping":135},{"user_id":313,"name":"SnickerNoodle","steam_id":76561198064359644,"connected_time":910000000000,"state":"active","ping":54},{"user_id":310,"name":"Cyberjesus","steam_id":76561199230865007,"connected_time":1042000000000,"state":"active","ping":72},{"user_id":285,"name":"Marie","steam_id":76561198056104899,"connected_time":2049000000000,"state":"active","ping":85},{"user_id":245,"name":"The Pan Man From Slavic Land","steam_id":76561198401875841,"connected_time":4230000000000,"state":"active","ping":65}]},{"server_id":142,"name":"Uncletopia | São Paulo | 1 | All Maps","name_short":"sao-1","host":"sao-1.br.uncletopia.com","port":27015,"enabled":true,"region":"sa","cc":"br","latitude":-23.533773,"longitude":-46.62529,"reserved":0,"last_update":"0001-01-01T00:00:00Z","name_a2s":"Uncletopia | São Paulo | 1 | All Maps","protocol":17,"map":"koth_lakeside_final","folder":"tf","game":"Team Fortress","app_id":440,"player_count":0,"max_players":24,"Bots":0,"server_type":"Dedicated","server_os":"Linux","password":true,"vac":true,"version":"7882260","steam_id":85568392924469996,"keywords":["cp","nocrits","nodmgspread","uncletopia"],"game_id":440,"stv_port":27016,"stv_name":"Uncletopia | São Paulo | 1 | All Maps | STV","players":null},{"server_id":143,"name":"Uncletopia | São Paulo | 2 | All Maps","name_short":"sao-2","host":"sao-2.br.uncletopia.com","port":27015,"enabled":true,"region":"sa","cc":"br","latitude":-23.533773,"longitude":-46.62529,"reserved":0,"last_update":"0001-01-01T00:00:00Z","name_a2s":"Uncletopia | São Paulo | 2 | All Maps","protocol":17,"map":"pl_snowycoast","folder":"tf","game":"Team Fortress","app_id":440,"player_count":19,"max_players":24,"Bots":0,"server_type":"Dedicated","server_os":"Linux","password":true,"vac":true,"version":"7882260","steam_id":85568392924485349,"keywords":["nocrits","nodmgspread","payload","uncletopia"],"game_id":440,"stv_port":27016,"stv_name":"Uncletopia | São Paulo | 2 | All Maps | STV","players":[{"user_id":312,"name":"lk","steam_id":76561198055176612,"connected_time":898000000000,"state":"active","ping":63},{"user_id":262,"name":"Edge","steam_id":76561198850405241,"connected_time":4823000000000,"state":"active","ping":55},{"user_id":295,"name":"Cognito Ergo Cum","steam_id":76561198997384723,"connected_time":1968000000000,"state":"active","ping":57},{"user_id":328,"name":"GBa20X","steam_id":76561199472338260,"connected_time":119000000000,"state":"active","ping":69},{"user_id":308,"name":"Giva Mike","steam_id":76561199151189522,"connected_time":1037000000000,"state":"active","ping":186},{"user_id":329,"name":"RICE A RONI JABRONI","steam_id":76561198251653444,"connected_time":102000000000,"state":"active","ping":185},{"user_id":265,"name":"Tou_Matt","steam_id":76561198898317327,"connected_time":4009000000000,"state":"active","ping":45},{"user_id":296,"name":"Ozald","steam_id":76561199092019322,"connected_time":1863000000000,"state":"active","ping":152},{"user_id":330,"name":"Drain Gang Human Resources","steam_id":76561198277387180,"connected_time":93000000000,"state":"active","ping":63},{"user_id":331,"name":"melon","steam_id":76561199080817141,"connected_time":74000000000,"state":"active","ping":69},{"user_id":333,"name":"Banssolo","steam_id":76561198029130525,"connected_time":28000000000,"state":"active","ping":68},{"user_id":250,"name":"matheus_lanches","steam_id":76561199359501901,"connected_time":5590000000000,"state":"active","ping":40},{"user_id":314,"name":"Punga","steam_id":76561198083529226,"connected_time":664000000000,"state":"active","ping":38},{"user_id":281,"name":"Tusk ⭐⭐⭐","steam_id":76561198109725714,"connected_time":2742000000000,"state":"active","ping":91},{"user_id":301,"name":"Brawmario","steam_id":76561198025313430,"connected_time":1518000000000,"state":"active","ping":39},{"user_id":264,"name":"Tio KillerParty","steam_id":76561198067918814,"connected_time":4329000000000,"state":"active","ping":59},{"user_id":303,"name":"Overhead","steam_id":76561199121968852,"connected_time":1355000000000,"state":"active","ping":183},{"user_id":318,"name":"Power_Guid@S","steam_id":76561199054248715,"connected_time":461000000000,"state":"active","ping":70},{"user_id":320,"name":"Zaparol","steam_id":76561198971733797,"connected_time":446000000000,"state":"active","ping":70}]},{"server_id":7,"name":"Uncletopia | Seattle | 1 | All Maps","name_short":"sea-1","host":"sea-1.us.uncletopia.com","port":27015,"enabled":true,"region":"us-west","cc":"us","latitude":47.608013,"longitude":-122.33517,"reserved":0,"last_update":"0001-01-01T00:00:00Z","name_a2s":"Uncletopia | Seattle | 1 | All Maps","protocol":17,"map":"koth_brazil","folder":"tf","game":"Team Fortress","app_id":440,"player_count":25,"max_players":24,"Bots":0,"server_type":"Dedicated","server_os":"Linux","password":true,"vac":true,"version":"7882260","steam_id":85568392924469997,"keywords":["cp","nocrits","nodmgspread","uncletopia"],"game_id":440,"stv_port":27016,"stv_name":"Uncletopia | Seattle | 1 | All Maps | STV","players":[{"user_id":337,"name":"certified play-doh devourer","steam_id":76561199229848770,"connected_time":2668000000000,"state":"active","ping":58},{"user_id":360,"name":"Dingelsmurf the Orange","steam_id":76561198212489267,"connected_time":693000000000,"state":"active","ping":89},{"user_id":350,"name":"Saint Pablo","steam_id":76561198083300159,"connected_time":1208000000000,"state":"active","ping":71},{"user_id":342,"name":"Ashanti Clan","steam_id":76561198032651105,"connected_time":2064000000000,"state":"active","ping":60},{"user_id":356,"name":"Keamy","steam_id":76561199471434875,"connected_time":1112000000000,"state":"active","ping":39},{"user_id":361,"name":"Canaan ❤","steam_id":76561198044337051,"connected_time":551000000000,"state":"active","ping":95},{"user_id":357,"name":"miscellaneous","steam_id":76561199436642954,"connected_time":1066000000000,"state":"active","ping":56},{"user_id":354,"name":"ChefBunny","steam_id":76561198243610560,"connected_time":1125000000000,"state":"active","ping":71},{"user_id":272,"name":"transbian disaster","steam_id":76561198407600762,"connected_time":7844000000000,"state":"active","ping":45},{"user_id":293,"name":"TheCowledWiz","steam_id":76561198016735868,"connected_time":5853000000000,"state":"active","ping":50},{"user_id":213,"name":"ITSPICE","steam_id":76561198173274042,"connected_time":14061000000000,"state":"active","ping":77},{"user_id":343,"name":"Fire_box41238","steam_id":76561199185673650,"connected_time":2062000000000,"state":"active","ping":55},{"user_id":313,"name":"Petrivus","steam_id":76561198202152453,"connected_time":4125000000000,"state":"active","ping":59},{"user_id":363,"name":"Balls Insurance","steam_id":76561198005860388,"connected_time":174000000000,"state":"connecting","ping":0},{"user_id":273,"name":"A Commodore 64®","steam_id":76561198156203733,"connected_time":7832000000000,"state":"active","ping":99},{"user_id":339,"name":"tconnors1976","steam_id":76561198840033336,"connected_time":2122000000000,"state":"active","ping":59},{"user_id":358,"name":"Can of Oranges","steam_id":76561199121813529,"connected_time":941000000000,"state":"active","ping":51},{"user_id":362,"name":"Tea","steam_id":76561198004133638,"connected_time":512000000000,"state":"active","ping":74},{"user_id":355,"name":"evilOlive","steam_id":76561198106222025,"connected_time":1124000000000,"state":"active","ping":77},{"user_id":321,"name":"Hugh Cumberdale","steam_id":76561198055089667,"connected_time":3860000000000,"state":"active","ping":45},{"user_id":322,"name":"Peter, what are you doing?","steam_id":76561198066452726,"connected_time":3850000000000,"state":"active","ping":78},{"user_id":338,"name":"Qas","steam_id":76561198067564482,"connected_time":2503000000000,"state":"active","ping":88},{"user_id":349,"name":"cassielee13","steam_id":76561198272718759,"connected_time":1824000000000,"state":"active","ping":75},{"user_id":331,"name":"Rat","steam_id":76561198330059340,"connected_time":3302000000000,"state":"active","ping":66},{"user_id":364,"name":"Funky Kong Jr.","steam_id":76561199351137762,"connected_time":146000000000,"state":"active","ping":53}]},{"server_id":119,"name":"Uncletopia | Seattle | 2 | All Maps","name_short":"sea-2","host":"sea-1.us.uncletopia.com","port":27025,"enabled":true,"region":"us-west","cc":"us","latitude":47.608013,"longitude":-122.33517,"reserved":0,"last_update":"0001-01-01T00:00:00Z","name_a2s":"Uncletopia | Seattle | 2 | All Maps","protocol":17,"map":"pl_pier","folder":"tf","game":"Team Fortress","app_id":440,"player_count":24,"max_players":24,"Bots":0,"server_type":"Dedicated","server_os":"Linux","password":true,"vac":true,"version":"7882260","steam_id":85568392924469998,"keywords":["nocrits","nodmgspread","payload","uncletopia"],"game_id":440,"stv_port":27026,"stv_name":"Uncletopia | Seattle | 2 | All Maps | STV","players":[{"user_id":256,"name":"mos","steam_id":76561198146126212,"connected_time":3235000000000,"state":"active","ping":118},{"user_id":247,"name":"Apollo","steam_id":76561198162364702,"connected_time":3294000000000,"state":"active","ping":48},{"user_id":227,"name":"O","steam_id":76561198450073779,"connected_time":4706000000000,"state":"active","ping":47},{"user_id":275,"name":"vareh","steam_id":76561197993190926,"connected_time":1276000000000,"state":"active","ping":63},{"user_id":286,"name":"z1on","steam_id":76561198988093497,"connected_time":138000000000,"state":"active","ping":65},{"user_id":269,"name":"KellyKapoor","steam_id":76561198040828123,"connected_time":1535000000000,"state":"active","ping":49},{"user_id":278,"name":"dirty30","steam_id":76561198021226566,"connected_time":1099000000000,"state":"active","ping":54},{"user_id":279,"name":"Dr.Blunt","steam_id":76561198096333958,"connected_time":628000000000,"state":"active","ping":95},{"user_id":259,"name":"Tibetan Pop Star","steam_id":76561198844903984,"connected_time":3176000000000,"state":"active","ping":118},{"user_id":283,"name":"Glar","steam_id":76561198341907150,"connected_time":197000000000,"state":"active","ping":41},{"user_id":184,"name":"TüCold","steam_id":76561198111278197,"connected_time":8114000000000,"state":"active","ping":56},{"user_id":271,"name":"Van","steam_id":76561198073518712,"connected_time":1526000000000,"state":"active","ping":128},{"user_id":281,"name":"Feldspaten","steam_id":76561199122059102,"connected_time":341000000000,"state":"active","ping":73},{"user_id":255,"name":"KOJAKK","steam_id":76561199060841878,"connected_time":3239000000000,"state":"active","ping":41},{"user_id":272,"name":"Algibruh","steam_id":76561199221599415,"connected_time":1519000000000,"state":"active","ping":57},{"user_id":123,"name":"Jolly","steam_id":76561198116357972,"connected_time":10812000000000,"state":"active","ping":74},{"user_id":262,"name":"Deer","steam_id":76561198062350861,"connected_time":2895000000000,"state":"active","ping":57},{"user_id":266,"name":"Johnny Ballsack","steam_id":76561198072876620,"connected_time":2105000000000,"state":"active","ping":121},{"user_id":246,"name":"A UsedNom","steam_id":76561198402832756,"connected_time":3298000000000,"state":"active","ping":69},{"user_id":208,"name":"The King of Piss World","steam_id":76561198082806956,"connected_time":6599000000000,"state":"active","ping":122},{"user_id":282,"name":"paste!","steam_id":76561198085388962,"connected_time":332000000000,"state":"active","ping":88},{"user_id":265,"name":"dep","steam_id":76561198044106812,"connected_time":2243000000000,"state":"active","ping":114},{"user_id":207,"name":"sleepy blossom","steam_id":76561198042735130,"connected_time":6615000000000,"state":"active","ping":60},{"user_id":285,"name":"gloobern","steam_id":76561198341190679,"connected_time":164000000000,"state":"active","ping":71}]},{"server_id":406,"name":"Uncletopia | Seattle | 3 | Stopwatch Beta","name_short":"sea-3","host":"sea-1.us.uncletopia.com","port":27035,"enabled":true,"region":"us-west","cc":"us","latitude":47.608013,"longitude":-122.33517,"reserved":0,"last_update":"0001-01-01T00:00:00Z","name_a2s":"Uncletopia | Seattle | 3 | Stopwatch Beta","protocol":17,"map":"pl_swiftwater_final1","folder":"tf","game":"Team Fortress","app_id":440,"player_count":0,"max_players":24,"Bots":0,"server_type":"Dedicated","server_os":"Linux","password":true,"vac":true,"version":"7882260","steam_id":85568392924515217,"keywords":["nocrits","nodmgspread","payload","uncletopia"],"game_id":440,"stv_port":27036,"stv_name":"Uncletopia | Seattle | 3 | Stopwatch Beta | STV","players":null},{"server_id":17,"name":"Uncletopia | San Francisco | 1 | All Maps","name_short":"sfo-1","host":"sfo-1.us.uncletopia.com","port":27015,"enabled":true,"region":"us-west","cc":"us","latitude":37.77397,"longitude":-122.4313,"reserved":0,"last_update":"0001-01-01T00:00:00Z","name_a2s":"Uncletopia | San Francisco | 1 | All Maps","protocol":17,"map":"cp_snakewater_final1","folder":"tf","game":"Team Fortress","app_id":440,"player_count":0,"max_players":24,"Bots":0,"server_type":"Dedicated","server_os":"Linux","password":true,"vac":true,"version":"7882260","steam_id":85568392924469999,"keywords":["cp","nocrits","nodmgspread","uncletopia"],"game_id":440,"stv_port":27016,"stv_name":"Uncletopia | San Francisco | 1 | All Maps | STV","players":null},{"server_id":18,"name":"Uncletopia | San Francisco | 2 | All Maps","name_short":"sfo-2","host":"sfo-1.us.uncletopia.com","port":27025,"enabled":true,"region":"us-west","cc":"us","latitude":37.77397,"longitude":-122.4313,"reserved":0,"last_update":"0001-01-01T00:00:00Z","name_a2s":"Uncletopia | San Francisco | 2 | All Maps","protocol":17,"map":"ctf_2fort","folder":"tf","game":"Team Fortress","app_id":440,"player_count":15,"max_players":24,"Bots":0,"server_type":"Dedicated","server_os":"Linux","password":true,"vac":true,"version":"7882260","steam_id":85568392924470000,"keywords":["ctf","nocrits","nodmgspread","uncletopia"],"game_id":440,"stv_port":27026,"stv_name":"Uncletopia | San Francisco | 2 | All Maps | STV","players":[{"user_id":346,"name":"MCman","steam_id":76561198412110305,"connected_time":1017000000000,"state":"active","ping":73},{"user_id":351,"name":"doobiebob","steam_id":76561198071963742,"connected_time":590000000000,"state":"active","ping":59},{"user_id":358,"name":"DesertFroggo","steam_id":76561198015607829,"connected_time":197000000000,"state":"active","ping":88},{"user_id":349,"name":"zeplinnn","steam_id":76561198301300987,"connected_time":830000000000,"state":"active","ping":81},{"user_id":328,"name":"Eyesac","steam_id":76561198839757321,"connected_time":2447000000000,"state":"active","ping":72},{"user_id":329,"name":"Johnny Utah","steam_id":76561198310822778,"connected_time":2423000000000,"state":"active","ping":123},{"user_id":350,"name":"NovusOrdoDux","steam_id":76561198271936289,"connected_time":824000000000,"state":"active","ping":176},{"user_id":279,"name":"KnightOfGames","steam_id":76561198080460659,"connected_time":5428000000000,"state":"active","ping":92},{"user_id":357,"name":"Perrell Laquarius Brown","steam_id":76561198990902905,"connected_time":300000000000,"state":"active","ping":55},{"user_id":336,"name":"lil homie gay ass","steam_id":76561198044804626,"connected_time":2231000000000,"state":"active","ping":105},{"user_id":317,"name":"elephant thumb","steam_id":76561198118859752,"connected_time":3501000000000,"state":"active","ping":50},{"user_id":340,"name":"portzebie","steam_id":76561197990658763,"connected_time":2138000000000,"state":"active","ping":92},{"user_id":284,"name":"albab","steam_id":76561198055444816,"connected_time":5408000000000,"state":"active","ping":107},{"user_id":285,"name":"alan","steam_id":76561198281442409,"connected_time":5379000000000,"state":"active","ping":94},{"user_id":304,"name":"Bum Soldier","steam_id":76561198066714479,"connected_time":3950000000000,"state":"active","ping":116}]},{"server_id":19,"name":"Uncletopia | San Francisco | 3 | Stopwatch Beta","name_short":"sfo-3","host":"sfo-1.us.uncletopia.com","port":27035,"enabled":true,"region":"us-west","cc":"us","latitude":37.77397,"longitude":-122.4313,"reserved":0,"last_update":"0001-01-01T00:00:00Z","name_a2s":"Uncletopia | San Francisco | 3 | Stopwatch Beta","protocol":17,"map":"pl_frontier_final","folder":"tf","game":"Team Fortress","app_id":440,"player_count":0,"max_players":24,"Bots":0,"server_type":"Dedicated","server_os":"Linux","password":true,"vac":true,"version":"7882260","steam_id":85568392924742824,"keywords":["nocrits","nodmgspread","payload","uncletopia"],"game_id":440,"stv_port":27036,"stv_name":"Uncletopia | San Francisco | 3 | Stopwatch Beta | STV","players":null},{"server_id":20,"name":"Uncletopia | San Francisco | 4 | Community","name_short":"sfo-4","host":"sfo-1.us.uncletopia.com","port":27045,"enabled":true,"region":"us-west","cc":"us","latitude":37.77397,"longitude":-122.4313,"reserved":0,"last_update":"0001-01-01T00:00:00Z","name_a2s":"Uncletopia | San Francisco | 4 | Community","protocol":17,"map":"workshop/pl_divulgence_b4b.ugc2884808746","folder":"tf","game":"Team Fortress","app_id":440,"player_count":18,"max_players":24,"Bots":0,"server_type":"Dedicated","server_os":"Linux","password":true,"vac":true,"version":"7882260","steam_id":85568392924742826,"keywords":["nocrits","nodmgspread","payload","uncletopia"],"game_id":440,"stv_port":27046,"stv_name":"Uncletopia | San Francisco | 4 | Community | STV","players":[{"user_id":183,"name":"Punished Jeff (Drain Messiah)","steam_id":76561198304252584,"connected_time":328000000000,"state":"active","ping":54},{"user_id":113,"name":"RockiMtnOystr","steam_id":76561198106915405,"connected_time":4291000000000,"state":"active","ping":67},{"user_id":167,"name":"themadlad67","steam_id":76561199309554436,"connected_time":1859000000000,"state":"active","ping":54},{"user_id":153,"name":"Meet The Kazoo","steam_id":76561199229748300,"connected_time":2305000000000,"state":"active","ping":66},{"user_id":116,"name":"Therapy Goth TTV","steam_id":76561198048448497,"connected_time":4212000000000,"state":"active","ping":118},{"user_id":178,"name":"OminousNoises","steam_id":76561198263320321,"connected_time":1007000000000,"state":"active","ping":99},{"user_id":184,"name":"puke","steam_id":76561197999279693,"connected_time":239000000000,"state":"active","ping":75},{"user_id":159,"name":"RaTtYc","steam_id":76561198954419354,"connected_time":2114000000000,"state":"active","ping":82},{"user_id":179,"name":"MerkyWaters","steam_id":76561197998853063,"connected_time":805000000000,"state":"active","ping":71},{"user_id":185,"name":"nory","steam_id":76561198031819070,"connected_time":227000000000,"state":"active","ping":46},{"user_id":186,"name":"spacetoven","steam_id":76561198115821131,"connected_time":191000000000,"state":"active","ping":45},{"user_id":136,"name":"this","steam_id":76561198170195505,"connected_time":3292000000000,"state":"active","ping":35},{"user_id":121,"name":"oinkpig234","steam_id":76561198883733811,"connected_time":4049000000000,"state":"active","ping":90},{"user_id":187,"name":"Jalapeño Poppers","steam_id":76561198082093612,"connected_time":183000000000,"state":"active","ping":64},{"user_id":137,"name":"i am clinically insane","steam_id":76561199013323529,"connected_time":3224000000000,"state":"active","ping":77},{"user_id":165,"name":"Qrowniniee","steam_id":76561198273028245,"connected_time":1961000000000,"state":"active","ping":143},{"user_id":150,"name":"TheCatisFat","steam_id":76561199252132925,"connected_time":2434000000000,"state":"active","ping":119},{"user_id":54,"name":"Zeora","steam_id":76561198799145251,"connected_time":7503000000000,"state":"active","ping":110}]},{"server_id":141,"name":"Uncletopia | Sydney | 1 | All Maps","name_short":"syd-1","host":"syd-1.au.uncletopia.com","port":27015,"enabled":true,"region":"au","cc":"au","latitude":-33.865143,"longitude":151.2099,"reserved":0,"last_update":"0001-01-01T00:00:00Z","name_a2s":"Uncletopia | Sydney | 1 | All Maps","protocol":17,"map":"pl_upward","folder":"tf","game":"Team Fortress","app_id":440,"player_count":6,"max_players":24,"Bots":0,"server_type":"Dedicated","server_os":"Linux","password":true,"vac":true,"version":"7882260","steam_id":85568392924470001,"keywords":["nocrits","nodmgspread","payload","uncletopia"],"game_id":440,"stv_port":27016,"stv_name":"Uncletopia | Sydney | 1 | All Maps | STV","players":[{"user_id":13,"name":"adammagee","steam_id":76561197972653972,"connected_time":1536000000000,"state":"active","ping":45},{"user_id":14,"name":"press e for heals","steam_id":76561199004828588,"connected_time":1505000000000,"state":"active","ping":55},{"user_id":15,"name":"And Rotate","steam_id":76561199083645515,"connected_time":1114000000000,"state":"active","ping":63},{"user_id":16,"name":"CABER","steam_id":76561198040922808,"connected_time":609000000000,"state":"active","ping":57},{"user_id":19,"name":"special_k","steam_id":76561198880049466,"connected_time":254000000000,"state":"active","ping":69},{"user_id":18,"name":"Crumpet","steam_id":76561199096381193,"connected_time":434000000000,"state":"active","ping":53}]},{"server_id":123,"name":"Uncletopia | Sydney | 2 | All Maps","name_short":"syd-2","host":"syd-1.au.uncletopia.com","port":27025,"enabled":true,"region":"au","cc":"au","latitude":-33.865143,"longitude":151.2099,"reserved":0,"last_update":"0001-01-01T00:00:00Z","name_a2s":"Uncletopia | Sydney | 2 | All Maps","protocol":17,"map":"pl_barnblitz","folder":"tf","game":"Team Fortress","app_id":440,"player_count":0,"max_players":24,"Bots":0,"server_type":"Dedicated","server_os":"Linux","password":true,"vac":true,"version":"7882260","steam_id":85568392924470002,"keywords":["nocrits","nodmgspread","payload","uncletopia"],"game_id":440,"stv_port":27026,"stv_name":"Uncletopia | Sydney | 2 | All Maps | STV","players":null},{"server_id":395,"name":"Uncletopia | Sydney | 3 | All Maps","name_short":"syd-3","host":"syd-1.au.uncletopia.com","port":27035,"enabled":true,"region":"au","cc":"au","latitude":-33.865143,"longitude":151.2099,"reserved":0,"last_update":"0001-01-01T00:00:00Z","name_a2s":"Uncletopia | Sydney | 3 | All Maps","protocol":17,"map":"pl_badwater","folder":"tf","game":"Team Fortress","app_id":440,"player_count":0,"max_players":24,"Bots":0,"server_type":"Dedicated","server_os":"Linux","password":true,"vac":true,"version":"7882260","steam_id":85568392925194467,"keywords":["nocrits","nodmgspread","payload","uncletopia"],"game_id":440,"stv_port":27036,"stv_name":"Uncletopia | Sydney | 3 | All Maps | STV","players":null},{"server_id":396,"name":"Uncletopia | Sydney | 4 | All Maps","name_short":"syd-4","host":"syd-1.au.uncletopia.com","port":27045,"enabled":true,"region":"au","cc":"au","latitude":-33.865143,"longitude":151.2099,"reserved":0,"last_update":"0001-01-01T00:00:00Z","name_a2s":"Uncletopia | Sydney | 4 | All Maps","protocol":17,"map":"cp_dustbowl","folder":"tf","game":"Team Fortress","app_id":440,"player_count":0,"max_players":24,"Bots":0,"server_type":"Dedicated","server_os":"Linux","password":true,"vac":true,"version":"7882260","steam_id":85568392925397958,"keywords":["cp","nocrits","nodmgspread","uncletopia"],"game_id":440,"stv_port":27046,"stv_name":"Uncletopia | Sydney | 4 | All Maps | STV","players":null},{"server_id":58,"name":"Uncletopia | Sydney | 5 | Stopwatch Beta","name_short":"syd-5","host":"syd-1.au.uncletopia.com","port":27055,"enabled":true,"region":"au","cc":"au","latitude":-33.865143,"longitude":151.2099,"reserved":0,"last_update":"0001-01-01T00:00:00Z","name_a2s":"Uncletopia | Sydney | 5 | Stopwatch Beta","protocol":17,"map":"cp_snakewater_final1","folder":"tf","game":"Team Fortress","app_id":440,"player_count":0,"max_players":24,"Bots":0,"server_type":"Dedicated","server_os":"Linux","password":true,"vac":true,"version":"7882260","steam_id":85568392925397959,"keywords":["cp","nocrits","nodmgspread","uncletopia"],"game_id":440,"stv_port":27056,"stv_name":"Uncletopia | Sydney | 5 | Stopwatch Beta | STV","players":null},{"server_id":59,"name":"Uncletopia | Sydney | 6 | Community","name_short":"syd-6","host":"syd-1.au.uncletopia.com","port":27065,"enabled":true,"region":"au","cc":"au","latitude":-33.865143,"longitude":151.2099,"reserved":0,"last_update":"0001-01-01T00:00:00Z","name_a2s":"Uncletopia | Sydney | 6 | Community","protocol":17,"map":"pl_snowycoast","folder":"tf","game":"Team Fortress","app_id":440,"player_count":0,"max_players":24,"Bots":0,"server_type":"Dedicated","server_os":"Linux","password":true,"vac":true,"version":"7882260","steam_id":85568392925397960,"keywords":["nocrits","nodmgspread","payload","uncletopia"],"game_id":440,"stv_port":27066,"stv_name":"Uncletopia | Sydney | 6 | Community | STV","players":null},{"server_id":49,"name":"Uncletopia | Warsaw | 1 | All Maps","name_short":"waw-1","host":"waw-1.pl.uncletopia.com","port":27015,"enabled":true,"region":"eu","cc":"pl","latitude":52.2297,"longitude":21.017532,"reserved":0,"last_update":"0001-01-01T00:00:00Z","name_a2s":"","protocol":0,"map":"","folder":"","game":"","app_id":0,"player_count":0,"max_players":0,"Bots":0,"server_type":"","server_os":"","password":false,"vac":false,"version":"","steam_id":0,"keywords":null,"game_id":0,"stv_port":0,"stv_name":"","players":null},{"server_id":50,"name":"Uncletopia | Warsaw | 2 | All Maps","name_short":"waw-2","host":"waw-1.pl.uncletopia.com","port":27025,"enabled":true,"region":"eu","cc":"pl","latitude":52.2297,"longitude":21.017532,"reserved":0,"last_update":"0001-01-01T00:00:00Z","name_a2s":"Uncletopia | Warsaw | 2 | All Maps","protocol":17,"map":"cp_mountainlab","folder":"tf","game":"Team Fortress","app_id":440,"player_count":0,"max_players":24,"Bots":0,"server_type":"Dedicated","server_os":"Linux","password":true,"vac":true,"version":"7882260","steam_id":85568392925397851,"keywords":["cp","nocrits","nodmgspread","uncletopia"],"game_id":440,"stv_port":27026,"stv_name":"Uncletopia | Warsaw | 2 | All Maps | STV","players":null},{"server_id":51,"name":"Uncletopia | Warsaw | 3 | All Maps","name_short":"waw-3","host":"waw-1.pl.uncletopia.com","port":27035,"enabled":true,"region":"eu","cc":"pl","latitude":52.2297,"longitude":21.017532,"reserved":0,"last_update":"0001-01-01T00:00:00Z","name_a2s":"Uncletopia | Warsaw | 3 | All Maps","protocol":17,"map":"koth_viaduct","folder":"tf","game":"Team Fortress","app_id":440,"player_count":0,"max_players":24,"Bots":0,"server_type":"Dedicated","server_os":"Linux","password":true,"vac":true,"version":"7882260","steam_id":85568392925397852,"keywords":["cp","nocrits","nodmgspread","uncletopia"],"game_id":440,"stv_port":27036,"stv_name":"Uncletopia | Warsaw | 3 | All Maps | STV","players":null},{"server_id":52,"name":"Uncletopia | Warsaw | 4 | All Maps","name_short":"waw-4","host":"waw-1.pl.uncletopia.com","port":27045,"enabled":true,"region":"eu","cc":"pl","latitude":52.2297,"longitude":21.017532,"reserved":0,"last_update":"0001-01-01T00:00:00Z","name_a2s":"Uncletopia | Warsaw | 4 | All Maps","protocol":17,"map":"koth_viaduct","folder":"tf","game":"Team Fortress","app_id":440,"player_count":0,"max_players":24,"Bots":0,"server_type":"Dedicated","server_os":"Linux","password":true,"vac":true,"version":"7882260","steam_id":85568392925397853,"keywords":["cp","nocrits","nodmgspread","uncletopia"],"game_id":440,"stv_port":27046,"stv_name":"Uncletopia | Warsaw | 4 | All Maps | STV","players":null},{"server_id":53,"name":"Uncletopia | Warsaw | 5 | Stopwatch Beta","name_short":"waw-5","host":"waw-1.pl.uncletopia.com","port":27055,"enabled":true,"region":"eu","cc":"pl","latitude":52.2297,"longitude":21.017532,"reserved":0,"last_update":"0001-01-01T00:00:00Z","name_a2s":"Uncletopia | Warsaw | 5 | Stopwatch Beta","protocol":17,"map":"cp_mountainlab","folder":"tf","game":"Team Fortress","app_id":440,"player_count":0,"max_players":24,"Bots":0,"server_type":"Dedicated","server_os":"Linux","password":true,"vac":true,"version":"7882260","steam_id":85568392925397854,"keywords":["cp","nocrits","nodmgspread","uncletopia"],"game_id":440,"stv_port":27056,"stv_name":"Uncletopia | Warsaw | 5 | Stopwatch Beta | STV","players":null},{"server_id":54,"name":"Uncletopia | Warsaw | 6 | Community","name_short":"waw-6","host":"waw-1.pl.uncletopia.com","port":27065,"enabled":true,"region":"eu","cc":"pl","latitude":52.2297,"longitude":21.017532,"reserved":0,"last_update":"0001-01-01T00:00:00Z","name_a2s":"Uncletopia | Warsaw | 6 | Community","protocol":17,"map":"koth_viaduct","folder":"tf","game":"Team Fortress","app_id":440,"player_count":0,"max_players":24,"Bots":0,"server_type":"Dedicated","server_os":"Linux","password":true,"vac":true,"version":"7882260","steam_id":85568392925397856,"keywords":["cp","nocrits","nodmgspread","uncletopia"],"game_id":440,"stv_port":27066,"stv_name":"Uncletopia | Warsaw | 6 | Community | STV","players":null}]}