{"status":true,"message":"","result":[{"server_id":9,"name":"Uncletopia | Atlanta | 1 | All Maps","name_short":"atl-1","host":"atl-1.us.uncletopia.com","port":27015,"enabled":true,"region":"us-east","cc":"us","latitude":33.753746,"longitude":-84.38633,"reserved":0,"last_update":"0001-01-01T00:00:00Z","name_a2s":"Uncletopia | Atlanta | 1 | All Maps","protocol":17,"map":"pl_badwater","folder":"tf","game":"Team Fortress","app_id":440,"player_count":24,"max_players":24,"Bots":0,"server_type":"Dedicated","server_os":"Linux","password":true,"vac":true,"version":"7961495","steam_id":85568392924469982,"keywords":["nocrits","nodmgspread","payload","uncletopia"],"game_id":440,"stv_port":27016,"stv_name":"Uncletopia | Atlanta | 1 | All Maps | STV","players":null},{"server_id":104,"name":"Uncletopia | Atlanta | 2 | All Maps","name_short":"atl-2","host":"atl-1.us.uncletopia.com","port":27025,"enabled":true,"region":"us-east","cc":"us","latitude":33.753746,"longitude":-84.38633,"reserved":0,"last_update":"0001-01-01T00:00:00Z","name_a2s":"Uncletopia | Atlanta | 2 | All Maps","protocol":17,"map":"pl_barnblitz","folder":"tf","game":"Team Fortress","app_id":440,"player_count":0,"max_players":24,"Bots":0,"server_type":"Dedicated","server_os":"Linux","password":true,"vac":true,"version":"7961495","steam_id":85568392924469983,"keywords":["nocrits","nodmgspread","payload","uncletopia"],"game_id":440,"stv_port":27026,"stv_name":"Uncletopia | Atlanta | 2 | All Maps | STV","players":null},{"server_id":400,"name":"Uncletopia | Atlanta | 3 | Stopwatch","name_short":"atl-3","host":"atl-1.us.uncletopia.com","port":27035,"enabled":true,"region":"us-east","cc":"us","latitude":33.753746,"longitude":-84.38633,"reserved":0,"last_update":"0001-01-01T00:00:00Z","name_a2s":"Uncletopia | Atlanta | 3 | Stopwatch","protocol":17,"map":"pl_vigil_rc10","folder":"tf","game":"Team Fortress","app_id":440,"player_count":0,"max_players":24,"Bots":0,"server_type":"Dedicated","server_os":"Linux","password":true,"vac":true,"version":"7961495","steam_id":85568392924515187,"keywords":["nocrits","nodmgspread","payload","uncletopia"],"game_id":440,"stv_port":27036,"stv_name":"Uncletopia | Atlanta | 3 | Stopwatch | STV","players":null},{"server_id":401,"name":"Uncletopia | Atlanta | 4 | Community","name_short":"atl-4","host":"atl-1.us.uncletopia.com","port":27045,"enabled":true,"region":"us-east","cc":"us","latitude":33.753746,"longitude":-84.38633,"reserved":0,"last_update":"0001-01-01T00:00:00Z","name_a2s":"Uncletopia | Atlanta | 4 | Community","protocol":17,"map":"pl_eruption_b9a","folder":"tf","game":"Team Fortress","app_id":440,"player_count":0,"max_players":24,"Bots":0,"server_type":"Dedicated","server_os":"Linux","password":true,"vac":true,"version":"7961495","steam_id":85568392924515188,"keywords":["nocrits","nodmgspread","payload","uncletopia"],"game_id":440,"stv_port":27046,"stv_name":"Uncletopia | Atlanta | 4 | Community | STV","players":null},{"server_id":2,"name":"Uncletopia | Chicago | 1 | All Maps","name_short":"chi-1","host":"chi-1.us.uncletopia.com","port":27015,"enabled":true,"region":"us-central","cc":"us","latitude":41.881832,"longitude":-87.62318,"reserved":0,"last_update":"0001-01-01T00:00:00Z","name_a2s":"Uncletopia | Chicago | 1 | All Maps","protocol":17,"map":"cp_process_final","folder":"tf","game":"Team Fortress","app_id":440,"player_count":0,"max_players":24,"Bots":0,"server_type":"Dedicated","server_os":"Linux","password":true,"vac":true,"version":"7961495","steam_id":85568392924469984,"keywords":["cp","nocrits","nodmgspread","uncletopia"],"game_id":440,"stv_port":27016,"stv_name":"Uncletopia | Chicago | 1 | All Maps | STV","players":null},{"server_id":106,"name":"Uncletopia | Chicago | 2 | All Maps","name_short":"chi-2","host":"chi-1.us.uncletopia.com","port":27025,"enabled":true,"region":"us-central","cc":"us","latitude":41.881832,"longitude":-87.62318,"reserved":0,"last_update":"0001-01-01T00:00:00Z","name_a2s":"Uncletopia | Chicago | 2 | All Maps","protocol":17,"map":"cp_snakewater_final1","folder":"tf","game":"Team Fortress","app_id":440,"player_count":0,"max_players":24,"Bots":0,"server_type":"Dedicated","server_os":"Linux","password":true,"vac":true,"version":"7961495","steam_id":85568392924469985,"keywords":["cp","nocrits","nodmgspread","uncletopia"],"game_id":440,"stv_port":27026,"stv_name":"Uncletopia | Chicago | 2 | All Maps | STV","players":null},{"server_id":402,"name":"Uncletopia | Chicago | 3 | All Maps","name_short":"chi-3","host":"chi-1.us.uncletopia.com","port":27035,"enabled":true,"region":"us-central","cc":"us","latitude":41.881832,"longitude":-87.62318,"reserved":0,"last_update":"0001-01-01T00:00:00Z","name_a2s":"Uncletopia | Chicago | 3 | All Maps","protocol":17,"map":"cp_dustbowl","folder":"tf","game":"Team Fortress","app_id":440,"player_count":17,"max_players":24,"Bots":0,"server_type":"Dedicated","server_os":"Linux","password":true,"vac":true,"version":"7961495","steam_id":85568392924515191,"keywords":["cp","nocrits","nodmgspread","uncletopia"],"game_id":440,"stv_port":27036,"stv_name":"Uncletopia | Chicago | 3 | All Maps | STV","players":[{"user_id":539,"name":"Danmar33","steam_id":76561198056453091,"connected_time":4139000000000,"state":"active","ping":45},{"user_id":582,"name":"Idiotden","steam_id":76561199340950135,"connected_time":1384000000000,"state":"active","ping":84},{"user_id":581,"name":"roddy ricch - ballin","steam_id":76561198111290441,"connected_time":1427000000000,"state":"active","ping":55},{"user_id":560,"name":"『Dagon』","steam_id":76561199036464302,"connected_time":3235000000000,"state":"active","ping":69},{"user_id":593,"name":"Khun Aguero Agnes","steam_id":76561198055542546,"connected_time":111000000000,"state":"active","ping":62},{"user_id":594,"name":"Drapph","steam_id":76561199384213314,"connected_time":109000000000,"state":"active","ping":52},{"user_id":563,"name":"Nobody","steam_id":76561198286486517,"connected_time":3124000000000,"state":"active","ping":58},{"user_id":464,"name":"Vega","steam_id":76561198141126883,"connected_time":10914000000000,"state":"active","ping":90},{"user_id":544,"name":"DannyGamerXD","steam_id":76561198799224408,"connected_time":3930000000000,"state":"active","ping":69},{"user_id":585,"name":"Hiryuu","steam_id":76561198025267260,"connected_time":1315000000000,"state":"active","ping":77},{"user_id":586,"name":"werecat","steam_id":76561198005091213,"connected_time":1307000000000,"state":"active","ping":42},{"user_id":588,"name":"Way Nomura","steam_id":76561198066004229,"connected_time":1269000000000,"state":"active","ping":85},{"user_id":465,"name":"HundchenTanque","steam_id":76561198122692754,"connected_time":10891000000000,"state":"active","ping":48},{"user_id":592,"name":"OctoHam","steam_id":76561198143371318,"connected_time":930000000000,"state":"active","ping":88},{"user_id":570,"name":"rudy","steam_id":76561198088712799,"connected_time":2558000000000,"state":"active","ping":85},{"user_id":590,"name":"NotAWeeb","steam_id":76561198165530739,"connected_time":1188000000000,"state":"active","ping":90},{"user_id":573,"name":"ℋℇἂṼഴ","steam_id":76561199062259389,"connected_time":2218000000000,"state":"active","ping":99}]},{"server_id":403,"name":"Uncletopia | Chicago | 4 | All Maps","name_short":"chi-4","host":"chi-1.us.uncletopia.com","port":27045,"enabled":true,"region":"us-central","cc":"us","latitude":41.881832,"longitude":-87.62318,"reserved":0,"last_update":"0001-01-01T00:00:00Z","name_a2s":"Uncletopia | Chicago | 4 | All Maps","protocol":17,"map":"pl_borneo","folder":"tf","game":"Team Fortress","app_id":440,"player_count":22,"max_players":24,"Bots":0,"server_type":"Dedicated","server_os":"Linux","password":true,"vac":true,"version":"7961495","steam_id":85568392924515193,"keywords":["nocrits","nodmgspread","payload","uncletopia"],"game_id":440,"stv_port":27046,"stv_name":"Uncletopia | Chicago | 4 | All Maps | STV","players":[{"user_id":434,"name":"AntEnchants","steam_id":76561197975744758,"connected_time":188000000000,"state":"active","ping":80},{"user_id":419,"name":"shlommy","steam_id":76561198040767402,"connected_time":1044000000000,"state":"active","ping":75},{"user_id":438,"name":"hdee","steam_id":76561198288729718,"connected_time":106000000000,"state":"active","ping":74},{"user_id":424,"name":"SaaxoM","steam_id":76561198208256603,"connected_time":717000000000,"state":"active","ping":96},{"user_id":435,"name":"Lolwsd","steam_id":76561198845946699,"connected_time":186000000000,"state":"active","ping":100},{"user_id":421,"name":"Tay1Qr","steam_id":76561198082809935,"connected_time":896000000000,"state":"active","ping":66},{"user_id":364,"name":"koh ✧","steam_id":76561198831996918,"connected_time":4851000000000,"state":"active","ping":52},{"user_id":375,"name":"HOW2TAKEASHIT@ABITCHCRIB","steam_id":76561198144766439,"connected_time":3961000000000,"state":"active","ping":45},{"user_id":416,"name":"yomommasabitch","steam_id":76561198323217150,"connected_time":1096000000000,"state":"active","ping":63},{"user_id":406,"name":"PERC LFT","steam_id":76561198203856511,"connected_time":1383000000000,"state":"active","ping":80},{"user_id":436,"name":"Whatsapp Spy","steam_id":76561198085410969,"connected_time":171000000000,"state":"active","ping":43},{"user_id":422,"name":"ransmi","steam_id":76561198033382152,"connected_time":832000000000,"state":"active","ping":78},{"user_id":412,"name":"badasscoolboy57","steam_id":76561198795412055,"connected_time":1129000000000,"state":"active","ping":80},{"user_id":393,"name":"skate","steam_id":76561198322312114,"connected_time":2343000000000,"state":"active","ping":60},{"user_id":439,"name":"cbt youtube tutorial","steam_id":76561199122915452,"connected_time":39000000000,"state":"active","ping":99},{"user_id":391,"name":"LVL","steam_id":76561198334403617,"connected_time":2451000000000,"state":"active","ping":57},{"user_id":407,"name":"Meurik","steam_id":76561198078032795,"connected_time":1337000000000,"state":"active","ping":167},{"user_id":440,"name":"aversa","steam_id":76561198840460101,"connected_time":31000000000,"state":"active","ping":67},{"user_id":441,"name":"CandorDanceFloor","steam_id":76561198062980511,"connected_time":15000000000,"state":"active","ping":72},{"user_id":397,"name":"lightduck","steam_id":76561197987768292,"connected_time":2235000000000,"state":"active","ping":141},{"user_id":377,"name":"badboy6996","steam_id":76561197969386201,"connected_time":3702000000000,"state":"active","ping":52},{"user_id":404,"name":"La Tabda","steam_id":76561198120364620,"connected_time":1630000000000,"state":"active","ping":91}]},{"server_id":36,"name":"Uncletopia | Chicago | 5 | All Maps","name_short":"chi-5","host":"chi-2.us.uncletopia.com","port":27015,"enabled":true,"region":"us-central","cc":"us","latitude":41.881832,"longitude":-87.62318,"reserved":0,"last_update":"0001-01-01T00:00:00Z","name_a2s":"Uncletopia | Chicago | 5 | All Maps","protocol":17,"map":"pl_upward","folder":"tf","game":"Team Fortress","app_id":440,"player_count":0,"max_players":24,"Bots":0,"server_type":"Dedicated","server_os":"Linux","password":true,"vac":true,"version":"7961495","steam_id":85568392924866362,"keywords":["nocrits","nodmgspread","payload","uncletopia"],"game_id":440,"stv_port":27016,"stv_name":"Uncletopia | Chicago | 5 | All Maps | STV","players":null},{"server_id":37,"name":"Uncletopia | Chicago | 6 | All Maps","name_short":"chi-6","host":"chi-2.us.uncletopia.com","port":27025,"enabled":true,"region":"us-central","cc":"us","latitude":41.881832,"longitude":-87.62318,"reserved":0,"last_update":"0001-01-01T00:00:00Z","name_a2s":"Uncletopia | Chicago | 6 | All Maps","protocol":17,"map":"pl_frontier_final","folder":"tf","game":"Team Fortress","app_id":440,"player_count":9,"max_players":24,"Bots":0,"server_type":"Dedicated","server_os":"Linux","password":true,"vac":true,"version":"7961495","steam_id":85568392924866363,"keywords":["nocrits","nodmgspread","payload","uncletopia"],"game_id":440,"stv_port":27026,"stv_name":"Uncletopia | Chicago | 6 | All Maps | STV","players":[{"user_id":452,"name":"YoungJimble","steam_id":76561198262583046,"connected_time":475000000000,"state":"active","ping":108},{"user_id":455,"name":"JustAGrump","steam_id":76561198219852925,"connected_time":314000000000,"state":"active","ping":58},{"user_id":456,"name":"miriam","steam_id":76561198069679357,"connected_time":247000000000,"state":"active","ping":63},{"user_id":458,"name":"Sony PS2","steam_id":76561198059616673,"connected_time":121000000000,"state":"active","ping":58},{"user_id":413,"name":"LILGI4THAW","steam_id":76561198403803842,"connected_time":3568000000000,"state":"active","ping":106},{"user_id":459,"name":"Fray","steam_id":76561198030141282,"connected_time":66000000000,"state":"active","ping":75},{"user_id":424,"name":"FlammenwerferPanzer","steam_id":76561199096682977,"connected_time":2980000000000,"state":"active","ping":159},{"user_id":446,"name":"BlueToffe","steam_id":76561198295178024,"connected_time":1076000000000,"state":"active","ping":60},{"user_id":430,"name":"IHateThisMap","steam_id":76561197980597646,"connected_time":2529000000000,"state":"active","ping":55}]},{"server_id":38,"name":"Uncletopia | Chicago | 7 | Stopwatch","name_short":"chi-7","host":"chi-2.us.uncletopia.com","port":27035,"enabled":true,"region":"us-central","cc":"us","latitude":41.881832,"longitude":-87.62318,"reserved":0,"last_update":"0001-01-01T00:00:00Z","name_a2s":"Uncletopia | Chicago | 7 | Stopwatch","protocol":17,"map":"cp_process_final","folder":"tf","game":"Team Fortress","app_id":440,"player_count":0,"max_players":24,"Bots":0,"server_type":"Dedicated","server_os":"Linux","password":true,"vac":true,"version":"7961495","steam_id":85568392924866364,"keywords":["cp","nocrits","nodmgspread","uncletopia"],"game_id":440,"stv_port":27036,"stv_name":"Uncletopia | Chicago | 7 | Stopwatch | STV","players":null},{"server_id":39,"name":"Uncletopia | Chicago | 8 | Community","name_short":"chi-8","host":"chi-2.us.uncletopia.com","port":27045,"enabled":true,"region":"us-central","cc":"us","latitude":41.881832,"longitude":-87.62318,"reserved":0,"last_update":"0001-01-01T00:00:00Z","name_a2s":"Uncletopia | Chicago | 8 | Community","protocol":17,"map":"workshop/koth_trenchfoot_b1a.ugc731436616","folder":"tf","game":"Team Fortress","app_id":440,"player_count":0,"max_players":24,"Bots":0,"server_type":"Dedicated","server_os":"Linux","password":true,"vac":true,"version":"7961495","steam_id":85568392924866365,"keywords":["cp","nocrits","nodmgspread","uncletopia"],"game_id":440,"stv_port":27046,"stv_name":"Uncletopia | Chicago | 8 | Community | STV","players":null},{"server_id":8,"name":"Uncletopia | Dallas | 1 | All Maps","name_short":"dal-1","host":"dal-1.us.uncletopia.com","port":27015,"enabled":true,"region":"us-central","cc":"us","latitude":32.779167,"longitude":-96.80889,"reserved":0,"last_update":"0001-01-01T00:00:00Z","name_a2s":"Uncletopia | Dallas | 1 | All Maps","protocol":17,"map":"pl_borneo","folder":"tf","game":"Team Fortress","app_id":440,"player_count":0,"max_players":24,"Bots":0,"server_type":"Dedicated","server_os":"Linux","password":true,"vac":true,"version":"7961495","steam_id":85568392924469986,"keywords":["nocrits","nodmgspread","payload","uncletopia"],"game_id":440,"stv_port":27016,"stv_name":"Uncletopia | Dallas | 1 | All Maps | STV","players":null},{"server_id":108,"name":"Uncletopia | Dallas | 2 | All Maps","name_short":"dal-2","host":"dal-1.us.uncletopia.com","port":27025,"enabled":true,"region":"us-central","cc":"us","latitude":32.779167,"longitude":-96.80889,"reserved":0,"last_update":"0001-01-01T00:00:00Z","name_a2s":"Uncletopia | Dallas | 2 | All Maps","protocol":17,"map":"cp_metalworks","folder":"tf","game":"Team Fortress","app_id":440,"player_count":24,"max_players":24,"Bots":0,"server_type":"Dedicated","server_os":"Linux","password":true,"vac":true,"version":"7961495","steam_id":85568392924469988,"keywords":["cp","nocrits","nodmgspread","uncletopia"],"game_id":440,"stv_port":27026,"stv_name":"Uncletopia | Dallas | 2 | All Maps | STV","players":[{"user_id":887,"name":"NUKE RADIO","steam_id":76561198979277948,"connected_time":432000000000,"state":"active","ping":60},{"user_id":839,"name":"salty like Lot's wife","steam_id":76561197998619845,"connected_time":3614000000000,"state":"active","ping":90},{"user_id":888,"name":"JokingJayquanda","steam_id":76561198055867599,"connected_time":402000000000,"state":"active","ping":94},{"user_id":891,"name":"huh","steam_id":76561198102265073,"connected_time":335000000000,"state":"active","ping":96},{"user_id":882,"name":"Biden does cocaine","steam_id":76561198254049835,"connected_time":792000000000,"state":"active","ping":83},{"user_id":820,"name":"euphoricfilth","steam_id":76561198100160865,"connected_time":5368000000000,"state":"active","ping":73},{"user_id":889,"name":"Ⓑ⓪⓪ⓣⓨⓒⓐⓚⓔⓢ","steam_id":76561198088776421,"connected_time":382000000000,"state":"active","ping":77},{"user_id":896,"name":"Larry","steam_id":76561198005056455,"connected_time":166000000000,"state":"active","ping":75},{"user_id":883,"name":"motherfucker 2.0","steam_id":76561198141189209,"connected_time":537000000000,"state":"active","ping":38},{"user_id":862,"name":"RaixaR","steam_id":76561198025289430,"connected_time":1946000000000,"state":"active","ping":52},{"user_id":880,"name":"DALKurumiTokisaki","steam_id":76561198872867732,"connected_time":925000000000,"state":"active","ping":87},{"user_id":870,"name":"ray","steam_id":76561198018181064,"connected_time":1533000000000,"state":"active","ping":105},{"user_id":892,"name":"goopgrabber","steam_id":76561199029951083,"connected_time":246000000000,"state":"active","ping":83},{"user_id":866,"name":"deb","steam_id":76561198414336279,"connected_time":1759000000000,"state":"active","ping":45},{"user_id":898,"name":"frank","steam_id":76561198137777483,"connected_time":30000000000,"state":"active","ping":89},{"user_id":886,"name":"fl0und3r","steam_id":76561198051888147,"connected_time":450000000000,"state":"active","ping":75},{"user_id":745,"name":"[ØWQJØ]chubacaalatake","steam_id":76561198136201697,"connected_time":11454000000000,"state":"active","ping":133},{"user_id":881,"name":"WheelieChopper","steam_id":76561198070980426,"connected_time":885000000000,"state":"active","ping":114},{"user_id":849,"name":"PROFILE NAME","steam_id":76561199438851854,"connected_time":2856000000000,"state":"active","ping":129},{"user_id":894,"name":"Spike","steam_id":76561198141356571,"connected_time":229000000000,"state":"active","ping":76},{"user_id":868,"name":"Circuit Spark","steam_id":76561198832124473,"connected_time":1728000000000,"state":"active","ping":102},{"user_id":897,"name":"cozy","steam_id":76561199044037628,"connected_time":128000000000,"state":"active","ping":87},{"user_id":584,"name":"Anon","steam_id":76561198109740776,"connected_time":23679000000000,"state":"active","ping":95},{"user_id":875,"name":"Oxbell","steam_id":76561198448173562,"connected_time":1307000000000,"state":"active","ping":113}]},{"server_id":404,"name":"Uncletopia | Dallas | 3 | All Maps","name_short":"dal-3","host":"dal-1.us.uncletopia.com","port":27035,"enabled":true,"region":"us-central","cc":"us","latitude":32.779167,"longitude":-96.80889,"reserved":0,"last_update":"0001-01-01T00:00:00Z","name_a2s":"Uncletopia | Dallas | 3 | All Maps","protocol":17,"map":"pl_swiftwater_final1","folder":"tf","game":"Team Fortress","app_id":440,"player_count":23,"max_players":24,"Bots":0,"server_type":"Dedicated","server_os":"Linux","password":true,"vac":true,"version":"7961495","steam_id":85568392924515219,"keywords":["nocrits","nodmgspread","payload","uncletopia"],"game_id":440,"stv_port":27036,"stv_name":"Uncletopia | Dallas | 3 | All Maps | STV","players":[{"user_id":385,"name":"Holiday Fartcruise","steam_id":76561198043851584,"connected_time":3153000000000,"state":"active","ping":133},{"user_id":383,"name":"Gay Cake","steam_id":76561198004388831,"connected_time":3182000000000,"state":"active","ping":92},{"user_id":413,"name":"GlorifiedAshy","steam_id":76561198382684727,"connected_time":948000000000,"state":"active","ping":84},{"user_id":425,"name":"zam","steam_id":76561198295713840,"connected_time":646000000000,"state":"active","ping":69},{"user_id":416,"name":"Johnny Boi","steam_id":76561198189892382,"connected_time":888000000000,"state":"active","ping":87},{"user_id":417,"name":"usmnt==chokers","steam_id":76561198043456370,"connected_time":859000000000,"state":"active","ping":102},{"user_id":412,"name":"Sup m8","steam_id":76561198081659121,"connected_time":1013000000000,"state":"active","ping":41},{"user_id":388,"name":"little_neb","steam_id":76561198117396733,"connected_time":2963000000000,"state":"active","ping":62},{"user_id":392,"name":"BoX_hEaD101","steam_id":76561198200875467,"connected_time":2487000000000,"state":"active","ping":118},{"user_id":389,"name":"PurplePanda","steam_id":76561198076484653,"connected_time":2956000000000,"state":"active","ping":45},{"user_id":390,"name":"ropesnek","steam_id":76561198140591498,"connected_time":2941000000000,"state":"active","ping":61},{"user_id":418,"name":"Creature","steam_id":76561198194585781,"connected_time":817000000000,"state":"active","ping":85},{"user_id":394,"name":"Pitviper","steam_id":76561198002378904,"connected_time":2357000000000,"state":"active","ping":90},{"user_id":419,"name":"ＲＥＤ","steam_id":76561198030282308,"connected_time":803000000000,"state":"active","ping":97},{"user_id":396,"name":"gung6n","steam_id":76561198099843841,"connected_time":2341000000000,"state":"active","ping":66},{"user_id":420,"name":"Atlas AS7-D","steam_id":76561198425078444,"connected_time":786000000000,"state":"active","ping":132},{"user_id":411,"name":"bigslimetonka","steam_id":76561198157983180,"connected_time":1124000000000,"state":"active","ping":86},{"user_id":361,"name":"doro","steam_id":76561198099041747,"connected_time":5426000000000,"state":"active","ping":84},{"user_id":422,"name":"CatLike Pigeon","steam_id":76561198171716030,"connected_time":766000000000,"state":"active","ping":102},{"user_id":360,"name":"shitass (Reaping and Sowing)","steam_id":76561198210572481,"connected_time":5517000000000,"state":"active","ping":64},{"user_id":347,"name":"Garth","steam_id":76561198170173453,"connected_time":6286000000000,"state":"active","ping":78},{"user_id":401,"name":"[FaZe] MLGadult44","steam_id":76561198067232540,"connected_time":2185000000000,"state":"active","ping":95},{"user_id":424,"name":"Kaluka","steam_id":76561198036861445,"connected_time":753000000000,"state":"active","ping":91}]},{"server_id":405,"name":"Uncletopia | Dallas | 4 | Community","name_short":"dal-4","host":"dal-1.us.uncletopia.com","port":27045,"enabled":true,"region":"us-central","cc":"us","latitude":32.779167,"longitude":-96.80889,"reserved":0,"last_update":"0001-01-01T00:00:00Z","name_a2s":"Uncletopia | Dallas | 4 | Community","protocol":17,"map":"workshop/koth_trenchfoot_b1a.ugc731436616","folder":"tf","game":"Team Fortress","app_id":440,"player_count":0,"max_players":24,"Bots":0,"server_type":"Dedicated","server_os":"Linux","password":true,"vac":true,"version":"7961495","steam_id":85568392924515220,"keywords":["cp","nocrits","nodmgspread","uncletopia"],"game_id":440,"stv_port":27046,"stv_name":"Uncletopia | Dallas | 4 | Community | STV","players":null},{"server_id":5,"name":"Uncletopia | Frankfurt | 1 | All Maps","name_short":"frk-1","host":"frk-1.de.uncletopia.com","port":27015,"enabled":true,"region":"eu","cc":"de","latitude":50.110924,"longitude":8.682127,"reserved":0,"last_update":"0001-01-01T00:00:00Z","name_a2s":"Uncletopia | Frankfurt | 1 | All Maps","protocol":17,"map":"koth_highpass","folder":"tf","game":"Team Fortress","app_id":440,"player_count":0,"max_players":24,"Bots":0,"server_type":"Dedicated","server_os":"Linux","password":true,"vac":true,"version":"7961495","steam_id":85568392924469989,"keywords":["cp","nocrits","nodmgspread","uncletopia"],"game_id":440,"stv_port":27016,"stv_name":"Uncletopia | Frankfurt | 1 | All Maps | STV","players":null},{"server_id":110,"name":"Uncletopia | Frankfurt | 2 | All Maps","name_short":"frk-2","host":"frk-1.de.uncletopia.com","port":27025,"enabled":true,"region":"eu","cc":"de","latitude":50.110924,"longitude":8.682127,"reserved":0,"last_update":"0001-01-01T00:00:00Z","name_a2s":"Uncletopia | Frankfurt | 2 | All Maps","protocol":17,"map":"cp_dustbowl","folder":"tf","game":"Team Fortress","app_id":440,"player_count":0,"max_players":24,"Bots":0,"server_type":"Dedicated","server_os":"Linux","password":true,"vac":true,"version":"7961495","steam_id":85568392924469990,"keywords":["cp","nocrits","nodmgspread","uncletopia"],"game_id":440,"stv_port":27026,"stv_name":"Uncletopia | Frankfurt | 2 | All Maps | STV","players":null},{"server_id":308,"name":"Uncletopia | Frankfurt | 3 | All Maps","name_short":"frk-3","host":"frk-1.de.uncletopia.com","port":27035,"enabled":true,"region":"eu","cc":"de","latitude":50.110924,"longitude":8.682127,"reserved":0,"last_update":"0001-01-01T00:00:00Z","name_a2s":"Uncletopia | Frankfurt | 3 | All Maps","protocol":17,"map":"pl_barnblitz","folder":"tf","game":"Team Fortress","app_id":440,"player_count":0,"max_players":24,"Bots":0,"server_type":"Dedicated","server_os":"Linux","password":true,"vac":true,"version":"7961495","steam_id":85568392924504274,"keywords":["nocrits","nodmgspread","payload","uncletopia"],"game_id":440,"stv_port":27036,"stv_name":"Uncletopia | Frankfurt | 3 | All Maps | STV","players":null},{"server_id":309,"name":"Uncletopia | Frankfurt | 4 | All Maps","name_short":"frk-4","host":"frk-1.de.uncletopia.com","port":27045,"enabled":true,"region":"eu","cc":"de","latitude":50.110924,"longitude":8.682127,"reserved":0,"last_update":"0001-01-01T00:00:00Z","name_a2s":"Uncletopia | Frankfurt | 4 | All Maps","protocol":17,"map":"koth_highpass","folder":"tf","game":"Team Fortress","app_id":440,"player_count":0,"max_players":24,"Bots":0,"server_type":"Dedicated","server_os":"Linux","password":true,"vac":true,"version":"7961495","steam_id":85568392924504275,"keywords":["cp","nocrits","nodmgspread","uncletopia"],"game_id":440,"stv_port":27046,"stv_name":"Uncletopia | Frankfurt | 4 | All Maps | STV","players":null},{"server_id":310,"name":"Uncletopia | Frankfurt | 5 | All Maps","name_short":"frk-5","host":"frk-1.de.uncletopia.com","port":27055,"enabled":true,"region":"eu","cc":"de","latitude":50.110924,"longitude":8.682127,"reserved":0,"last_update":"0001-01-01T00:00:00Z","name_a2s":"Uncletopia | Frankfurt | 5 | All Maps","protocol":17,"map":"pl_badwater","folder":"tf","game":"Team Fortress","app_id":440,"player_count":0,"max_players":24,"Bots":0,"server_type":"Dedicated","server_os":"Linux","password":true,"vac":true,"version":"7961495","steam_id":85568392924504277,"keywords":["nocrits","nodmgspread","payload","uncletopia"],"game_id":440,"stv_port":27056,"stv_name":"Uncletopia | Frankfurt | 5 | All Maps | STV","players":null},{"server_id":311,"name":"Uncletopia | Frankfurt | 6 | All Maps","name_short":"frk-6","host":"frk-1.de.uncletopia.com","port":27065,"enabled":true,"region":"eu","cc":"de","latitude":50.110924,"longitude":8.682127,"reserved":0,"last_update":"0001-01-01T00:00:00Z","name_a2s":"Uncletopia | Frankfurt | 6 | All Maps","protocol":17,"map":"cp_altitude","folder":"tf","game":"Team Fortress","app_id":440,"player_count":4,"max_players":24,"Bots":0,"server_type":"Dedicated","server_os":"Linux","password":true,"vac":true,"version":"7961495","steam_id":85568392924504278,"keywords":["cp","nocrits","nodmgspread","uncletopia"],"game_id":440,"stv_port":27066,"stv_name":"Uncletopia | Frankfurt | 6 | All Maps | STV","players":[{"user_id":14,"name":"Alyx","steam_id":76561198064654326,"connected_time":278000000000,"state":"active","ping":44},{"user_id":15,"name":"Gul'dan","steam_id":76561198240466940,"connected_time":15000000000,"state":"spawning","ping":72},{"user_id":5,"name":"oliviajkm","steam_id":76561199216400804,"connected_time":1494000000000,"state":"active","ping":64},{"user_id":13,"name":"SomeBody","steam_id":76561199072771199,"connected_time":614000000000,"state":"active","ping":144}]},{"server_id":23,"name":"Uncletopia | Frankfurt | 7 | Stopwatch","name_short":"frk-7","host":"frk-1.de.uncletopia.com","port":27075,"enabled":true,"region":"eu","cc":"de","latitude":50.110924,"longitude":8.682127,"reserved":0,"last_update":"0001-01-01T00:00:00Z","name_a2s":"Uncletopia | Frankfurt | 7 | Stopwatch","protocol":17,"map":"pl_frontier_final","folder":"tf","game":"Team Fortress","app_id":440,"player_count":0,"max_players":24,"Bots":0,"server_type":"Dedicated","server_os":"Linux","password":true,"vac":true,"version":"7961495","steam_id":85568392924742827,"keywords":["nocrits","nodmgspread","payload","uncletopia"],"game_id":440,"stv_port":27076,"stv_name":"Uncletopia | Frankfurt | 7 | Stopwatch | STV","players":null},{"server_id":24,"name":"Uncletopia | Frankfurt | 8 | Community","name_short":"frk-8","host":"frk-1.de.uncletopia.com","port":27085,"enabled":true,"region":"eu","cc":"de","latitude":50.110924,"longitude":8.682127,"reserved":0,"last_update":"0001-01-01T00:00:00Z","name_a2s":"Uncletopia | Frankfurt | 8 | Community","protocol":17,"map":"cp_mountainlab","folder":"tf","game":"Team Fortress","app_id":440,"player_count":0,"max_players":24,"Bots":0,"server_type":"Dedicated","server_os":"Linux","password":true,"vac":true,"version":"7961495","steam_id":85568392924742828,"keywords":["cp","nocrits","nodmgspread","uncletopia"],"game_id":440,"stv_port":27086,"stv_name":"Uncletopia | Frankfurt | 8 | Community | STV","players":null},{"server_id":202,"name":"Uncletopia | Hong Kong | 1 | All Maps","name_short":"hgk-1","host":"hgk-1.hk.uncletopia.com","port":27015,"enabled":true,"region":"asia","cc":"hk","latitude":22.302711,"longitude":114.177216,"reserved":0,"last_update":"0001-01-01T00:00:00Z","name_a2s":"Uncletopia | Hong Kong | 1 | All Maps","protocol":17,"map":"cp_altitude","folder":"tf","game":"Team Fortress","app_id":440,"player_count":0,"max_players":24,"Bots":0,"server_type":"Dedicated","server_os":"Linux","password":true,"vac":true,"version":"7961495","steam_id":85568392924494504,"keywords":["cp","nocrits","nodmgspread","uncletopia"],"game_id":440,"stv_port":27016,"stv_name":"Uncletopia | Hong Kong | 1 | All Maps | STV","players":null},{"server_id":1,"name":"Uncletopia | Los Angeles | 1 | All Maps","name_short":"lax-1","host":"lax-1.us.uncletopia.com","port":27015,"enabled":true,"region":"us-west","cc":"us","latitude":33.94279,"longitude":-118.41004,"reserved":0,"last_update":"0001-01-01T00:00:00Z","name_a2s":"Uncletopia | Los Angeles | 1 | All Maps","protocol":17,"map":"cp_dustbowl","folder":"tf","game":"Team Fortress","app_id":440,"player_count":0,"max_players":24,"Bots":0,"server_type":"Dedicated","server_os":"Linux","password":true,"vac":true,"version":"7961495","steam_id":85568392924469991,"keywords":["cp","nocrits","nodmgspread","uncletopia"],"game_id":440,"stv_port":27016,"stv_name":"Uncletopia | Los Angeles | 1 | All Maps | STV","players":null},{"server_id":112,"name":"Uncletopia | Los Angeles | 2 | All Maps","name_short":"lax-2","host":"lax-1.us.uncletopia.com","port":27025,"enabled":true,"region":"us-west","cc":"us","latitude":33.94279,"longitude":-118.41004,"reserved":0,"last_update":"0001-01-01T00:00:00Z","name_a2s":"Uncletopia | Los Angeles | 2 | All Maps","protocol":17,"map":"pl_swiftwater_final1","folder":"tf","game":"Team Fortress","app_id":440,"player_count":24,"max_players":24,"Bots":0,"server_type":"Dedicated","server_os":"Linux","password":true,"vac":true,"version":"7961495","steam_id":85568392924469992,"keywords":["nocrits","nodmgspread","payload","uncletopia"],"game_id":440,"stv_port":27026,"stv_name":"Uncletopia | Los Angeles | 2 | All Maps | STV","players":[{"user_id":675,"name":"minerkid2004","steam_id":76561198044262827,"connected_time":866000000000,"state":"active","ping":54},{"user_id":685,"name":"Cat","steam_id":76561198132362099,"connected_time":528000000000,"state":"active","ping":82},{"user_id":671,"name":"zaza addict","steam_id":76561198202982780,"connected_time":906000000000,"state":"active","ping":106},{"user_id":611,"name":"Whisper!","steam_id":76561198119609795,"connected_time":3203000000000,"state":"active","ping":51},{"user_id":663,"name":"resh","steam_id":76561198239598834,"connected_time":972000000000,"state":"active","ping":104},{"user_id":664,"name":"Chimi","steam_id":76561198067800540,"connected_time":963000000000,"state":"active","ping":78},{"user_id":672,"name":"Matches_","steam_id":76561198048925904,"connected_time":899000000000,"state":"active","ping":61},{"user_id":673,"name":"011sra","steam_id":76561199489542125,"connected_time":896000000000,"state":"active","ping":87},{"user_id":676,"name":"Mr. Teacher (Bionicle)","steam_id":76561198047628583,"connected_time":841000000000,"state":"active","ping":55},{"user_id":687,"name":"stemy","steam_id":76561198133263770,"connected_time":422000000000,"state":"active","ping":104},{"user_id":674,"name":"medium Mike","steam_id":76561198111645213,"connected_time":889000000000,"state":"active","ping":45},{"user_id":665,"name":"Slippin' Jimmy","steam_id":76561198324749126,"connected_time":957000000000,"state":"active","ping":141},{"user_id":592,"name":"Natsuki-Gaming","steam_id":76561199015171972,"connected_time":6370000000000,"state":"active","ping":57},{"user_id":689,"name":"BLØRG","steam_id":76561198036126673,"connected_time":235000000000,"state":"active","ping":90},{"user_id":666,"name":"Space360","steam_id":76561198106743284,"connected_time":956000000000,"state":"active","ping":80},{"user_id":678,"name":"CheeseCake488","steam_id":76561199407617942,"connected_time":755000000000,"state":"active","ping":107},{"user_id":645,"name":"sola venereum","steam_id":76561198368179166,"connected_time":1887000000000,"state":"active","ping":75},{"user_id":667,"name":"ZDoX","steam_id":76561198273012221,"connected_time":953000000000,"state":"active","ping":101},{"user_id":690,"name":"CHIKN","steam_id":76561198277792665,"connected_time":76000000000,"state":"active","ping":55},{"user_id":680,"name":"FI LO","steam_id":76561198976530881,"connected_time":729000000000,"state":"active","ping":35},{"user_id":637,"name":"Its me your Teeth","steam_id":76561198240523882,"connected_time":2367000000000,"state":"active","ping":54},{"user_id":682,"name":"kris736","steam_id":76561198038208255,"connected_time":704000000000,"state":"active","ping":107},{"user_id":688,"name":"kx","steam_id":76561198088952425,"connected_time":331000000000,"state":"active","ping":51},{"user_id":647,"name":"ZeudokNou","steam_id":76561199380408262,"connected_time":1851000000000,"state":"active","ping":91}]},{"server_id":324,"name":"Uncletopia | Los Angeles | 3 | All Maps","name_short":"lax-3","host":"lax-1.us.uncletopia.com","port":27035,"enabled":true,"region":"us-west","cc":"us","latitude":33.94279,"longitude":-118.41004,"reserved":0,"last_update":"0001-01-01T00:00:00Z","name_a2s":"Uncletopia | Los Angeles | 3 | All Maps","protocol":17,"map":"koth_lakeside_final","folder":"tf","game":"Team Fortress","app_id":440,"player_count":21,"max_players":24,"Bots":0,"server_type":"Dedicated","server_os":"Linux","password":true,"vac":true,"version":"7961495","steam_id":85568392924510198,"keywords":["cp","nocrits","nodmgspread","uncletopia"],"game_id":440,"stv_port":27036,"stv_name":"Uncletopia | Los Angeles | 3 | All Maps | STV","players":[{"user_id":92,"name":"EduardoLopez2005","steam_id":76561198188481309,"connected_time":2773000000000,"state":"active","ping":60},{"user_id":105,"name":"Amogous Supreme","steam_id":76561198025476774,"connected_time":1813000000000,"state":"active","ping":57},{"user_id":83,"name":"Pemalon","steam_id":76561198389661782,"connected_time":3957000000000,"state":"active","ping":57},{"user_id":95,"name":"SadChicken λ","steam_id":76561198082458968,"connected_time":2459000000000,"state":"active","ping":65},{"user_id":104,"name":"rose","steam_id":76561197995200743,"connected_time":1938000000000,"state":"active","ping":39},{"user_id":90,"name":"Jodi (She/Her)","steam_id":76561198131833567,"connected_time":3071000000000,"state":"active","ping":74},{"user_id":117,"name":"KlassicLoL","steam_id":76561198081815303,"connected_time":355000000000,"state":"active","ping":49},{"user_id":118,"name":"Frank Accardi","steam_id":76561198017275707,"connected_time":335000000000,"state":"active","ping":69},{"user_id":107,"name":"CreativeName","steam_id":76561198853344895,"connected_time":1523000000000,"state":"active","ping":60},{"user_id":119,"name":"dzcreeper","steam_id":76561198072250723,"connected_time":320000000000,"state":"active","ping":79},{"user_id":86,"name":"IMM0RTAL","steam_id":76561198013747901,"connected_time":3542000000000,"state":"active","ping":93},{"user_id":120,"name":"Mr. DeLarge","steam_id":76561198336820066,"connected_time":256000000000,"state":"active","ping":90},{"user_id":93,"name":"allahsdroptop","steam_id":76561198133195238,"connected_time":2766000000000,"state":"active","ping":63},{"user_id":46,"name":"riSygneD","steam_id":76561198331618687,"connected_time":5987000000000,"state":"active","ping":33},{"user_id":116,"name":"TheBeepMann","steam_id":76561198156230733,"connected_time":597000000000,"state":"active","ping":40},{"user_id":121,"name":"The Headhunter","steam_id":76561198389722871,"connected_time":186000000000,"state":"active","ping":52},{"user_id":51,"name":"bite this onions","steam_id":76561198068113347,"connected_time":5648000000000,"state":"active","ping":47},{"user_id":52,"name":"Junebouvier","steam_id":76561198154395780,"connected_time":5617000000000,"state":"active","ping":100},{"user_id":94,"name":"1000 Ping","steam_id":76561198098330939,"connected_time":2743000000000,"state":"active","ping":68},{"user_id":61,"name":"MungJR","steam_id":76561198078316612,"connected_time":5362000000000,"state":"active","ping":133},{"user_id":112,"name":"delight","steam_id":76561197980280272,"connected_time":1273000000000,"state":"active","ping":64}]},{"server_id":25,"name":"Uncletopia | Los Angeles | 4 | Stopwatch","name_short":"lax-4","host":"lax-1.us.uncletopia.com","port":27045,"enabled":true,"region":"us-west","cc":"us","latitude":33.94279,"longitude":-118.41004,"reserved":0,"last_update":"0001-01-01T00:00:00Z","name_a2s":"Uncletopia | Los Angeles | 4 | Stopwatch","protocol":17,"map":"workshop/pl_badwater_pro_v12.ugc2142942074","folder":"tf","game":"Team Fortress","app_id":440,"player_count":2,"max_players":24,"Bots":0,"server_type":"Dedicated","server_os":"Linux","password":true,"vac":true,"version":"7961495","steam_id":85568392924510199,"keywords":["nocrits","nodmgspread","payload","uncletopia"],"game_id":440,"stv_port":27046,"stv_name":"Uncletopia | Los Angeles | 4 | Stopwatch | STV","players":[{"user_id":13,"name":"Drewski","steam_id":76561198334969647,"connected_time":1940000000000,"state":"active","ping":51},{"user_id":14,"name":"herbletea","steam_id":76561199079523149,"connected_time":1621000000000,"state":"active","ping":41}]},{"server_id":11,"name":"Uncletopia | London | 1 | All Maps","name_short":"lon-1","host":"lon-1.uk.uncletopia.com","port":27015,"enabled":true,"region":"eu","cc":"gb","latitude":51.509865,"longitude":-0.118092,"reserved":0,"last_update":"0001-01-01T00:00:00Z","name_a2s":"Uncletopia | London | 1 | All Maps","protocol":17,"map":"koth_harvest_final","folder":"tf","game":"Team Fortress","app_id":440,"player_count":24,"max_players":24,"Bots":0,"server_type":"Dedicated","server_os":"Linux","password":true,"vac":true,"version":"7961495","steam_id":85568392924367362,"keywords":["cp","nocrits","nodmgspread","uncletopia"],"game_id":440,"stv_port":27016,"stv_name":"Uncletopia | London | 1 | All Maps | STV","players":[{"user_id":3,"name":"yuno appreciator","steam_id":76561198083286511,"connected_time":6185000000000,"state":"active","ping":32},{"user_id":52,"name":"Morbeus","steam_id":76561198057717808,"connected_time":1619000000000,"state":"active","ping":103},{"user_id":73,"name":"Naiten","steam_id":76561198051894514,"connected_time":633000000000,"state":"active","ping":71},{"user_id":7,"name":"꒰ ˶• ༝ •˶꒱","steam_id":76561198054474684,"connected_time":5103000000000,"state":"active","ping":89},{"user_id":78,"name":"Hukka","steam_id":76561198035505355,"connected_time":324000000000,"state":"active","ping":97},{"user_id":80,"name":"gubanyid","steam_id":76561199493222261,"connected_time":219000000000,"state":"active","ping":83},{"user_id":74,"name":"Cosmetic brain","steam_id":76561198055936410,"connected_time":612000000000,"state":"active","ping":81},{"user_id":46,"name":"Smuggs","steam_id":76561197999456003,"connected_time":1906000000000,"state":"active","ping":38},{"user_id":12,"name":"m909","steam_id":76561198279621400,"connected_time":4332000000000,"state":"active","ping":85},{"user_id":76,"name":"новороссия","steam_id":76561198207136439,"connected_time":495000000000,"state":"active","ping":100},{"user_id":14,"name":"collin","steam_id":76561198067030681,"connected_time":4249000000000,"state":"active","ping":45},{"user_id":77,"name":"Soap_bul_bul","steam_id":76561198165368332,"connected_time":489000000000,"state":"active","ping":99},{"user_id":85,"name":"The Irish Eejit","steam_id":76561198027738057,"connected_time":11000000000,"state":"spawning","ping":91},{"user_id":62,"name":"SugarPlumb","steam_id":76561198258269600,"connected_time":1311000000000,"state":"active","ping":57},{"user_id":29,"name":"kluri","steam_id":76561198084518962,"connected_time":3355000000000,"state":"active","ping":72},{"user_id":37,"name":"bird ideas","steam_id":76561199480942903,"connected_time":2706000000000,"state":"active","ping":74},{"user_id":54,"name":"Xepi","steam_id":76561199481038248,"connected_time":1591000000000,"state":"active","ping":86},{"user_id":55,"name":"sam-","steam_id":76561198013770973,"connected_time":1562000000000,"state":"active","ping":62},{"user_id":67,"name":"♥ Cirno ♥","steam_id":76561198834982738,"connected_time":1090000000000,"state":"active","ping":69},{"user_id":70,"name":"YunikkoN","steam_id":76561198211962412,"connected_time":804000000000,"state":"active","ping":97},{"user_id":79,"name":"Creasman","steam_id":76561198875379322,"connected_time":298000000000,"state":"active","ping":136},{"user_id":75,"name":"Dj_Bear","steam_id":76561198149865187,"connected_time":510000000000,"state":"active","ping":84},{"user_id":68,"name":"Neimon","steam_id":76561198343485710,"connected_time":1025000000000,"state":"active","ping":127},{"user_id":84,"name":"yeldad","steam_id":76561198447264153,"connected_time":34000000000,"state":"active","ping":114}]},{"server_id":114,"name":"Uncletopia | London | 2 | All Maps","name_short":"lon-2","host":"lon-1.uk.uncletopia.com","port":27025,"enabled":true,"region":"eu","cc":"gb","latitude":51.509865,"longitude":-0.118092,"reserved":0,"last_update":"0001-01-01T00:00:00Z","name_a2s":"Uncletopia | London | 2 | All Maps","protocol":17,"map":"koth_lakeside_final","folder":"tf","game":"Team Fortress","app_id":440,"player_count":0,"max_players":24,"Bots":0,"server_type":"Dedicated","server_os":"Linux","password":true,"vac":true,"version":"7961495","steam_id":85568392924470941,"keywords":["cp","nocrits","nodmgspread","uncletopia"],"game_id":440,"stv_port":27026,"stv_name":"Uncletopia | London | 2 | All Maps | STV","players":null},{"server_id":320,"name":"Uncletopia | London | 3 | All Maps","name_short":"lon-3","host":"lon-1.uk.uncletopia.com","port":27035,"enabled":true,"region":"eu","cc":"gb","latitude":51.509865,"longitude":-0.118092,"reserved":0,"last_update":"0001-01-01T00:00:00Z","name_a2s":"Uncletopia | London | 3 | All Maps","protocol":17,"map":"cp_process_final","folder":"tf","game":"Team Fortress","app_id":440,"player_count":0,"max_players":24,"Bots":0,"server_type":"Dedicated","server_os":"Linux","password":true,"vac":true,"version":"7961495","steam_id":85568392924510192,"keywords":["cp","nocrits","nodmgspread","uncletopia"],"game_id":440,"stv_port":27036,"stv_name":"Uncletopia | London | 3 | All Maps | STV","players":null},{"server_id":321,"name":"Uncletopia | London | 4 | All Maps","name_short":"lon-4","host":"lon-1.uk.uncletopia.com","port":27045,"enabled":true,"region":"eu","cc":"gb","latitude":51.509865,"longitude":-0.118092,"reserved":0,"last_update":"0001-01-01T00:00:00Z","name_a2s":"Uncletopia | London | 4 | All Maps","protocol":17,"map":"koth_cascade","folder":"tf","game":"Team Fortress","app_id":440,"player_count":0,"max_players":24,"Bots":0,"server_type":"Dedicated","server_os":"Linux","password":true,"vac":true,"version":"7961495","steam_id":85568392924510193,"keywords":["cp","nocrits","nodmgspread","uncletopia"],"game_id":440,"stv_port":27046,"stv_name":"Uncletopia | London | 4 | All Maps | STV","players":null},{"server_id":21,"name":"Uncletopia | London | 5 | All Maps","name_short":"lon-5","host":"lon-1.uk.uncletopia.com","port":27055,"enabled":true,"region":"eu","cc":"gb","latitude":51.509865,"longitude":-0.118092,"reserved":0,"last_update":"0001-01-01T00:00:00Z","name_a2s":"Uncletopia | London | 5 | All Maps","protocol":17,"map":"koth_lakeside_final","folder":"tf","game":"Team Fortress","app_id":440,"player_count":0,"max_players":24,"Bots":0,"server_type":"Dedicated","server_os":"Linux","password":true,"vac":true,"version":"7961495","steam_id":85568392924742829,"keywords":["cp","nocrits","nodmgspread","uncletopia"],"game_id":440,"stv_port":27056,"stv_name":"Uncletopia | London | 5 | All Maps | STV","players":null},{"server_id":22,"name":"Uncletopia | London | 6 | All Maps","name_short":"lon-6","host":"lon-1.uk.uncletopia.com","port":27065,"enabled":true,"region":"eu","cc":"gb","latitude":51.509865,"longitude":-0.118092,"reserved":0,"last_update":"0001-01-01T00:00:00Z","name_a2s":"Uncletopia | London | 6 | All Maps","protocol":17,"map":"cp_dustbowl","folder":"tf","game":"Team Fortress","app_id":440,"player_count":0,"max_players":24,"Bots":0,"server_type":"Dedicated","server_os":"Linux","password":true,"vac":true,"version":"7961495","steam_id":85568392924742830,"keywords":["cp","nocrits","nodmgspread","uncletopia"],"game_id":440,"stv_port":27066,"stv_name":"Uncletopia | London | 6 | All Maps | STV","players":null},{"server_id":40,"name":"Uncletopia | London | 7 | Stopwatch","name_short":"lon-7","host":"lon-1.uk.uncletopia.com","port":27075,"enabled":true,"region":"eu","cc":"gb","latitude":51.509865,"longitude":-0.118092,"reserved":0,"last_update":"0001-01-01T00:00:00Z","name_a2s":"Uncletopia | London | 7 | Stopwatch","protocol":17,"map":"koth_lakeside_final","folder":"tf","game":"Team Fortress","app_id":440,"player_count":0,"max_players":24,"Bots":0,"server_type":"Dedicated","server_os":"Linux","password":true,"vac":true,"version":"7961495","steam_id":85568392924964314,"keywords":["cp","nocrits","nodmgspread","uncletopia"],"game_id":440,"stv_port":27076,"stv_name":"Uncletopia | London | 7 | Stopwatch | STV","players":null},{"server_id":41,"name":"Uncletopia | London | 8 | Community","name_short":"lon-8","host":"lon-1.uk.uncletopia.com","port":27085,"enabled":true,"region":"eu","cc":"gb","latitude":51.509865,"longitude":-0.118092,"reserved":0,"last_update":"0001-01-01T00:00:00Z","name_a2s":"Uncletopia | London | 8 | Community","protocol":17,"map":"cp_snakewater_final1","folder":"tf","game":"Team Fortress","app_id":440,"player_count":0,"max_players":24,"Bots":0,"server_type":"Dedicated","server_os":"Linux","password":true,"vac":true,"version":"7961495","steam_id":85568392924964315,"keywords":["cp","nocrits","nodmgspread","uncletopia"],"game_id":440,"stv_port":27086,"stv_name":"Uncletopia | London | 8 | Community | STV","players":null},{"server_id":300,"name":"Uncletopia | Montréal | 1 | All Maps","name_short":"mtl-1","host":"mtl-1.ca.uncletopia.com","port":27015,"enabled":true,"region":"us-east","cc":"ca","latitude":45.50889,"longitude":-73.56167,"reserved":0,"last_update":"0001-01-01T00:00:00Z","name_a2s":"","protocol":0,"map":"","folder":"","game":"","app_id":0,"player_count":0,"max_players":0,"Bots":0,"server_type":"","server_os":"","password":false,"vac":false,"version":"","steam_id":0,"keywords":null,"game_id":0,"stv_port":0,"stv_name":"","players":null},{"server_id":301,"name":"Uncletopia | Montréal | 2 | All Maps","name_short":"mtl-2","host":"mtl-1.ca.uncletopia.com","port":27025,"enabled":true,"region":"us-east","cc":"ca","latitude":45.50889,"longitude":-73.56167,"reserved":0,"last_update":"0001-01-01T00:00:00Z","name_a2s":"","protocol":0,"map":"","folder":"","game":"","app_id":0,"player_count":0,"max_players":0,"Bots":0,"server_type":"","server_os":"","password":false,"vac":false,"version":"","steam_id":0,"keywords":null,"game_id":0,"stv_port":0,"stv_name":"","players":null},{"server_id":302,"name":"Uncletopia | Montréal | 3 | All Maps","name_short":"mtl-3","host":"mtl-1.ca.uncletopia.com","port":27035,"enabled":true,"region":"us-east","cc":"ca","latitude":45.50889,"longitude":-73.56167,"reserved":0,"last_update":"0001-01-01T00:00:00Z","name_a2s":"","protocol":0,"map":"","folder":"","game":"","app_id":0,"player_count":0,"max_players":0,"Bots":0,"server_type":"","server_os":"","password":false,"vac":false,"version":"","steam_id":0,"keywords":null,"game_id":0,"stv_port":0,"stv_name":"","players":null},{"server_id":303,"name":"Uncletopia | Montréal | 4 | No Payload","name_short":"mtl-4","host":"mtl-1.ca.uncletopia.com","port":27045,"enabled":true,"region":"us-east","cc":"ca","latitude":45.50889,"longitude":-73.56167,"reserved":0,"last_update":"0001-01-01T00:00:00Z","name_a2s":"","protocol":0,"map":"","folder":"","game":"","app_id":0,"player_count":0,"max_players":0,"Bots":0,"server_type":"","server_os":"","password":false,"vac":false,"version":"","steam_id":0,"keywords":null,"game_id":0,"stv_port":0,"stv_name":"","players":null},{"server_id":13,"name":"Uncletopia | New York City | 1 | All Maps","name_short":"nyc-1","host":"nyc-1.us.uncletopia.com","port":27015,"enabled":true,"region":"us-east","cc":"us","latitude":40.73061,"longitude":-73.93524,"reserved":0,"last_update":"0001-01-01T00:00:00Z","name_a2s":"Uncletopia | New York City | 1 | All Maps","protocol":17,"map":"cp_gravelpit","folder":"tf","game":"Team Fortress","app_id":440,"player_count":0,"max_players":24,"Bots":0,"server_type":"Dedicated","server_os":"Linux","password":true,"vac":true,"version":"7961495","steam_id":85568392924469993,"keywords":["cp","nocrits","nodmgspread","uncletopia"],"game_id":440,"stv_port":27016,"stv_name":"Uncletopia | New York City | 1 | All Maps | STV","players":null},{"server_id":14,"name":"Uncletopia | New York City | 2 | All Maps","name_short":"nyc-2","host":"nyc-1.us.uncletopia.com","port":27025,"enabled":true,"region":"us-east","cc":"us","latitude":40.73061,"longitude":-73.93524,"reserved":0,"last_update":"0001-01-01T00:00:00Z","name_a2s":"Uncletopia | New York City | 2 | All Maps","protocol":17,"map":"pl_snowycoast","folder":"tf","game":"Team Fortress","app_id":440,"player_count":0,"max_players":24,"Bots":0,"server_type":"Dedicated","server_os":"Linux","password":true,"vac":true,"version":"7961495","steam_id":85568392924469994,"keywords":["nocrits","nodmgspread","payload","uncletopia"],"game_id":440,"stv_port":27026,"stv_name":"Uncletopia | New York City | 2 | All Maps | STV","players":null},{"server_id":15,"name":"Uncletopia | New York City | 3 | Stopwatch","name_short":"nyc-3","host":"nyc-1.us.uncletopia.com","port":27035,"enabled":true,"region":"us-east","cc":"us","latitude":40.73061,"longitude":-73.93524,"reserved":0,"last_update":"0001-01-01T00:00:00Z","name_a2s":"Uncletopia | New York City | 3 | Stopwatch","protocol":17,"map":"cp_granary","folder":"tf","game":"Team Fortress","app_id":440,"player_count":0,"max_players":24,"Bots":0,"server_type":"Dedicated","server_os":"Linux","password":true,"vac":true,"version":"7961495","steam_id":85568392924742820,"keywords":["cp","nocrits","nodmgspread","uncletopia"],"game_id":440,"stv_port":27036,"stv_name":"Uncletopia | New York City | 3 | Stopwatch | STV","players":null},{"server_id":16,"name":"Uncletopia | New York City | 4 | Community","name_short":"nyc-4","host":"nyc-1.us.uncletopia.com","port":27045,"enabled":true,"region":"us-east","cc":"us","latitude":40.73061,"longitude":-73.93524,"reserved":0,"last_update":"0001-01-01T00:00:00Z","name_a2s":"Uncletopia | New York City | 4 | Community","protocol":17,"map":"workshop/cp_croissant_final.ugc458840209","folder":"tf","game":"Team Fortress","app_id":440,"player_count":0,"max_players":24,"Bots":0,"server_type":"Dedicated","server_os":"Linux","password":true,"vac":true,"version":"7961495","steam_id":85568392924742821,"keywords":["cp","nocrits","nodmgspread","uncletopia"],"game_id":440,"stv_port":27046,"stv_name":"Uncletopia | New York City | 4 | Community | STV","players":null},{"server_id":142,"name":"Uncletopia | São Paulo | 1 | All Maps","name_short":"sao-1","host":"sao-1.br.uncletopia.com","port":27015,"enabled":true,"region":"sa","cc":"br","latitude":-23.533773,"longitude":-46.62529,"reserved":0,"last_update":"0001-01-01T00:00:00Z","name_a2s":"Uncletopia | São Paulo | 1 | All Maps","protocol":17,"map":"koth_cascade","folder":"tf","game":"Team Fortress","app_id":440,"player_count":0,"max_players":24,"Bots":0,"server_type":"Dedicated","server_os":"Linux","password":true,"vac":true,"version":"7961495","steam_id":85568392924469996,"keywords":["cp","nocrits","nodmgspread","uncletopia"],"game_id":440,"stv_port":27016,"stv_name":"Uncletopia | São Paulo | 1 | All Maps | STV","players":null},{"server_id":143,"name":"Uncletopia | São Paulo | 2 | Community","name_short":"sao-2","host":"sao-2.br.uncletopia.com","port":27015,"enabled":true,"region":"sa","cc":"br","latitude":-23.533773,"longitude":-46.62529,"reserved":0,"last_update":"0001-01-01T00:00:00Z","name_a2s":"Uncletopia | São Paulo | 2 | Community","protocol":17,"map":"workshop/koth_ramjam_rc1.ugc459778887","folder":"tf","game":"Team Fortress","app_id":440,"player_count":0,"max_players":24,"Bots":0,"server_type":"Dedicated","server_os":"Linux","password":true,"vac":true,"version":"7961495","steam_id":85568392924485349,"keywords":["cp","nocrits","nodmgspread","uncletopia"],"game_id":440,"stv_port":27016,"stv_name":"Uncletopia | São Paulo | 2 | Community | STV","players":null},{"server_id":7,"name":"Uncletopia | Seattle | 1 | All Maps","name_short":"sea-1","host":"sea-1.us.uncletopia.com","port":27015,"enabled":true,"region":"us-west","cc":"us","latitude":47.608013,"longitude":-122.33517,"reserved":0,"last_update":"0001-01-01T00:00:00Z","name_a2s":"Uncletopia | Seattle | 1 | All Maps","protocol":17,"map":"pl_frontier_final","folder":"tf","game":"Team Fortress","app_id":440,"player_count":25,"max_players":24,"Bots":0,"server_type":"Dedicated","server_os":"Linux","password":true,"vac":true,"version":"7961495","steam_id":85568392924469997,"keywords":["nocrits","nodmgspread","payload","uncletopia"],"game_id":440,"stv_port":27016,"stv_name":"Uncletopia | Seattle | 1 | All Maps | STV","players":[{"user_id":806,"name":"black mold farmer","steam_id":76561198169755734,"connected_time":6535000000000,"state":"active","ping":64},{"user_id":830,"name":"2 Point Tom","steam_id":76561198087617008,"connected_time":3918000000000,"state":"active","ping":58},{"user_id":849,"name":"ed","steam_id":76561198080475712,"connected_time":1842000000000,"state":"active","ping":71},{"user_id":836,"name":"rat gets the cheese","steam_id":76561198031234032,"connected_time":3294000000000,"state":"active","ping":91},{"user_id":824,"name":"squash","steam_id":76561198150281353,"connected_time":4505000000000,"state":"active","ping":57},{"user_id":831,"name":"pepe warlord","steam_id":76561198080819197,"connected_time":3874000000000,"state":"active","ping":83},{"user_id":857,"name":"Jackrifleman","steam_id":76561198067764004,"connected_time":1586000000000,"state":"active","ping":48},{"user_id":774,"name":"mega","steam_id":76561198089520959,"connected_time":7963000000000,"state":"active","ping":91},{"user_id":841,"name":"oil","steam_id":76561198099980149,"connected_time":3137000000000,"state":"active","ping":75},{"user_id":825,"name":"MxProf","steam_id":76561198044519572,"connected_time":4497000000000,"state":"active","ping":58},{"user_id":837,"name":"Grill Skills","steam_id":76561198053575147,"connected_time":3281000000000,"state":"active","ping":66},{"user_id":838,"name":"Truffles","steam_id":76561198095868800,"connected_time":3280000000000,"state":"active","ping":113},{"user_id":863,"name":"A Meatball Obsessed Demoman","steam_id":76561198253325844,"connected_time":1485000000000,"state":"active","ping":55},{"user_id":840,"name":"slushy :))","steam_id":76561198135281802,"connected_time":3156000000000,"state":"active","ping":42},{"user_id":859,"name":"Grand","steam_id":76561198290143399,"connected_time":1538000000000,"state":"active","ping":73},{"user_id":804,"name":"lavender","steam_id":76561199069518286,"connected_time":6716000000000,"state":"active","ping":74},{"user_id":866,"name":"Chocc-_-","steam_id":76561198068070211,"connected_time":1286000000000,"state":"active","ping":85},{"user_id":770,"name":"John Calibur","steam_id":76561197999986606,"connected_time":8788000000000,"state":"active","ping":70},{"user_id":861,"name":"smeasly","steam_id":76561198028718812,"connected_time":1537000000000,"state":"active","ping":42},{"user_id":640,"name":"Level 99 Mudcrab","steam_id":76561198077452771,"connected_time":18063000000000,"state":"active","ping":91},{"user_id":867,"name":"jorts","steam_id":76561199041179985,"connected_time":1248000000000,"state":"active","ping":57},{"user_id":868,"name":"Kaiga","steam_id":76561198044052046,"connected_time":769000000000,"state":"active","ping":121},{"user_id":853,"name":"Cheezbeargur","steam_id":76561198164702899,"connected_time":1823000000000,"state":"active","ping":70},{"user_id":856,"name":"rawry ฅ^•ﻌ•^ฅ","steam_id":76561198065825165,"connected_time":1709000000000,"state":"active","ping":104},{"user_id":869,"name":"camp3r","steam_id":76561197992870439,"connected_time":637000000000,"state":"active","ping":34}]},{"server_id":119,"name":"Uncletopia | Seattle | 2 | All Maps","name_short":"sea-2","host":"sea-1.us.uncletopia.com","port":27025,"enabled":true,"region":"us-west","cc":"us","latitude":47.608013,"longitude":-122.33517,"reserved":0,"last_update":"0001-01-01T00:00:00Z","name_a2s":"Uncletopia | Seattle | 2 | All Maps","protocol":17,"map":"pl_borneo","folder":"tf","game":"Team Fortress","app_id":440,"player_count":0,"max_players":24,"Bots":0,"server_type":"Dedicated","server_os":"Linux","password":true,"vac":true,"version":"7961495","steam_id":85568392924469998,"keywords":["nocrits","nodmgspread","payload","uncletopia"],"game_id":440,"stv_port":27026,"stv_name":"Uncletopia | Seattle | 2 | All Maps | STV","players":null},{"server_id":406,"name":"Uncletopia | Seattle | 3 | Stopwatch","name_short":"sea-3","host":"sea-1.us.uncletopia.com","port":27035,"enabled":true,"region":"us-west","cc":"us","latitude":47.608013,"longitude":-122.33517,"reserved":0,"last_update":"0001-01-01T00:00:00Z","name_a2s":"Uncletopia | Seattle | 3 | Stopwatch","protocol":17,"map":"workshop/koth_ashville_final.ugc2130459942","folder":"tf","game":"Team Fortress","app_id":440,"player_count":0,"max_players":24,"Bots":0,"server_type":"Dedicated","server_os":"Linux","password":true,"vac":true,"version":"7961495","steam_id":85568392924515217,"keywords":["cp","nocrits","nodmgspread","uncletopia"],"game_id":440,"stv_port":27036,"stv_name":"Uncletopia | Seattle | 3 | Stopwatch | STV","players":null},{"server_id":17,"name":"Uncletopia | San Francisco | 1 | All Maps","name_short":"sfo-1","host":"sfo-1.us.uncletopia.com","port":27015,"enabled":true,"region":"us-west","cc":"us","latitude":37.77397,"longitude":-122.4313,"reserved":0,"last_update":"0001-01-01T00:00:00Z","name_a2s":"Uncletopia | San Francisco | 1 | All Maps","protocol":17,"map":"koth_lakeside_final","folder":"tf","game":"Team Fortress","app_id":440,"player_count":0,"max_players":24,"Bots":0,"server_type":"Dedicated","server_os":"Linux","password":true,"vac":true,"version":"7961495","steam_id":85568392924469999,"keywords":["cp","nocrits","nodmgspread","uncletopia"],"game_id":440,"stv_port":27016,"stv_name":"Uncletopia | San Francisco | 1 | All Maps | STV","players":null},{"server_id":18,"name":"Uncletopia | San Francisco | 2 | All Maps","name_short":"sfo-2","host":"sfo-1.us.uncletopia.com","port":27025,"enabled":true,"region":"us-west","cc":"us","latitude":37.77397,"longitude":-122.4313,"reserved":0,"last_update":"0001-01-01T00:00:00Z","name_a2s":"Uncletopia | San Francisco | 2 | All Maps","protocol":17,"map":"pl_pier","folder":"tf","game":"Team Fortress","app_id":440,"player_count":0,"max_players":24,"Bots":0,"server_type":"Dedicated","server_os":"Linux","password":true,"vac":true,"version":"7961495","steam_id":85568392924470000,"keywords":["nocrits","nodmgspread","payload","uncletopia"],"game_id":440,"stv_port":27026,"stv_name":"Uncletopia | San Francisco | 2 | All Maps | STV","players":null},{"server_id":19,"name":"Uncletopia | San Francisco | 3 | Stopwatch","name_short":"sfo-3","host":"sfo-1.us.uncletopia.com","port":27035,"enabled":true,"region":"us-west","cc":"us","latitude":37.77397,"longitude":-122.4313,"reserved":0,"last_update":"0001-01-01T00:00:00Z","name_a2s":"Uncletopia | San Francisco | 3 | Stopwatch","protocol":17,"map":"cp_sunshine","folder":"tf","game":"Team Fortress","app_id":440,"player_count":0,"max_players":24,"Bots":0,"server_type":"Dedicated","server_os":"Linux","password":true,"vac":true,"version":"7961495","steam_id":85568392924742824,"keywords":["cp","nocrits","nodmgspread","uncletopia"],"game_id":440,"stv_port":27036,"stv_name":"Uncletopia | San Francisco | 3 | Stopwatch | STV","players":null},{"server_id":20,"name":"Uncletopia | San Francisco | 4 | Community","name_short":"sfo-4","host":"sfo-1.us.uncletopia.com","port":27045,"enabled":true,"region":"us-west","cc":"us","latitude":37.77397,"longitude":-122.4313,"reserved":0,"last_update":"0001-01-01T00:00:00Z","name_a2s":"Uncletopia | San Francisco | 4 | Community","protocol":17,"map":"workshop/pl_barnblitz_pro7.ugc582280235","folder":"tf","game":"Team Fortress","app_id":440,"player_count":0,"max_players":24,"Bots":0,"server_type":"Dedicated","server_os":"Linux","password":true,"vac":true,"version":"7961495","steam_id":85568392924742826,"keywords":["nocrits","nodmgspread","payload","uncletopia"],"game_id":440,"stv_port":27046,"stv_name":"Uncletopia | San Francisco | 4 | Community | STV","players":null},{"server_id":141,"name":"Uncletopia | Sydney | 1 | All Maps","name_short":"syd-1","host":"syd-1.au.uncletopia.com","port":27015,"enabled":true,"region":"au","cc":"au","latitude":-33.865143,"longitude":151.2099,"reserved":0,"last_update":"0001-01-01T00:00:00Z","name_a2s":"Uncletopia | Sydney | 1 | All Maps","protocol":17,"map":"cp_gullywash_final1","folder":"tf","game":"Team Fortress","app_id":440,"player_count":24,"max_players":24,"Bots":0,"server_type":"Dedicated","server_os":"Linux","password":true,"vac":true,"version":"7961495","steam_id":85568392924470001,"keywords":["cp","nocrits","nodmgspread","uncletopia"],"game_id":440,"stv_port":27016,"stv_name":"Uncletopia | Sydney | 1 | All Maps | STV","players":[{"user_id":221,"name":"krandlez` (Any/All)","steam_id":76561198044839726,"connected_time":2833000000000,"state":"active","ping":40},{"user_id":208,"name":"AmethystDragon10","steam_id":76561198412979983,"connected_time":4133000000000,"state":"active","ping":76},{"user_id":223,"name":"Maxakai","steam_id":76561199089156154,"connected_time":2095000000000,"state":"active","ping":102},{"user_id":235,"name":"Critz Eastwood","steam_id":76561198050094688,"connected_time":1471000000000,"state":"active","ping":57},{"user_id":249,"name":"saturation","steam_id":76561199457046392,"connected_time":469000000000,"state":"active","ping":74},{"user_id":230,"name":"Foxivan","steam_id":76561198428775175,"connected_time":2078000000000,"state":"active","ping":55},{"user_id":204,"name":"ManofWonder1","steam_id":76561198904788550,"connected_time":4180000000000,"state":"active","ping":63},{"user_id":228,"name":"Egg","steam_id":76561198067095618,"connected_time":2086000000000,"state":"active","ping":49},{"user_id":196,"name":"Pompadouraus","steam_id":76561198327530525,"connected_time":4287000000000,"state":"active","ping":75},{"user_id":237,"name":"Trotter","steam_id":76561198343965263,"connected_time":1187000000000,"state":"active","ping":66},{"user_id":229,"name":"lofty","steam_id":76561198380588357,"connected_time":2080000000000,"state":"active","ping":60},{"user_id":238,"name":"beerbongbarry","steam_id":76561198061532381,"connected_time":1091000000000,"state":"active","ping":59},{"user_id":199,"name":"soupy","steam_id":76561198073734936,"connected_time":4256000000000,"state":"active","ping":90},{"user_id":240,"name":"Kerryn's boyfriend","steam_id":76561199124736340,"connected_time":998000000000,"state":"active","ping":79},{"user_id":236,"name":"Meat","steam_id":76561198021812511,"connected_time":1323000000000,"state":"active","ping":55},{"user_id":250,"name":"Calsaintski","steam_id":76561199081848498,"connected_time":464000000000,"state":"active","ping":74},{"user_id":243,"name":"monnickev","steam_id":76561198252587162,"connected_time":808000000000,"state":"active","ping":45},{"user_id":212,"name":"Noid","steam_id":76561198045934965,"connected_time":3874000000000,"state":"active","ping":85},{"user_id":183,"name":"Sinister80s","steam_id":76561198343540472,"connected_time":5838000000000,"state":"active","ping":60},{"user_id":244,"name":"Hippity_Hoppity","steam_id":76561198861050395,"connected_time":772000000000,"state":"active","ping":69},{"user_id":248,"name":"Didgereedank","steam_id":76561198043068128,"connected_time":489000000000,"state":"active","ping":34},{"user_id":226,"name":"Tiblyat","steam_id":76561198093077688,"connected_time":2093000000000,"state":"active","ping":72},{"user_id":195,"name":"lavanderpumpernickle(Del Davis)","steam_id":76561199093611800,"connected_time":4739000000000,"state":"active","ping":61}]},{"server_id":123,"name":"Uncletopia | Sydney | 2 | All Maps","name_short":"syd-2","host":"syd-1.au.uncletopia.com","port":27025,"enabled":true,"region":"au","cc":"au","latitude":-33.865143,"longitude":151.2099,"reserved":0,"last_update":"0001-01-01T00:00:00Z","name_a2s":"Uncletopia | Sydney | 2 | All Maps","protocol":17,"map":"koth_lakeside_final","folder":"tf","game":"Team Fortress","app_id":440,"player_count":0,"max_players":24,"Bots":0,"server_type":"Dedicated","server_os":"Linux","password":true,"vac":true,"version":"7961495","steam_id":85568392924470002,"keywords":["cp","nocrits","nodmgspread","uncletopia"],"game_id":440,"stv_port":27026,"stv_name":"Uncletopia | Sydney | 2 | All Maps | STV","players":null},{"server_id":395,"name":"Uncletopia | Sydney | 3 | All Maps","name_short":"syd-3","host":"syd-1.au.uncletopia.com","port":27035,"enabled":true,"region":"au","cc":"au","latitude":-33.865143,"longitude":151.2099,"reserved":0,"last_update":"0001-01-01T00:00:00Z","name_a2s":"Uncletopia | Sydney | 3 | All Maps","protocol":17,"map":"koth_lakeside_final","folder":"tf","game":"Team Fortress","app_id":440,"player_count":0,"max_players":24,"Bots":0,"server_type":"Dedicated","server_os":"Linux","password":true,"vac":true,"version":"7961495","steam_id":85568392925194467,"keywords":["cp","nocrits","nodmgspread","uncletopia"],"game_id":440,"stv_port":27036,"stv_name":"Uncletopia | Sydney | 3 | All Maps | STV","players":null},{"server_id":396,"name":"Uncletopia | Sydney | 4 | All Maps","name_short":"syd-4","host":"syd-1.au.uncletopia.com","port":27045,"enabled":true,"region":"au","cc":"au","latitude":-33.865143,"longitude":151.2099,"reserved":0,"last_update":"0001-01-01T00:00:00Z","name_a2s":"Uncletopia | Sydney | 4 | All Maps","protocol":17,"map":"koth_lakeside_final","folder":"tf","game":"Team Fortress","app_id":440,"player_count":0,"max_players":24,"Bots":0,"server_type":"Dedicated","server_os":"Linux","password":true,"vac":true,"version":"7961495","steam_id":85568392925397958,"keywords":["cp","nocrits","nodmgspread","uncletopia"],"game_id":440,"stv_port":27046,"stv_name":"Uncletopia | Sydney | 4 | All Maps | STV","players":null},{"server_id":58,"name":"Uncletopia | Sydney | 5 | Stopwatch","name_short":"syd-5","host":"syd-1.au.uncletopia.com","port":27055,"enabled":true,"region":"au","cc":"au","latitude":-33.865143,"longitude":151.2099,"reserved":0,"last_update":"0001-01-01T00:00:00Z","name_a2s":"Uncletopia | Sydney | 5 | Stopwatch","protocol":17,"map":"workshop/koth_ramjam_rc1.ugc459778887","folder":"tf","game":"Team Fortress","app_id":440,"player_count":0,"max_players":24,"Bots":0,"server_type":"Dedicated","server_os":"Linux","password":true,"vac":true,"version":"7961495","steam_id":85568392925397959,"keywords":["cp","nocrits","nodmgspread","uncletopia"],"game_id":440,"stv_port":27056,"stv_name":"Uncletopia | Sydney | 5 | Stopwatch | STV","players":null},{"server_id":59,"name":"Uncletopia | Sydney | 6 | Community","name_short":"syd-6","host":"syd-1.au.uncletopia.com","port":27065,"enabled":true,"region":"au","cc":"au","latitude":-33.865143,"longitude":151.2099,"reserved":0,"last_update":"0001-01-01T00:00:00Z","name_a2s":"Uncletopia | Sydney | 6 | Community","protocol":17,"map":"workshop/rd_asteroid_redux_b1.ugc2154902912","folder":"tf","game":"Team Fortress","app_id":440,"player_count":0,"max_players":24,"Bots":0,"server_type":"Dedicated","server_os":"Linux","password":true,"vac":true,"version":"7961495","steam_id":85568392925397960,"keywords":["beta","nocrits","nodmgspread","rd","uncletopia"],"game_id":440,"stv_port":27066,"stv_name":"Uncletopia | Sydney | 6 | Community | STV","players":null},{"server_id":49,"name":"Uncletopia | Warsaw | 1 | All Maps","name_short":"waw-1","host":"waw-1.pl.uncletopia.com","port":27015,"enabled":true,"region":"eu","cc":"pl","latitude":52.2297,"longitude":21.017532,"reserved":0,"last_update":"0001-01-01T00:00:00Z","name_a2s":"Uncletopia | Warsaw | 1 | All Maps","protocol":17,"map":"koth_lakeside_final","folder":"tf","game":"Team Fortress","app_id":440,"player_count":0,"max_players":24,"Bots":0,"server_type":"Dedicated","server_os":"Linux","password":true,"vac":true,"version":"7961495","steam_id":85568392925397850,"keywords":["cp","nocrits","nodmgspread","uncletopia"],"game_id":440,"stv_port":27016,"stv_name":"Uncletopia | Warsaw | 1 | All Maps | STV","players":null},{"server_id":50,"name":"Uncletopia | Warsaw | 2 | All Maps","name_short":"waw-2","host":"waw-1.pl.uncletopia.com","port":27025,"enabled":true,"region":"eu","cc":"pl","latitude":52.2297,"longitude":21.017532,"reserved":0,"last_update":"0001-01-01T00:00:00Z","name_a2s":"Uncletopia | Warsaw | 2 | All Maps","protocol":17,"map":"pl_borneo","folder":"tf","game":"Team Fortress","app_id":440,"player_count":1,"max_players":24,"Bots":0,"server_type":"Dedicated","server_os":"Linux","password":true,"vac":true,"version":"7961495","steam_id":85568392925397851,"keywords":["nocrits","nodmgspread","payload","uncletopia"],"game_id":440,"stv_port":27026,"stv_name":"Uncletopia | Warsaw | 2 | All Maps | STV","players":[{"user_id":3,"name":"krypton  cena","steam_id":76561198170086001,"connected_time":11000000000,"state":"spawning","ping":39}]},{"server_id":51,"name":"Uncletopia | Warsaw | 3 | All Maps","name_short":"waw-3","host":"waw-1.pl.uncletopia.com","port":27035,"enabled":true,"region":"eu","cc":"pl","latitude":52.2297,"longitude":21.017532,"reserved":0,"last_update":"0001-01-01T00:00:00Z","name_a2s":"Uncletopia | Warsaw | 3 | All Maps","protocol":17,"map":"pl_barnblitz","folder":"tf","game":"Team Fortress","app_id":440,"player_count":0,"max_players":24,"Bots":0,"server_type":"Dedicated","server_os":"Linux","password":true,"vac":true,"version":"7961495","steam_id":85568392925397852,"keywords":["nocrits","nodmgspread","payload","uncletopia"],"game_id":440,"stv_port":27036,"stv_name":"Uncletopia | Warsaw | 3 | All Maps | STV","players":null},{"server_id":52,"name":"Uncletopia | Warsaw | 4 | All Maps","name_short":"waw-4","host":"waw-1.pl.uncletopia.com","port":27045,"enabled":true,"region":"eu","cc":"pl","latitude":52.2297,"longitude":21.017532,"reserved":0,"last_update":"0001-01-01T00:00:00Z","name_a2s":"Uncletopia | Warsaw | 4 | All Maps","protocol":17,"map":"pl_borneo","folder":"tf","game":"Team Fortress","app_id":440,"player_count":0,"max_players":24,"Bots":0,"server_type":"Dedicated","server_os":"Linux","password":true,"vac":true,"version":"7961495","steam_id":85568392925397853,"keywords":["nocrits","nodmgspread","payload","uncletopia"],"game_id":440,"stv_port":27046,"stv_name":"Uncletopia | Warsaw | 4 | All Maps | STV","players":null},{"server_id":53,"name":"Uncletopia | Warsaw | 5 | Stopwatch","name_short":"waw-5","host":"waw-1.pl.uncletopia.com","port":27055,"enabled":true,"region":"eu","cc":"pl","latitude":52.2297,"longitude":21.017532,"reserved":0,"last_update":"0001-01-01T00:00:00Z","name_a2s":"Uncletopia | Warsaw | 5 | Stopwatch","protocol":17,"map":"pl_barnblitz","folder":"tf","game":"Team Fortress","app_id":440,"player_count":0,"max_players":24,"Bots":0,"server_type":"Dedicated","server_os":"Linux","password":true,"vac":true,"version":"7961495","steam_id":85568392925397854,"keywords":["nocrits","nodmgspread","payload","uncletopia"],"game_id":440,"stv_port":27056,"stv_name":"Uncletopia | Warsaw | 5 | Stopwatch | STV","players":null},{"server_id":54,"name":"Uncletopia | Warsaw | 6 | Community","name_short":"waw-6","host":"waw-1.pl.uncletopia.com","port":27065,"enabled":true,"region":"eu","cc":"pl","latitude":52.2297,"longitude":21.017532,"reserved":0,"last_update":"0001-01-01T00:00:00Z","name_a2s":"Uncletopia | Warsaw | 6 | Community","protocol":17,"map":"cp_altitude","folder":"tf","game":"Team Fortress","app_id":440,"player_count":0,"max_players":24,"Bots":0,"server_type":"Dedicated","server_os":"Linux","password":true,"vac":true,"version":"7961495","steam_id":85568392925397856,"keywords":["cp","nocrits","nodmgspread","uncletopia"],"game_id":440,"stv_port":27066,"stv_name":"Uncletopia | Warsaw | 6 | Community | STV","players":null}]}