{"status":true,"message":"","result":[{"server_id":9,"name":"Uncletopia | Atlanta | 1 | All Maps","name_short":"atl-1","host":"atl-1.us.uncletopia.com","port":27015,"enabled":true,"region":"us-east","cc":"us","latitude":33.753746,"longitude":-84.38633,"reserved":0,"last_update":"0001-01-01T00:00:00Z","name_a2s":"Uncletopia | Atlanta | 1 | All Maps","protocol":17,"map":"cp_dustbowl","folder":"tf","game":"Team Fortress","app_id":440,"player_count":24,"max_players":24,"Bots":0,"server_type":"Dedicated","server_os":"Linux","password":true,"vac":true,"version":"7961495","steam_id":85568392924469982,"keywords":["cp","nocrits","nodmgspread","uncletopia"],"game_id":440,"stv_port":27016,"stv_name":"Uncletopia | Atlanta | 1 | All Maps | STV","players":[{"user_id":81,"name":"noelle","steam_id":76561198098107584,"connected_time":594000000000,"state":"active","ping":75},{"user_id":68,"name":"luxin","steam_id":76561198399383047,"connected_time":2358000000000,"state":"active","ping":55},{"user_id":32,"name":"Le4n!!!","steam_id":76561198045522596,"connected_time":4395000000000,"state":"active","ping":67},{"user_id":82,"name":"kite","steam_id":76561198346516392,"connected_time":180000000000,"state":"active","ping":89},{"user_id":69,"name":"why","steam_id":76561199059732212,"connected_time":2252000000000,"state":"active","ping":55},{"user_id":60,"name":"Bshirel","steam_id":76561198331588153,"connected_time":3350000000000,"state":"active","ping":86},{"user_id":36,"name":"really hot pocket","steam_id":76561198239297686,"connected_time":4182000000000,"state":"active","ping":93},{"user_id":37,"name":"Sanshi","steam_id":76561198145823543,"connected_time":4160000000000,"state":"active","ping":145},{"user_id":71,"name":"b4nny sewer spot on process","steam_id":76561198982810452,"connected_time":2219000000000,"state":"active","ping":79},{"user_id":66,"name":"Albino Jellyfish","steam_id":76561198208561097,"connected_time":2957000000000,"state":"active","ping":59},{"user_id":83,"name":"BeastRyder","steam_id":76561198330281584,"connected_time":42000000000,"state":"active","ping":87},{"user_id":65,"name":"JoJo","steam_id":76561198053768289,"connected_time":3005000000000,"state":"active","ping":120},{"user_id":50,"name":"gretchling","steam_id":76561198046111695,"connected_time":3588000000000,"state":"active","ping":62},{"user_id":74,"name":"Lolxdloldx","steam_id":76561198136887125,"connected_time":1328000000000,"state":"active","ping":95},{"user_id":72,"name":"CRWND","steam_id":76561198329810027,"connected_time":2170000000000,"state":"active","ping":145},{"user_id":46,"name":"marisa kirisame","steam_id":76561198070327681,"connected_time":3793000000000,"state":"active","ping":74},{"user_id":73,"name":"FIJI","steam_id":76561198126087725,"connected_time":1375000000000,"state":"active","ping":61},{"user_id":48,"name":"Psuedonamed Memelord","steam_id":76561198293295694,"connected_time":3693000000000,"state":"active","ping":136},{"user_id":76,"name":"Grim","steam_id":76561198225241776,"connected_time":1318000000000,"state":"active","ping":73},{"user_id":54,"name":"twitch.tv/axities","steam_id":76561198278008225,"connected_time":3434000000000,"state":"active","ping":57},{"user_id":55,"name":"shnowshner","steam_id":76561198066450438,"connected_time":3423000000000,"state":"active","ping":83},{"user_id":80,"name":"hi","steam_id":76561198809577048,"connected_time":700000000000,"state":"active","ping":101},{"user_id":57,"name":"Overduecat","steam_id":76561198092452824,"connected_time":3408000000000,"state":"active","ping":87},{"user_id":61,"name":"Nescio","steam_id":76561198119526760,"connected_time":3313000000000,"state":"active","ping":80}]},{"server_id":104,"name":"Uncletopia | Atlanta | 2 | All Maps","name_short":"atl-2","host":"atl-1.us.uncletopia.com","port":27025,"enabled":true,"region":"us-east","cc":"us","latitude":33.753746,"longitude":-84.38633,"reserved":0,"last_update":"0001-01-01T00:00:00Z","name_a2s":"Uncletopia | Atlanta | 2 | All Maps","protocol":17,"map":"koth_cascade","folder":"tf","game":"Team Fortress","app_id":440,"player_count":0,"max_players":24,"Bots":0,"server_type":"Dedicated","server_os":"Linux","password":true,"vac":true,"version":"7961495","steam_id":85568392924469983,"keywords":["cp","nocrits","nodmgspread","uncletopia"],"game_id":440,"stv_port":27026,"stv_name":"Uncletopia | Atlanta | 2 | All Maps | STV","players":null},{"server_id":400,"name":"Uncletopia | Atlanta | 3 | Stopwatch","name_short":"atl-3","host":"atl-1.us.uncletopia.com","port":27035,"enabled":true,"region":"us-east","cc":"us","latitude":33.753746,"longitude":-84.38633,"reserved":0,"last_update":"0001-01-01T00:00:00Z","name_a2s":"Uncletopia | Atlanta | 3 | Stopwatch","protocol":17,"map":"pl_upward","folder":"tf","game":"Team Fortress","app_id":440,"player_count":0,"max_players":24,"Bots":0,"server_type":"Dedicated","server_os":"Linux","password":true,"vac":true,"version":"7961495","steam_id":85568392924515187,"keywords":["nocrits","nodmgspread","payload","uncletopia"],"game_id":440,"stv_port":27036,"stv_name":"Uncletopia | Atlanta | 3 | Stopwatch | STV","players":null},{"server_id":401,"name":"Uncletopia | Atlanta | 4 | Community","name_short":"atl-4","host":"atl-1.us.uncletopia.com","port":27045,"enabled":true,"region":"us-east","cc":"us","latitude":33.753746,"longitude":-84.38633,"reserved":0,"last_update":"0001-01-01T00:00:00Z","name_a2s":"Uncletopia | Atlanta | 4 | Community","protocol":17,"map":"workshop/koth_product_final.ugc454272353","folder":"tf","game":"Team Fortress","app_id":440,"player_count":0,"max_players":24,"Bots":0,"server_type":"Dedicated","server_os":"Linux","password":true,"vac":true,"version":"7961495","steam_id":85568392924515188,"keywords":["cp","nocrits","nodmgspread","uncletopia"],"game_id":440,"stv_port":27046,"stv_name":"Uncletopia | Atlanta | 4 | Community | STV","players":null},{"server_id":2,"name":"Uncletopia | Chicago | 1 | All Maps","name_short":"chi-1","host":"chi-1.us.uncletopia.com","port":27015,"enabled":true,"region":"us-central","cc":"us","latitude":41.881832,"longitude":-87.62318,"reserved":0,"last_update":"0001-01-01T00:00:00Z","name_a2s":"Uncletopia | Chicago | 1 | All Maps","protocol":17,"map":"koth_cascade","folder":"tf","game":"Team Fortress","app_id":440,"player_count":24,"max_players":24,"Bots":0,"server_type":"Dedicated","server_os":"Linux","password":true,"vac":true,"version":"7961495","steam_id":85568392924469984,"keywords":["cp","nocrits","nodmgspread","uncletopia"],"game_id":440,"stv_port":27016,"stv_name":"Uncletopia | Chicago | 1 | All Maps | STV","players":[{"user_id":215,"name":"eryn üó∫","steam_id":76561198004433070,"connected_time":173000000000,"state":"active","ping":78},{"user_id":143,"name":"im from tha mud","steam_id":76561198142756572,"connected_time":6483000000000,"state":"active","ping":59},{"user_id":199,"name":"suicide enjoyer","steam_id":76561198057076267,"connected_time":1774000000000,"state":"active","ping":74},{"user_id":179,"name":"Amari","steam_id":76561198272446730,"connected_time":3289000000000,"state":"active","ping":60},{"user_id":176,"name":"4 life","steam_id":76561198175961598,"connected_time":3514000000000,"state":"active","ping":119},{"user_id":217,"name":"BIG POPT","steam_id":76561198047692532,"connected_time":124000000000,"state":"active","ping":83},{"user_id":206,"name":"chunkert","steam_id":76561198292044850,"connected_time":1075000000000,"state":"active","ping":80},{"user_id":170,"name":"YouR dad","steam_id":76561198044013623,"connected_time":3642000000000,"state":"active","ping":72},{"user_id":214,"name":"Snom","steam_id":76561198333827920,"connected_time":180000000000,"state":"active","ping":85},{"user_id":118,"name":"Sunny D+","steam_id":76561197999371052,"connected_time":8685000000000,"state":"active","ping":60},{"user_id":205,"name":"Snavsz","steam_id":76561198339090183,"connected_time":1515000000000,"state":"active","ping":121},{"user_id":197,"name":"BeG04TÁæä","steam_id":76561198303969515,"connected_time":1860000000000,"state":"active","ping":53},{"user_id":216,"name":"ORB","steam_id":76561198099828847,"connected_time":154000000000,"state":"active","ping":61},{"user_id":196,"name":"Mr. Luggy","steam_id":76561198072723392,"connected_time":1890000000000,"state":"active","ping":101},{"user_id":201,"name":"Dragus","steam_id":76561198032967285,"connected_time":1699000000000,"state":"active","ping":53},{"user_id":168,"name":"mr, mean","steam_id":76561198095048900,"connected_time":4229000000000,"state":"active","ping":55},{"user_id":131,"name":"Coke Himmy","steam_id":76561198397459211,"connected_time":7165000000000,"state":"active","ping":86},{"user_id":177,"name":"gulch","steam_id":76561199227946025,"connected_time":3504000000000,"state":"active","ping":70},{"user_id":189,"name":"Wierd Round","steam_id":76561197969205852,"connected_time":2462000000000,"state":"active","ping":84},{"user_id":207,"name":"halo","steam_id":76561198311004039,"connected_time":911000000000,"state":"active","ping":93},{"user_id":185,"name":"Tibalt Nyahuma","steam_id":76561198034779431,"connected_time":2491000000000,"state":"active","ping":75},{"user_id":202,"name":"Beef Wellington","steam_id":76561198049837377,"connected_time":1640000000000,"state":"active","ping":50},{"user_id":160,"name":"Kurisu","steam_id":76561198355536765,"connected_time":4759000000000,"state":"active","ping":69},{"user_id":203,"name":"Filthy Acts at Reasonable Price","steam_id":76561198354615890,"connected_time":1618000000000,"state":"active","ping":96}]},{"server_id":106,"name":"Uncletopia | Chicago | 2 | All Maps","name_short":"chi-2","host":"chi-1.us.uncletopia.com","port":27025,"enabled":true,"region":"us-central","cc":"us","latitude":41.881832,"longitude":-87.62318,"reserved":0,"last_update":"0001-01-01T00:00:00Z","name_a2s":"Uncletopia | Chicago | 2 | All Maps","protocol":17,"map":"cp_altitude","folder":"tf","game":"Team Fortress","app_id":440,"player_count":21,"max_players":24,"Bots":0,"server_type":"Dedicated","server_os":"Linux","password":true,"vac":true,"version":"7961495","steam_id":85568392924469985,"keywords":["cp","nocrits","nodmgspread","uncletopia"],"game_id":440,"stv_port":27026,"stv_name":"Uncletopia | Chicago | 2 | All Maps | STV","players":[{"user_id":48,"name":"6 feet deep like skeletons","steam_id":76561198138221795,"connected_time":4429000000000,"state":"active","ping":74},{"user_id":84,"name":"anonion","steam_id":76561198056477584,"connected_time":561000000000,"state":"active","ping":86},{"user_id":86,"name":"agless","steam_id":76561198045248344,"connected_time":404000000000,"state":"active","ping":43},{"user_id":87,"name":"Carpetspill","steam_id":76561198240023406,"connected_time":389000000000,"state":"active","ping":79},{"user_id":54,"name":"LumaDooma","steam_id":76561198076875817,"connected_time":3696000000000,"state":"active","ping":66},{"user_id":9,"name":"DivineBanana","steam_id":76561198026529731,"connected_time":6688000000000,"state":"active","ping":87},{"user_id":72,"name":"tek lintowe fan","steam_id":76561198206177593,"connected_time":1648000000000,"state":"active","ping":105},{"user_id":17,"name":"Luxembird","steam_id":76561198079992107,"connected_time":6139000000000,"state":"active","ping":90},{"user_id":83,"name":"NataKilar","steam_id":76561198041274441,"connected_time":643000000000,"state":"active","ping":60},{"user_id":55,"name":"Supasorcerer","steam_id":76561198074150595,"connected_time":3695000000000,"state":"active","ping":65},{"user_id":73,"name":"peachy","steam_id":76561198028721790,"connected_time":1647000000000,"state":"active","ping":87},{"user_id":88,"name":"sleepy‚äπ","steam_id":76561199200969139,"connected_time":357000000000,"state":"active","ping":103},{"user_id":79,"name":"hamilton","steam_id":76561198034096096,"connected_time":990000000000,"state":"active","ping":83},{"user_id":89,"name":"BOUZENZEL","steam_id":76561198095000722,"connected_time":192000000000,"state":"active","ping":59},{"user_id":91,"name":"old sloth cheese","steam_id":76561198248696144,"connected_time":145000000000,"state":"active","ping":90},{"user_id":75,"name":"Reckless Klondike","steam_id":76561198060904416,"connected_time":1605000000000,"state":"active","ping":75},{"user_id":93,"name":"pepsibobby","steam_id":76561198853864511,"connected_time":58000000000,"state":"active","ping":83},{"user_id":94,"name":"MeatShield 2000","steam_id":76561199375192850,"connected_time":48000000000,"state":"active","ping":89},{"user_id":80,"name":"brotherinchrist","steam_id":76561198208369443,"connected_time":959000000000,"state":"active","ping":53},{"user_id":95,"name":"Couldron","steam_id":76561198242842394,"connected_time":34000000000,"state":"active","ping":75},{"user_id":82,"name":"120 lahmacun","steam_id":76561198152818418,"connected_time":709000000000,"state":"active","ping":85}]},{"server_id":402,"name":"Uncletopia | Chicago | 3 | All Maps","name_short":"chi-3","host":"chi-1.us.uncletopia.com","port":27035,"enabled":true,"region":"us-central","cc":"us","latitude":41.881832,"longitude":-87.62318,"reserved":0,"last_update":"0001-01-01T00:00:00Z","name_a2s":"Uncletopia | Chicago | 3 | All Maps","protocol":17,"map":"pl_upward","folder":"tf","game":"Team Fortress","app_id":440,"player_count":16,"max_players":24,"Bots":0,"server_type":"Dedicated","server_os":"Linux","password":true,"vac":true,"version":"7961495","steam_id":85568392924515191,"keywords":["nocrits","nodmgspread","payload","uncletopia"],"game_id":440,"stv_port":27036,"stv_name":"Uncletopia | Chicago | 3 | All Maps | STV","players":[{"user_id":24,"name":"Lord Commissar Drac","steam_id":76561198030371218,"connected_time":653000000000,"state":"active","ping":145},{"user_id":11,"name":"[hoodie]","steam_id":76561198105408624,"connected_time":2045000000000,"state":"active","ping":122},{"user_id":30,"name":"Satori Komeiji","steam_id":76561198158211423,"connected_time":283000000000,"state":"active","ping":101},{"user_id":18,"name":"gideon nav my beloved","steam_id":76561198259092181,"connected_time":1318000000000,"state":"active","ping":61},{"user_id":31,"name":"Kng","steam_id":76561198993248203,"connected_time":168000000000,"state":"active","ping":87},{"user_id":15,"name":"your moms car","steam_id":76561199389283507,"connected_time":1660000000000,"state":"active","ping":76},{"user_id":16,"name":"Coach McFish","steam_id":76561198210456405,"connected_time":1485000000000,"state":"active","ping":70},{"user_id":22,"name":"Arhard","steam_id":76561198883304912,"connected_time":807000000000,"state":"active","ping":146},{"user_id":25,"name":"[NAME-REDACTED]","steam_id":76561198035682975,"connected_time":629000000000,"state":"active","ping":65},{"user_id":26,"name":"Ejaculation Zach","steam_id":76561198203765200,"connected_time":489000000000,"state":"active","ping":56},{"user_id":27,"name":"Open Mailbox","steam_id":76561198051933580,"connected_time":470000000000,"state":"active","ping":78},{"user_id":32,"name":"D","steam_id":76561198292908619,"connected_time":52000000000,"state":"active","ping":61},{"user_id":29,"name":"The_RainbowTrout","steam_id":76561199309554436,"connected_time":353000000000,"state":"active","ping":91},{"user_id":33,"name":"Neacrock","steam_id":76561199178338856,"connected_time":52000000000,"state":"active","ping":69},{"user_id":34,"name":"Bestmaster202","steam_id":76561198235282680,"connected_time":51000000000,"state":"active","ping":100},{"user_id":35,"name":"Raizen","steam_id":76561199092445367,"connected_time":30000000000,"state":"active","ping":43}]},{"server_id":403,"name":"Uncletopia | Chicago | 4 | All Maps","name_short":"chi-4","host":"chi-1.us.uncletopia.com","port":27045,"enabled":true,"region":"us-central","cc":"us","latitude":41.881832,"longitude":-87.62318,"reserved":0,"last_update":"0001-01-01T00:00:00Z","name_a2s":"Uncletopia | Chicago | 4 | All Maps","protocol":17,"map":"koth_cascade","folder":"tf","game":"Team Fortress","app_id":440,"player_count":0,"max_players":24,"Bots":0,"server_type":"Dedicated","server_os":"Linux","password":true,"vac":true,"version":"7961495","steam_id":85568392924515193,"keywords":["cp","nocrits","nodmgspread","uncletopia"],"game_id":440,"stv_port":27046,"stv_name":"Uncletopia | Chicago | 4 | All Maps | STV","players":null},{"server_id":36,"name":"Uncletopia | Chicago | 5 | All Maps","name_short":"chi-5","host":"chi-2.us.uncletopia.com","port":27015,"enabled":true,"region":"us-central","cc":"us","latitude":41.881832,"longitude":-87.62318,"reserved":0,"last_update":"0001-01-01T00:00:00Z","name_a2s":"Uncletopia | Chicago | 5 | All Maps","protocol":17,"map":"koth_viaduct","folder":"tf","game":"Team Fortress","app_id":440,"player_count":0,"max_players":24,"Bots":0,"server_type":"Dedicated","server_os":"Linux","password":true,"vac":true,"version":"7961495","steam_id":85568392924866362,"keywords":["cp","nocrits","nodmgspread","uncletopia"],"game_id":440,"stv_port":27016,"stv_name":"Uncletopia | Chicago | 5 | All Maps | STV","players":null},{"server_id":37,"name":"Uncletopia | Chicago | 6 | All Maps","name_short":"chi-6","host":"chi-2.us.uncletopia.com","port":27025,"enabled":true,"region":"us-central","cc":"us","latitude":41.881832,"longitude":-87.62318,"reserved":0,"last_update":"0001-01-01T00:00:00Z","name_a2s":"Uncletopia | Chicago | 6 | All Maps","protocol":17,"map":"pl_frontier_final","folder":"tf","game":"Team Fortress","app_id":440,"player_count":0,"max_players":24,"Bots":0,"server_type":"Dedicated","server_os":"Linux","password":true,"vac":true,"version":"7961495","steam_id":85568392924866363,"keywords":["nocrits","nodmgspread","payload","uncletopia"],"game_id":440,"stv_port":27026,"stv_name":"Uncletopia | Chicago | 6 | All Maps | STV","players":null},{"server_id":38,"name":"Uncletopia | Chicago | 7 | Stopwatch","name_short":"chi-7","host":"chi-2.us.uncletopia.com","port":27035,"enabled":true,"region":"us-central","cc":"us","latitude":41.881832,"longitude":-87.62318,"reserved":0,"last_update":"0001-01-01T00:00:00Z","name_a2s":"Uncletopia | Chicago | 7 | Stopwatch","protocol":17,"map":"workshop/koth_product_final.ugc454272353","folder":"tf","game":"Team Fortress","app_id":440,"player_count":0,"max_players":24,"Bots":0,"server_type":"Dedicated","server_os":"Linux","password":true,"vac":true,"version":"7961495","steam_id":85568392924866364,"keywords":["cp","nocrits","nodmgspread","uncletopia"],"game_id":440,"stv_port":27036,"stv_name":"Uncletopia | Chicago | 7 | Stopwatch | STV","players":null},{"server_id":39,"name":"Uncletopia | Chicago | 8 | Community","name_short":"chi-8","host":"chi-2.us.uncletopia.com","port":27045,"enabled":true,"region":"us-central","cc":"us","latitude":41.881832,"longitude":-87.62318,"reserved":0,"last_update":"0001-01-01T00:00:00Z","name_a2s":"Uncletopia | Chicago | 8 | Community","protocol":17,"map":"pl_pier","folder":"tf","game":"Team Fortress","app_id":440,"player_count":0,"max_players":24,"Bots":0,"server_type":"Dedicated","server_os":"Linux","password":true,"vac":true,"version":"7961495","steam_id":85568392924866365,"keywords":["nocrits","nodmgspread","payload","uncletopia"],"game_id":440,"stv_port":27046,"stv_name":"Uncletopia | Chicago | 8 | Community | STV","players":null},{"server_id":8,"name":"Uncletopia | Dallas | 1 | All Maps","name_short":"dal-1","host":"dal-1.us.uncletopia.com","port":27015,"enabled":true,"region":"us-central","cc":"us","latitude":32.779167,"longitude":-96.80889,"reserved":0,"last_update":"0001-01-01T00:00:00Z","name_a2s":"Uncletopia | Dallas | 1 | All Maps","protocol":17,"map":"koth_highpass","folder":"tf","game":"Team Fortress","app_id":440,"player_count":0,"max_players":24,"Bots":0,"server_type":"Dedicated","server_os":"Linux","password":true,"vac":true,"version":"7961495","steam_id":85568392924469986,"keywords":["cp","nocrits","nodmgspread","uncletopia"],"game_id":440,"stv_port":27016,"stv_name":"Uncletopia | Dallas | 1 | All Maps | STV","players":null},{"server_id":108,"name":"Uncletopia | Dallas | 2 | All Maps","name_short":"dal-2","host":"dal-1.us.uncletopia.com","port":27025,"enabled":true,"region":"us-central","cc":"us","latitude":32.779167,"longitude":-96.80889,"reserved":0,"last_update":"0001-01-01T00:00:00Z","name_a2s":"Uncletopia | Dallas | 2 | All Maps","protocol":17,"map":"cp_process_final","folder":"tf","game":"Team Fortress","app_id":440,"player_count":24,"max_players":24,"Bots":0,"server_type":"Dedicated","server_os":"Linux","password":true,"vac":true,"version":"7961495","steam_id":85568392924469988,"keywords":["cp","nocrits","nodmgspread","uncletopia"],"game_id":440,"stv_port":27026,"stv_name":"Uncletopia | Dallas | 2 | All Maps | STV","players":[{"user_id":344,"name":"Phosu","steam_id":76561198180162801,"connected_time":1254000000000,"state":"active","ping":61},{"user_id":368,"name":"UnforeseenCabbages","steam_id":76561198079386608,"connected_time":86000000000,"state":"active","ping":88},{"user_id":364,"name":"Mixed Up","steam_id":76561198042570322,"connected_time":176000000000,"state":"active","ping":80},{"user_id":365,"name":"nao","steam_id":76561198073982533,"connected_time":168000000000,"state":"active","ping":63},{"user_id":363,"name":"otwtomarsoffdabars(spacecore)","steam_id":76561199085974120,"connected_time":244000000000,"state":"active","ping":86},{"user_id":354,"name":"JEDIDIAH MAUS","steam_id":76561198405673920,"connected_time":1003000000000,"state":"active","ping":54},{"user_id":346,"name":"Xbox 360","steam_id":76561198090419068,"connected_time":1233000000000,"state":"active","ping":124},{"user_id":366,"name":"Frank Horrigan","steam_id":76561198066504831,"connected_time":161000000000,"state":"active","ping":84},{"user_id":367,"name":"Cargo","steam_id":76561198065535025,"connected_time":121000000000,"state":"active","ping":85},{"user_id":336,"name":"dr chungy ph.d","steam_id":76561198215559840,"connected_time":2561000000000,"state":"active","ping":71},{"user_id":355,"name":"Colossal Falafel","steam_id":76561198108086245,"connected_time":977000000000,"state":"active","ping":79},{"user_id":311,"name":"malarkeyman","steam_id":76561198844473584,"connected_time":4529000000000,"state":"active","ping":74},{"user_id":369,"name":"Legit_Jaxer","steam_id":76561198172234053,"connected_time":77000000000,"state":"active","ping":106},{"user_id":326,"name":"hforce11","steam_id":76561198087647130,"connected_time":3171000000000,"state":"active","ping":77},{"user_id":279,"name":"Elias","steam_id":76561198106431732,"connected_time":7389000000000,"state":"active","ping":60},{"user_id":353,"name":"gart","steam_id":76561198280306683,"connected_time":1077000000000,"state":"active","ping":60},{"user_id":360,"name":"Blippy","steam_id":76561198225904600,"connected_time":584000000000,"state":"active","ping":56},{"user_id":305,"name":"mkl","steam_id":76561197986401685,"connected_time":4781000000000,"state":"active","ping":58},{"user_id":332,"name":"Doctor Emerald(Bison Emperor)","steam_id":76561199123003872,"connected_time":2844000000000,"state":"active","ping":111},{"user_id":333,"name":"All Tomorrow's Parties","steam_id":76561197995936212,"connected_time":2799000000000,"state":"active","ping":75},{"user_id":361,"name":"Bob D. Builder","steam_id":76561198257109863,"connected_time":507000000000,"state":"active","ping":87},{"user_id":362,"name":"roto","steam_id":76561198138735860,"connected_time":468000000000,"state":"active","ping":90},{"user_id":358,"name":"Prsm","steam_id":76561198053344995,"connected_time":911000000000,"state":"active","ping":75}]},{"server_id":404,"name":"Uncletopia | Dallas | 3 | All Maps","name_short":"dal-3","host":"dal-1.us.uncletopia.com","port":27035,"enabled":true,"region":"us-central","cc":"us","latitude":32.779167,"longitude":-96.80889,"reserved":0,"last_update":"0001-01-01T00:00:00Z","name_a2s":"Uncletopia | Dallas | 3 | All Maps","protocol":17,"map":"pl_upward","folder":"tf","game":"Team Fortress","app_id":440,"player_count":0,"max_players":24,"Bots":0,"server_type":"Dedicated","server_os":"Linux","password":true,"vac":true,"version":"7961495","steam_id":85568392924515219,"keywords":["nocrits","nodmgspread","payload","uncletopia"],"game_id":440,"stv_port":27036,"stv_name":"Uncletopia | Dallas | 3 | All Maps | STV","players":null},{"server_id":405,"name":"Uncletopia | Dallas | 4 | Community","name_short":"dal-4","host":"dal-1.us.uncletopia.com","port":27045,"enabled":true,"region":"us-central","cc":"us","latitude":32.779167,"longitude":-96.80889,"reserved":0,"last_update":"0001-01-01T00:00:00Z","name_a2s":"Uncletopia | Dallas | 4 | Community","protocol":17,"map":"pl_pier","folder":"tf","game":"Team Fortress","app_id":440,"player_count":0,"max_players":24,"Bots":0,"server_type":"Dedicated","server_os":"Linux","password":true,"vac":true,"version":"7961495","steam_id":85568392924515220,"keywords":["nocrits","nodmgspread","payload","uncletopia"],"game_id":440,"stv_port":27046,"stv_name":"Uncletopia | Dallas | 4 | Community | STV","players":null},{"server_id":5,"name":"Uncletopia | Frankfurt | 1 | All Maps","name_short":"frk-1","host":"frk-1.de.uncletopia.com","port":27015,"enabled":true,"region":"eu","cc":"de","latitude":50.110924,"longitude":8.682127,"reserved":0,"last_update":"0001-01-01T00:00:00Z","name_a2s":"Uncletopia | Frankfurt | 1 | All Maps","protocol":17,"map":"pl_badwater","folder":"tf","game":"Team Fortress","app_id":440,"player_count":24,"max_players":24,"Bots":0,"server_type":"Dedicated","server_os":"Linux","password":true,"vac":true,"version":"7961495","steam_id":85568392924469989,"keywords":["nocrits","nodmgspread","payload","uncletopia"],"game_id":440,"stv_port":27016,"stv_name":"Uncletopia | Frankfurt | 1 | All Maps | STV","players":[{"user_id":353,"name":"Hej soko≈Çy!","steam_id":76561198406300604,"connected_time":2177000000000,"state":"active","ping":91},{"user_id":306,"name":"Toasty5050","steam_id":76561198073540881,"connected_time":5017000000000,"state":"active","ping":43},{"user_id":260,"name":"Random","steam_id":76561198291681674,"connected_time":9159000000000,"state":"active","ping":51},{"user_id":313,"name":"Rimx","steam_id":76561198053034840,"connected_time":4442000000000,"state":"active","ping":91},{"user_id":314,"name":"agent_richi","steam_id":76561199218542987,"connected_time":4439000000000,"state":"active","ping":54},{"user_id":370,"name":"Uriziel","steam_id":76561198046950794,"connected_time":855000000000,"state":"active","ping":83},{"user_id":375,"name":"dfcv rftgvb ghtb","steam_id":76561198397764042,"connected_time":89000000000,"state":"active","ping":87},{"user_id":376,"name":"Pilaarius","steam_id":76561198120273212,"connected_time":86000000000,"state":"active","ping":95},{"user_id":371,"name":"cestmir","steam_id":76561198083346999,"connected_time":316000000000,"state":"active","ping":47},{"user_id":365,"name":"D.T. Katze","steam_id":76561198002280813,"connected_time":1400000000000,"state":"active","ping":134},{"user_id":348,"name":"Mikeal (bad)","steam_id":76561198241759034,"connected_time":2343000000000,"state":"active","ping":97},{"user_id":358,"name":"Hot Cheese Sundae","steam_id":76561198061189527,"connected_time":1924000000000,"state":"active","ping":165},{"user_id":363,"name":"milikicz","steam_id":76561198050626103,"connected_time":1427000000000,"state":"active","ping":51},{"user_id":366,"name":"Finem Belli","steam_id":76561198227177976,"connected_time":1397000000000,"state":"active","ping":48},{"user_id":323,"name":"Nimson","steam_id":76561199113209358,"connected_time":4235000000000,"state":"active","ping":89},{"user_id":377,"name":"Vershal Smershal","steam_id":76561198116223995,"connected_time":52000000000,"state":"active","ping":60},{"user_id":369,"name":"Razor","steam_id":76561197973965174,"connected_time":1061000000000,"state":"active","ping":54},{"user_id":374,"name":"Dr_Psycho","steam_id":76561197987029865,"connected_time":141000000000,"state":"active","ping":46},{"user_id":367,"name":"Star in a pond","steam_id":76561198205501279,"connected_time":1395000000000,"state":"active","ping":91},{"user_id":368,"name":"Man","steam_id":76561197964776022,"connected_time":1388000000000,"state":"active","ping":42},{"user_id":335,"name":"endlesshills","steam_id":76561198081908373,"connected_time":3651000000000,"state":"active","ping":56},{"user_id":309,"name":"NALA","steam_id":76561198039806469,"connected_time":4463000000000,"state":"active","ping":70},{"user_id":322,"name":"heal","steam_id":76561198046754534,"connected_time":4302000000000,"state":"active","ping":83},{"user_id":352,"name":"Ziomek","steam_id":76561199131735098,"connected_time":2281000000000,"state":"active","ping":75}]},{"server_id":110,"name":"Uncletopia | Frankfurt | 2 | All Maps","name_short":"frk-2","host":"frk-1.de.uncletopia.com","port":27025,"enabled":true,"region":"eu","cc":"de","latitude":50.110924,"longitude":8.682127,"reserved":0,"last_update":"0001-01-01T00:00:00Z","name_a2s":"Uncletopia | Frankfurt | 2 | All Maps","protocol":17,"map":"pl_swiftwater_final1","folder":"tf","game":"Team Fortress","app_id":440,"player_count":24,"max_players":24,"Bots":0,"server_type":"Dedicated","server_os":"Linux","password":true,"vac":true,"version":"7961495","steam_id":85568392924469990,"keywords":["nocrits","nodmgspread","payload","uncletopia"],"game_id":440,"stv_port":27026,"stv_name":"Uncletopia | Frankfurt | 2 | All Maps | STV","players":[{"user_id":206,"name":"Rock..","steam_id":76561198004641963,"connected_time":1242000000000,"state":"active","ping":83},{"user_id":159,"name":"Mr. Mundy","steam_id":76561198132008918,"connected_time":5356000000000,"state":"active","ping":77},{"user_id":222,"name":"dirty rascal","steam_id":76561198000871038,"connected_time":22000000000,"state":"active","ping":60},{"user_id":152,"name":"Hexagon","steam_id":76561198151205758,"connected_time":5756000000000,"state":"active","ping":45},{"user_id":215,"name":"Universium","steam_id":76561199153390032,"connected_time":521000000000,"state":"active","ping":73},{"user_id":104,"name":"Testicular torsion","steam_id":76561198119547399,"connected_time":8043000000000,"state":"active","ping":49},{"user_id":195,"name":"Bill Clinton","steam_id":76561198060011032,"connected_time":1595000000000,"state":"active","ping":58},{"user_id":207,"name":"BELADIT","steam_id":76561198011911501,"connected_time":1196000000000,"state":"active","ping":73},{"user_id":185,"name":"Diggity","steam_id":76561198297157085,"connected_time":2889000000000,"state":"active","ping":46},{"user_id":216,"name":"240km/h.PEEK Mizel","steam_id":76561199226604824,"connected_time":414000000000,"state":"active","ping":92},{"user_id":221,"name":"Crol","steam_id":76561198158463173,"connected_time":165000000000,"state":"active","ping":70},{"user_id":211,"name":"Bobirulez","steam_id":76561198009125458,"connected_time":912000000000,"state":"active","ping":60},{"user_id":214,"name":"Maximilian1359","steam_id":76561198152439608,"connected_time":747000000000,"state":"active","ping":58},{"user_id":219,"name":"engineer drip","steam_id":76561198991032570,"connected_time":257000000000,"state":"active","ping":94},{"user_id":192,"name":"Team Fortress 2","steam_id":76561198190936635,"connected_time":2367000000000,"state":"active","ping":61},{"user_id":201,"name":"[T]aKer","steam_id":76561198001778013,"connected_time":1538000000000,"state":"active","ping":54},{"user_id":180,"name":"svantezch","steam_id":76561198373831657,"connected_time":3317000000000,"state":"active","ping":79},{"user_id":176,"name":"Deacon Dracul","steam_id":76561198046880663,"connected_time":3867000000000,"state":"active","ping":96},{"user_id":208,"name":"gpupdate","steam_id":76561198154677956,"connected_time":1055000000000,"state":"active","ping":73},{"user_id":220,"name":"night.s","steam_id":76561198326287823,"connected_time":172000000000,"state":"active","ping":69},{"user_id":193,"name":"Child smasher","steam_id":76561199156513339,"connected_time":2354000000000,"state":"active","ping":61},{"user_id":213,"name":"–∫–µ–∫—Å","steam_id":76561199203525443,"connected_time":862000000000,"state":"active","ping":89},{"user_id":140,"name":"JaneDoe","steam_id":76561198067081506,"connected_time":6185000000000,"state":"active","ping":91},{"user_id":109,"name":"Zamorocian","steam_id":76561198076604017,"connected_time":7666000000000,"state":"active","ping":48}]},{"server_id":308,"name":"Uncletopia | Frankfurt | 3 | All Maps","name_short":"frk-3","host":"frk-1.de.uncletopia.com","port":27035,"enabled":true,"region":"eu","cc":"de","latitude":50.110924,"longitude":8.682127,"reserved":0,"last_update":"0001-01-01T00:00:00Z","name_a2s":"Uncletopia | Frankfurt | 3 | All Maps","protocol":17,"map":"pl_upward","folder":"tf","game":"Team Fortress","app_id":440,"player_count":24,"max_players":24,"Bots":0,"server_type":"Dedicated","server_os":"Linux","password":true,"vac":true,"version":"7961495","steam_id":85568392924504274,"keywords":["nocrits","nodmgspread","payload","uncletopia"],"game_id":440,"stv_port":27036,"stv_name":"Uncletopia | Frankfurt | 3 | All Maps | STV","players":[{"user_id":289,"name":"Tortgamer","steam_id":76561198423709756,"connected_time":81000000000,"state":"active","ping":66},{"user_id":273,"name":"Sam04","steam_id":76561199004535941,"connected_time":989000000000,"state":"active","ping":73},{"user_id":285,"name":"Andy","steam_id":76561198136364381,"connected_time":646000000000,"state":"active","ping":59},{"user_id":233,"name":"def","steam_id":76561198857396812,"connected_time":3458000000000,"state":"active","ping":46},{"user_id":287,"name":":|","steam_id":76561198145232617,"connected_time":430000000000,"state":"active","ping":50},{"user_id":279,"name":"Abyssion","steam_id":76561198040246963,"connected_time":899000000000,"state":"active","ping":54},{"user_id":276,"name":"s3rg_","steam_id":76561198024043213,"connected_time":959000000000,"state":"active","ping":60},{"user_id":264,"name":"btrayed","steam_id":76561199498456546,"connected_time":2471000000000,"state":"active","ping":60},{"user_id":283,"name":"Dolcelatte","steam_id":76561198038501770,"connected_time":738000000000,"state":"active","ping":48},{"user_id":277,"name":"hellscream","steam_id":76561199163884827,"connected_time":954000000000,"state":"active","ping":103},{"user_id":286,"name":"alfus","steam_id":76561198071003109,"connected_time":638000000000,"state":"active","ping":59},{"user_id":255,"name":"GONE, GONE / THANK YOU","steam_id":76561198257383813,"connected_time":2711000000000,"state":"active","ping":45},{"user_id":243,"name":"Baiterz","steam_id":76561198030815786,"connected_time":2966000000000,"state":"active","ping":59},{"user_id":265,"name":"kikithenorthwind","steam_id":76561199013581278,"connected_time":2249000000000,"state":"active","ping":81},{"user_id":240,"name":"M7MD3BD0","steam_id":76561199072750769,"connected_time":3284000000000,"state":"active","ping":94},{"user_id":267,"name":"pepper","steam_id":76561198852650589,"connected_time":2021000000000,"state":"active","ping":88},{"user_id":278,"name":"omony","steam_id":76561197983750025,"connected_time":948000000000,"state":"active","ping":91},{"user_id":268,"name":"Swaggasouruss","steam_id":76561198285607649,"connected_time":1969000000000,"state":"active","ping":99},{"user_id":272,"name":"Carney","steam_id":76561198064078751,"connected_time":1217000000000,"state":"active","ping":82},{"user_id":281,"name":"Apina Nautiskelija","steam_id":76561198391622919,"connected_time":890000000000,"state":"active","ping":80},{"user_id":262,"name":"Meh Good Enough","steam_id":76561199012646173,"connected_time":2558000000000,"state":"active","ping":79},{"user_id":238,"name":"Arsonist","steam_id":76561199087953833,"connected_time":3394000000000,"state":"active","ping":113},{"user_id":241,"name":"runcar222","steam_id":76561198077085528,"connected_time":3199000000000,"state":"active","ping":69},{"user_id":282,"name":"Henkat","steam_id":76561199079480352,"connected_time":885000000000,"state":"active","ping":87}]},{"server_id":309,"name":"Uncletopia | Frankfurt | 4 | All Maps","name_short":"frk-4","host":"frk-1.de.uncletopia.com","port":27045,"enabled":true,"region":"eu","cc":"de","latitude":50.110924,"longitude":8.682127,"reserved":0,"last_update":"0001-01-01T00:00:00Z","name_a2s":"Uncletopia | Frankfurt | 4 | All Maps","protocol":17,"map":"pl_frontier_final","folder":"tf","game":"Team Fortress","app_id":440,"player_count":24,"max_players":24,"Bots":0,"server_type":"Dedicated","server_os":"Linux","password":true,"vac":true,"version":"7961495","steam_id":85568392924504275,"keywords":["nocrits","nodmgspread","payload","uncletopia"],"game_id":440,"stv_port":27046,"stv_name":"Uncletopia | Frankfurt | 4 | All Maps | STV","players":[{"user_id":402,"name":"pinkddpat","steam_id":76561199081912795,"connected_time":3566000000000,"state":"active","ping":82},{"user_id":460,"name":"Strawberry","steam_id":76561198052255586,"connected_time":118000000000,"state":"active","ping":61},{"user_id":455,"name":"Sakefake","steam_id":76561198029594679,"connected_time":187000000000,"state":"active","ping":49},{"user_id":461,"name":"Silver","steam_id":76561198175238807,"connected_time":101000000000,"state":"active","ping":74},{"user_id":417,"name":"Carry Krypl","steam_id":76561198136938121,"connected_time":2478000000000,"state":"active","ping":58},{"user_id":452,"name":"Armix","steam_id":76561198079373642,"connected_time":254000000000,"state":"active","ping":62},{"user_id":415,"name":"Tenshi","steam_id":76561197964915322,"connected_time":2498000000000,"state":"active","ping":90},{"user_id":379,"name":"LordTrap.exe","steam_id":76561198318089716,"connected_time":5150000000000,"state":"active","ping":73},{"user_id":419,"name":"Josh","steam_id":76561198274546904,"connected_time":2472000000000,"state":"active","ping":147},{"user_id":454,"name":"aida","steam_id":76561198311044984,"connected_time":204000000000,"state":"active","ping":65},{"user_id":441,"name":"Femboy Thighs","steam_id":76561198115496457,"connected_time":598000000000,"state":"active","ping":56},{"user_id":432,"name":"Maxin","steam_id":76561197999923364,"connected_time":1098000000000,"state":"active","ping":64},{"user_id":354,"name":"Yelowchy","steam_id":76561198199416121,"connected_time":6573000000000,"state":"active","ping":67},{"user_id":430,"name":"Pumpkin Pie","steam_id":76561198115230959,"connected_time":1461000000000,"state":"active","ping":77},{"user_id":459,"name":"Acanda","steam_id":76561198123246537,"connected_time":132000000000,"state":"active","ping":61},{"user_id":447,"name":"IT'S OVER","steam_id":76561198094268619,"connected_time":329000000000,"state":"active","ping":61},{"user_id":442,"name":"aRtaRt","steam_id":76561199051316171,"connected_time":595000000000,"state":"active","ping":73},{"user_id":413,"name":"G√ºnther","steam_id":76561198333417038,"connected_time":2517000000000,"state":"active","ping":62},{"user_id":422,"name":"The Wolf Leader","steam_id":76561198038007462,"connected_time":2346000000000,"state":"active","ping":76},{"user_id":423,"name":"Seail_M","steam_id":76561198002405605,"connected_time":2345000000000,"state":"active","ping":53},{"user_id":406,"name":"evil \u003e:)","steam_id":76561198349648942,"connected_time":3298000000000,"state":"active","ping":80},{"user_id":457,"name":"putrefied meat","steam_id":76561198280507478,"connected_time":160000000000,"state":"active","ping":56},{"user_id":448,"name":"katten","steam_id":76561198163615254,"connected_time":313000000000,"state":"active","ping":53},{"user_id":458,"name":"Alyx","steam_id":76561198064654326,"connected_time":139000000000,"state":"active","ping":50}]},{"server_id":310,"name":"Uncletopia | Frankfurt | 5 | All Maps","name_short":"frk-5","host":"frk-1.de.uncletopia.com","port":27055,"enabled":true,"region":"eu","cc":"de","latitude":50.110924,"longitude":8.682127,"reserved":0,"last_update":"0001-01-01T00:00:00Z","name_a2s":"Uncletopia | Frankfurt | 5 | All Maps","protocol":17,"map":"pl_barnblitz","folder":"tf","game":"Team Fortress","app_id":440,"player_count":24,"max_players":24,"Bots":0,"server_type":"Dedicated","server_os":"Linux","password":true,"vac":true,"version":"7961495","steam_id":85568392924504277,"keywords":["nocrits","nodmgspread","payload","uncletopia"],"game_id":440,"stv_port":27056,"stv_name":"Uncletopia | Frankfurt | 5 | All Maps | STV","players":[{"user_id":574,"name":"Noob_with_source","steam_id":76561198870362103,"connected_time":387000000000,"state":"active","ping":60},{"user_id":580,"name":"Lemi","steam_id":76561198393301030,"connected_time":174000000000,"state":"active","ping":82},{"user_id":581,"name":"Tvx","steam_id":76561198983247585,"connected_time":162000000000,"state":"active","ping":126},{"user_id":579,"name":"outlaw","steam_id":76561198323805289,"connected_time":227000000000,"state":"active","ping":45},{"user_id":577,"name":"milof","steam_id":76561198809199604,"connected_time":274000000000,"state":"active","ping":75},{"user_id":553,"name":"chillrend_morphs_high_lod6","steam_id":76561198452963141,"connected_time":2958000000000,"state":"active","ping":75},{"user_id":566,"name":"I sell exotic parrots","steam_id":76561199192434258,"connected_time":1229000000000,"state":"active","ping":81},{"user_id":582,"name":"Murovelho","steam_id":76561198835081622,"connected_time":134000000000,"state":"active","ping":105},{"user_id":548,"name":"cazador","steam_id":76561198123096922,"connected_time":3105000000000,"state":"active","ping":100},{"user_id":554,"name":"Sprottel","steam_id":76561198362958293,"connected_time":2948000000000,"state":"active","ping":45},{"user_id":500,"name":"640x480","steam_id":76561198304515309,"connected_time":5408000000000,"state":"active","ping":70},{"user_id":501,"name":"Sunshine Moon","steam_id":76561198022604491,"connected_time":5374000000000,"state":"active","ping":63},{"user_id":530,"name":"Asocial","steam_id":76561198328594578,"connected_time":4240000000000,"state":"active","ping":103},{"user_id":561,"name":"overman","steam_id":76561198038348301,"connected_time":1430000000000,"state":"active","ping":60},{"user_id":575,"name":"penis scout","steam_id":76561198371527078,"connected_time":380000000000,"state":"active","ping":80},{"user_id":417,"name":"fifrok","steam_id":76561198799267621,"connected_time":12071000000000,"state":"active","ping":69},{"user_id":539,"name":"autotopilot","steam_id":76561198261922138,"connected_time":4024000000000,"state":"active","ping":74},{"user_id":542,"name":"lexa","steam_id":76561198153381971,"connected_time":3643000000000,"state":"active","ping":74},{"user_id":555,"name":"Lessoz","steam_id":76561199211572036,"connected_time":2780000000000,"state":"active","ping":96},{"user_id":578,"name":"Michael","steam_id":76561198003146906,"connected_time":262000000000,"state":"active","ping":58},{"user_id":576,"name":"wut","steam_id":76561198111134021,"connected_time":361000000000,"state":"active","ping":78},{"user_id":572,"name":"Kotlet schabowy","steam_id":76561198048983509,"connected_time":418000000000,"state":"active","ping":78},{"user_id":573,"name":"G-Man Follower","steam_id":76561199384234822,"connected_time":403000000000,"state":"active","ping":65},{"user_id":568,"name":"Dirocks","steam_id":76561198138494815,"connected_time":1172000000000,"state":"active","ping":81}]},{"server_id":311,"name":"Uncletopia | Frankfurt | 6 | All Maps","name_short":"frk-6","host":"frk-1.de.uncletopia.com","port":27065,"enabled":true,"region":"eu","cc":"de","latitude":50.110924,"longitude":8.682127,"reserved":0,"last_update":"0001-01-01T00:00:00Z","name_a2s":"Uncletopia | Frankfurt | 6 | All Maps","protocol":17,"map":"cp_badlands","folder":"tf","game":"Team Fortress","app_id":440,"player_count":18,"max_players":24,"Bots":0,"server_type":"Dedicated","server_os":"Linux","password":true,"vac":true,"version":"7961495","steam_id":85568392924504278,"keywords":["cp","nocrits","nodmgspread","uncletopia"],"game_id":440,"stv_port":27066,"stv_name":"Uncletopia | Frankfurt | 6 | All Maps | STV","players":[{"user_id":177,"name":"Bufnits","steam_id":76561199302548535,"connected_time":3180000000000,"state":"active","ping":106},{"user_id":211,"name":"Spicy raccon","steam_id":76561198408560636,"connected_time":434000000000,"state":"active","ping":71},{"user_id":212,"name":"BOT","steam_id":76561197993423450,"connected_time":343000000000,"state":"active","ping":74},{"user_id":188,"name":"Imperial City Guard","steam_id":76561198083355845,"connected_time":2345000000000,"state":"active","ping":49},{"user_id":193,"name":"Marabosha","steam_id":76561198137599173,"connected_time":2206000000000,"state":"active","ping":105},{"user_id":183,"name":"Yobopan","steam_id":76561198088064860,"connected_time":2784000000000,"state":"active","ping":59},{"user_id":195,"name":"Russenluster","steam_id":76561198118016220,"connected_time":2194000000000,"state":"active","ping":46},{"user_id":215,"name":"Janfors","steam_id":76561198874152503,"connected_time":21000000000,"state":"active","ping":81},{"user_id":204,"name":"Monkey","steam_id":76561199008411791,"connected_time":1680000000000,"state":"active","ping":61},{"user_id":214,"name":"Itai","steam_id":76561198804555329,"connected_time":49000000000,"state":"active","ping":88},{"user_id":216,"name":"Life goes on","steam_id":76561198103978102,"connected_time":8000000000,"state":"active","ping":101},{"user_id":206,"name":"lunchback of notre dame","steam_id":76561199136755064,"connected_time":1391000000000,"state":"active","ping":57},{"user_id":190,"name":"AwZooom","steam_id":76561198154061149,"connected_time":2267000000000,"state":"active","ping":44},{"user_id":180,"name":"monocle chicken","steam_id":76561199020106029,"connected_time":3140000000000,"state":"active","ping":77},{"user_id":199,"name":"Limonca","steam_id":76561198079029706,"connected_time":1937000000000,"state":"active","ping":62},{"user_id":205,"name":"Donki Wonki","steam_id":76561198327761273,"connected_time":1658000000000,"state":"active","ping":77},{"user_id":184,"name":"mary","steam_id":76561198014828037,"connected_time":2783000000000,"state":"active","ping":62},{"user_id":160,"name":"Daan77","steam_id":76561198129940468,"connected_time":4164000000000,"state":"active","ping":72}]},{"server_id":23,"name":"Uncletopia | Frankfurt | 7 | Stopwatch","name_short":"frk-7","host":"frk-1.de.uncletopia.com","port":27075,"enabled":true,"region":"eu","cc":"de","latitude":50.110924,"longitude":8.682127,"reserved":0,"last_update":"0001-01-01T00:00:00Z","name_a2s":"Uncletopia | Frankfurt | 7 | Stopwatch","protocol":17,"map":"cp_granary","folder":"tf","game":"Team Fortress","app_id":440,"player_count":24,"max_players":24,"Bots":0,"server_type":"Dedicated","server_os":"Linux","password":true,"vac":true,"version":"7961495","steam_id":85568392924742827,"keywords":["cp","nocrits","nodmgspread","uncletopia"],"game_id":440,"stv_port":27076,"stv_name":"Uncletopia | Frankfurt | 7 | Stopwatch | STV","players":[{"user_id":32,"name":"elmstJP ‚Ç™ F4.exe","steam_id":76561197997909480,"connected_time":3521000000000,"state":"active","ping":66},{"user_id":84,"name":"F4.exe","steam_id":76561198278822807,"connected_time":665000000000,"state":"active","ping":60},{"user_id":88,"name":"Joo ‚ô¶","steam_id":76561197987609203,"connected_time":585000000000,"state":"active","ping":71},{"user_id":66,"name":"darkwater","steam_id":76561197986978738,"connected_time":1438000000000,"state":"active","ping":63},{"user_id":91,"name":"Richard_HUN","steam_id":76561198299050967,"connected_time":93000000000,"state":"spawning","ping":559},{"user_id":37,"name":"ddchdrn","steam_id":76561198024358566,"connected_time":2474000000000,"state":"active","ping":59},{"user_id":65,"name":"Frostlight","steam_id":76561198016360449,"connected_time":1594000000000,"state":"active","ping":75},{"user_id":39,"name":"mumbler","steam_id":76561197970641239,"connected_time":2404000000000,"state":"active","ping":47},{"user_id":40,"name":"Loitsu","steam_id":76561198098177012,"connected_time":2356000000000,"state":"active","ping":100},{"user_id":92,"name":"‚ò≠TheDevilsEye‚ò≠","steam_id":76561198017379398,"connected_time":4000000000,"state":"spawning","ping":61},{"user_id":42,"name":"Quartzy","steam_id":76561198313301520,"connected_time":2296000000000,"state":"active","ping":47},{"user_id":69,"name":"WasserGurke","steam_id":76561198372482746,"connected_time":1329000000000,"state":"active","ping":61},{"user_id":76,"name":"[bleble] Hugay","steam_id":76561198034694819,"connected_time":1189000000000,"state":"active","ping":65},{"user_id":46,"name":"JC","steam_id":76561198029213352,"connected_time":2200000000000,"state":"active","ping":49},{"user_id":86,"name":"cisgender clown","steam_id":76561199469909295,"connected_time":636000000000,"state":"active","ping":88},{"user_id":83,"name":"Ô∑Ω","steam_id":76561198365973345,"connected_time":898000000000,"state":"active","ping":59},{"user_id":71,"name":"Ragnard","steam_id":76561198105280202,"connected_time":1294000000000,"state":"active","ping":69},{"user_id":89,"name":"Sensei","steam_id":76561198383582429,"connected_time":262000000000,"state":"active","ping":89},{"user_id":77,"name":"Dozer","steam_id":76561197998742338,"connected_time":1156000000000,"state":"active","ping":67},{"user_id":78,"name":"Memper","steam_id":76561198066700614,"connected_time":1140000000000,"state":"active","ping":83},{"user_id":79,"name":"iq drops","steam_id":76561198035795130,"connected_time":1127000000000,"state":"active","ping":58},{"user_id":87,"name":"Mr Lemon","steam_id":76561198054685254,"connected_time":625000000000,"state":"active","ping":68},{"user_id":59,"name":"myon","steam_id":76561197992528570,"connected_time":2084000000000,"state":"active","ping":80},{"user_id":90,"name":"Egor Pomidor","steam_id":76561199175688390,"connected_time":251000000000,"state":"active","ping":74}]},{"server_id":24,"name":"Uncletopia | Frankfurt | 8 | Community","name_short":"frk-8","host":"frk-1.de.uncletopia.com","port":27085,"enabled":true,"region":"eu","cc":"de","latitude":50.110924,"longitude":8.682127,"reserved":0,"last_update":"0001-01-01T00:00:00Z","name_a2s":"Uncletopia | Frankfurt | 8 | Community","protocol":17,"map":"cp_mountainlab","folder":"tf","game":"Team Fortress","app_id":440,"player_count":0,"max_players":24,"Bots":0,"server_type":"Dedicated","server_os":"Linux","password":true,"vac":true,"version":"7961495","steam_id":85568392924742828,"keywords":["cp","nocrits","nodmgspread","uncletopia"],"game_id":440,"stv_port":27086,"stv_name":"Uncletopia | Frankfurt | 8 | Community | STV","players":null},{"server_id":202,"name":"Uncletopia | Hong Kong | 1 | All Maps","name_short":"hgk-1","host":"hgk-1.hk.uncletopia.com","port":27015,"enabled":true,"region":"asia","cc":"hk","latitude":22.302711,"longitude":114.177216,"reserved":0,"last_update":"0001-01-01T00:00:00Z","name_a2s":"Uncletopia | Hong Kong | 1 | All Maps","protocol":17,"map":"koth_lakeside_final","folder":"tf","game":"Team Fortress","app_id":440,"player_count":0,"max_players":24,"Bots":0,"server_type":"Dedicated","server_os":"Linux","password":true,"vac":true,"version":"7961495","steam_id":85568392924494504,"keywords":["cp","nocrits","nodmgspread","uncletopia"],"game_id":440,"stv_port":27016,"stv_name":"Uncletopia | Hong Kong | 1 | All Maps | STV","players":null},{"server_id":1,"name":"Uncletopia | Los Angeles | 1 | All Maps","name_short":"lax-1","host":"lax-1.us.uncletopia.com","port":27015,"enabled":true,"region":"us-west","cc":"us","latitude":33.94279,"longitude":-118.41004,"reserved":0,"last_update":"0001-01-01T00:00:00Z","name_a2s":"Uncletopia | Los Angeles | 1 | All Maps","protocol":17,"map":"pl_snowycoast","folder":"tf","game":"Team Fortress","app_id":440,"player_count":0,"max_players":24,"Bots":0,"server_type":"Dedicated","server_os":"Linux","password":true,"vac":true,"version":"7961495","steam_id":85568392924469991,"keywords":["nocrits","nodmgspread","payload","uncletopia"],"game_id":440,"stv_port":27016,"stv_name":"Uncletopia | Los Angeles | 1 | All Maps | STV","players":null},{"server_id":112,"name":"Uncletopia | Los Angeles | 2 | All Maps","name_short":"lax-2","host":"lax-1.us.uncletopia.com","port":27025,"enabled":true,"region":"us-west","cc":"us","latitude":33.94279,"longitude":-118.41004,"reserved":0,"last_update":"0001-01-01T00:00:00Z","name_a2s":"Uncletopia | Los Angeles | 2 | All Maps","protocol":17,"map":"pl_enclosure_final","folder":"tf","game":"Team Fortress","app_id":440,"player_count":24,"max_players":24,"Bots":0,"server_type":"Dedicated","server_os":"Linux","password":true,"vac":true,"version":"7961495","steam_id":85568392924469992,"keywords":["nocrits","nodmgspread","payload","uncletopia"],"game_id":440,"stv_port":27026,"stv_name":"Uncletopia | Los Angeles | 2 | All Maps | STV","players":[{"user_id":148,"name":"stir-fried human tonsils","steam_id":76561198312126442,"connected_time":352000000000,"state":"active","ping":77},{"user_id":145,"name":"Antikythera","steam_id":76561198045923020,"connected_time":533000000000,"state":"active","ping":90},{"user_id":132,"name":"down syndrome larry","steam_id":76561198272948471,"connected_time":2116000000000,"state":"active","ping":126},{"user_id":100,"name":"ninja45","steam_id":76561198150619521,"connected_time":3935000000000,"state":"active","ping":74},{"user_id":139,"name":"Lock'd","steam_id":76561198170108230,"connected_time":1347000000000,"state":"active","ping":71},{"user_id":143,"name":"darren","steam_id":76561199050155136,"connected_time":1069000000000,"state":"active","ping":48},{"user_id":112,"name":"Boxcars","steam_id":76561198120978767,"connected_time":3423000000000,"state":"active","ping":54},{"user_id":147,"name":"Gordon Ramsay","steam_id":76561198123893900,"connected_time":384000000000,"state":"active","ping":130},{"user_id":141,"name":"roach","steam_id":76561198354811369,"connected_time":1284000000000,"state":"active","ping":47},{"user_id":122,"name":"Circuit Spark","steam_id":76561198832124473,"connected_time":2419000000000,"state":"active","ping":132},{"user_id":111,"name":"Indefiable","steam_id":76561198219238953,"connected_time":3545000000000,"state":"active","ping":62},{"user_id":131,"name":"Firedust19","steam_id":76561198153238631,"connected_time":2135000000000,"state":"active","ping":71},{"user_id":128,"name":":)","steam_id":76561198982415497,"connected_time":2143000000000,"state":"active","ping":65},{"user_id":130,"name":"Youngblood5780","steam_id":76561198113934410,"connected_time":2138000000000,"state":"active","ping":66},{"user_id":98,"name":"wolf_71","steam_id":76561198963570945,"connected_time":4076000000000,"state":"active","ping":80},{"user_id":78,"name":"KlassicLoL","steam_id":76561198081815303,"connected_time":4988000000000,"state":"active","ping":43},{"user_id":120,"name":"miguelrodriguez2013","steam_id":76561198269253587,"connected_time":2681000000000,"state":"active","ping":59},{"user_id":80,"name":"suger1316","steam_id":76561199079999423,"connected_time":4964000000000,"state":"active","ping":120},{"user_id":103,"name":"Cael","steam_id":76561198136789464,"connected_time":3921000000000,"state":"active","ping":59},{"user_id":118,"name":"devamar","steam_id":76561198069115467,"connected_time":3113000000000,"state":"active","ping":44},{"user_id":108,"name":"Stilgar of Sietch Tabr","steam_id":76561198131567365,"connected_time":3711000000000,"state":"active","ping":71},{"user_id":121,"name":"2 Point Tom","steam_id":76561198087617008,"connected_time":2646000000000,"state":"active","ping":87},{"user_id":138,"name":"Seshreb","steam_id":76561198846614634,"connected_time":1534000000000,"state":"active","ping":63}]},{"server_id":324,"name":"Uncletopia | Los Angeles | 3 | All Maps","name_short":"lax-3","host":"lax-1.us.uncletopia.com","port":27035,"enabled":true,"region":"us-west","cc":"us","latitude":33.94279,"longitude":-118.41004,"reserved":0,"last_update":"0001-01-01T00:00:00Z","name_a2s":"Uncletopia | Los Angeles | 3 | All Maps","protocol":17,"map":"pl_frontier_final","folder":"tf","game":"Team Fortress","app_id":440,"player_count":0,"max_players":24,"Bots":0,"server_type":"Dedicated","server_os":"Linux","password":true,"vac":true,"version":"7961495","steam_id":85568392924510198,"keywords":["nocrits","nodmgspread","payload","uncletopia"],"game_id":440,"stv_port":27036,"stv_name":"Uncletopia | Los Angeles | 3 | All Maps | STV","players":null},{"server_id":25,"name":"Uncletopia | Los Angeles | 4 | Stopwatch","name_short":"lax-4","host":"lax-1.us.uncletopia.com","port":27045,"enabled":true,"region":"us-west","cc":"us","latitude":33.94279,"longitude":-118.41004,"reserved":0,"last_update":"0001-01-01T00:00:00Z","name_a2s":"Uncletopia | Los Angeles | 4 | Stopwatch","protocol":17,"map":"pl_barnblitz","folder":"tf","game":"Team Fortress","app_id":440,"player_count":0,"max_players":24,"Bots":0,"server_type":"Dedicated","server_os":"Linux","password":true,"vac":true,"version":"7961495","steam_id":85568392924510199,"keywords":["nocrits","nodmgspread","payload","uncletopia"],"game_id":440,"stv_port":27046,"stv_name":"Uncletopia | Los Angeles | 4 | Stopwatch | STV","players":null},{"server_id":11,"name":"Uncletopia | London | 1 | All Maps","name_short":"lon-1","host":"lon-1.uk.uncletopia.com","port":27015,"enabled":true,"region":"eu","cc":"gb","latitude":51.509865,"longitude":-0.118092,"reserved":0,"last_update":"0001-01-01T00:00:00Z","name_a2s":"Uncletopia | London | 1 | All Maps","protocol":17,"map":"koth_harvest_final","folder":"tf","game":"Team Fortress","app_id":440,"player_count":25,"max_players":24,"Bots":0,"server_type":"Dedicated","server_os":"Linux","password":true,"vac":true,"version":"7961495","steam_id":85568392924367362,"keywords":["cp","nocrits","nodmgspread","uncletopia"],"game_id":440,"stv_port":27016,"stv_name":"Uncletopia | London | 1 | All Maps | STV","players":[{"user_id":573,"name":"Woman (Real)","steam_id":76561199151823932,"connected_time":94000000000,"state":"active","ping":88},{"user_id":519,"name":"Plep","steam_id":76561198840259819,"connected_time":4153000000000,"state":"active","ping":59},{"user_id":464,"name":"Czechmated","steam_id":76561198075648001,"connected_time":7732000000000,"state":"active","ping":66},{"user_id":572,"name":"Ecton","steam_id":76561198025103720,"connected_time":207000000000,"state":"active","ping":54},{"user_id":550,"name":"Black Tom","steam_id":76561198335730273,"connected_time":1281000000000,"state":"active","ping":59},{"user_id":520,"name":"Finkaksu Devourer of Sour Candy","steam_id":76561198201389163,"connected_time":4149000000000,"state":"active","ping":71},{"user_id":547,"name":"Lyra","steam_id":76561198043601838,"connected_time":1409000000000,"state":"active","ping":75},{"user_id":574,"name":"sphere","steam_id":76561197971059842,"connected_time":89000000000,"state":"active","ping":38},{"user_id":570,"name":"Margarito_snake","steam_id":76561198132001394,"connected_time":348000000000,"state":"active","ping":122},{"user_id":538,"name":"trite","steam_id":76561197983765323,"connected_time":1872000000000,"state":"active","ping":53},{"user_id":567,"name":"Sir Cauterize","steam_id":76561198047079422,"connected_time":435000000000,"state":"active","ping":55},{"user_id":556,"name":"NitPig","steam_id":76561198212991935,"connected_time":893000000000,"state":"active","ping":88},{"user_id":569,"name":"CrazyUranium417","steam_id":76561199500702290,"connected_time":370000000000,"state":"active","ping":33},{"user_id":417,"name":"impossible whopper eater","steam_id":76561198058641805,"connected_time":10262000000000,"state":"active","ping":54},{"user_id":571,"name":"VeLaVeN","steam_id":76561198120278081,"connected_time":321000000000,"state":"active","ping":90},{"user_id":566,"name":"LEGEND FUMO.","steam_id":76561198061033903,"connected_time":457000000000,"state":"active","ping":54},{"user_id":568,"name":"Ynss","steam_id":76561198021472798,"connected_time":407000000000,"state":"active","ping":59},{"user_id":527,"name":"map","steam_id":76561198370196400,"connected_time":3127000000000,"state":"active","ping":91},{"user_id":575,"name":"DeleF_UA","steam_id":76561198830719703,"connected_time":40000000000,"state":"active","ping":181},{"user_id":552,"name":"TF2_F2P","steam_id":76561199065028772,"connected_time":1262000000000,"state":"active","ping":57},{"user_id":524,"name":"Clown :o)","steam_id":76561198074657015,"connected_time":3738000000000,"state":"active","ping":57},{"user_id":523,"name":"Tre3","steam_id":76561198054795379,"connected_time":3863000000000,"state":"active","ping":63},{"user_id":526,"name":"chief keef sag so low","steam_id":76561198106049954,"connected_time":3248000000000,"state":"active","ping":79},{"user_id":539,"name":"Prime Minister Rishi Sunak","steam_id":76561198846784757,"connected_time":1567000000000,"state":"active","ping":60},{"user_id":554,"name":"hmscole09","steam_id":76561198811362788,"connected_time":1208000000000,"state":"active","ping":51}]},{"server_id":114,"name":"Uncletopia | London | 2 | All Maps","name_short":"lon-2","host":"lon-1.uk.uncletopia.com","port":27025,"enabled":true,"region":"eu","cc":"gb","latitude":51.509865,"longitude":-0.118092,"reserved":0,"last_update":"0001-01-01T00:00:00Z","name_a2s":"Uncletopia | London | 2 | All Maps","protocol":17,"map":"cp_dustbowl","folder":"tf","game":"Team Fortress","app_id":440,"player_count":19,"max_players":24,"Bots":0,"server_type":"Dedicated","server_os":"Linux","password":true,"vac":true,"version":"7961495","steam_id":85568392924470941,"keywords":["cp","nocrits","nodmgspread","uncletopia"],"game_id":440,"stv_port":27026,"stv_name":"Uncletopia | London | 2 | All Maps | STV","players":[{"user_id":479,"name":"Spinya","steam_id":76561198086653667,"connected_time":3229000000000,"state":"active","ping":56},{"user_id":341,"name":"Luigi","steam_id":76561199194954220,"connected_time":9758000000000,"state":"active","ping":67},{"user_id":525,"name":"Japie","steam_id":76561198084292558,"connected_time":314000000000,"state":"active","ping":39},{"user_id":503,"name":"ursus ludens","steam_id":76561198337150763,"connected_time":1937000000000,"state":"active","ping":53},{"user_id":521,"name":"Mastenbier","steam_id":76561199067658590,"connected_time":829000000000,"state":"active","ping":130},{"user_id":502,"name":"pedro","steam_id":76561198948893893,"connected_time":2029000000000,"state":"active","ping":55},{"user_id":523,"name":"heddwch","steam_id":76561198076097983,"connected_time":599000000000,"state":"active","ping":82},{"user_id":500,"name":"Jahlil D'armequanius Finglenut","steam_id":76561198855897385,"connected_time":2245000000000,"state":"active","ping":57},{"user_id":524,"name":"‚ô¶Silvia‚ô¶","steam_id":76561198373039444,"connected_time":517000000000,"state":"active","ping":115},{"user_id":518,"name":"Gle_Dusse","steam_id":76561198344645844,"connected_time":1207000000000,"state":"active","ping":103},{"user_id":481,"name":"DudeoftheRock","steam_id":76561198059401865,"connected_time":3204000000000,"state":"active","ping":71},{"user_id":509,"name":"dash.","steam_id":76561198084796149,"connected_time":1749000000000,"state":"active","ping":45},{"user_id":519,"name":"Someone","steam_id":76561199030195879,"connected_time":1077000000000,"state":"active","ping":53},{"user_id":411,"name":"Nikt Wa≈ºny (F2P)","steam_id":76561199273293257,"connected_time":6934000000000,"state":"active","ping":161},{"user_id":522,"name":"I Eamt Purbgeon","steam_id":76561198073769916,"connected_time":657000000000,"state":"active","ping":51},{"user_id":512,"name":"Favi","steam_id":76561198013236935,"connected_time":1702000000000,"state":"active","ping":93},{"user_id":498,"name":"Gir","steam_id":76561198075155374,"connected_time":2559000000000,"state":"active","ping":44},{"user_id":516,"name":"AftiksPL","steam_id":76561198875182686,"connected_time":1656000000000,"state":"active","ping":97},{"user_id":372,"name":"Flying Squirrel","steam_id":76561198005202791,"connected_time":8629000000000,"state":"active","ping":76}]},{"server_id":320,"name":"Uncletopia | London | 3 | All Maps","name_short":"lon-3","host":"lon-1.uk.uncletopia.com","port":27035,"enabled":true,"region":"eu","cc":"gb","latitude":51.509865,"longitude":-0.118092,"reserved":0,"last_update":"0001-01-01T00:00:00Z","name_a2s":"Uncletopia | London | 3 | All Maps","protocol":17,"map":"koth_lakeside_final","folder":"tf","game":"Team Fortress","app_id":440,"player_count":16,"max_players":24,"Bots":0,"server_type":"Dedicated","server_os":"Linux","password":true,"vac":true,"version":"7961495","steam_id":85568392924510192,"keywords":["cp","nocrits","nodmgspread","uncletopia"],"game_id":440,"stv_port":27036,"stv_name":"Uncletopia | London | 3 | All Maps | STV","players":[{"user_id":248,"name":"R8N - Obismal","steam_id":76561198007482714,"connected_time":7545000000000,"state":"active","ping":77},{"user_id":345,"name":"orkleon1","steam_id":76561198255092913,"connected_time":2405000000000,"state":"active","ping":63},{"user_id":371,"name":"Sodsboy","steam_id":76561198030482006,"connected_time":745000000000,"state":"active","ping":37},{"user_id":332,"name":"Reljadin","steam_id":76561198054997553,"connected_time":2979000000000,"state":"active","ping":85},{"user_id":317,"name":"BOZZO","steam_id":76561198044210844,"connected_time":3954000000000,"state":"active","ping":74},{"user_id":365,"name":"Panzerwaffle","steam_id":76561198030382800,"connected_time":1082000000000,"state":"active","ping":56},{"user_id":357,"name":"Mr_Pulse_","steam_id":76561198095001602,"connected_time":1345000000000,"state":"active","ping":100},{"user_id":369,"name":"NovaByte","steam_id":76561199024222387,"connected_time":949000000000,"state":"active","ping":54},{"user_id":375,"name":"Gimble","steam_id":76561198964372777,"connected_time":23000000000,"state":"active","ping":49},{"user_id":374,"name":"Pomed","steam_id":76561198133085347,"connected_time":551000000000,"state":"active","ping":59},{"user_id":368,"name":"–¥–∂–µ–≥–µ–º–∏ —Ö—ç–ø–∫–∏–Ω–≥—Å","steam_id":76561198131531394,"connected_time":971000000000,"state":"active","ping":97},{"user_id":279,"name":"DHD - Obismal","steam_id":76561198000356530,"connected_time":5573000000000,"state":"active","ping":82},{"user_id":281,"name":"gamerkiddo","steam_id":76561198047380360,"connected_time":5418000000000,"state":"active","ping":54},{"user_id":312,"name":"Macci - Obismal","steam_id":76561198050485404,"connected_time":4099000000000,"state":"active","ping":75},{"user_id":274,"name":"bitkomet","steam_id":76561198058232147,"connected_time":6075000000000,"state":"active","ping":77},{"user_id":363,"name":"bagasser","steam_id":76561198051283300,"connected_time":1162000000000,"state":"active","ping":76}]},{"server_id":321,"name":"Uncletopia | London | 4 | All Maps","name_short":"lon-4","host":"lon-1.uk.uncletopia.com","port":27045,"enabled":true,"region":"eu","cc":"gb","latitude":51.509865,"longitude":-0.118092,"reserved":0,"last_update":"0001-01-01T00:00:00Z","name_a2s":"Uncletopia | London | 4 | All Maps","protocol":17,"map":"pl_pier","folder":"tf","game":"Team Fortress","app_id":440,"player_count":24,"max_players":24,"Bots":0,"server_type":"Dedicated","server_os":"Linux","password":true,"vac":true,"version":"7961495","steam_id":85568392924510193,"keywords":["nocrits","nodmgspread","payload","uncletopia"],"game_id":440,"stv_port":27046,"stv_name":"Uncletopia | London | 4 | All Maps | STV","players":[{"user_id":174,"name":"q47tx","steam_id":76561199181333933,"connected_time":546000000000,"state":"active","ping":95},{"user_id":156,"name":"Calsim","steam_id":76561198164877219,"connected_time":1367000000000,"state":"active","ping":40},{"user_id":129,"name":"Sunkerdink","steam_id":76561197996757446,"connected_time":3491000000000,"state":"active","ping":58},{"user_id":126,"name":"Solymr ibn Wali Barad","steam_id":76561198044008976,"connected_time":3731000000000,"state":"active","ping":77},{"user_id":175,"name":"mohemmedmokhter2005","steam_id":76561199197650506,"connected_time":489000000000,"state":"active","ping":116},{"user_id":157,"name":"Mozzaza","steam_id":76561198156316111,"connected_time":1355000000000,"state":"active","ping":138},{"user_id":178,"name":"Mong","steam_id":76561198891218910,"connected_time":159000000000,"state":"active","ping":91},{"user_id":171,"name":"TSx* Naxer","steam_id":76561198011986779,"connected_time":1080000000000,"state":"active","ping":75},{"user_id":92,"name":"Lux","steam_id":76561198060417740,"connected_time":5944000000000,"state":"active","ping":45},{"user_id":159,"name":"azzy","steam_id":76561198061293740,"connected_time":1331000000000,"state":"active","ping":76},{"user_id":160,"name":"deflox","steam_id":76561198087450635,"connected_time":1321000000000,"state":"active","ping":60},{"user_id":142,"name":"Rodia","steam_id":76561197968293161,"connected_time":2904000000000,"state":"active","ping":74},{"user_id":164,"name":"benny","steam_id":76561198115333087,"connected_time":1284000000000,"state":"active","ping":47},{"user_id":162,"name":"Wobblyboyz","steam_id":76561198289356209,"connected_time":1312000000000,"state":"active","ping":47},{"user_id":165,"name":"UltimateSlayer","steam_id":76561198384109309,"connected_time":1277000000000,"state":"active","ping":60},{"user_id":172,"name":"Fidacha","steam_id":76561198003060881,"connected_time":1019000000000,"state":"active","ping":71},{"user_id":167,"name":"My left foot itches","steam_id":76561198078411001,"connected_time":1255000000000,"state":"active","ping":90},{"user_id":168,"name":"Therapy Goth","steam_id":76561198048448497,"connected_time":1250000000000,"state":"active","ping":119},{"user_id":173,"name":"snert","steam_id":76561198451550309,"connected_time":1000000000000,"state":"active","ping":44},{"user_id":169,"name":"TSx* Osa__PL","steam_id":76561198027016799,"connected_time":1242000000000,"state":"active","ping":76},{"user_id":148,"name":"Ixsus\u003c3","steam_id":76561198094756869,"connected_time":2454000000000,"state":"active","ping":75},{"user_id":177,"name":"KermSlinger","steam_id":76561198854027069,"connected_time":472000000000,"state":"active","ping":68},{"user_id":140,"name":"dotdotdot","steam_id":76561198057628751,"connected_time":2962000000000,"state":"active","ping":68},{"user_id":143,"name":"crit hit!","steam_id":76561198112693639,"connected_time":2874000000000,"state":"active","ping":37}]},{"server_id":21,"name":"Uncletopia | London | 5 | All Maps","name_short":"lon-5","host":"lon-1.uk.uncletopia.com","port":27055,"enabled":true,"region":"eu","cc":"gb","latitude":51.509865,"longitude":-0.118092,"reserved":0,"last_update":"0001-01-01T00:00:00Z","name_a2s":"Uncletopia | London | 5 | All Maps","protocol":17,"map":"pl_snowycoast","folder":"tf","game":"Team Fortress","app_id":440,"player_count":24,"max_players":24,"Bots":0,"server_type":"Dedicated","server_os":"Linux","password":true,"vac":true,"version":"7961495","steam_id":85568392924742829,"keywords":["nocrits","nodmgspread","payload","uncletopia"],"game_id":440,"stv_port":27056,"stv_name":"Uncletopia | London | 5 | All Maps | STV","players":[{"user_id":20,"name":"Vic Rattlehead","steam_id":76561199036837091,"connected_time":2041000000000,"state":"active","ping":86},{"user_id":21,"name":"Moon","steam_id":76561198808108594,"connected_time":1942000000000,"state":"active","ping":91},{"user_id":33,"name":"burritoeater","steam_id":76561199124197813,"connected_time":1040000000000,"state":"active","ping":92},{"user_id":62,"name":"mt","steam_id":76561197961319303,"connected_time":79000000000,"state":"active","ping":61},{"user_id":41,"name":"Medlos","steam_id":76561198994910723,"connected_time":711000000000,"state":"active","ping":133},{"user_id":35,"name":"Lozo","steam_id":76561198091866601,"connected_time":992000000000,"state":"active","ping":61},{"user_id":60,"name":"Blat","steam_id":76561199013233409,"connected_time":183000000000,"state":"active","ping":64},{"user_id":59,"name":"Trans Femtress 2","steam_id":76561198014056212,"connected_time":209000000000,"state":"active","ping":73},{"user_id":36,"name":"LewieLol","steam_id":76561199473523083,"connected_time":889000000000,"state":"active","ping":71},{"user_id":37,"name":"CaptiaNNooBS437","steam_id":76561198844010921,"connected_time":880000000000,"state":"active","ping":66},{"user_id":38,"name":"Qror","steam_id":76561198043481431,"connected_time":868000000000,"state":"active","ping":61},{"user_id":39,"name":"Hogi!","steam_id":76561198167605750,"connected_time":861000000000,"state":"active","ping":75},{"user_id":40,"name":"Tipsu","steam_id":76561197971982894,"connected_time":831000000000,"state":"active","ping":102},{"user_id":42,"name":"Nightfury Cosmic Cat ;p","steam_id":76561198118539664,"connected_time":684000000000,"state":"active","ping":108},{"user_id":61,"name":"Gaarke","steam_id":76561198023099219,"connected_time":181000000000,"state":"active","ping":69},{"user_id":45,"name":"aaaaa","steam_id":76561198125381998,"connected_time":557000000000,"state":"active","ping":45},{"user_id":47,"name":"purplecan","steam_id":76561199208283508,"connected_time":510000000000,"state":"active","ping":89},{"user_id":48,"name":"American Bottas","steam_id":76561198324268871,"connected_time":508000000000,"state":"active","ping":81},{"user_id":49,"name":"Snow","steam_id":76561198246680606,"connected_time":475000000000,"state":"active","ping":62},{"user_id":55,"name":"Xeno","steam_id":76561198975556646,"connected_time":363000000000,"state":"active","ping":60},{"user_id":51,"name":"Zerfesh","steam_id":76561198117534358,"connected_time":463000000000,"state":"active","ping":103},{"user_id":54,"name":"Skatnaset","steam_id":76561198298457353,"connected_time":406000000000,"state":"active","ping":71},{"user_id":57,"name":"hasky","steam_id":76561197986052798,"connected_time":272000000000,"state":"active","ping":83},{"user_id":56,"name":"Lithe","steam_id":76561198097130024,"connected_time":338000000000,"state":"active","ping":60}]},{"server_id":22,"name":"Uncletopia | London | 6 | All Maps","name_short":"lon-6","host":"lon-1.uk.uncletopia.com","port":27065,"enabled":true,"region":"eu","cc":"gb","latitude":51.509865,"longitude":-0.118092,"reserved":0,"last_update":"0001-01-01T00:00:00Z","name_a2s":"Uncletopia | London | 6 | All Maps","protocol":17,"map":"pl_snowycoast","folder":"tf","game":"Team Fortress","app_id":440,"player_count":24,"max_players":24,"Bots":0,"server_type":"Dedicated","server_os":"Linux","password":true,"vac":true,"version":"7961495","steam_id":85568392924742830,"keywords":["nocrits","nodmgspread","payload","uncletopia"],"game_id":440,"stv_port":27066,"stv_name":"Uncletopia | London | 6 | All Maps | STV","players":[{"user_id":235,"name":"jacio","steam_id":76561199491964000,"connected_time":1397000000000,"state":"active","ping":55},{"user_id":227,"name":"Arecibo","steam_id":76561198014359615,"connected_time":1947000000000,"state":"active","ping":63},{"user_id":252,"name":"masterofepic2810","steam_id":76561198104030120,"connected_time":426000000000,"state":"active","ping":64},{"user_id":253,"name":"Kraid","steam_id":76561198082387192,"connected_time":424000000000,"state":"active","ping":110},{"user_id":220,"name":"The Jukebox","steam_id":76561199439516375,"connected_time":2269000000000,"state":"active","ping":94},{"user_id":161,"name":"TomNoSocks","steam_id":76561198114071046,"connected_time":8271000000000,"state":"active","ping":63},{"user_id":255,"name":"Trendyboy","steam_id":76561197994908436,"connected_time":253000000000,"state":"active","ping":74},{"user_id":240,"name":"lulu","steam_id":76561199147764133,"connected_time":1186000000000,"state":"active","ping":75},{"user_id":256,"name":"\u003e\u003c\u003e","steam_id":76561198152392309,"connected_time":163000000000,"state":"active","ping":48},{"user_id":206,"name":"Colonel Dimanche","steam_id":76561197994792632,"connected_time":3658000000000,"state":"active","ping":56},{"user_id":236,"name":"yush","steam_id":76561198121688934,"connected_time":1389000000000,"state":"active","ping":79},{"user_id":237,"name":"Nag","steam_id":76561197970488206,"connected_time":1386000000000,"state":"active","ping":69},{"user_id":151,"name":"Just Navlis","steam_id":76561198090479609,"connected_time":8673000000000,"state":"active","ping":54},{"user_id":244,"name":"Szeregowy LowiRyb","steam_id":76561198855967762,"connected_time":758000000000,"state":"active","ping":159},{"user_id":225,"name":"Jussukka","steam_id":76561198122894683,"connected_time":2049000000000,"state":"active","ping":86},{"user_id":173,"name":"A Shoelace","steam_id":76561198126726364,"connected_time":6721000000000,"state":"active","ping":59},{"user_id":250,"name":"sto cazzo","steam_id":76561198066071855,"connected_time":544000000000,"state":"active","ping":72},{"user_id":217,"name":"Snokie Boi","steam_id":76561198081126247,"connected_time":2538000000000,"state":"active","ping":53},{"user_id":245,"name":"Big Squibbly","steam_id":76561198101451654,"connected_time":737000000000,"state":"active","ping":48},{"user_id":246,"name":"Otto von Bismarck","steam_id":76561198964429990,"connected_time":727000000000,"state":"active","ping":88},{"user_id":124,"name":"GazerBazer","steam_id":76561198879107565,"connected_time":11155000000000,"state":"active","ping":61},{"user_id":234,"name":"Slowest hands in the west","steam_id":76561199286764992,"connected_time":1491000000000,"state":"active","ping":88},{"user_id":239,"name":"Name","steam_id":76561197990757157,"connected_time":1203000000000,"state":"active","ping":75},{"user_id":251,"name":"MR.Riis","steam_id":76561198805323828,"connected_time":544000000000,"state":"active","ping":60}]},{"server_id":40,"name":"Uncletopia | London | 7 | Stopwatch","name_short":"lon-7","host":"lon-1.uk.uncletopia.com","port":27075,"enabled":true,"region":"eu","cc":"gb","latitude":51.509865,"longitude":-0.118092,"reserved":0,"last_update":"0001-01-01T00:00:00Z","name_a2s":"Uncletopia | London | 7 | Stopwatch","protocol":17,"map":"workshop/pl_summercoast_rc8e.ugc1761528829","folder":"tf","game":"Team Fortress","app_id":440,"player_count":1,"max_players":24,"Bots":0,"server_type":"Dedicated","server_os":"Linux","password":true,"vac":true,"version":"7961495","steam_id":85568392924964314,"keywords":["nocrits","nodmgspread","payload","uncletopia"],"game_id":440,"stv_port":27076,"stv_name":"Uncletopia | London | 7 | Stopwatch | STV","players":[{"user_id":16,"name":"2fort's silliest soldier","steam_id":76561198128613675,"connected_time":33000000000,"state":"active","ping":59}]},{"server_id":41,"name":"Uncletopia | London | 8 | Community","name_short":"lon-8","host":"lon-1.uk.uncletopia.com","port":27085,"enabled":true,"region":"eu","cc":"gb","latitude":51.509865,"longitude":-0.118092,"reserved":0,"last_update":"0001-01-01T00:00:00Z","name_a2s":"Uncletopia | London | 8 | Community","protocol":17,"map":"workshop/koth_product_final.ugc454272353","folder":"tf","game":"Team Fortress","app_id":440,"player_count":0,"max_players":24,"Bots":0,"server_type":"Dedicated","server_os":"Linux","password":true,"vac":true,"version":"7961495","steam_id":85568392924964315,"keywords":["cp","nocrits","nodmgspread","uncletopia"],"game_id":440,"stv_port":27086,"stv_name":"Uncletopia | London | 8 | Community | STV","players":null},{"server_id":300,"name":"Uncletopia | Montr√©al | 1 | One Thousand Uncles","name_short":"mtl-1","host":"mtl-1.ca.uncletopia.com","port":27015,"enabled":true,"region":"us-east","cc":"ca","latitude":45.50889,"longitude":-73.56167,"reserved":0,"last_update":"0001-01-01T00:00:00Z","name_a2s":"","protocol":0,"map":"","folder":"","game":"","app_id":0,"player_count":0,"max_players":0,"Bots":0,"server_type":"","server_os":"","password":false,"vac":false,"version":"","steam_id":0,"keywords":null,"game_id":0,"stv_port":0,"stv_name":"","players":null},{"server_id":301,"name":"Uncletopia | Montr√©al | 2 | One Thousand Uncles","name_short":"mtl-2","host":"mtl-1.ca.uncletopia.com","port":27025,"enabled":true,"region":"us-east","cc":"ca","latitude":45.50889,"longitude":-73.56167,"reserved":0,"last_update":"0001-01-01T00:00:00Z","name_a2s":"","protocol":0,"map":"","folder":"","game":"","app_id":0,"player_count":0,"max_players":0,"Bots":0,"server_type":"","server_os":"","password":false,"vac":false,"version":"","steam_id":0,"keywords":null,"game_id":0,"stv_port":0,"stv_name":"","players":null},{"server_id":302,"name":"Uncletopia | Montr√©al | 3 | One Thousand Uncles","name_short":"mtl-3","host":"mtl-1.ca.uncletopia.com","port":27035,"enabled":true,"region":"us-east","cc":"ca","latitude":45.50889,"longitude":-73.56167,"reserved":0,"last_update":"0001-01-01T00:00:00Z","name_a2s":"","protocol":0,"map":"","folder":"","game":"","app_id":0,"player_count":4,"max_players":0,"Bots":0,"server_type":"","server_os":"","password":false,"vac":false,"version":"","steam_id":0,"keywords":null,"game_id":0,"stv_port":0,"stv_name":"","players":[{"user_id":2,"name":"AssignedGod","steam_id":76561198020928306,"connected_time":2013000000000,"state":"active","ping":53},{"user_id":20,"name":"Croxodile","steam_id":76561198215822949,"connected_time":1871000000000,"state":"active","ping":60},{"user_id":21,"name":"Temujin","steam_id":76561198030936583,"connected_time":749000000000,"state":"active","ping":43},{"user_id":22,"name":"‚ú†‚ú†killer174hun‚ú†‚ú†","steam_id":76561198210135897,"connected_time":566000000000,"state":"active","ping":166}]},{"server_id":13,"name":"Uncletopia | New York City | 1 | All Maps","name_short":"nyc-1","host":"nyc-1.us.uncletopia.com","port":27015,"enabled":true,"region":"us-east","cc":"us","latitude":40.73061,"longitude":-73.93524,"reserved":0,"last_update":"0001-01-01T00:00:00Z","name_a2s":"Uncletopia | New York City | 1 | All Maps","protocol":17,"map":"pl_frontier_final","folder":"tf","game":"Team Fortress","app_id":440,"player_count":23,"max_players":24,"Bots":0,"server_type":"Dedicated","server_os":"Linux","password":true,"vac":true,"version":"7961495","steam_id":85568392924469993,"keywords":["nocrits","nodmgspread","payload","uncletopia"],"game_id":440,"stv_port":27016,"stv_name":"Uncletopia | New York City | 1 | All Maps | STV","players":[{"user_id":133,"name":"Duck","steam_id":76561198303483056,"connected_time":2771000000000,"state":"active","ping":101},{"user_id":86,"name":"GigaSpin","steam_id":76561198083478846,"connected_time":6032000000000,"state":"active","ping":61},{"user_id":160,"name":"Larry","steam_id":76561198334604124,"connected_time":854000000000,"state":"active","ping":70},{"user_id":147,"name":"Bald Vegeta","steam_id":76561198844143746,"connected_time":2108000000000,"state":"active","ping":73},{"user_id":130,"name":"Klynol","steam_id":76561198065856098,"connected_time":2970000000000,"state":"active","ping":92},{"user_id":144,"name":"Servaos","steam_id":76561198113244990,"connected_time":2329000000000,"state":"active","ping":68},{"user_id":153,"name":"taigaxx","steam_id":76561198202669250,"connected_time":1582000000000,"state":"active","ping":69},{"user_id":154,"name":"Dirt Mammal","steam_id":76561198040781653,"connected_time":1475000000000,"state":"active","ping":121},{"user_id":151,"name":"4Lukaska","steam_id":76561198083515060,"connected_time":1836000000000,"state":"active","ping":33},{"user_id":162,"name":"_gun","steam_id":76561199281947086,"connected_time":348000000000,"state":"active","ping":129},{"user_id":155,"name":"cl","steam_id":76561199436640904,"connected_time":1455000000000,"state":"active","ping":161},{"user_id":152,"name":"BORKA","steam_id":76561198135880720,"connected_time":1824000000000,"state":"active","ping":91},{"user_id":106,"name":"Congcrab","steam_id":76561198078687685,"connected_time":4943000000000,"state":"active","ping":87},{"user_id":120,"name":"DeSynthed","steam_id":76561198098768007,"connected_time":4037000000000,"state":"active","ping":51},{"user_id":146,"name":"Admiral Angry","steam_id":76561198058199206,"connected_time":2220000000000,"state":"active","ping":70},{"user_id":88,"name":"GummybearKillr","steam_id":76561198031235750,"connected_time":5998000000000,"state":"active","ping":55},{"user_id":143,"name":"ThiccKingShadow","steam_id":76561198079588625,"connected_time":2462000000000,"state":"active","ping":159},{"user_id":161,"name":"Fordring","steam_id":76561198141998973,"connected_time":602000000000,"state":"active","ping":91},{"user_id":149,"name":"Aboxofjuice-jb","steam_id":76561198352129145,"connected_time":1960000000000,"state":"active","ping":53},{"user_id":68,"name":"Brawns","steam_id":76561198045190199,"connected_time":8064000000000,"state":"active","ping":57},{"user_id":138,"name":"custodian","steam_id":76561198058793778,"connected_time":2686000000000,"state":"active","ping":53},{"user_id":110,"name":"MCATU3","steam_id":76561198210230867,"connected_time":4642000000000,"state":"active","ping":63},{"user_id":159,"name":"Daksuki","steam_id":76561198084127751,"connected_time":891000000000,"state":"active","ping":90}]},{"server_id":14,"name":"Uncletopia | New York City | 2 | All Maps","name_short":"nyc-2","host":"nyc-1.us.uncletopia.com","port":27025,"enabled":true,"region":"us-east","cc":"us","latitude":40.73061,"longitude":-73.93524,"reserved":0,"last_update":"0001-01-01T00:00:00Z","name_a2s":"Uncletopia | New York City | 2 | All Maps","protocol":17,"map":"pl_upward","folder":"tf","game":"Team Fortress","app_id":440,"player_count":24,"max_players":24,"Bots":0,"server_type":"Dedicated","server_os":"Linux","password":true,"vac":true,"version":"7961495","steam_id":85568392924469994,"keywords":["nocrits","nodmgspread","payload","uncletopia"],"game_id":440,"stv_port":27026,"stv_name":"Uncletopia | New York City | 2 | All Maps | STV","players":[{"user_id":8,"name":"thefanchick","steam_id":76561199092414034,"connected_time":3618000000000,"state":"active","ping":59},{"user_id":9,"name":"Lyral The Bee","steam_id":76561197977574418,"connected_time":3258000000000,"state":"active","ping":57},{"user_id":49,"name":"You Don't Nomi.","steam_id":76561197969137836,"connected_time":28000000000,"state":"active","ping":51},{"user_id":41,"name":"cyberas","steam_id":76561198257092290,"connected_time":1123000000000,"state":"active","ping":76},{"user_id":12,"name":"ÎÇòÎ¨¥ Î®πÎäî ÏÇ¨Îûå","steam_id":76561198167893972,"connected_time":2807000000000,"state":"active","ping":68},{"user_id":45,"name":"MilkToast","steam_id":76561198167959226,"connected_time":881000000000,"state":"active","ping":76},{"user_id":19,"name":"Zephyr","steam_id":76561198063155482,"connected_time":1972000000000,"state":"active","ping":74},{"user_id":20,"name":"Sizenberg","steam_id":76561198115842661,"connected_time":1917000000000,"state":"active","ping":79},{"user_id":21,"name":"Roken","steam_id":76561198037836282,"connected_time":1915000000000,"state":"active","ping":59},{"user_id":27,"name":"Jolot","steam_id":76561198027776270,"connected_time":1727000000000,"state":"active","ping":72},{"user_id":48,"name":"flappyflap2","steam_id":76561198285048973,"connected_time":683000000000,"state":"active","ping":45},{"user_id":25,"name":"Drake the Pixel","steam_id":76561198131824401,"connected_time":1802000000000,"state":"active","ping":32},{"user_id":26,"name":"Napoleon Dynamite","steam_id":76561198068064706,"connected_time":1750000000000,"state":"active","ping":46},{"user_id":28,"name":"Big Bill Haywood","steam_id":76561198142290733,"connected_time":1715000000000,"state":"active","ping":56},{"user_id":33,"name":"Zonic3259","steam_id":76561199244811831,"connected_time":1586000000000,"state":"active","ping":130},{"user_id":31,"name":"Cooldog","steam_id":76561198080548713,"connected_time":1605000000000,"state":"active","ping":51},{"user_id":32,"name":"Festive Panda","steam_id":76561198025758017,"connected_time":1600000000000,"state":"active","ping":60},{"user_id":46,"name":"Babylon","steam_id":76561198048291984,"connected_time":878000000000,"state":"active","ping":82},{"user_id":35,"name":"BoxOfStaples","steam_id":76561198834773017,"connected_time":1516000000000,"state":"active","ping":89},{"user_id":36,"name":"big ol' buford","steam_id":76561198290675957,"connected_time":1476000000000,"state":"active","ping":73},{"user_id":38,"name":"Dr.Coomer PH.D","steam_id":76561198144558937,"connected_time":1430000000000,"state":"active","ping":85},{"user_id":39,"name":"Bim","steam_id":76561198155979811,"connected_time":1425000000000,"state":"active","ping":61},{"user_id":40,"name":"GimliLOTR","steam_id":76561198163746000,"connected_time":1423000000000,"state":"active","ping":67},{"user_id":51,"name":"YourFriendJessie","steam_id":76561198176883097,"connected_time":11000000000,"state":"spawning","ping":44}]},{"server_id":15,"name":"Uncletopia | New York City | 3 | Stopwatch","name_short":"nyc-3","host":"nyc-1.us.uncletopia.com","port":27035,"enabled":true,"region":"us-east","cc":"us","latitude":40.73061,"longitude":-73.93524,"reserved":0,"last_update":"0001-01-01T00:00:00Z","name_a2s":"Uncletopia | New York City | 3 | Stopwatch","protocol":17,"map":"workshop/pl_barnblitz_pro7.ugc582280235","folder":"tf","game":"Team Fortress","app_id":440,"player_count":0,"max_players":24,"Bots":0,"server_type":"Dedicated","server_os":"Linux","password":true,"vac":true,"version":"7961495","steam_id":85568392924742820,"keywords":["nocrits","nodmgspread","payload","uncletopia"],"game_id":440,"stv_port":27036,"stv_name":"Uncletopia | New York City | 3 | Stopwatch | STV","players":null},{"server_id":16,"name":"Uncletopia | New York City | 4 | Community","name_short":"nyc-4","host":"nyc-1.us.uncletopia.com","port":27045,"enabled":true,"region":"us-east","cc":"us","latitude":40.73061,"longitude":-73.93524,"reserved":0,"last_update":"0001-01-01T00:00:00Z","name_a2s":"Uncletopia | New York City | 4 | Community","protocol":17,"map":"workshop/pl_corrode_rc2.ugc546577989","folder":"tf","game":"Team Fortress","app_id":440,"player_count":0,"max_players":24,"Bots":0,"server_type":"Dedicated","server_os":"Linux","password":true,"vac":true,"version":"7961495","steam_id":85568392924742821,"keywords":["nocrits","nodmgspread","payload","uncletopia"],"game_id":440,"stv_port":27046,"stv_name":"Uncletopia | New York City | 4 | Community | STV","players":null},{"server_id":142,"name":"Uncletopia | S√£o Paulo | 1 | All Maps","name_short":"sao-1","host":"sao-1.br.uncletopia.com","port":27015,"enabled":true,"region":"sa","cc":"br","latitude":-23.533773,"longitude":-46.62529,"reserved":0,"last_update":"0001-01-01T00:00:00Z","name_a2s":"Uncletopia | S√£o Paulo | 1 | All Maps","protocol":17,"map":"pl_frontier_final","folder":"tf","game":"Team Fortress","app_id":440,"player_count":0,"max_players":24,"Bots":0,"server_type":"Dedicated","server_os":"Linux","password":true,"vac":true,"version":"7961495","steam_id":85568392924469996,"keywords":["nocrits","nodmgspread","payload","uncletopia"],"game_id":440,"stv_port":27016,"stv_name":"Uncletopia | S√£o Paulo | 1 | All Maps | STV","players":null},{"server_id":143,"name":"Uncletopia | S√£o Paulo | 2 | Community","name_short":"sao-2","host":"sao-2.br.uncletopia.com","port":27015,"enabled":true,"region":"sa","cc":"br","latitude":-23.533773,"longitude":-46.62529,"reserved":0,"last_update":"0001-01-01T00:00:00Z","name_a2s":"Uncletopia | S√£o Paulo | 2 | Community","protocol":17,"map":"workshop/pl_divulgence_b4b.ugc2884808746","folder":"tf","game":"Team Fortress","app_id":440,"player_count":0,"max_players":24,"Bots":0,"server_type":"Dedicated","server_os":"Linux","password":true,"vac":true,"version":"7961495","steam_id":85568392924485349,"keywords":["nocrits","nodmgspread","payload","uncletopia"],"game_id":440,"stv_port":27016,"stv_name":"Uncletopia | S√£o Paulo | 2 | Community | STV","players":null},{"server_id":7,"name":"Uncletopia | Seattle | 1 | All Maps","name_short":"sea-1","host":"sea-1.us.uncletopia.com","port":27015,"enabled":true,"region":"us-west","cc":"us","latitude":47.608013,"longitude":-122.33517,"reserved":0,"last_update":"0001-01-01T00:00:00Z","name_a2s":"Uncletopia | Seattle | 1 | All Maps","protocol":17,"map":"pl_upward","folder":"tf","game":"Team Fortress","app_id":440,"player_count":4,"max_players":24,"Bots":0,"server_type":"Dedicated","server_os":"Linux","password":true,"vac":true,"version":"7961495","steam_id":85568392924469997,"keywords":["nocrits","nodmgspread","payload","uncletopia"],"game_id":440,"stv_port":27016,"stv_name":"Uncletopia | Seattle | 1 | All Maps | STV","players":[{"user_id":17,"name":"Birdman743","steam_id":76561198799636748,"connected_time":1118000000000,"state":"active","ping":43},{"user_id":18,"name":"Nom Skirrett","steam_id":76561198014600788,"connected_time":1027000000000,"state":"active","ping":60},{"user_id":19,"name":"Kanye Asada","steam_id":76561198186678831,"connected_time":501000000000,"state":"active","ping":75},{"user_id":21,"name":"Flips","steam_id":76561198038524045,"connected_time":1000000000,"state":"spawning","ping":29}]},{"server_id":119,"name":"Uncletopia | Seattle | 2 | All Maps","name_short":"sea-2","host":"sea-1.us.uncletopia.com","port":27025,"enabled":true,"region":"us-west","cc":"us","latitude":47.608013,"longitude":-122.33517,"reserved":0,"last_update":"0001-01-01T00:00:00Z","name_a2s":"Uncletopia | Seattle | 2 | All Maps","protocol":17,"map":"pl_frontier_final","folder":"tf","game":"Team Fortress","app_id":440,"player_count":0,"max_players":24,"Bots":0,"server_type":"Dedicated","server_os":"Linux","password":true,"vac":true,"version":"7961495","steam_id":85568392924469998,"keywords":["nocrits","nodmgspread","payload","uncletopia"],"game_id":440,"stv_port":27026,"stv_name":"Uncletopia | Seattle | 2 | All Maps | STV","players":null},{"server_id":406,"name":"Uncletopia | Seattle | 3 | Stopwatch","name_short":"sea-3","host":"sea-1.us.uncletopia.com","port":27035,"enabled":true,"region":"us-west","cc":"us","latitude":47.608013,"longitude":-122.33517,"reserved":0,"last_update":"0001-01-01T00:00:00Z","name_a2s":"Uncletopia | Seattle | 3 | Stopwatch","protocol":17,"map":"pl_upward","folder":"tf","game":"Team Fortress","app_id":440,"player_count":0,"max_players":24,"Bots":0,"server_type":"Dedicated","server_os":"Linux","password":true,"vac":true,"version":"7961495","steam_id":85568392924515217,"keywords":["nocrits","nodmgspread","payload","uncletopia"],"game_id":440,"stv_port":27036,"stv_name":"Uncletopia | Seattle | 3 | Stopwatch | STV","players":null},{"server_id":17,"name":"Uncletopia | San Francisco | 1 | All Maps","name_short":"sfo-1","host":"sfo-1.us.uncletopia.com","port":27015,"enabled":true,"region":"us-west","cc":"us","latitude":37.77397,"longitude":-122.4313,"reserved":0,"last_update":"0001-01-01T00:00:00Z","name_a2s":"Uncletopia | San Francisco | 1 | All Maps","protocol":17,"map":"koth_cascade","folder":"tf","game":"Team Fortress","app_id":440,"player_count":0,"max_players":24,"Bots":0,"server_type":"Dedicated","server_os":"Linux","password":true,"vac":true,"version":"7961495","steam_id":85568392924469999,"keywords":["cp","nocrits","nodmgspread","uncletopia"],"game_id":440,"stv_port":27016,"stv_name":"Uncletopia | San Francisco | 1 | All Maps | STV","players":null},{"server_id":18,"name":"Uncletopia | San Francisco | 2 | All Maps","name_short":"sfo-2","host":"sfo-1.us.uncletopia.com","port":27025,"enabled":true,"region":"us-west","cc":"us","latitude":37.77397,"longitude":-122.4313,"reserved":0,"last_update":"0001-01-01T00:00:00Z","name_a2s":"Uncletopia | San Francisco | 2 | All Maps","protocol":17,"map":"pl_frontier_final","folder":"tf","game":"Team Fortress","app_id":440,"player_count":0,"max_players":24,"Bots":0,"server_type":"Dedicated","server_os":"Linux","password":true,"vac":true,"version":"7961495","steam_id":85568392924470000,"keywords":["nocrits","nodmgspread","payload","uncletopia"],"game_id":440,"stv_port":27026,"stv_name":"Uncletopia | San Francisco | 2 | All Maps | STV","players":null},{"server_id":19,"name":"Uncletopia | San Francisco | 3 | Stopwatch","name_short":"sfo-3","host":"sfo-1.us.uncletopia.com","port":27035,"enabled":true,"region":"us-west","cc":"us","latitude":37.77397,"longitude":-122.4313,"reserved":0,"last_update":"0001-01-01T00:00:00Z","name_a2s":"Uncletopia | San Francisco | 3 | Stopwatch","protocol":17,"map":"pl_pier","folder":"tf","game":"Team Fortress","app_id":440,"player_count":0,"max_players":24,"Bots":0,"server_type":"Dedicated","server_os":"Linux","password":true,"vac":true,"version":"7961495","steam_id":85568392924742824,"keywords":["nocrits","nodmgspread","payload","uncletopia"],"game_id":440,"stv_port":27036,"stv_name":"Uncletopia | San Francisco | 3 | Stopwatch | STV","players":null},{"server_id":20,"name":"Uncletopia | San Francisco | 4 | Community","name_short":"sfo-4","host":"sfo-1.us.uncletopia.com","port":27045,"enabled":true,"region":"us-west","cc":"us","latitude":37.77397,"longitude":-122.4313,"reserved":0,"last_update":"0001-01-01T00:00:00Z","name_a2s":"Uncletopia | San Francisco | 4 | Community","protocol":17,"map":"pl_pier","folder":"tf","game":"Team Fortress","app_id":440,"player_count":0,"max_players":24,"Bots":0,"server_type":"Dedicated","server_os":"Linux","password":true,"vac":true,"version":"7961495","steam_id":85568392924742826,"keywords":["nocrits","nodmgspread","payload","uncletopia"],"game_id":440,"stv_port":27046,"stv_name":"Uncletopia | San Francisco | 4 | Community | STV","players":null},{"server_id":141,"name":"Uncletopia | Sydney | 1 | All Maps","name_short":"syd-1","host":"syd-1.au.uncletopia.com","port":27015,"enabled":true,"region":"au","cc":"au","latitude":-33.865143,"longitude":151.2099,"reserved":0,"last_update":"0001-01-01T00:00:00Z","name_a2s":"Uncletopia | Sydney | 1 | All Maps","protocol":17,"map":"pl_pier","folder":"tf","game":"Team Fortress","app_id":440,"player_count":0,"max_players":24,"Bots":0,"server_type":"Dedicated","server_os":"Linux","password":true,"vac":true,"version":"7961495","steam_id":85568392924470001,"keywords":["nocrits","nodmgspread","payload","uncletopia"],"game_id":440,"stv_port":27016,"stv_name":"Uncletopia | Sydney | 1 | All Maps | STV","players":null},{"server_id":123,"name":"Uncletopia | Sydney | 2 | All Maps","name_short":"syd-2","host":"syd-1.au.uncletopia.com","port":27025,"enabled":true,"region":"au","cc":"au","latitude":-33.865143,"longitude":151.2099,"reserved":0,"last_update":"0001-01-01T00:00:00Z","name_a2s":"Uncletopia | Sydney | 2 | All Maps","protocol":17,"map":"pl_pier","folder":"tf","game":"Team Fortress","app_id":440,"player_count":0,"max_players":24,"Bots":0,"server_type":"Dedicated","server_os":"Linux","password":true,"vac":true,"version":"7961495","steam_id":85568392924470002,"keywords":["nocrits","nodmgspread","payload","uncletopia"],"game_id":440,"stv_port":27026,"stv_name":"Uncletopia | Sydney | 2 | All Maps | STV","players":null},{"server_id":395,"name":"Uncletopia | Sydney | 3 | All Maps","name_short":"syd-3","host":"syd-1.au.uncletopia.com","port":27035,"enabled":true,"region":"au","cc":"au","latitude":-33.865143,"longitude":151.2099,"reserved":0,"last_update":"0001-01-01T00:00:00Z","name_a2s":"Uncletopia | Sydney | 3 | All Maps","protocol":17,"map":"cp_process_final","folder":"tf","game":"Team Fortress","app_id":440,"player_count":0,"max_players":24,"Bots":0,"server_type":"Dedicated","server_os":"Linux","password":true,"vac":true,"version":"7961495","steam_id":85568392925194467,"keywords":["cp","nocrits","nodmgspread","uncletopia"],"game_id":440,"stv_port":27036,"stv_name":"Uncletopia | Sydney | 3 | All Maps | STV","players":null},{"server_id":396,"name":"Uncletopia | Sydney | 4 | All Maps","name_short":"syd-4","host":"syd-1.au.uncletopia.com","port":27045,"enabled":true,"region":"au","cc":"au","latitude":-33.865143,"longitude":151.2099,"reserved":0,"last_update":"0001-01-01T00:00:00Z","name_a2s":"Uncletopia | Sydney | 4 | All Maps","protocol":17,"map":"cp_altitude","folder":"tf","game":"Team Fortress","app_id":440,"player_count":0,"max_players":24,"Bots":0,"server_type":"Dedicated","server_os":"Linux","password":true,"vac":true,"version":"7961495","steam_id":85568392925397958,"keywords":["cp","nocrits","nodmgspread","uncletopia"],"game_id":440,"stv_port":27046,"stv_name":"Uncletopia | Sydney | 4 | All Maps | STV","players":null},{"server_id":58,"name":"Uncletopia | Sydney | 5 | Stopwatch","name_short":"syd-5","host":"syd-1.au.uncletopia.com","port":27055,"enabled":true,"region":"au","cc":"au","latitude":-33.865143,"longitude":151.2099,"reserved":0,"last_update":"0001-01-01T00:00:00Z","name_a2s":"Uncletopia | Sydney | 5 | Stopwatch","protocol":17,"map":"cp_gullywash_final1","folder":"tf","game":"Team Fortress","app_id":440,"player_count":0,"max_players":24,"Bots":0,"server_type":"Dedicated","server_os":"Linux","password":true,"vac":true,"version":"7961495","steam_id":85568392925397959,"keywords":["cp","nocrits","nodmgspread","uncletopia"],"game_id":440,"stv_port":27056,"stv_name":"Uncletopia | Sydney | 5 | Stopwatch | STV","players":null},{"server_id":59,"name":"Uncletopia | Sydney | 6 | Community","name_short":"syd-6","host":"syd-1.au.uncletopia.com","port":27065,"enabled":true,"region":"au","cc":"au","latitude":-33.865143,"longitude":151.2099,"reserved":0,"last_update":"0001-01-01T00:00:00Z","name_a2s":"Uncletopia | Sydney | 6 | Community","protocol":17,"map":"cp_sunshine","folder":"tf","game":"Team Fortress","app_id":440,"player_count":0,"max_players":24,"Bots":0,"server_type":"Dedicated","server_os":"Linux","password":true,"vac":true,"version":"7961495","steam_id":85568392925397960,"keywords":["cp","nocrits","nodmgspread","uncletopia"],"game_id":440,"stv_port":27066,"stv_name":"Uncletopia | Sydney | 6 | Community | STV","players":null},{"server_id":49,"name":"Uncletopia | Warsaw | 1 | One Thousand Uncles","name_short":"waw-1","host":"waw-1.pl.uncletopia.com","port":27015,"enabled":true,"region":"eu","cc":"pl","latitude":52.2297,"longitude":21.017532,"reserved":0,"last_update":"0001-01-01T00:00:00Z","name_a2s":"Uncletopia | Warsaw | 1 | One Thousand Uncles","protocol":17,"map":"cp_mossrock","folder":"tf","game":"Team Fortress","app_id":440,"player_count":18,"max_players":32,"Bots":16,"server_type":"Dedicated","server_os":"Linux","password":true,"vac":true,"version":"7961495","steam_id":85568392925397850,"keywords":["alltalk","bots","cp","danepve","increased_maxplayers","nocrits","norespawntime","uncletopia"],"game_id":440,"stv_port":0,"stv_name":"","players":[{"user_id":390,"name":"EL SHEPARDOOO32","steam_id":76561198121574523,"connected_time":565000000000,"state":"active","ping":34},{"user_id":407,"name":"Piesel","steam_id":76561198985453063,"connected_time":386000000000,"state":"active","ping":32}]},{"server_id":50,"name":"Uncletopia | Warsaw | 2 | One Thousand Uncles","name_short":"waw-2","host":"waw-1.pl.uncletopia.com","port":27025,"enabled":true,"region":"eu","cc":"pl","latitude":52.2297,"longitude":21.017532,"reserved":0,"last_update":"0001-01-01T00:00:00Z","name_a2s":"Uncletopia | Warsaw | 2 | One Thousand Uncles","protocol":17,"map":"pl_badwater","folder":"tf","game":"Team Fortress","app_id":440,"player_count":29,"max_players":32,"Bots":16,"server_type":"Dedicated","server_os":"Linux","password":true,"vac":true,"version":"7961495","steam_id":85568392925397851,"keywords":["alltalk","bots","danepve","increased_maxplayers","nocrits","norespawntime","payload","uncletopia"],"game_id":440,"stv_port":0,"stv_name":"","players":[{"user_id":587,"name":"moody_blues2.0","steam_id":76561199494269391,"connected_time":125000000000,"state":"active","ping":82},{"user_id":577,"name":"Techm32","steam_id":76561198317134994,"connected_time":655000000000,"state":"active","ping":70},{"user_id":541,"name":"CrudeMaster","steam_id":76561199117559043,"connected_time":2294000000000,"state":"active","ping":54},{"user_id":535,"name":"kornetov.vitalya","steam_id":76561199286034833,"connected_time":2493000000000,"state":"active","ping":102},{"user_id":585,"name":"dude m8","steam_id":76561198155649280,"connected_time":216000000000,"state":"active","ping":86},{"user_id":588,"name":"XenoLV","steam_id":76561198317367805,"connected_time":96000000000,"state":"active","ping":77},{"user_id":583,"name":"Max Power","steam_id":76561198019269089,"connected_time":267000000000,"state":"active","ping":63},{"user_id":580,"name":"Lydde","steam_id":76561198034040842,"connected_time":503000000000,"state":"active","ping":77},{"user_id":584,"name":"Gaorynik","steam_id":76561198248344736,"connected_time":245000000000,"state":"active","ping":112},{"user_id":546,"name":"76531198198177417","steam_id":76561198086304421,"connected_time":2115000000000,"state":"active","ping":85},{"user_id":526,"name":"The one True Mads","steam_id":76561197999204692,"connected_time":3216000000000,"state":"active","ping":72},{"user_id":522,"name":"Diamhair","steam_id":76561198109020178,"connected_time":3361000000000,"state":"active","ping":81},{"user_id":530,"name":"kakash","steam_id":76561199420637314,"connected_time":3075000000000,"state":"active","ping":82}]},{"server_id":51,"name":"Uncletopia | Warsaw | 3 | All Maps","name_short":"waw-3","host":"waw-1.pl.uncletopia.com","port":27035,"enabled":true,"region":"eu","cc":"pl","latitude":52.2297,"longitude":21.017532,"reserved":0,"last_update":"0001-01-01T00:00:00Z","name_a2s":"Uncletopia | Warsaw | 3 | All Maps","protocol":17,"map":"plr_pipeline","folder":"tf","game":"Team Fortress","app_id":440,"player_count":0,"max_players":24,"Bots":0,"server_type":"Dedicated","server_os":"Linux","password":true,"vac":true,"version":"7961495","steam_id":85568392925397852,"keywords":["nocrits","nodmgspread","payload","uncletopia"],"game_id":440,"stv_port":27036,"stv_name":"Uncletopia | Warsaw | 3 | All Maps | STV","players":null},{"server_id":52,"name":"Uncletopia | Warsaw | 4 | All Maps","name_short":"waw-4","host":"waw-1.pl.uncletopia.com","port":27045,"enabled":true,"region":"eu","cc":"pl","latitude":52.2297,"longitude":21.017532,"reserved":0,"last_update":"0001-01-01T00:00:00Z","name_a2s":"Uncletopia | Warsaw | 4 | All Maps","protocol":17,"map":"koth_highpass","folder":"tf","game":"Team Fortress","app_id":440,"player_count":0,"max_players":24,"Bots":0,"server_type":"Dedicated","server_os":"Linux","password":true,"vac":true,"version":"7961495","steam_id":85568392925397853,"keywords":["cp","nocrits","nodmgspread","uncletopia"],"game_id":440,"stv_port":27046,"stv_name":"Uncletopia | Warsaw | 4 | All Maps | STV","players":null},{"server_id":53,"name":"Uncletopia | Warsaw | 5 | Stopwatch","name_short":"waw-5","host":"waw-1.pl.uncletopia.com","port":27055,"enabled":true,"region":"eu","cc":"pl","latitude":52.2297,"longitude":21.017532,"reserved":0,"last_update":"0001-01-01T00:00:00Z","name_a2s":"Uncletopia | Warsaw | 5 | Stopwatch","protocol":17,"map":"workshop/koth_ramjam_rc1.ugc459778887","folder":"tf","game":"Team Fortress","app_id":440,"player_count":0,"max_players":24,"Bots":0,"server_type":"Dedicated","server_os":"Linux","password":true,"vac":true,"version":"7961495","steam_id":85568392925397854,"keywords":["cp","nocrits","nodmgspread","uncletopia"],"game_id":440,"stv_port":27056,"stv_name":"Uncletopia | Warsaw | 5 | Stopwatch | STV","players":null},{"server_id":54,"name":"Uncletopia | Warsaw | 6 | Community","name_short":"waw-6","host":"waw-1.pl.uncletopia.com","port":27065,"enabled":true,"region":"eu","cc":"pl","latitude":52.2297,"longitude":21.017532,"reserved":0,"last_update":"0001-01-01T00:00:00Z","name_a2s":"Uncletopia | Warsaw | 6 | Community","protocol":17,"map":"workshop/pl_badwater_pro_v12.ugc2142942074","folder":"tf","game":"Team Fortress","app_id":440,"player_count":3,"max_players":24,"Bots":0,"server_type":"Dedicated","server_os":"Linux","password":true,"vac":true,"version":"7961495","steam_id":85568392925397856,"keywords":["nocrits","nodmgspread","payload","uncletopia"],"game_id":440,"stv_port":27066,"stv_name":"Uncletopia | Warsaw | 6 | Community | STV","players":[{"user_id":9,"name":"Tispy","steam_id":76561199207410049,"connected_time":66000000000,"state":"active","ping":77},{"user_id":7,"name":"Ond≈ôej ‚úå","steam_id":76561198115905637,"connected_time":315000000000,"state":"active","ping":50},{"user_id":8,"name":"Rez","steam_id":76561198410598772,"connected_time":305000000000,"state":"active","ping":53}]}]}