{"status":true,"message":"","result":[{"server_id":9,"name":"Uncletopia | Atlanta | 1 | All Maps","name_short":"atl-1","host":"atl-1.us.uncletopia.com","port":27015,"enabled":true,"region":"us-east","cc":"us","latitude":33.753746,"longitude":-84.38633,"reserved":0,"last_update":"0001-01-01T00:00:00Z","name_a2s":"Uncletopia | Atlanta | 1 | All Maps","protocol":17,"map":"pl_snowycoast","folder":"tf","game":"Team Fortress","app_id":440,"player_count":24,"max_players":24,"Bots":0,"server_type":"Dedicated","server_os":"Linux","password":true,"vac":true,"version":"7723704","steam_id":85568392924469982,"keywords":["nocrits","nodmgspread","payload","uncletopia"],"game_id":440,"stv_port":27016,"stv_name":"Uncletopia | Atlanta | 1 | All Maps | STV","players":[{"user_id":456,"name":"BING BONG","steam_id":76561198067068690,"connected_time":1804000000000,"state":"active","ping":69},{"user_id":447,"name":"Mr.Bacon","steam_id":76561198030890774,"connected_time":2546000000000,"state":"active","ping":62},{"user_id":446,"name":"Avo","steam_id":76561197993340494,"connected_time":2548000000000,"state":"active","ping":60},{"user_id":464,"name":"vid_","steam_id":76561198065159053,"connected_time":1080000000000,"state":"active","ping":46},{"user_id":467,"name":"Room","steam_id":76561199174579733,"connected_time":799000000000,"state":"active","ping":70},{"user_id":453,"name":"OCDkitty","steam_id":76561198266296221,"connected_time":1957000000000,"state":"active","ping":115},{"user_id":461,"name":"Singularity","steam_id":76561198000284742,"connected_time":1192000000000,"state":"active","ping":52},{"user_id":393,"name":"Snowstorm","steam_id":76561198095817025,"connected_time":7323000000000,"state":"active","ping":37},{"user_id":430,"name":"stink","steam_id":76561198099318923,"connected_time":4676000000000,"state":"active","ping":89},{"user_id":466,"name":"Vanya","steam_id":76561198042631561,"connected_time":826000000000,"state":"active","ping":80},{"user_id":441,"name":"jandajanda","steam_id":76561198235722476,"connected_time":2610000000000,"state":"active","ping":58},{"user_id":457,"name":"Walrex","steam_id":76561198061701443,"connected_time":1801000000000,"state":"active","ping":75},{"user_id":420,"name":"ATL1 | p4ka","steam_id":76561198315291317,"connected_time":5239000000000,"state":"active","ping":86},{"user_id":425,"name":"jazztree14","steam_id":76561199239395356,"connected_time":4926000000000,"state":"active","ping":77},{"user_id":376,"name":"Im High","steam_id":76561198049954886,"connected_time":8738000000000,"state":"active","ping":72},{"user_id":465,"name":"Tue","steam_id":76561198181668501,"connected_time":945000000000,"state":"active","ping":65},{"user_id":468,"name":"ATL1 | Kramer","steam_id":76561198083595936,"connected_time":668000000000,"state":"active","ping":84},{"user_id":442,"name":"lu","steam_id":76561198080731872,"connected_time":2602000000000,"state":"active","ping":75},{"user_id":455,"name":"bogginwater","steam_id":76561198155547142,"connected_time":1844000000000,"state":"active","ping":59},{"user_id":417,"name":"ATL0 Dedi Le4n!!!","steam_id":76561198045522596,"connected_time":5597000000000,"state":"active","ping":70},{"user_id":458,"name":"FemboyNate","steam_id":76561198146636410,"connected_time":1593000000000,"state":"active","ping":70},{"user_id":469,"name":"AtlasWarMachine","steam_id":76561198309487226,"connected_time":291000000000,"state":"active","ping":99},{"user_id":460,"name":"ATL1 | a very merry ma0re","steam_id":76561199231971506,"connected_time":1219000000000,"state":"active","ping":66},{"user_id":433,"name":"MOTORTREND TRUCK OF THE YEAR","steam_id":76561198077654131,"connected_time":4169000000000,"state":"active","ping":76}]},{"server_id":400,"name":"Uncletopia | Atlanta | 3 | Stopwatch Beta","name_short":"atl-3","host":"atl-1.us.uncletopia.com","port":27035,"enabled":true,"region":"us-east","cc":"us","latitude":33.753746,"longitude":-84.38633,"reserved":0,"last_update":"0001-01-01T00:00:00Z","name_a2s":"Uncletopia | Atlanta | 3 | Stopwatch Beta","protocol":17,"map":"koth_cascade","folder":"tf","game":"Team Fortress","app_id":440,"player_count":0,"max_players":24,"Bots":0,"server_type":"Dedicated","server_os":"Linux","password":true,"vac":true,"version":"7723704","steam_id":85568392924515187,"keywords":["cp","nocrits","nodmgspread","uncletopia"],"game_id":440,"stv_port":27036,"stv_name":"Uncletopia | Atlanta | 3 | Stopwatch Beta | STV","players":null},{"server_id":401,"name":"Uncletopia | Atlanta | 4 | No Payload","name_short":"atl-4","host":"atl-1.us.uncletopia.com","port":27045,"enabled":true,"region":"us-east","cc":"us","latitude":33.753746,"longitude":-84.38633,"reserved":0,"last_update":"0001-01-01T00:00:00Z","name_a2s":"Uncletopia | Atlanta | 4 | No Payload","protocol":17,"map":"koth_nucleus","folder":"tf","game":"Team Fortress","app_id":440,"player_count":4,"max_players":24,"Bots":0,"server_type":"Dedicated","server_os":"Linux","password":true,"vac":true,"version":"7723704","steam_id":85568392924515188,"keywords":["cp","nocrits","nodmgspread","uncletopia"],"game_id":440,"stv_port":27046,"stv_name":"Uncletopia | Atlanta | 4 | No Payload | STV","players":[{"user_id":63,"name":"tig ol bussy","steam_id":76561198012655187,"connected_time":405000000000,"state":"active","ping":53},{"user_id":64,"name":"Rembrandt","steam_id":76561198022334978,"connected_time":348000000000,"state":"active","ping":62},{"user_id":65,"name":"MerZ","steam_id":76561197996592993,"connected_time":213000000000,"state":"active","ping":98},{"user_id":67,"name":"Knarkle","steam_id":76561198248299906,"connected_time":99000000000,"state":"active","ping":47}]},{"server_id":2,"name":"Uncletopia | Chicago | 1 | All Maps","name_short":"chi-1","host":"chi-1.us.uncletopia.com","port":27015,"enabled":true,"region":"us-central","cc":"us","latitude":41.881832,"longitude":-87.62318,"reserved":0,"last_update":"0001-01-01T00:00:00Z","name_a2s":"Uncletopia | Chicago | 1 | All Maps","protocol":17,"map":"pl_thundermountain","folder":"tf","game":"Team Fortress","app_id":440,"player_count":24,"max_players":24,"Bots":0,"server_type":"Dedicated","server_os":"Linux","password":true,"vac":true,"version":"7723704","steam_id":85568392924469984,"keywords":["nocrits","nodmgspread","payload","uncletopia"],"game_id":440,"stv_port":27016,"stv_name":"Uncletopia | Chicago | 1 | All Maps | STV","players":[{"user_id":428,"name":"uhooter","steam_id":76561198007829078,"connected_time":12163000000000,"state":"active","ping":44},{"user_id":524,"name":"JFK gamer","steam_id":76561199229169396,"connected_time":4867000000000,"state":"active","ping":65},{"user_id":536,"name":"Rex","steam_id":76561198138365053,"connected_time":2711000000000,"state":"active","ping":120},{"user_id":522,"name":"blob","steam_id":76561198122375328,"connected_time":5283000000000,"state":"active","ping":58},{"user_id":534,"name":"Alt","steam_id":76561197992591984,"connected_time":2735000000000,"state":"active","ping":60},{"user_id":497,"name":"MedRed™ #IATAH","steam_id":76561198002962970,"connected_time":6674000000000,"state":"active","ping":97},{"user_id":553,"name":"dyingcat120","steam_id":76561198140199737,"connected_time":1215000000000,"state":"active","ping":50},{"user_id":518,"name":"primordialheath","steam_id":76561199386942638,"connected_time":5917000000000,"state":"active","ping":60},{"user_id":552,"name":"FloofyDranks","steam_id":76561198286944082,"connected_time":1415000000000,"state":"active","ping":55},{"user_id":554,"name":"[slug]","steam_id":76561197989592178,"connected_time":852000000000,"state":"active","ping":70},{"user_id":541,"name":"hej","steam_id":76561197996366940,"connected_time":2201000000000,"state":"active","ping":60},{"user_id":493,"name":"McGangBang","steam_id":76561198862379865,"connected_time":7904000000000,"state":"active","ping":55},{"user_id":537,"name":"derz","steam_id":76561198010742216,"connected_time":2711000000000,"state":"active","ping":50},{"user_id":483,"name":"PKBEAST_7","steam_id":76561198177136537,"connected_time":8167000000000,"state":"active","ping":89},{"user_id":527,"name":"Ye (I Love Hitler) West","steam_id":76561198068830312,"connected_time":3775000000000,"state":"active","ping":45},{"user_id":548,"name":"Astoriæ!","steam_id":76561199090168858,"connected_time":1649000000000,"state":"active","ping":75},{"user_id":544,"name":"Lia_Rein","steam_id":76561198151569597,"connected_time":2015000000000,"state":"active","ping":145},{"user_id":558,"name":"火星 | Marsy","steam_id":76561198014979892,"connected_time":812000000000,"state":"active","ping":70},{"user_id":480,"name":"Ras","steam_id":76561198123546775,"connected_time":8596000000000,"state":"active","ping":60},{"user_id":559,"name":"richard clock","steam_id":76561198048455671,"connected_time":21000000000,"state":"active","ping":112},{"user_id":560,"name":"squibbles!","steam_id":76561198271861959,"connected_time":21000000000,"state":"active","ping":56},{"user_id":538,"name":"Fudge_Cake","steam_id":76561198059218167,"connected_time":2711000000000,"state":"active","ping":66},{"user_id":499,"name":"Ademar","steam_id":76561199391802581,"connected_time":6651000000000,"state":"active","ping":60},{"user_id":551,"name":"Kenni, brain cell not haver","steam_id":76561198141344039,"connected_time":1511000000000,"state":"active","ping":59}]},{"server_id":106,"name":"Uncletopia | Chicago | 2 | All Maps","name_short":"chi-2","host":"chi-1.us.uncletopia.com","port":27025,"enabled":true,"region":"us-central","cc":"us","latitude":41.881832,"longitude":-87.62318,"reserved":0,"last_update":"0001-01-01T00:00:00Z","name_a2s":"Uncletopia | Chicago | 2 | All Maps","protocol":17,"map":"pl_upward","folder":"tf","game":"Team Fortress","app_id":440,"player_count":24,"max_players":24,"Bots":0,"server_type":"Dedicated","server_os":"Linux","password":true,"vac":true,"version":"7723704","steam_id":85568392924469985,"keywords":["nocrits","nodmgspread","payload","uncletopia"],"game_id":440,"stv_port":27026,"stv_name":"Uncletopia | Chicago | 2 | All Maps | STV","players":[{"user_id":559,"name":"slimeyphusion","steam_id":76561198042300721,"connected_time":1370000000000,"state":"active","ping":78},{"user_id":570,"name":"spherewithahat","steam_id":76561199122192660,"connected_time":1000000000,"state":"spawning","ping":47},{"user_id":562,"name":"SlavicRaccoon","steam_id":76561198210606047,"connected_time":60000000000,"state":"active","ping":67},{"user_id":563,"name":"48","steam_id":76561198156422760,"connected_time":58000000000,"state":"active","ping":49},{"user_id":457,"name":"ZofoJackson","steam_id":76561197998366861,"connected_time":8822000000000,"state":"active","ping":48},{"user_id":564,"name":"c00kie","steam_id":76561198418178297,"connected_time":58000000000,"state":"active","ping":38},{"user_id":509,"name":"Kinbo2487","steam_id":76561198184714198,"connected_time":5259000000000,"state":"active","ping":71},{"user_id":560,"name":"Pungent Phil","steam_id":76561198119483989,"connected_time":710000000000,"state":"active","ping":83},{"user_id":534,"name":"Vladikr1","steam_id":76561198401495362,"connected_time":3106000000000,"state":"active","ping":51},{"user_id":535,"name":"❤birbohex❤","steam_id":76561198392961483,"connected_time":2799000000000,"state":"active","ping":107},{"user_id":565,"name":"WorkingWater","steam_id":76561198145445403,"connected_time":55000000000,"state":"active","ping":58},{"user_id":521,"name":"festive Λlxium","steam_id":76561198131272900,"connected_time":4230000000000,"state":"active","ping":63},{"user_id":517,"name":"C papi","steam_id":76561198027779564,"connected_time":4611000000000,"state":"active","ping":59},{"user_id":567,"name":"carrion goat","steam_id":76561198262064871,"connected_time":50000000000,"state":"active","ping":65},{"user_id":514,"name":"no","steam_id":76561198248853140,"connected_time":4642000000000,"state":"active","ping":52},{"user_id":546,"name":"hart","steam_id":76561198094780633,"connected_time":2017000000000,"state":"active","ping":59},{"user_id":458,"name":"deepmeta","steam_id":76561199053600691,"connected_time":8518000000000,"state":"active","ping":62},{"user_id":568,"name":"bite of 87 (real NOT CLICKBAIT)","steam_id":76561198045832398,"connected_time":20000000000,"state":"active","ping":73},{"user_id":569,"name":"stump","steam_id":76561198012653832,"connected_time":9000000000,"state":"active","ping":51},{"user_id":483,"name":"daemon","steam_id":76561198001541433,"connected_time":6909000000000,"state":"active","ping":48},{"user_id":557,"name":"Judge Dad","steam_id":76561198071473697,"connected_time":1427000000000,"state":"active","ping":60},{"user_id":558,"name":"The Bardic Treasurer","steam_id":76561198010522130,"connected_time":1422000000000,"state":"active","ping":71},{"user_id":503,"name":"jpuck","steam_id":76561198025018960,"connected_time":6056000000000,"state":"active","ping":61},{"user_id":531,"name":"Pugzilla","steam_id":76561198108088960,"connected_time":3316000000000,"state":"active","ping":61}]},{"server_id":402,"name":"Uncletopia | Chicago | 3 | All Maps","name_short":"chi-3","host":"chi-1.us.uncletopia.com","port":27035,"enabled":true,"region":"us-central","cc":"us","latitude":41.881832,"longitude":-87.62318,"reserved":0,"last_update":"0001-01-01T00:00:00Z","name_a2s":"Uncletopia | Chicago | 3 | All Maps","protocol":17,"map":"pl_badwater","folder":"tf","game":"Team Fortress","app_id":440,"player_count":24,"max_players":24,"Bots":0,"server_type":"Dedicated","server_os":"Linux","password":true,"vac":true,"version":"7723704","steam_id":85568392924515191,"keywords":["nocrits","nodmgspread","payload","uncletopia"],"game_id":440,"stv_port":27036,"stv_name":"Uncletopia | Chicago | 3 | All Maps | STV","players":[{"user_id":430,"name":"A Puppy","steam_id":76561198828184456,"connected_time":423000000000,"state":"active","ping":61},{"user_id":421,"name":"TwoPlanes","steam_id":76561198087313568,"connected_time":1304000000000,"state":"active","ping":60},{"user_id":370,"name":"amazing","steam_id":76561198386233160,"connected_time":5478000000000,"state":"active","ping":90},{"user_id":290,"name":"Fermenting Kiwi","steam_id":76561198253303497,"connected_time":9618000000000,"state":"active","ping":81},{"user_id":389,"name":"Ignalis","steam_id":76561198025662927,"connected_time":4172000000000,"state":"active","ping":59},{"user_id":340,"name":"Mr_Web (He/They)","steam_id":76561198815562258,"connected_time":6982000000000,"state":"active","ping":79},{"user_id":397,"name":"SliFox115","steam_id":76561198006657143,"connected_time":3813000000000,"state":"active","ping":76},{"user_id":407,"name":"Medical Asshat","steam_id":76561198004584315,"connected_time":2587000000000,"state":"active","ping":70},{"user_id":359,"name":"Couriadore","steam_id":76561198055814008,"connected_time":6259000000000,"state":"active","ping":49},{"user_id":411,"name":"Jfrvl Gvl","steam_id":76561199013465852,"connected_time":2501000000000,"state":"active","ping":64},{"user_id":428,"name":"Walmart Employee","steam_id":76561198840373909,"connected_time":911000000000,"state":"active","ping":91},{"user_id":423,"name":"Moshi Man","steam_id":76561198038249762,"connected_time":1294000000000,"state":"active","ping":47},{"user_id":412,"name":"Hipp-Dip","steam_id":76561199027874633,"connected_time":2369000000000,"state":"active","ping":60},{"user_id":426,"name":"bee","steam_id":76561198025553902,"connected_time":1062000000000,"state":"active","ping":45},{"user_id":420,"name":"pablo.gonzales.2004","steam_id":76561199217620385,"connected_time":1386000000000,"state":"active","ping":72},{"user_id":432,"name":"NotSoProfessionalGuy","steam_id":76561199045501608,"connected_time":355000000000,"state":"active","ping":98},{"user_id":424,"name":"silly billy","steam_id":76561199038072811,"connected_time":1274000000000,"state":"active","ping":88},{"user_id":382,"name":"Nexusuxen","steam_id":76561198117547131,"connected_time":4856000000000,"state":"active","ping":69},{"user_id":427,"name":"lorem ipsum","steam_id":76561198354622099,"connected_time":980000000000,"state":"active","ping":66},{"user_id":383,"name":"Evolution","steam_id":76561198144767370,"connected_time":4853000000000,"state":"active","ping":50},{"user_id":434,"name":"POLICE","steam_id":76561198120757569,"connected_time":313000000000,"state":"active","ping":60},{"user_id":410,"name":"Soldier Impact","steam_id":76561198157004224,"connected_time":2569000000000,"state":"active","ping":61},{"user_id":425,"name":"nedilya","steam_id":76561198039692077,"connected_time":1243000000000,"state":"active","ping":166},{"user_id":262,"name":"{[F.H]} Hydroida","steam_id":76561197999797274,"connected_time":13225000000000,"state":"active","ping":61}]},{"server_id":403,"name":"Uncletopia | Chicago | 4 | All Maps","name_short":"chi-4","host":"chi-1.us.uncletopia.com","port":27045,"enabled":true,"region":"us-central","cc":"us","latitude":41.881832,"longitude":-87.62318,"reserved":0,"last_update":"0001-01-01T00:00:00Z","name_a2s":"Uncletopia | Chicago | 4 | All Maps","protocol":17,"map":"cp_sunshine","folder":"tf","game":"Team Fortress","app_id":440,"player_count":24,"max_players":24,"Bots":0,"server_type":"Dedicated","server_os":"Linux","password":true,"vac":true,"version":"7723704","steam_id":85568392924515193,"keywords":["cp","nocrits","nodmgspread","uncletopia"],"game_id":440,"stv_port":27046,"stv_name":"Uncletopia | Chicago | 4 | All Maps | STV","players":[{"user_id":393,"name":"Feared Gamer","steam_id":76561198350127514,"connected_time":2038000000000,"state":"active","ping":64},{"user_id":370,"name":"Angry Esox","steam_id":76561198152128848,"connected_time":3081000000000,"state":"active","ping":97},{"user_id":381,"name":"YellowCellPhone","steam_id":76561198015070315,"connected_time":2427000000000,"state":"active","ping":57},{"user_id":408,"name":"Lazy","steam_id":76561198340850295,"connected_time":1024000000000,"state":"active","ping":79},{"user_id":419,"name":"The Potato Romancer","steam_id":76561198204197648,"connected_time":454000000000,"state":"active","ping":87},{"user_id":392,"name":"Rabbitone","steam_id":76561198132691749,"connected_time":2067000000000,"state":"active","ping":88},{"user_id":423,"name":"choi","steam_id":76561198053669887,"connected_time":33000000000,"state":"active","ping":105},{"user_id":424,"name":"sayad","steam_id":76561198080897870,"connected_time":32000000000,"state":"active","ping":67},{"user_id":356,"name":"SpheeKy","steam_id":76561198143214132,"connected_time":3578000000000,"state":"active","ping":95},{"user_id":422,"name":"BB Lorexav","steam_id":76561198207565988,"connected_time":201000000000,"state":"active","ping":76},{"user_id":406,"name":"possiblycar","steam_id":76561198353939243,"connected_time":1135000000000,"state":"active","ping":60},{"user_id":415,"name":"RC Enjoyer","steam_id":76561198397991956,"connected_time":782000000000,"state":"active","ping":86},{"user_id":407,"name":"hellstar","steam_id":76561198065877269,"connected_time":1134000000000,"state":"active","ping":73},{"user_id":409,"name":"O'brien","steam_id":76561198289339403,"connected_time":1013000000000,"state":"active","ping":75},{"user_id":410,"name":"Transbian mommy GF","steam_id":76561198153233822,"connected_time":1006000000000,"state":"active","ping":64},{"user_id":400,"name":"mel","steam_id":76561198097124190,"connected_time":1652000000000,"state":"active","ping":81},{"user_id":342,"name":"NoShen","steam_id":76561198147434663,"connected_time":4325000000000,"state":"active","ping":81},{"user_id":343,"name":"ShadBad","steam_id":76561198248287390,"connected_time":4321000000000,"state":"active","ping":103},{"user_id":416,"name":"Veles","steam_id":76561198255964493,"connected_time":768000000000,"state":"active","ping":63},{"user_id":417,"name":"Derpy Banana","steam_id":76561198831085285,"connected_time":736000000000,"state":"active","ping":50},{"user_id":306,"name":"ly","steam_id":76561198062922146,"connected_time":7230000000000,"state":"active","ping":80},{"user_id":287,"name":"leonardo doujinshi","steam_id":76561198025810326,"connected_time":8654000000000,"state":"active","ping":89},{"user_id":420,"name":"Wwaz","steam_id":76561198000240092,"connected_time":436000000000,"state":"active","ping":52},{"user_id":425,"name":"Rusted Cake","steam_id":76561198209755931,"connected_time":25000000000,"state":"spawning","ping":92}]},{"server_id":36,"name":"Uncletopia | Chicago | 5 | All Maps","name_short":"chi-5","host":"chi-2.us.uncletopia.com","port":27015,"enabled":true,"region":"us-central","cc":"us","latitude":41.881832,"longitude":-87.62318,"reserved":0,"last_update":"0001-01-01T00:00:00Z","name_a2s":"Uncletopia | Chicago | 5 | All Maps","protocol":17,"map":"koth_cascade","folder":"tf","game":"Team Fortress","app_id":440,"player_count":0,"max_players":24,"Bots":0,"server_type":"Dedicated","server_os":"Linux","password":true,"vac":true,"version":"7723704","steam_id":85568392924866362,"keywords":["cp","nocrits","nodmgspread","uncletopia"],"game_id":440,"stv_port":27016,"stv_name":"Uncletopia | Chicago | 5 | All Maps | STV","players":null},{"server_id":37,"name":"Uncletopia | Chicago | 6 | All Maps","name_short":"chi-6","host":"chi-2.us.uncletopia.com","port":27025,"enabled":true,"region":"us-central","cc":"us","latitude":41.881832,"longitude":-87.62318,"reserved":0,"last_update":"0001-01-01T00:00:00Z","name_a2s":"Uncletopia | Chicago | 6 | All Maps","protocol":17,"map":"koth_viaduct","folder":"tf","game":"Team Fortress","app_id":440,"player_count":0,"max_players":24,"Bots":0,"server_type":"Dedicated","server_os":"Linux","password":true,"vac":true,"version":"7723704","steam_id":85568392924866363,"keywords":["cp","nocrits","nodmgspread","uncletopia"],"game_id":440,"stv_port":27026,"stv_name":"Uncletopia | Chicago | 6 | All Maps | STV","players":null},{"server_id":38,"name":"Uncletopia | Chicago | 7 | Stopwatch Beta","name_short":"chi-7","host":"chi-2.us.uncletopia.com","port":27035,"enabled":true,"region":"us-central","cc":"us","latitude":41.881832,"longitude":-87.62318,"reserved":0,"last_update":"0001-01-01T00:00:00Z","name_a2s":"Uncletopia | Chicago | 7 | Stopwatch Beta","protocol":17,"map":"pl_upward","folder":"tf","game":"Team Fortress","app_id":440,"player_count":0,"max_players":24,"Bots":0,"server_type":"Dedicated","server_os":"Linux","password":true,"vac":true,"version":"7723704","steam_id":85568392924866364,"keywords":["nocrits","nodmgspread","payload","uncletopia"],"game_id":440,"stv_port":27036,"stv_name":"Uncletopia | Chicago | 7 | Stopwatch Beta | STV","players":null},{"server_id":39,"name":"Uncletopia | Chicago | 8 | Community","name_short":"chi-8","host":"chi-2.us.uncletopia.com","port":27045,"enabled":true,"region":"us-central","cc":"us","latitude":41.881832,"longitude":-87.62318,"reserved":0,"last_update":"0001-01-01T00:00:00Z","name_a2s":"Uncletopia | Chicago | 8 | Community","protocol":17,"map":"workshop/koth_product_final.ugc454272353","folder":"tf","game":"Team Fortress","app_id":440,"player_count":24,"max_players":24,"Bots":0,"server_type":"Dedicated","server_os":"Linux","password":true,"vac":true,"version":"7723704","steam_id":85568392924866365,"keywords":["cp","nocrits","nodmgspread","uncletopia"],"game_id":440,"stv_port":27046,"stv_name":"Uncletopia | Chicago | 8 | Community | STV","players":[{"user_id":205,"name":"Lifeforce asorber","steam_id":76561198892604337,"connected_time":729000000000,"state":"active","ping":65},{"user_id":197,"name":"30day","steam_id":76561198219163831,"connected_time":1847000000000,"state":"active","ping":48},{"user_id":199,"name":"Nightfall","steam_id":76561198169718867,"connected_time":1389000000000,"state":"active","ping":104},{"user_id":217,"name":"morgborg","steam_id":76561198350206257,"connected_time":47000000000,"state":"active","ping":120},{"user_id":192,"name":"Weary","steam_id":76561198145767546,"connected_time":1976000000000,"state":"active","ping":61},{"user_id":202,"name":"ZekeThePlumber","steam_id":76561197995016724,"connected_time":1205000000000,"state":"active","ping":73},{"user_id":185,"name":"Fisherman","steam_id":76561198071026825,"connected_time":2096000000000,"state":"active","ping":60},{"user_id":209,"name":"Max Headroom [1985]","steam_id":76561198868952224,"connected_time":565000000000,"state":"active","ping":69},{"user_id":118,"name":"stuporvillian","steam_id":76561198083796225,"connected_time":5552000000000,"state":"active","ping":61},{"user_id":200,"name":"arklewis","steam_id":76561198269595513,"connected_time":1309000000000,"state":"active","ping":76},{"user_id":193,"name":"Parpa","steam_id":76561198066252787,"connected_time":1972000000000,"state":"active","ping":62},{"user_id":216,"name":"TheGGMan","steam_id":76561197967976677,"connected_time":67000000000,"state":"active","ping":127},{"user_id":132,"name":"Dougtherouge","steam_id":76561198211300573,"connected_time":4310000000000,"state":"active","ping":61},{"user_id":186,"name":"Killroy NQP ❤","steam_id":76561198006983771,"connected_time":2086000000000,"state":"active","ping":80},{"user_id":201,"name":"Josh","steam_id":76561198055691099,"connected_time":1302000000000,"state":"active","ping":68},{"user_id":210,"name":"DoomwyteShroom","steam_id":76561198250419416,"connected_time":554000000000,"state":"active","ping":69},{"user_id":187,"name":"MEATBALL","steam_id":76561198028499312,"connected_time":2085000000000,"state":"active","ping":61},{"user_id":214,"name":"Mortimer Khan","steam_id":76561197968829990,"connected_time":380000000000,"state":"active","ping":74},{"user_id":188,"name":"PHONE","steam_id":76561198029268743,"connected_time":2078000000000,"state":"active","ping":73},{"user_id":203,"name":"The Muffin Man","steam_id":76561199088286427,"connected_time":1088000000000,"state":"active","ping":103},{"user_id":195,"name":"vert","steam_id":76561198157090835,"connected_time":1931000000000,"state":"active","ping":64},{"user_id":190,"name":"sonny","steam_id":76561198078381913,"connected_time":2038000000000,"state":"active","ping":86},{"user_id":212,"name":"Fried Noodles","steam_id":76561198164473691,"connected_time":544000000000,"state":"active","ping":66},{"user_id":196,"name":"bigmanBIGSAUCE","steam_id":76561198045572158,"connected_time":1860000000000,"state":"active","ping":65}]},{"server_id":8,"name":"Uncletopia | Dallas | 1 | All Maps","name_short":"dal-1","host":"dal-1.us.uncletopia.com","port":27015,"enabled":true,"region":"us-central","cc":"us","latitude":32.779167,"longitude":-96.80889,"reserved":0,"last_update":"0001-01-01T00:00:00Z","name_a2s":"Uncletopia | Dallas | 1 | All Maps","protocol":17,"map":"pl_frontier_final","folder":"tf","game":"Team Fortress","app_id":440,"player_count":23,"max_players":24,"Bots":0,"server_type":"Dedicated","server_os":"Linux","password":true,"vac":true,"version":"7723704","steam_id":85568392924469986,"keywords":["nocrits","nodmgspread","payload","uncletopia"],"game_id":440,"stv_port":27016,"stv_name":"Uncletopia | Dallas | 1 | All Maps | STV","players":[{"user_id":554,"name":"DeckofDragons","steam_id":76561198057398213,"connected_time":948000000000,"state":"active","ping":65},{"user_id":520,"name":"Dill","steam_id":76561197985091914,"connected_time":3972000000000,"state":"active","ping":89},{"user_id":468,"name":"khamel3on","steam_id":76561198800324957,"connected_time":7732000000000,"state":"active","ping":55},{"user_id":552,"name":"Sad Sapling","steam_id":76561198075612150,"connected_time":991000000000,"state":"active","ping":87},{"user_id":438,"name":"crit","steam_id":76561198813574552,"connected_time":9798000000000,"state":"active","ping":76},{"user_id":493,"name":"Potato_Patrick","steam_id":76561198126408165,"connected_time":5745000000000,"state":"active","ping":76},{"user_id":563,"name":"bubbles","steam_id":76561198054693706,"connected_time":108000000000,"state":"active","ping":95},{"user_id":540,"name":"Killerkarate","steam_id":76561198067533929,"connected_time":2334000000000,"state":"active","ping":77},{"user_id":555,"name":"Whoops!","steam_id":76561198151315898,"connected_time":927000000000,"state":"active","ping":62},{"user_id":492,"name":"top g","steam_id":76561198139781520,"connected_time":5853000000000,"state":"active","ping":75},{"user_id":561,"name":"walrus2","steam_id":76561199079614516,"connected_time":145000000000,"state":"active","ping":61},{"user_id":560,"name":"CrazyKermitRubes","steam_id":76561198009065204,"connected_time":585000000000,"state":"active","ping":98},{"user_id":464,"name":"Onyx","steam_id":76561198275349640,"connected_time":8144000000000,"state":"active","ping":59},{"user_id":342,"name":"B R O U T","steam_id":76561199161322235,"connected_time":16107000000000,"state":"active","ping":64},{"user_id":549,"name":"Shipmunk","steam_id":76561198063062670,"connected_time":1051000000000,"state":"active","ping":73},{"user_id":550,"name":"kira","steam_id":76561199192883108,"connected_time":1006000000000,"state":"active","ping":68},{"user_id":521,"name":"You Don't Nomi.","steam_id":76561197969137836,"connected_time":3670000000000,"state":"active","ping":90},{"user_id":557,"name":"Stapler","steam_id":76561198099295077,"connected_time":828000000000,"state":"active","ping":85},{"user_id":543,"name":"Heliodor","steam_id":76561198070465874,"connected_time":1478000000000,"state":"active","ping":86},{"user_id":562,"name":"Dimension","steam_id":76561198132803810,"connected_time":145000000000,"state":"active","ping":60},{"user_id":564,"name":"28Hurricanes","steam_id":76561198327913837,"connected_time":62000000000,"state":"active","ping":68},{"user_id":539,"name":"❤ Ashley ❤","steam_id":76561198056428303,"connected_time":2434000000000,"state":"active","ping":76},{"user_id":559,"name":"SizableChap","steam_id":76561199148162904,"connected_time":810000000000,"state":"active","ping":63}]},{"server_id":108,"name":"Uncletopia | Dallas | 2 | All Maps","name_short":"dal-2","host":"dal-1.us.uncletopia.com","port":27025,"enabled":true,"region":"us-central","cc":"us","latitude":32.779167,"longitude":-96.80889,"reserved":0,"last_update":"0001-01-01T00:00:00Z","name_a2s":"Uncletopia | Dallas | 2 | All Maps","protocol":17,"map":"pl_enclosure_final","folder":"tf","game":"Team Fortress","app_id":440,"player_count":24,"max_players":24,"Bots":0,"server_type":"Dedicated","server_os":"Linux","password":true,"vac":true,"version":"7723704","steam_id":85568392924469988,"keywords":["nocrits","nodmgspread","payload","uncletopia"],"game_id":440,"stv_port":27026,"stv_name":"Uncletopia | Dallas | 2 | All Maps | STV","players":[{"user_id":213,"name":"fr0z3n115","steam_id":76561198072722396,"connected_time":2006000000000,"state":"active","ping":84},{"user_id":253,"name":"NobodyWasHere","steam_id":76561198320952498,"connected_time":65000000000,"state":"active","ping":70},{"user_id":220,"name":"kateebug182","steam_id":76561198822059039,"connected_time":1882000000000,"state":"active","ping":51},{"user_id":215,"name":"Bud E. Hanky","steam_id":76561198940164064,"connected_time":1982000000000,"state":"active","ping":59},{"user_id":248,"name":"Moon Seal","steam_id":76561198095827608,"connected_time":615000000000,"state":"active","ping":103},{"user_id":251,"name":"Mitchacho74","steam_id":76561198087986935,"connected_time":494000000000,"state":"active","ping":97},{"user_id":250,"name":"Lynux","steam_id":76561198343651916,"connected_time":522000000000,"state":"active","ping":150},{"user_id":246,"name":"King of Lames","steam_id":76561198006366763,"connected_time":695000000000,"state":"active","ping":46},{"user_id":236,"name":"resqueman31","steam_id":76561199013282355,"connected_time":1138000000000,"state":"active","ping":88},{"user_id":222,"name":"Caboose Masseuse","steam_id":76561198068501592,"connected_time":1856000000000,"state":"active","ping":51},{"user_id":172,"name":"Technomancer","steam_id":76561198137758683,"connected_time":5414000000000,"state":"active","ping":89},{"user_id":195,"name":"Ryan","steam_id":76561198045137432,"connected_time":3679000000000,"state":"active","ping":75},{"user_id":223,"name":"BLOOD !","steam_id":76561198004400850,"connected_time":1847000000000,"state":"active","ping":64},{"user_id":226,"name":"JINJI","steam_id":76561198311686677,"connected_time":1771000000000,"state":"active","ping":52},{"user_id":151,"name":"Quantum Particles","steam_id":76561197999077939,"connected_time":6242000000000,"state":"active","ping":94},{"user_id":204,"name":"DrBenjas","steam_id":76561198345883103,"connected_time":3193000000000,"state":"active","ping":71},{"user_id":252,"name":"I-die-often","steam_id":76561197996780327,"connected_time":457000000000,"state":"active","ping":48},{"user_id":239,"name":"mkl","steam_id":76561197986401685,"connected_time":980000000000,"state":"active","ping":68},{"user_id":238,"name":"Johni3FireFly","steam_id":76561198089760607,"connected_time":1074000000000,"state":"active","ping":64},{"user_id":230,"name":"amagicowl","steam_id":76561199060487814,"connected_time":1562000000000,"state":"active","ping":79},{"user_id":183,"name":"shadow","steam_id":76561198161824724,"connected_time":4427000000000,"state":"active","ping":98},{"user_id":247,"name":"Didwhy","steam_id":76561198040956974,"connected_time":684000000000,"state":"active","ping":48},{"user_id":245,"name":"Dr. Bobo","steam_id":76561198271696761,"connected_time":747000000000,"state":"active","ping":58},{"user_id":228,"name":"Strawburrr","steam_id":76561199208694620,"connected_time":1663000000000,"state":"active","ping":91}]},{"server_id":5,"name":"Uncletopia | Frankfurt | 1 | All Maps","name_short":"frk-1","host":"frk-1.de.uncletopia.com","port":27015,"enabled":true,"region":"eu","cc":"de","latitude":50.110924,"longitude":8.682127,"reserved":0,"last_update":"0001-01-01T00:00:00Z","name_a2s":"Uncletopia | Frankfurt | 1 | All Maps","protocol":17,"map":"koth_highpass","folder":"tf","game":"Team Fortress","app_id":440,"player_count":0,"max_players":24,"Bots":0,"server_type":"Dedicated","server_os":"Linux","password":true,"vac":true,"version":"7723704","steam_id":85568392924469989,"keywords":["cp","nocrits","nodmgspread","uncletopia"],"game_id":440,"stv_port":27016,"stv_name":"Uncletopia | Frankfurt | 1 | All Maps | STV","players":null},{"server_id":110,"name":"Uncletopia | Frankfurt | 2 | All Maps","name_short":"frk-2","host":"frk-1.de.uncletopia.com","port":27025,"enabled":true,"region":"eu","cc":"de","latitude":50.110924,"longitude":8.682127,"reserved":0,"last_update":"0001-01-01T00:00:00Z","name_a2s":"Uncletopia | Frankfurt | 2 | All Maps","protocol":17,"map":"koth_highpass","folder":"tf","game":"Team Fortress","app_id":440,"player_count":0,"max_players":24,"Bots":0,"server_type":"Dedicated","server_os":"Linux","password":true,"vac":true,"version":"7723704","steam_id":85568392924469990,"keywords":["cp","nocrits","nodmgspread","uncletopia"],"game_id":440,"stv_port":27026,"stv_name":"Uncletopia | Frankfurt | 2 | All Maps | STV","players":null},{"server_id":308,"name":"Uncletopia | Frankfurt | 3 | All Maps","name_short":"frk-3","host":"frk-1.de.uncletopia.com","port":27035,"enabled":true,"region":"eu","cc":"de","latitude":50.110924,"longitude":8.682127,"reserved":0,"last_update":"0001-01-01T00:00:00Z","name_a2s":"Uncletopia | Frankfurt | 3 | All Maps","protocol":17,"map":"koth_viaduct","folder":"tf","game":"Team Fortress","app_id":440,"player_count":0,"max_players":24,"Bots":0,"server_type":"Dedicated","server_os":"Linux","password":true,"vac":true,"version":"7723704","steam_id":85568392924504274,"keywords":["cp","nocrits","nodmgspread","uncletopia"],"game_id":440,"stv_port":27036,"stv_name":"Uncletopia | Frankfurt | 3 | All Maps | STV","players":null},{"server_id":309,"name":"Uncletopia | Frankfurt | 4 | All Maps","name_short":"frk-4","host":"frk-1.de.uncletopia.com","port":27045,"enabled":true,"region":"eu","cc":"de","latitude":50.110924,"longitude":8.682127,"reserved":0,"last_update":"0001-01-01T00:00:00Z","name_a2s":"Uncletopia | Frankfurt | 4 | All Maps","protocol":17,"map":"pl_swiftwater_final1","folder":"tf","game":"Team Fortress","app_id":440,"player_count":0,"max_players":24,"Bots":0,"server_type":"Dedicated","server_os":"Linux","password":true,"vac":true,"version":"7723704","steam_id":85568392924504275,"keywords":["nocrits","nodmgspread","payload","uncletopia"],"game_id":440,"stv_port":27046,"stv_name":"Uncletopia | Frankfurt | 4 | All Maps | STV","players":null},{"server_id":310,"name":"Uncletopia | Frankfurt | 5 | All Maps","name_short":"frk-5","host":"frk-1.de.uncletopia.com","port":27055,"enabled":true,"region":"eu","cc":"de","latitude":50.110924,"longitude":8.682127,"reserved":0,"last_update":"0001-01-01T00:00:00Z","name_a2s":"Uncletopia | Frankfurt | 5 | All Maps","protocol":17,"map":"cp_snakewater_final1","folder":"tf","game":"Team Fortress","app_id":440,"player_count":0,"max_players":24,"Bots":0,"server_type":"Dedicated","server_os":"Linux","password":true,"vac":true,"version":"7723704","steam_id":85568392924504277,"keywords":["cp","nocrits","nodmgspread","uncletopia"],"game_id":440,"stv_port":27056,"stv_name":"Uncletopia | Frankfurt | 5 | All Maps | STV","players":null},{"server_id":311,"name":"Uncletopia | Frankfurt | 6 | All Maps","name_short":"frk-6","host":"frk-1.de.uncletopia.com","port":27065,"enabled":true,"region":"eu","cc":"de","latitude":50.110924,"longitude":8.682127,"reserved":0,"last_update":"0001-01-01T00:00:00Z","name_a2s":"Uncletopia | Frankfurt | 6 | All Maps","protocol":17,"map":"cp_snakewater_final1","folder":"tf","game":"Team Fortress","app_id":440,"player_count":0,"max_players":24,"Bots":0,"server_type":"Dedicated","server_os":"Linux","password":true,"vac":true,"version":"7723704","steam_id":85568392924504278,"keywords":["cp","nocrits","nodmgspread","uncletopia"],"game_id":440,"stv_port":27066,"stv_name":"Uncletopia | Frankfurt | 6 | All Maps | STV","players":null},{"server_id":23,"name":"Uncletopia | Frankfurt | 7 | Stopwatch Beta","name_short":"frk-7","host":"frk-1.de.uncletopia.com","port":27075,"enabled":true,"region":"eu","cc":"de","latitude":50.110924,"longitude":8.682127,"reserved":0,"last_update":"0001-01-01T00:00:00Z","name_a2s":"Uncletopia | Frankfurt | 7 | Stopwatch Beta","protocol":17,"map":"workshop/cp_reckoner_rc6.ugc674719999","folder":"tf","game":"Team Fortress","app_id":440,"player_count":0,"max_players":24,"Bots":0,"server_type":"Dedicated","server_os":"Linux","password":true,"vac":true,"version":"7723704","steam_id":85568392924742827,"keywords":["cp","nocrits","nodmgspread","uncletopia"],"game_id":440,"stv_port":27076,"stv_name":"Uncletopia | Frankfurt | 7 | Stopwatch Beta | STV","players":null},{"server_id":24,"name":"Uncletopia | Frankfurt | 8 | Community","name_short":"frk-8","host":"frk-1.de.uncletopia.com","port":27085,"enabled":true,"region":"eu","cc":"de","latitude":50.110924,"longitude":8.682127,"reserved":0,"last_update":"0001-01-01T00:00:00Z","name_a2s":"Uncletopia | Frankfurt | 8 | Community","protocol":17,"map":"workshop/rd_asteroid_redux_rc9.ugc2154902912","folder":"tf","game":"Team Fortress","app_id":440,"player_count":0,"max_players":24,"Bots":0,"server_type":"Dedicated","server_os":"Linux","password":true,"vac":true,"version":"7723704","steam_id":85568392924742828,"keywords":["beta","nocrits","nodmgspread","rd","uncletopia"],"game_id":440,"stv_port":27086,"stv_name":"Uncletopia | Frankfurt | 8 | Community | STV","players":null},{"server_id":202,"name":"Uncletopia | Hong Kong | 1 | All Maps","name_short":"hgk-1","host":"hgk-1.hk.uncletopia.com","port":27015,"enabled":true,"region":"asia","cc":"hk","latitude":22.302711,"longitude":114.177216,"reserved":0,"last_update":"0001-01-01T00:00:00Z","name_a2s":"Uncletopia | Hong Kong | 1 | All Maps","protocol":17,"map":"koth_viaduct","folder":"tf","game":"Team Fortress","app_id":440,"player_count":0,"max_players":24,"Bots":0,"server_type":"Dedicated","server_os":"Linux","password":true,"vac":true,"version":"7723704","steam_id":85568392924494504,"keywords":["cp","nocrits","nodmgspread","uncletopia"],"game_id":440,"stv_port":27016,"stv_name":"Uncletopia | Hong Kong | 1 | All Maps | STV","players":null},{"server_id":1,"name":"Uncletopia | Los Angeles | 1 | All Maps","name_short":"lax-1","host":"lax-1.us.uncletopia.com","port":27015,"enabled":true,"region":"us-west","cc":"us","latitude":33.94279,"longitude":-118.41004,"reserved":0,"last_update":"0001-01-01T00:00:00Z","name_a2s":"Uncletopia | Los Angeles | 1 | All Maps","protocol":17,"map":"pl_badwater","folder":"tf","game":"Team Fortress","app_id":440,"player_count":0,"max_players":24,"Bots":0,"server_type":"Dedicated","server_os":"Linux","password":true,"vac":true,"version":"7723704","steam_id":85568392924469991,"keywords":["nocrits","nodmgspread","payload","uncletopia"],"game_id":440,"stv_port":27016,"stv_name":"Uncletopia | Los Angeles | 1 | All Maps | STV","players":null},{"server_id":112,"name":"Uncletopia | Los Angeles | 2 | All Maps","name_short":"lax-2","host":"lax-1.us.uncletopia.com","port":27025,"enabled":true,"region":"us-west","cc":"us","latitude":33.94279,"longitude":-118.41004,"reserved":0,"last_update":"0001-01-01T00:00:00Z","name_a2s":"Uncletopia | Los Angeles | 2 | All Maps","protocol":17,"map":"pl_upward","folder":"tf","game":"Team Fortress","app_id":440,"player_count":24,"max_players":24,"Bots":0,"server_type":"Dedicated","server_os":"Linux","password":true,"vac":true,"version":"7723704","steam_id":85568392924469992,"keywords":["nocrits","nodmgspread","payload","uncletopia"],"game_id":440,"stv_port":27026,"stv_name":"Uncletopia | Los Angeles | 2 | All Maps | STV","players":[{"user_id":79,"name":"Trackpad Gamer","steam_id":76561198115830935,"connected_time":340000000000,"state":"active","ping":59},{"user_id":76,"name":"Big Breakfast® with Hotcakes","steam_id":76561199075636624,"connected_time":640000000000,"state":"active","ping":98},{"user_id":53,"name":"Kamin","steam_id":76561198255299559,"connected_time":2048000000000,"state":"active","ping":88},{"user_id":33,"name":"Jemini","steam_id":76561198304399637,"connected_time":2719000000000,"state":"active","ping":107},{"user_id":54,"name":"Mothma","steam_id":76561198353789504,"connected_time":2026000000000,"state":"active","ping":51},{"user_id":80,"name":"doghouse","steam_id":76561198000319035,"connected_time":325000000000,"state":"active","ping":60},{"user_id":31,"name":"MayoMateo","steam_id":76561198360809933,"connected_time":2750000000000,"state":"active","ping":52},{"user_id":32,"name":"sky","steam_id":76561198198093438,"connected_time":2723000000000,"state":"active","ping":108},{"user_id":61,"name":"Batman Grant Williams","steam_id":76561198115458307,"connected_time":1713000000000,"state":"active","ping":46},{"user_id":70,"name":"North Central Positronics Rep","steam_id":76561198133718360,"connected_time":1211000000000,"state":"active","ping":104},{"user_id":72,"name":"Weazel","steam_id":76561198174104607,"connected_time":1029000000000,"state":"active","ping":103},{"user_id":77,"name":"Adam Levine (Real)","steam_id":76561199199257149,"connected_time":512000000000,"state":"active","ping":57},{"user_id":38,"name":"HeliX.PRO","steam_id":76561198353422081,"connected_time":2585000000000,"state":"active","ping":122},{"user_id":84,"name":"Meepster","steam_id":76561198146305159,"connected_time":191000000000,"state":"active","ping":53},{"user_id":40,"name":"Sabaman55","steam_id":76561198212267979,"connected_time":2573000000000,"state":"active","ping":89},{"user_id":85,"name":"Flesh","steam_id":76561198441395237,"connected_time":55000000000,"state":"active","ping":61},{"user_id":63,"name":"The Collective","steam_id":76561198170423483,"connected_time":1621000000000,"state":"active","ping":106},{"user_id":71,"name":"famine","steam_id":76561198407056645,"connected_time":1178000000000,"state":"active","ping":108},{"user_id":58,"name":"dysesthesia","steam_id":76561198027159018,"connected_time":1902000000000,"state":"active","ping":118},{"user_id":64,"name":"Seru","steam_id":76561199219827214,"connected_time":1598000000000,"state":"active","ping":107},{"user_id":83,"name":"Brando","steam_id":76561198078306678,"connected_time":213000000000,"state":"active","ping":88},{"user_id":65,"name":"deer mode","steam_id":76561198072515851,"connected_time":1552000000000,"state":"active","ping":47},{"user_id":86,"name":"dead.","steam_id":76561199159855869,"connected_time":50000000000,"state":"active","ping":112},{"user_id":69,"name":"JoshDuMan","steam_id":76561198049901965,"connected_time":1394000000000,"state":"active","ping":111}]},{"server_id":324,"name":"Uncletopia | Los Angeles | 3 | All Maps","name_short":"lax-3","host":"lax-1.us.uncletopia.com","port":27035,"enabled":true,"region":"us-west","cc":"us","latitude":33.94279,"longitude":-118.41004,"reserved":0,"last_update":"0001-01-01T00:00:00Z","name_a2s":"Uncletopia | Los Angeles | 3 | All Maps","protocol":17,"map":"koth_cascade","folder":"tf","game":"Team Fortress","app_id":440,"player_count":7,"max_players":24,"Bots":0,"server_type":"Dedicated","server_os":"Linux","password":true,"vac":true,"version":"7723704","steam_id":85568392924510198,"keywords":["cp","nocrits","nodmgspread","uncletopia"],"game_id":440,"stv_port":27036,"stv_name":"Uncletopia | Los Angeles | 3 | All Maps | STV","players":[{"user_id":11,"name":"Baluk","steam_id":76561199064894050,"connected_time":2340000000000,"state":"active","ping":59},{"user_id":12,"name":"yellow","steam_id":76561198366474647,"connected_time":2335000000000,"state":"active","ping":33},{"user_id":14,"name":"bobby bill jones :)","steam_id":76561199442367267,"connected_time":1118000000000,"state":"active","ping":62},{"user_id":15,"name":"lili.winters","steam_id":76561199391478575,"connected_time":978000000000,"state":"active","ping":92},{"user_id":16,"name":"oph","steam_id":76561198342480009,"connected_time":871000000000,"state":"active","ping":44},{"user_id":17,"name":"not an anime boy","steam_id":76561198879387902,"connected_time":538000000000,"state":"active","ping":52},{"user_id":20,"name":"panda","steam_id":76561198025214612,"connected_time":312000000000,"state":"active","ping":77}]},{"server_id":25,"name":"Uncletopia | Los Angeles | 4 | Stopwatch Beta","name_short":"lax-4","host":"lax-1.us.uncletopia.com","port":27045,"enabled":true,"region":"us-west","cc":"us","latitude":33.94279,"longitude":-118.41004,"reserved":0,"last_update":"0001-01-01T00:00:00Z","name_a2s":"Uncletopia | Los Angeles | 4 | Stopwatch Beta","protocol":17,"map":"cp_sunshine","folder":"tf","game":"Team Fortress","app_id":440,"player_count":0,"max_players":24,"Bots":0,"server_type":"Dedicated","server_os":"Linux","password":true,"vac":true,"version":"7723704","steam_id":85568392924510199,"keywords":["cp","nocrits","nodmgspread","uncletopia"],"game_id":440,"stv_port":27046,"stv_name":"Uncletopia | Los Angeles | 4 | Stopwatch Beta | STV","players":null},{"server_id":11,"name":"Uncletopia | London | 1 | All Maps","name_short":"lon-1","host":"lon-1.uk.uncletopia.com","port":27015,"enabled":true,"region":"eu","cc":"gb","latitude":51.509865,"longitude":-0.118092,"reserved":0,"last_update":"0001-01-01T00:00:00Z","name_a2s":"Uncletopia | London | 1 | All Maps","protocol":17,"map":"pl_pier","folder":"tf","game":"Team Fortress","app_id":440,"player_count":24,"max_players":24,"Bots":0,"server_type":"Dedicated","server_os":"Linux","password":true,"vac":true,"version":"7723704","steam_id":85568392924367362,"keywords":["nocrits","nodmgspread","payload","uncletopia"],"game_id":440,"stv_port":27016,"stv_name":"Uncletopia | London | 1 | All Maps | STV","players":[{"user_id":755,"name":"frosty","steam_id":76561198094560834,"connected_time":24000000000,"state":"active","ping":66},{"user_id":756,"name":"oldy","steam_id":76561198031899043,"connected_time":22000000000,"state":"active","ping":100},{"user_id":744,"name":"Athomix","steam_id":76561198170108402,"connected_time":2724000000000,"state":"active","ping":70},{"user_id":741,"name":"Cam","steam_id":76561198321715958,"connected_time":2877000000000,"state":"active","ping":49},{"user_id":702,"name":"MS","steam_id":76561198037560108,"connected_time":6166000000000,"state":"active","ping":31},{"user_id":733,"name":"Mbappé mevepe","steam_id":76561198037938833,"connected_time":3597000000000,"state":"active","ping":51},{"user_id":736,"name":"engie?","steam_id":76561198331852832,"connected_time":3463000000000,"state":"active","ping":78},{"user_id":584,"name":"SOPHIIEE","steam_id":76561198443798981,"connected_time":16603000000000,"state":"active","ping":49},{"user_id":712,"name":"Fortezza","steam_id":76561198972539903,"connected_time":5239000000000,"state":"active","ping":62},{"user_id":723,"name":"Mr.Cupcake","steam_id":76561198152711174,"connected_time":4260000000000,"state":"active","ping":61},{"user_id":742,"name":"Tsuruko","steam_id":76561198063618114,"connected_time":2816000000000,"state":"active","ping":67},{"user_id":727,"name":"gnarly business","steam_id":76561198832688767,"connected_time":3997000000000,"state":"active","ping":44},{"user_id":754,"name":"Cass","steam_id":76561198934205195,"connected_time":364000000000,"state":"active","ping":45},{"user_id":751,"name":"Gety0","steam_id":76561198044387185,"connected_time":775000000000,"state":"active","ping":72},{"user_id":697,"name":"chrissymas","steam_id":76561198096547662,"connected_time":6922000000000,"state":"active","ping":53},{"user_id":743,"name":"ashley","steam_id":76561198448551449,"connected_time":2791000000000,"state":"active","ping":35},{"user_id":665,"name":"Mango","steam_id":76561198139555709,"connected_time":9794000000000,"state":"active","ping":60},{"user_id":752,"name":"General Petrov","steam_id":76561198027204104,"connected_time":498000000000,"state":"active","ping":61},{"user_id":730,"name":"cinny","steam_id":76561198832112629,"connected_time":3832000000000,"state":"active","ping":87},{"user_id":749,"name":"sigma female","steam_id":76561198298576765,"connected_time":942000000000,"state":"active","ping":67},{"user_id":747,"name":"Infantile Pillock","steam_id":76561198283851362,"connected_time":2326000000000,"state":"active","ping":68},{"user_id":748,"name":"Shynii","steam_id":76561198194682105,"connected_time":955000000000,"state":"active","ping":60},{"user_id":715,"name":"MESSI","steam_id":76561198179339326,"connected_time":4724000000000,"state":"active","ping":80},{"user_id":662,"name":"merry beebo","steam_id":76561199120277007,"connected_time":10835000000000,"state":"active","ping":42}]},{"server_id":114,"name":"Uncletopia | London | 2 | All Maps","name_short":"lon-2","host":"lon-1.uk.uncletopia.com","port":27025,"enabled":true,"region":"eu","cc":"gb","latitude":51.509865,"longitude":-0.118092,"reserved":0,"last_update":"0001-01-01T00:00:00Z","name_a2s":"Uncletopia | London | 2 | All Maps","protocol":17,"map":"pl_snowycoast","folder":"tf","game":"Team Fortress","app_id":440,"player_count":0,"max_players":24,"Bots":0,"server_type":"Dedicated","server_os":"Linux","password":true,"vac":true,"version":"7723704","steam_id":85568392924470941,"keywords":["nocrits","nodmgspread","payload","uncletopia"],"game_id":440,"stv_port":27026,"stv_name":"Uncletopia | London | 2 | All Maps | STV","players":null},{"server_id":320,"name":"Uncletopia | London | 3 | All Maps","name_short":"lon-3","host":"lon-1.uk.uncletopia.com","port":27035,"enabled":true,"region":"eu","cc":"gb","latitude":51.509865,"longitude":-0.118092,"reserved":0,"last_update":"0001-01-01T00:00:00Z","name_a2s":"Uncletopia | London | 3 | All Maps","protocol":17,"map":"koth_highpass","folder":"tf","game":"Team Fortress","app_id":440,"player_count":0,"max_players":24,"Bots":0,"server_type":"Dedicated","server_os":"Linux","password":true,"vac":true,"version":"7723704","steam_id":85568392924510192,"keywords":["cp","nocrits","nodmgspread","uncletopia"],"game_id":440,"stv_port":27036,"stv_name":"Uncletopia | London | 3 | All Maps | STV","players":null},{"server_id":321,"name":"Uncletopia | London | 4 | All Maps","name_short":"lon-4","host":"lon-1.uk.uncletopia.com","port":27045,"enabled":true,"region":"eu","cc":"gb","latitude":51.509865,"longitude":-0.118092,"reserved":0,"last_update":"0001-01-01T00:00:00Z","name_a2s":"Uncletopia | London | 4 | All Maps","protocol":17,"map":"cp_badlands","folder":"tf","game":"Team Fortress","app_id":440,"player_count":24,"max_players":24,"Bots":0,"server_type":"Dedicated","server_os":"Linux","password":true,"vac":true,"version":"7723704","steam_id":85568392924510193,"keywords":["cp","nocrits","nodmgspread","uncletopia"],"game_id":440,"stv_port":27046,"stv_name":"Uncletopia | London | 4 | All Maps | STV","players":[{"user_id":327,"name":"worry about it","steam_id":76561199414716848,"connected_time":917000000000,"state":"active","ping":74},{"user_id":329,"name":"Rezzarezz","steam_id":76561198092020043,"connected_time":853000000000,"state":"active","ping":74},{"user_id":330,"name":"trans werewolf","steam_id":76561198107235989,"connected_time":853000000000,"state":"active","ping":70},{"user_id":334,"name":"name","steam_id":76561198152620745,"connected_time":833000000000,"state":"active","ping":51},{"user_id":312,"name":"Kowaipotato™","steam_id":76561198040076661,"connected_time":2451000000000,"state":"active","ping":63},{"user_id":325,"name":"Not Steven","steam_id":76561198051881261,"connected_time":1423000000000,"state":"active","ping":30},{"user_id":340,"name":"kbbq","steam_id":76561198346638308,"connected_time":495000000000,"state":"active","ping":57},{"user_id":333,"name":"trans werewolf 2nd of her name","steam_id":76561198369367211,"connected_time":841000000000,"state":"active","ping":70},{"user_id":314,"name":"Spikà","steam_id":76561197999582114,"connected_time":2391000000000,"state":"active","ping":74},{"user_id":293,"name":"Dr.Disrespect","steam_id":76561198043820228,"connected_time":3520000000000,"state":"active","ping":60},{"user_id":328,"name":"ivanmixo","steam_id":76561198160213989,"connected_time":856000000000,"state":"active","ping":80},{"user_id":338,"name":"[CC]Nyafka","steam_id":76561198289878090,"connected_time":679000000000,"state":"active","ping":137},{"user_id":315,"name":"Sonnakai","steam_id":76561198051688749,"connected_time":2384000000000,"state":"active","ping":36},{"user_id":316,"name":"Grey","steam_id":76561198187190267,"connected_time":2383000000000,"state":"active","ping":45},{"user_id":337,"name":"Endrit_dad","steam_id":76561198144604444,"connected_time":693000000000,"state":"active","ping":49},{"user_id":336,"name":"KarlRanzeier","steam_id":76561198066281337,"connected_time":813000000000,"state":"active","ping":60},{"user_id":298,"name":"[-[     ]|\\\\===//|[     ]-]","steam_id":76561198049687798,"connected_time":3369000000000,"state":"active","ping":45},{"user_id":84,"name":"Holo","steam_id":76561198066985194,"connected_time":17353000000000,"state":"active","ping":65},{"user_id":322,"name":"ndy","steam_id":76561198269047549,"connected_time":1511000000000,"state":"active","ping":75},{"user_id":274,"name":"Mulenmul","steam_id":76561199039796992,"connected_time":4621000000000,"state":"active","ping":59},{"user_id":304,"name":"Leroy","steam_id":76561198103604285,"connected_time":3128000000000,"state":"active","ping":63},{"user_id":332,"name":"lvl. 50 honkler","steam_id":76561198061688660,"connected_time":850000000000,"state":"active","ping":104},{"user_id":282,"name":"Derek Pappalardo Gaming","steam_id":76561198215428069,"connected_time":3850000000000,"state":"active","ping":82},{"user_id":339,"name":"cslevi","steam_id":76561198142858923,"connected_time":570000000000,"state":"active","ping":81}]},{"server_id":21,"name":"Uncletopia | London | 5 | All Maps","name_short":"lon-5","host":"lon-1.uk.uncletopia.com","port":27055,"enabled":true,"region":"eu","cc":"gb","latitude":51.509865,"longitude":-0.118092,"reserved":0,"last_update":"0001-01-01T00:00:00Z","name_a2s":"Uncletopia | London | 5 | All Maps","protocol":17,"map":"cp_process_final","folder":"tf","game":"Team Fortress","app_id":440,"player_count":0,"max_players":24,"Bots":0,"server_type":"Dedicated","server_os":"Linux","password":true,"vac":true,"version":"7723704","steam_id":85568392924742829,"keywords":["cp","nocrits","nodmgspread","uncletopia"],"game_id":440,"stv_port":27056,"stv_name":"Uncletopia | London | 5 | All Maps | STV","players":null},{"server_id":22,"name":"Uncletopia | London | 6 | All Maps","name_short":"lon-6","host":"lon-1.uk.uncletopia.com","port":27065,"enabled":true,"region":"eu","cc":"gb","latitude":51.509865,"longitude":-0.118092,"reserved":0,"last_update":"0001-01-01T00:00:00Z","name_a2s":"Uncletopia | London | 6 | All Maps","protocol":17,"map":"cp_dustbowl","folder":"tf","game":"Team Fortress","app_id":440,"player_count":0,"max_players":24,"Bots":0,"server_type":"Dedicated","server_os":"Linux","password":true,"vac":true,"version":"7723704","steam_id":85568392924742830,"keywords":["cp","nocrits","nodmgspread","uncletopia"],"game_id":440,"stv_port":27066,"stv_name":"Uncletopia | London | 6 | All Maps | STV","players":null},{"server_id":40,"name":"Uncletopia | London | 7 | No Payload","name_short":"lon-7","host":"lon-1.uk.uncletopia.com","port":27075,"enabled":true,"region":"eu","cc":"gb","latitude":51.509865,"longitude":-0.118092,"reserved":0,"last_update":"0001-01-01T00:00:00Z","name_a2s":"Uncletopia | London | 7 | No Payload","protocol":17,"map":"koth_sawmill","folder":"tf","game":"Team Fortress","app_id":440,"player_count":0,"max_players":24,"Bots":0,"server_type":"Dedicated","server_os":"Linux","password":true,"vac":true,"version":"7723704","steam_id":85568392924964314,"keywords":["cp","nocrits","nodmgspread","uncletopia"],"game_id":440,"stv_port":27076,"stv_name":"Uncletopia | London | 7 | No Payload | STV","players":null},{"server_id":41,"name":"Uncletopia | London | 8 | Community","name_short":"lon-8","host":"lon-1.uk.uncletopia.com","port":27085,"enabled":true,"region":"eu","cc":"gb","latitude":51.509865,"longitude":-0.118092,"reserved":0,"last_update":"0001-01-01T00:00:00Z","name_a2s":"Uncletopia | London | 8 | Community","protocol":17,"map":"koth_highpass","folder":"tf","game":"Team Fortress","app_id":440,"player_count":0,"max_players":24,"Bots":0,"server_type":"Dedicated","server_os":"Linux","password":true,"vac":true,"version":"7723704","steam_id":85568392924964315,"keywords":["cp","nocrits","nodmgspread","uncletopia"],"game_id":440,"stv_port":27086,"stv_name":"Uncletopia | London | 8 | Community | STV","players":null},{"server_id":300,"name":"Uncletopia | Montréal | 1 | All Maps","name_short":"mtl-1","host":"mtl-1.ca.uncletopia.com","port":27015,"enabled":true,"region":"us-east","cc":"ca","latitude":45.50889,"longitude":-73.56167,"reserved":0,"last_update":"0001-01-01T00:00:00Z","name_a2s":"Uncletopia | Montréal | 1 | All Maps","protocol":17,"map":"koth_cascade","folder":"tf","game":"Team Fortress","app_id":440,"player_count":0,"max_players":24,"Bots":0,"server_type":"Dedicated","server_os":"Linux","password":true,"vac":true,"version":"7723704","steam_id":85568392924500087,"keywords":["cp","nocrits","nodmgspread","uncletopia"],"game_id":440,"stv_port":27016,"stv_name":"Uncletopia | Montréal | 1 | All Maps | STV","players":null},{"server_id":301,"name":"Uncletopia | Montréal | 2 | All Maps","name_short":"mtl-2","host":"mtl-1.ca.uncletopia.com","port":27025,"enabled":true,"region":"us-east","cc":"ca","latitude":45.50889,"longitude":-73.56167,"reserved":0,"last_update":"0001-01-01T00:00:00Z","name_a2s":"Uncletopia | Montréal | 2 | All Maps","protocol":17,"map":"koth_highpass","folder":"tf","game":"Team Fortress","app_id":440,"player_count":0,"max_players":24,"Bots":0,"server_type":"Dedicated","server_os":"Linux","password":true,"vac":true,"version":"7723704","steam_id":85568392924500088,"keywords":["cp","nocrits","nodmgspread","uncletopia"],"game_id":440,"stv_port":27026,"stv_name":"Uncletopia | Montréal | 2 | All Maps | STV","players":null},{"server_id":302,"name":"Uncletopia | Montréal | 3 | All Maps","name_short":"mtl-3","host":"mtl-1.ca.uncletopia.com","port":27035,"enabled":true,"region":"us-east","cc":"ca","latitude":45.50889,"longitude":-73.56167,"reserved":0,"last_update":"0001-01-01T00:00:00Z","name_a2s":"Uncletopia | Montréal | 3 | All Maps","protocol":17,"map":"cp_mountainlab","folder":"tf","game":"Team Fortress","app_id":440,"player_count":0,"max_players":24,"Bots":0,"server_type":"Dedicated","server_os":"Linux","password":true,"vac":true,"version":"7723704","steam_id":85568392924500089,"keywords":["cp","nocrits","nodmgspread","uncletopia"],"game_id":440,"stv_port":27036,"stv_name":"Uncletopia | Montréal | 3 | All Maps | STV","players":null},{"server_id":303,"name":"Uncletopia | Montréal | 4 | No Payload","name_short":"mtl-4","host":"mtl-1.ca.uncletopia.com","port":27045,"enabled":true,"region":"us-east","cc":"ca","latitude":45.50889,"longitude":-73.56167,"reserved":0,"last_update":"0001-01-01T00:00:00Z","name_a2s":"Uncletopia | Montréal | 4 | No Payload","protocol":17,"map":"koth_viaduct","folder":"tf","game":"Team Fortress","app_id":440,"player_count":0,"max_players":24,"Bots":0,"server_type":"Dedicated","server_os":"Linux","password":true,"vac":true,"version":"7723704","steam_id":85568392924500090,"keywords":["cp","nocrits","nodmgspread","uncletopia"],"game_id":440,"stv_port":27046,"stv_name":"Uncletopia | Montréal | 4 | No Payload | STV","players":null},{"server_id":13,"name":"Uncletopia | New York City | 1 | All Maps","name_short":"nyc-1","host":"nyc-1.us.uncletopia.com","port":27015,"enabled":true,"region":"us-east","cc":"us","latitude":40.73061,"longitude":-73.93524,"reserved":0,"last_update":"0001-01-01T00:00:00Z","name_a2s":"Uncletopia | New York City | 1 | All Maps","protocol":17,"map":"pl_frontier_final","folder":"tf","game":"Team Fortress","app_id":440,"player_count":24,"max_players":24,"Bots":0,"server_type":"Dedicated","server_os":"Linux","password":true,"vac":true,"version":"7723704","steam_id":85568392924469993,"keywords":["nocrits","nodmgspread","payload","uncletopia"],"game_id":440,"stv_port":27016,"stv_name":"Uncletopia | New York City | 1 | All Maps | STV","players":[{"user_id":693,"name":"Ultra Cockroach Girl","steam_id":76561198025049144,"connected_time":1397000000000,"state":"active","ping":86},{"user_id":710,"name":"Budder Nubbs","steam_id":76561198353763789,"connected_time":60000000000,"state":"active","ping":59},{"user_id":530,"name":"CRAZY engineer","steam_id":76561198887937902,"connected_time":12967000000000,"state":"active","ping":40},{"user_id":707,"name":"BOB","steam_id":76561198354496665,"connected_time":369000000000,"state":"active","ping":54},{"user_id":694,"name":"SeaBass","steam_id":76561198278914206,"connected_time":1381000000000,"state":"active","ping":81},{"user_id":666,"name":"Level 1 Crook","steam_id":76561198441098132,"connected_time":2974000000000,"state":"active","ping":64},{"user_id":701,"name":"Quansen","steam_id":76561198151594550,"connected_time":596000000000,"state":"active","ping":61},{"user_id":698,"name":"Phroliax","steam_id":76561198207075529,"connected_time":762000000000,"state":"active","ping":86},{"user_id":709,"name":"Oakspace_","steam_id":76561198132487015,"connected_time":166000000000,"state":"active","ping":55},{"user_id":711,"name":"TheBoxWizard","steam_id":76561198447992832,"connected_time":56000000000,"state":"active","ping":46},{"user_id":687,"name":"agolem3214","steam_id":76561198121844002,"connected_time":1888000000000,"state":"active","ping":110},{"user_id":699,"name":"Phillip Jeffries","steam_id":76561198064052174,"connected_time":743000000000,"state":"active","ping":59},{"user_id":655,"name":"kairOs.fk","steam_id":76561197972421260,"connected_time":4408000000000,"state":"active","ping":44},{"user_id":646,"name":"Nuen","steam_id":76561198936096111,"connected_time":5284000000000,"state":"active","ping":66},{"user_id":702,"name":"Polygunner","steam_id":76561199165741650,"connected_time":590000000000,"state":"active","ping":52},{"user_id":598,"name":"nalezinik","steam_id":76561198030026119,"connected_time":9354000000000,"state":"active","ping":77},{"user_id":688,"name":"chirp","steam_id":76561198109916563,"connected_time":1873000000000,"state":"active","ping":53},{"user_id":703,"name":"medic gaming","steam_id":76561199013658188,"connected_time":571000000000,"state":"active","ping":73},{"user_id":635,"name":"LynBoByn","steam_id":76561198052911142,"connected_time":6366000000000,"state":"active","ping":53},{"user_id":614,"name":"tingle shitmouth","steam_id":76561198055109192,"connected_time":7804000000000,"state":"active","ping":88},{"user_id":708,"name":"Taco","steam_id":76561198158621392,"connected_time":258000000000,"state":"active","ping":67},{"user_id":683,"name":"deVychu","steam_id":76561198078032019,"connected_time":2298000000000,"state":"active","ping":157},{"user_id":705,"name":"festive raph","steam_id":76561199074852635,"connected_time":527000000000,"state":"active","ping":48},{"user_id":661,"name":"you are loved","steam_id":76561198108524571,"connected_time":3457000000000,"state":"active","ping":71}]},{"server_id":14,"name":"Uncletopia | New York City | 2 | All Maps","name_short":"nyc-2","host":"nyc-1.us.uncletopia.com","port":27025,"enabled":true,"region":"us-east","cc":"us","latitude":40.73061,"longitude":-73.93524,"reserved":0,"last_update":"0001-01-01T00:00:00Z","name_a2s":"Uncletopia | New York City | 2 | All Maps","protocol":17,"map":"pl_pier","folder":"tf","game":"Team Fortress","app_id":440,"player_count":24,"max_players":24,"Bots":0,"server_type":"Dedicated","server_os":"Linux","password":true,"vac":true,"version":"7723704","steam_id":85568392924469994,"keywords":["nocrits","nodmgspread","payload","uncletopia"],"game_id":440,"stv_port":27026,"stv_name":"Uncletopia | New York City | 2 | All Maps | STV","players":[{"user_id":89,"name":"Burilo","steam_id":76561198014445055,"connected_time":5319000000000,"state":"active","ping":173},{"user_id":148,"name":"Ursus Ludius","steam_id":76561198025470722,"connected_time":1870000000000,"state":"active","ping":51},{"user_id":147,"name":"Slondermin","steam_id":76561198320301349,"connected_time":2091000000000,"state":"active","ping":59},{"user_id":149,"name":"Jolly evil little man","steam_id":76561198311053471,"connected_time":1870000000000,"state":"active","ping":83},{"user_id":138,"name":"Proofsie Claus","steam_id":76561198027122314,"connected_time":2622000000000,"state":"active","ping":35},{"user_id":117,"name":"jablomi","steam_id":76561198106690989,"connected_time":3299000000000,"state":"active","ping":60},{"user_id":151,"name":"aimee","steam_id":76561198834309212,"connected_time":1778000000000,"state":"active","ping":54},{"user_id":123,"name":"Juno was mad, knew he'd been ha","steam_id":76561198294013916,"connected_time":3123000000000,"state":"active","ping":41},{"user_id":157,"name":"M249 | Spectre","steam_id":76561198118334485,"connected_time":685000000000,"state":"active","ping":60},{"user_id":102,"name":"hoboways","steam_id":76561198168035195,"connected_time":4659000000000,"state":"active","ping":83},{"user_id":143,"name":"Nic0","steam_id":76561198305690218,"connected_time":2427000000000,"state":"active","ping":57},{"user_id":152,"name":"I'm probably done trolling","steam_id":76561198046470470,"connected_time":1765000000000,"state":"active","ping":62},{"user_id":125,"name":"Epic Titty Gaming","steam_id":76561198105613110,"connected_time":3111000000000,"state":"active","ping":62},{"user_id":139,"name":"merry trapmas","steam_id":76561198402801140,"connected_time":2490000000000,"state":"active","ping":80},{"user_id":106,"name":"Ronin Grinch","steam_id":76561198041439581,"connected_time":4438000000000,"state":"active","ping":54},{"user_id":142,"name":"chillpilled blankymoder","steam_id":76561198078721142,"connected_time":2460000000000,"state":"active","ping":71},{"user_id":144,"name":"-InternalDeath-","steam_id":76561198866009351,"connected_time":2408000000000,"state":"active","ping":50},{"user_id":134,"name":"abomination","steam_id":76561198167974713,"connected_time":2807000000000,"state":"active","ping":78},{"user_id":146,"name":"veteranof100psychicwars","steam_id":76561198070903458,"connected_time":2338000000000,"state":"active","ping":58},{"user_id":141,"name":"bigturr","steam_id":76561199043827112,"connected_time":2472000000000,"state":"active","ping":81},{"user_id":135,"name":"Bird","steam_id":76561198247484514,"connected_time":2791000000000,"state":"active","ping":62},{"user_id":156,"name":"qiulongtao","steam_id":76561198977558717,"connected_time":1399000000000,"state":"active","ping":79},{"user_id":155,"name":"***ChefBoYoursMedic***","steam_id":76561199216222247,"connected_time":1739000000000,"state":"active","ping":88},{"user_id":127,"name":"Tom","steam_id":76561198139202942,"connected_time":3090000000000,"state":"active","ping":78}]},{"server_id":15,"name":"Uncletopia | New York City | 3 | Stopwatch Beta","name_short":"nyc-3","host":"nyc-1.us.uncletopia.com","port":27035,"enabled":true,"region":"us-east","cc":"us","latitude":40.73061,"longitude":-73.93524,"reserved":0,"last_update":"0001-01-01T00:00:00Z","name_a2s":"Uncletopia | New York City | 3 | Stopwatch Beta","protocol":17,"map":"workshop/pl_badwater_pro_v12.ugc2142942074","folder":"tf","game":"Team Fortress","app_id":440,"player_count":23,"max_players":24,"Bots":0,"server_type":"Dedicated","server_os":"Linux","password":true,"vac":true,"version":"7723704","steam_id":85568392924742820,"keywords":["nocrits","nodmgspread","payload","uncletopia"],"game_id":440,"stv_port":27036,"stv_name":"Uncletopia | New York City | 3 | Stopwatch Beta | STV","players":[{"user_id":602,"name":"pezza","steam_id":76561197995173247,"connected_time":309000000000,"state":"active","ping":120},{"user_id":527,"name":"Naomi ★","steam_id":76561198060307235,"connected_time":5109000000000,"state":"active","ping":124},{"user_id":600,"name":"LazyKoala99","steam_id":76561199183623672,"connected_time":326000000000,"state":"active","ping":57},{"user_id":599,"name":"Stressmelo","steam_id":76561199204445185,"connected_time":347000000000,"state":"active","ping":78},{"user_id":583,"name":"Colin102004","steam_id":76561198202384334,"connected_time":1410000000000,"state":"active","ping":35},{"user_id":607,"name":"Portizz","steam_id":76561198095732366,"connected_time":153000000000,"state":"active","ping":65},{"user_id":613,"name":"nemo vevo","steam_id":76561199445965013,"connected_time":76000000000,"state":"active","ping":31},{"user_id":606,"name":"Chronos","steam_id":76561198126625623,"connected_time":183000000000,"state":"active","ping":69},{"user_id":576,"name":"Battery","steam_id":76561199053078059,"connected_time":1597000000000,"state":"active","ping":60},{"user_id":608,"name":"radioblue","steam_id":76561198145937822,"connected_time":148000000000,"state":"active","ping":50},{"user_id":609,"name":"MrLeftTurn","steam_id":76561198856743969,"connected_time":144000000000,"state":"active","ping":135},{"user_id":596,"name":"Chewbacca","steam_id":76561198041927925,"connected_time":365000000000,"state":"active","ping":57},{"user_id":573,"name":"Reuven","steam_id":76561197994399987,"connected_time":1711000000000,"state":"active","ping":63},{"user_id":471,"name":"Jenkinsrichmond","steam_id":76561198174051530,"connected_time":7538000000000,"state":"active","ping":49},{"user_id":575,"name":"brian emo","steam_id":76561198109901138,"connected_time":1647000000000,"state":"active","ping":60},{"user_id":588,"name":"viper","steam_id":76561198839942937,"connected_time":1327000000000,"state":"active","ping":66},{"user_id":610,"name":"sock","steam_id":76561199117597830,"connected_time":140000000000,"state":"spawning","ping":503},{"user_id":550,"name":"Van","steam_id":76561198073518712,"connected_time":3183000000000,"state":"active","ping":56},{"user_id":611,"name":"Trash","steam_id":76561198358471281,"connected_time":130000000000,"state":"active","ping":44},{"user_id":593,"name":"Cookie","steam_id":76561198283317413,"connected_time":969000000000,"state":"active","ping":67},{"user_id":612,"name":"abbo","steam_id":76561198079440621,"connected_time":106000000000,"state":"active","ping":47},{"user_id":614,"name":"Rudy","steam_id":76561198013456828,"connected_time":18000000000,"state":"active","ping":70},{"user_id":616,"name":"meat","steam_id":76561199108860327,"connected_time":11000000000,"state":"spawning","ping":122}]},{"server_id":16,"name":"Uncletopia | New York City | 4 | Community","name_short":"nyc-4","host":"nyc-1.us.uncletopia.com","port":27045,"enabled":true,"region":"us-east","cc":"us","latitude":40.73061,"longitude":-73.93524,"reserved":0,"last_update":"0001-01-01T00:00:00Z","name_a2s":"Uncletopia | New York City | 4 | Community","protocol":17,"map":"workshop/koth_ashville_final.ugc2130459942","folder":"tf","game":"Team Fortress","app_id":440,"player_count":0,"max_players":24,"Bots":0,"server_type":"Dedicated","server_os":"Linux","password":true,"vac":true,"version":"7723704","steam_id":85568392924742821,"keywords":["cp","nocrits","nodmgspread","uncletopia"],"game_id":440,"stv_port":27046,"stv_name":"Uncletopia | New York City | 4 | Community | STV","players":null},{"server_id":142,"name":"Uncletopia | São Paulo | 1 | All Maps","name_short":"sao-1","host":"sao-1.br.uncletopia.com","port":27015,"enabled":true,"region":"sa","cc":"br","latitude":-23.533773,"longitude":-46.62529,"reserved":0,"last_update":"0001-01-01T00:00:00Z","name_a2s":"Uncletopia | São Paulo | 1 | All Maps","protocol":17,"map":"pl_badwater","folder":"tf","game":"Team Fortress","app_id":440,"player_count":0,"max_players":24,"Bots":0,"server_type":"Dedicated","server_os":"Linux","password":true,"vac":true,"version":"7723704","steam_id":85568392924469996,"keywords":["nocrits","nodmgspread","payload","uncletopia"],"game_id":440,"stv_port":27016,"stv_name":"Uncletopia | São Paulo | 1 | All Maps | STV","players":null},{"server_id":143,"name":"Uncletopia | São Paulo | 2 | All Maps","name_short":"sao-2","host":"sao-2.br.uncletopia.com","port":27015,"enabled":true,"region":"sa","cc":"br","latitude":-23.533773,"longitude":-46.62529,"reserved":0,"last_update":"0001-01-01T00:00:00Z","name_a2s":"Uncletopia | São Paulo | 2 | All Maps","protocol":17,"map":"pl_borneo","folder":"tf","game":"Team Fortress","app_id":440,"player_count":0,"max_players":24,"Bots":0,"server_type":"Dedicated","server_os":"Linux","password":true,"vac":true,"version":"7723704","steam_id":85568392924485349,"keywords":["nocrits","nodmgspread","payload","uncletopia"],"game_id":440,"stv_port":27016,"stv_name":"Uncletopia | São Paulo | 2 | All Maps | STV","players":null},{"server_id":7,"name":"Uncletopia | Seattle | 1 | All Maps","name_short":"sea-1","host":"sea-1.us.uncletopia.com","port":27015,"enabled":true,"region":"us-west","cc":"us","latitude":47.608013,"longitude":-122.33517,"reserved":0,"last_update":"0001-01-01T00:00:00Z","name_a2s":"Uncletopia | Seattle | 1 | All Maps","protocol":17,"map":"pl_pier","folder":"tf","game":"Team Fortress","app_id":440,"player_count":22,"max_players":24,"Bots":0,"server_type":"Dedicated","server_os":"Linux","password":true,"vac":true,"version":"7723704","steam_id":85568392924469997,"keywords":["nocrits","nodmgspread","payload","uncletopia"],"game_id":440,"stv_port":27016,"stv_name":"Uncletopia | Seattle | 1 | All Maps | STV","players":[{"user_id":354,"name":"IzukuMidoYagiYT","steam_id":76561198931285646,"connected_time":745000000000,"state":"active","ping":125},{"user_id":367,"name":"Robert E.T.","steam_id":76561197986439371,"connected_time":195000000000,"state":"active","ping":47},{"user_id":322,"name":"thom yorke mpreg fanfic","steam_id":76561198151596927,"connected_time":2703000000000,"state":"active","ping":107},{"user_id":330,"name":"lavender","steam_id":76561199069518286,"connected_time":1684000000000,"state":"active","ping":76},{"user_id":355,"name":"Super Kame Guru","steam_id":76561198978260519,"connected_time":730000000000,"state":"active","ping":127},{"user_id":368,"name":"LexxyLooLoo","steam_id":76561198958811555,"connected_time":152000000000,"state":"spawning","ping":293},{"user_id":301,"name":"NOT FRIENDLY","steam_id":76561198041327231,"connected_time":3590000000000,"state":"active","ping":50},{"user_id":357,"name":"0","steam_id":76561198994761483,"connected_time":638000000000,"state":"active","ping":101},{"user_id":324,"name":"Franz","steam_id":76561198041929745,"connected_time":2515000000000,"state":"active","ping":75},{"user_id":360,"name":"bur","steam_id":76561198004231658,"connected_time":519000000000,"state":"active","ping":112},{"user_id":334,"name":"grape","steam_id":76561197993980328,"connected_time":1628000000000,"state":"active","ping":65},{"user_id":365,"name":"Pacbub","steam_id":76561198165198874,"connected_time":365000000000,"state":"active","ping":76},{"user_id":318,"name":"give me your baby faces blaster","steam_id":76561199013442982,"connected_time":3117000000000,"state":"active","ping":136},{"user_id":369,"name":"Swade","steam_id":76561198451933553,"connected_time":73000000000,"state":"active","ping":48},{"user_id":361,"name":"ReformedOrthodoxRabbiBillClinto","steam_id":76561198401455467,"connected_time":513000000000,"state":"active","ping":76},{"user_id":370,"name":"Inadequate","steam_id":76561198108263810,"connected_time":62000000000,"state":"active","ping":105},{"user_id":364,"name":"kebo","steam_id":76561198237159430,"connected_time":419000000000,"state":"active","ping":78},{"user_id":366,"name":"toki","steam_id":76561199196943730,"connected_time":233000000000,"state":"active","ping":84},{"user_id":343,"name":"supermariowert","steam_id":76561198122410635,"connected_time":1367000000000,"state":"active","ping":55},{"user_id":319,"name":"Cow","steam_id":76561198375897414,"connected_time":3013000000000,"state":"active","ping":80},{"user_id":342,"name":"GenericMaleGamer","steam_id":76561198257271858,"connected_time":1482000000000,"state":"active","ping":120},{"user_id":350,"name":"Best Bleach","steam_id":76561198090216348,"connected_time":885000000000,"state":"active","ping":86}]},{"server_id":119,"name":"Uncletopia | Seattle | 2 | All Maps","name_short":"sea-2","host":"sea-1.us.uncletopia.com","port":27025,"enabled":true,"region":"us-west","cc":"us","latitude":47.608013,"longitude":-122.33517,"reserved":0,"last_update":"0001-01-01T00:00:00Z","name_a2s":"Uncletopia | Seattle | 2 | All Maps","protocol":17,"map":"koth_cascade","folder":"tf","game":"Team Fortress","app_id":440,"player_count":24,"max_players":24,"Bots":0,"server_type":"Dedicated","server_os":"Linux","password":true,"vac":true,"version":"7723704","steam_id":85568392924469998,"keywords":["cp","nocrits","nodmgspread","uncletopia"],"game_id":440,"stv_port":27026,"stv_name":"Uncletopia | Seattle | 2 | All Maps | STV","players":[{"user_id":359,"name":"Idontknow","steam_id":76561199207044048,"connected_time":1136000000000,"state":"active","ping":51},{"user_id":292,"name":"moe","steam_id":76561198929586245,"connected_time":4181000000000,"state":"active","ping":81},{"user_id":346,"name":"TattooedSheep","steam_id":76561198074880738,"connected_time":1845000000000,"state":"active","ping":59},{"user_id":360,"name":"Tom Skirrett","steam_id":76561198014600788,"connected_time":885000000000,"state":"active","ping":66},{"user_id":341,"name":"Fajita Master","steam_id":76561198329150962,"connected_time":2233000000000,"state":"active","ping":80},{"user_id":369,"name":"Seagoll","steam_id":76561198017953606,"connected_time":186000000000,"state":"active","ping":49},{"user_id":350,"name":"mooney","steam_id":76561199110622484,"connected_time":1565000000000,"state":"active","ping":57},{"user_id":237,"name":"TheGhostThatWas","steam_id":76561198055836483,"connected_time":9255000000000,"state":"active","ping":120},{"user_id":370,"name":"Goldfish Cum","steam_id":76561198046621770,"connected_time":170000000000,"state":"active","ping":51},{"user_id":362,"name":"Mr. Morale","steam_id":76561199057309626,"connected_time":686000000000,"state":"active","ping":134},{"user_id":363,"name":"Jadus","steam_id":76561199091462938,"connected_time":649000000000,"state":"active","ping":103},{"user_id":364,"name":"Frongus","steam_id":76561197979056451,"connected_time":592000000000,"state":"active","ping":45},{"user_id":340,"name":"Psych03","steam_id":76561198061753667,"connected_time":2259000000000,"state":"active","ping":80},{"user_id":303,"name":"Dreamzapp","steam_id":76561199084936632,"connected_time":3912000000000,"state":"active","ping":91},{"user_id":325,"name":"colorfulg70","steam_id":76561199010363371,"connected_time":2903000000000,"state":"active","ping":96},{"user_id":353,"name":"Casper","steam_id":76561198012055967,"connected_time":1427000000000,"state":"active","ping":118},{"user_id":371,"name":"Gods Drunkest Driver","steam_id":76561198974110876,"connected_time":124000000000,"state":"active","ping":56},{"user_id":365,"name":"wizard","steam_id":76561197974871380,"connected_time":501000000000,"state":"active","ping":53},{"user_id":368,"name":"Strangelove","steam_id":76561198353773611,"connected_time":197000000000,"state":"active","ping":138},{"user_id":354,"name":"LalitoTV","steam_id":76561198334302951,"connected_time":1426000000000,"state":"active","ping":125},{"user_id":339,"name":"Monsterjj","steam_id":76561198077019286,"connected_time":2288000000000,"state":"active","ping":63},{"user_id":343,"name":"chunkysquare","steam_id":76561199076468383,"connected_time":2022000000000,"state":"active","ping":75},{"user_id":372,"name":"LIN♡","steam_id":76561199411560141,"connected_time":103000000000,"state":"active","ping":49},{"user_id":317,"name":"Retesaurus","steam_id":76561198045189319,"connected_time":3511000000000,"state":"active","ping":57}]},{"server_id":406,"name":"Uncletopia | Seattle | 3 | Stopwatch Beta","name_short":"sea-3","host":"sea-1.us.uncletopia.com","port":27035,"enabled":true,"region":"us-west","cc":"us","latitude":47.608013,"longitude":-122.33517,"reserved":0,"last_update":"0001-01-01T00:00:00Z","name_a2s":"Uncletopia | Seattle | 3 | Stopwatch Beta","protocol":17,"map":"cp_altitude","folder":"tf","game":"Team Fortress","app_id":440,"player_count":0,"max_players":24,"Bots":0,"server_type":"Dedicated","server_os":"Linux","password":true,"vac":false,"version":"7723704","steam_id":0,"keywords":["cp","nocrits","nodmgspread","uncletopia"],"game_id":440,"stv_port":27036,"stv_name":"Uncletopia | Seattle | 3 | Stopwatch Beta | STV","players":null},{"server_id":17,"name":"Uncletopia | San Francisco | 1 | All Maps","name_short":"sfo-1","host":"sfo-1.us.uncletopia.com","port":27015,"enabled":true,"region":"us-west","cc":"us","latitude":37.77397,"longitude":-122.4313,"reserved":0,"last_update":"0001-01-01T00:00:00Z","name_a2s":"Uncletopia | San Francisco | 1 | All Maps","protocol":17,"map":"pl_barnblitz","folder":"tf","game":"Team Fortress","app_id":440,"player_count":2,"max_players":24,"Bots":0,"server_type":"Dedicated","server_os":"Linux","password":true,"vac":true,"version":"7723704","steam_id":85568392924469999,"keywords":["nocrits","nodmgspread","payload","uncletopia"],"game_id":440,"stv_port":27016,"stv_name":"Uncletopia | San Francisco | 1 | All Maps | STV","players":[{"user_id":482,"name":"tabbed11","steam_id":76561198272314004,"connected_time":65000000000,"state":"active","ping":173},{"user_id":452,"name":"Cute Gatito","steam_id":76561198351147780,"connected_time":1707000000000,"state":"active","ping":56}]},{"server_id":18,"name":"Uncletopia | San Francisco | 2 | All Maps","name_short":"sfo-2","host":"sfo-1.us.uncletopia.com","port":27025,"enabled":true,"region":"us-west","cc":"us","latitude":37.77397,"longitude":-122.4313,"reserved":0,"last_update":"0001-01-01T00:00:00Z","name_a2s":"Uncletopia | San Francisco | 2 | All Maps","protocol":17,"map":"pl_frontier_final","folder":"tf","game":"Team Fortress","app_id":440,"player_count":21,"max_players":24,"Bots":0,"server_type":"Dedicated","server_os":"Linux","password":true,"vac":true,"version":"7723704","steam_id":85568392924470000,"keywords":["nocrits","nodmgspread","payload","uncletopia"],"game_id":440,"stv_port":27026,"stv_name":"Uncletopia | San Francisco | 2 | All Maps | STV","players":[{"user_id":140,"name":"azusa","steam_id":76561198049483469,"connected_time":2609000000000,"state":"active","ping":89},{"user_id":164,"name":"Soap Man","steam_id":76561198000490235,"connected_time":520000000000,"state":"active","ping":79},{"user_id":169,"name":"DARCRY","steam_id":76561198886229798,"connected_time":150000000000,"state":"active","ping":122},{"user_id":144,"name":"ToughGuy311","steam_id":76561198131458027,"connected_time":2351000000000,"state":"active","ping":126},{"user_id":149,"name":"Average West Virginian","steam_id":76561198077272494,"connected_time":1511000000000,"state":"active","ping":100},{"user_id":150,"name":"Mr.Pan","steam_id":76561198069030613,"connected_time":1510000000000,"state":"active","ping":79},{"user_id":115,"name":"Soap","steam_id":76561197994893383,"connected_time":3625000000000,"state":"active","ping":67},{"user_id":170,"name":"JPM岩","steam_id":76561198043967997,"connected_time":116000000000,"state":"active","ping":45},{"user_id":125,"name":"Bobby Ray","steam_id":76561198044131188,"connected_time":3284000000000,"state":"active","ping":75},{"user_id":171,"name":"Trow","steam_id":76561198033918106,"connected_time":17000000000,"state":"spawning","ping":90},{"user_id":138,"name":"Avem","steam_id":76561198058763710,"connected_time":2702000000000,"state":"active","ping":47},{"user_id":148,"name":"Goonther","steam_id":76561198170128009,"connected_time":1955000000000,"state":"active","ping":57},{"user_id":157,"name":"Gamer","steam_id":76561198151153750,"connected_time":1290000000000,"state":"active","ping":73},{"user_id":94,"name":"Bitmap","steam_id":76561198285964424,"connected_time":5207000000000,"state":"active","ping":52},{"user_id":131,"name":"a chicken","steam_id":76561198313121580,"connected_time":2957000000000,"state":"active","ping":59},{"user_id":87,"name":"jajaja","steam_id":76561197980633611,"connected_time":5562000000000,"state":"active","ping":91},{"user_id":155,"name":"Hunter","steam_id":76561198050617754,"connected_time":1313000000000,"state":"active","ping":51},{"user_id":122,"name":"spacetoven","steam_id":76561198115821131,"connected_time":3437000000000,"state":"active","ping":49},{"user_id":168,"name":"xXxMiddleclasskiller21xXx","steam_id":76561198454390948,"connected_time":298000000000,"state":"active","ping":71},{"user_id":159,"name":"Grim","steam_id":76561198016978310,"connected_time":1031000000000,"state":"active","ping":60},{"user_id":158,"name":"sirdancelot4u","steam_id":76561199024676738,"connected_time":1290000000000,"state":"active","ping":77}]},{"server_id":19,"name":"Uncletopia | San Francisco | 3 | Stopwatch Beta","name_short":"sfo-3","host":"sfo-1.us.uncletopia.com","port":27035,"enabled":true,"region":"us-west","cc":"us","latitude":37.77397,"longitude":-122.4313,"reserved":0,"last_update":"0001-01-01T00:00:00Z","name_a2s":"Uncletopia | San Francisco | 3 | Stopwatch Beta","protocol":17,"map":"pl_pier","folder":"tf","game":"Team Fortress","app_id":440,"player_count":0,"max_players":24,"Bots":0,"server_type":"Dedicated","server_os":"Linux","password":true,"vac":true,"version":"7723704","steam_id":85568392924742824,"keywords":["nocrits","nodmgspread","payload","uncletopia"],"game_id":440,"stv_port":27036,"stv_name":"Uncletopia | San Francisco | 3 | Stopwatch Beta | STV","players":null},{"server_id":20,"name":"Uncletopia | San Francisco | 4 | Community","name_short":"sfo-4","host":"sfo-1.us.uncletopia.com","port":27045,"enabled":true,"region":"us-west","cc":"us","latitude":37.77397,"longitude":-122.4313,"reserved":0,"last_update":"0001-01-01T00:00:00Z","name_a2s":"Uncletopia | San Francisco | 4 | Community","protocol":17,"map":"koth_cascade","folder":"tf","game":"Team Fortress","app_id":440,"player_count":0,"max_players":24,"Bots":0,"server_type":"Dedicated","server_os":"Linux","password":true,"vac":true,"version":"7723704","steam_id":85568392924742826,"keywords":["cp","nocrits","nodmgspread","uncletopia"],"game_id":440,"stv_port":27046,"stv_name":"Uncletopia | San Francisco | 4 | Community | STV","players":null},{"server_id":141,"name":"Uncletopia | Sydney | 1 | All Maps","name_short":"syd-1","host":"syd-1.au.uncletopia.com","port":27015,"enabled":true,"region":"au","cc":"au","latitude":-33.865143,"longitude":151.2099,"reserved":0,"last_update":"0001-01-01T00:00:00Z","name_a2s":"Uncletopia | Sydney | 1 | All Maps","protocol":17,"map":"koth_viaduct","folder":"tf","game":"Team Fortress","app_id":440,"player_count":24,"max_players":24,"Bots":0,"server_type":"Dedicated","server_os":"Linux","password":true,"vac":true,"version":"7723704","steam_id":85568392924470001,"keywords":["cp","nocrits","nodmgspread","uncletopia"],"game_id":440,"stv_port":27016,"stv_name":"Uncletopia | Sydney | 1 | All Maps | STV","players":[{"user_id":150,"name":"J''''","steam_id":76561198047565137,"connected_time":240000000000,"state":"active","ping":59},{"user_id":125,"name":"Spycrab","steam_id":76561198118928113,"connected_time":1659000000000,"state":"active","ping":50},{"user_id":148,"name":"Mungbean","steam_id":76561198192300679,"connected_time":390000000000,"state":"active","ping":75},{"user_id":112,"name":"Hippity_Hoppity","steam_id":76561198861050395,"connected_time":2482000000000,"state":"active","ping":60},{"user_id":132,"name":"toots","steam_id":76561198094589768,"connected_time":1329000000000,"state":"active","ping":69},{"user_id":114,"name":"Mr. Blop","steam_id":76561198072273373,"connected_time":2256000000000,"state":"active","ping":60},{"user_id":94,"name":"UglyBarnicle","steam_id":76561198075921599,"connected_time":3507000000000,"state":"active","ping":98},{"user_id":118,"name":"NastySauce","steam_id":76561198824978577,"connected_time":2164000000000,"state":"active","ping":68},{"user_id":155,"name":"Bread OwO","steam_id":76561198110757220,"connected_time":12000000000,"state":"spawning","ping":59},{"user_id":146,"name":"normans on sabbatical honey","steam_id":76561198082423230,"connected_time":494000000000,"state":"active","ping":75},{"user_id":105,"name":"callistoAshley","steam_id":76561198178116375,"connected_time":2907000000000,"state":"active","ping":38},{"user_id":136,"name":"CypressFluff (She/Her)","steam_id":76561198174667818,"connected_time":1037000000000,"state":"active","ping":54},{"user_id":71,"name":"speed bomb","steam_id":76561198277363788,"connected_time":5467000000000,"state":"active","ping":73},{"user_id":111,"name":"Big Booty Llama","steam_id":76561198074422721,"connected_time":2567000000000,"state":"active","ping":61},{"user_id":151,"name":"gaming","steam_id":76561198353213912,"connected_time":191000000000,"state":"active","ping":45},{"user_id":122,"name":"Zeron","steam_id":76561198125778202,"connected_time":1755000000000,"state":"active","ping":49},{"user_id":152,"name":"man ahhh","steam_id":76561198129577552,"connected_time":183000000000,"state":"active","ping":85},{"user_id":131,"name":"lemur","steam_id":76561198278239170,"connected_time":1454000000000,"state":"active","ping":83},{"user_id":133,"name":"bweegus wagoogus glumbus","steam_id":76561198063481761,"connected_time":1311000000000,"state":"active","ping":42},{"user_id":144,"name":"seiran","steam_id":76561198880907232,"connected_time":758000000000,"state":"active","ping":79},{"user_id":120,"name":"ttv/ca7x3","steam_id":76561198181194862,"connected_time":1903000000000,"state":"active","ping":63},{"user_id":138,"name":"ziah","steam_id":76561198159375596,"connected_time":1014000000000,"state":"active","ping":56},{"user_id":154,"name":"Selling Anti-Matter for $543","steam_id":76561198070708382,"connected_time":51000000000,"state":"active","ping":47},{"user_id":153,"name":"Rodman","steam_id":76561198073532116,"connected_time":178000000000,"state":"active","ping":101}]},{"server_id":123,"name":"Uncletopia | Sydney | 2 | All Maps","name_short":"syd-2","host":"syd-1.au.uncletopia.com","port":27025,"enabled":true,"region":"au","cc":"au","latitude":-33.865143,"longitude":151.2099,"reserved":0,"last_update":"0001-01-01T00:00:00Z","name_a2s":"Uncletopia | Sydney | 2 | All Maps","protocol":17,"map":"koth_cascade","folder":"tf","game":"Team Fortress","app_id":440,"player_count":0,"max_players":24,"Bots":0,"server_type":"Dedicated","server_os":"Linux","password":true,"vac":true,"version":"7723704","steam_id":85568392924470002,"keywords":["cp","nocrits","nodmgspread","uncletopia"],"game_id":440,"stv_port":27026,"stv_name":"Uncletopia | Sydney | 2 | All Maps | STV","players":null},{"server_id":395,"name":"Uncletopia | Sydney | 3 | All Maps","name_short":"syd-3","host":"syd-1.au.uncletopia.com","port":27035,"enabled":true,"region":"au","cc":"au","latitude":-33.865143,"longitude":151.2099,"reserved":0,"last_update":"0001-01-01T00:00:00Z","name_a2s":"Uncletopia | Sydney | 3 | All Maps","protocol":17,"map":"cp_mountainlab","folder":"tf","game":"Team Fortress","app_id":440,"player_count":0,"max_players":24,"Bots":0,"server_type":"Dedicated","server_os":"Linux","password":true,"vac":true,"version":"7723704","steam_id":85568392925194467,"keywords":["cp","nocrits","nodmgspread","uncletopia"],"game_id":440,"stv_port":27036,"stv_name":"Uncletopia | Sydney | 3 | All Maps | STV","players":null},{"server_id":396,"name":"Uncletopia | Sydney | 4 | All Maps","name_short":"syd-4","host":"syd-1.au.uncletopia.com","port":27045,"enabled":true,"region":"au","cc":"au","latitude":-33.865143,"longitude":151.2099,"reserved":0,"last_update":"0001-01-01T00:00:00Z","name_a2s":"Uncletopia | Sydney | 4 | All Maps","protocol":17,"map":"koth_viaduct","folder":"tf","game":"Team Fortress","app_id":440,"player_count":2,"max_players":24,"Bots":0,"server_type":"Dedicated","server_os":"Linux","password":true,"vac":true,"version":"7723704","steam_id":85568392925397958,"keywords":["cp","nocrits","nodmgspread","uncletopia"],"game_id":440,"stv_port":27046,"stv_name":"Uncletopia | Sydney | 4 | All Maps | STV","players":[{"user_id":5,"name":"Mrpootis pow","steam_id":76561199389352385,"connected_time":654000000000,"state":"active","ping":39},{"user_id":7,"name":"treasurer","steam_id":76561199396462589,"connected_time":505000000000,"state":"active","ping":39}]},{"server_id":58,"name":"Uncletopia | Sydney | 5 | Stopwatch Beta","name_short":"syd-5","host":"syd-1.au.uncletopia.com","port":27055,"enabled":true,"region":"au","cc":"au","latitude":-33.865143,"longitude":151.2099,"reserved":0,"last_update":"0001-01-01T00:00:00Z","name_a2s":"Uncletopia | Sydney | 5 | Stopwatch Beta","protocol":17,"map":"cp_altitude","folder":"tf","game":"Team Fortress","app_id":440,"player_count":0,"max_players":24,"Bots":0,"server_type":"Dedicated","server_os":"Linux","password":true,"vac":true,"version":"7723704","steam_id":85568392925397959,"keywords":["cp","nocrits","nodmgspread","uncletopia"],"game_id":440,"stv_port":27056,"stv_name":"Uncletopia | Sydney | 5 | Stopwatch Beta | STV","players":null},{"server_id":59,"name":"Uncletopia | Sydney | 6 | Community","name_short":"syd-6","host":"syd-1.au.uncletopia.com","port":27065,"enabled":true,"region":"au","cc":"au","latitude":-33.865143,"longitude":151.2099,"reserved":0,"last_update":"0001-01-01T00:00:00Z","name_a2s":"Uncletopia | Sydney | 6 | Community","protocol":17,"map":"pl_frontier_final","folder":"tf","game":"Team Fortress","app_id":440,"player_count":0,"max_players":24,"Bots":0,"server_type":"Dedicated","server_os":"Linux","password":true,"vac":true,"version":"7723704","steam_id":85568392925397960,"keywords":["nocrits","nodmgspread","payload","uncletopia"],"game_id":440,"stv_port":27066,"stv_name":"Uncletopia | Sydney | 6 | Community | STV","players":null},{"server_id":49,"name":"Uncletopia | Warsaw | 1 | All Maps","name_short":"waw-1","host":"waw-1.pl.uncletopia.com","port":27015,"enabled":true,"region":"eu","cc":"pl","latitude":52.2297,"longitude":21.017532,"reserved":0,"last_update":"0001-01-01T00:00:00Z","name_a2s":"Uncletopia | Warsaw | 1 | All Maps","protocol":17,"map":"koth_highpass","folder":"tf","game":"Team Fortress","app_id":440,"player_count":0,"max_players":24,"Bots":0,"server_type":"Dedicated","server_os":"Linux","password":true,"vac":true,"version":"7723704","steam_id":85568392925397850,"keywords":["cp","nocrits","nodmgspread","uncletopia"],"game_id":440,"stv_port":27016,"stv_name":"Uncletopia | Warsaw | 1 | All Maps | STV","players":null},{"server_id":50,"name":"Uncletopia | Warsaw | 2 | All Maps","name_short":"waw-2","host":"waw-1.pl.uncletopia.com","port":27025,"enabled":true,"region":"eu","cc":"pl","latitude":52.2297,"longitude":21.017532,"reserved":0,"last_update":"0001-01-01T00:00:00Z","name_a2s":"Uncletopia | Warsaw | 2 | All Maps","protocol":17,"map":"koth_viaduct","folder":"tf","game":"Team Fortress","app_id":440,"player_count":0,"max_players":24,"Bots":0,"server_type":"Dedicated","server_os":"Linux","password":true,"vac":true,"version":"7723704","steam_id":85568392925397851,"keywords":["cp","nocrits","nodmgspread","uncletopia"],"game_id":440,"stv_port":27026,"stv_name":"Uncletopia | Warsaw | 2 | All Maps | STV","players":null},{"server_id":51,"name":"Uncletopia | Warsaw | 3 | All Maps","name_short":"waw-3","host":"waw-1.pl.uncletopia.com","port":27035,"enabled":true,"region":"eu","cc":"pl","latitude":52.2297,"longitude":21.017532,"reserved":0,"last_update":"0001-01-01T00:00:00Z","name_a2s":"Uncletopia | Warsaw | 3 | All Maps","protocol":17,"map":"koth_viaduct","folder":"tf","game":"Team Fortress","app_id":440,"player_count":0,"max_players":24,"Bots":0,"server_type":"Dedicated","server_os":"Linux","password":true,"vac":true,"version":"7723704","steam_id":85568392925397852,"keywords":["cp","nocrits","nodmgspread","uncletopia"],"game_id":440,"stv_port":27036,"stv_name":"Uncletopia | Warsaw | 3 | All Maps | STV","players":null},{"server_id":52,"name":"Uncletopia | Warsaw | 4 | All Maps","name_short":"waw-4","host":"waw-1.pl.uncletopia.com","port":27045,"enabled":true,"region":"eu","cc":"pl","latitude":52.2297,"longitude":21.017532,"reserved":0,"last_update":"0001-01-01T00:00:00Z","name_a2s":"Uncletopia | Warsaw | 4 | All Maps","protocol":17,"map":"koth_viaduct","folder":"tf","game":"Team Fortress","app_id":440,"player_count":0,"max_players":24,"Bots":0,"server_type":"Dedicated","server_os":"Linux","password":true,"vac":true,"version":"7723704","steam_id":85568392925397853,"keywords":["cp","nocrits","nodmgspread","uncletopia"],"game_id":440,"stv_port":27046,"stv_name":"Uncletopia | Warsaw | 4 | All Maps | STV","players":null},{"server_id":53,"name":"Uncletopia | Warsaw | 5 | Stopwatch Beta","name_short":"waw-5","host":"waw-1.pl.uncletopia.com","port":27055,"enabled":true,"region":"eu","cc":"pl","latitude":52.2297,"longitude":21.017532,"reserved":0,"last_update":"0001-01-01T00:00:00Z","name_a2s":"Uncletopia | Warsaw | 5 | Stopwatch Beta","protocol":17,"map":"cp_sunshine","folder":"tf","game":"Team Fortress","app_id":440,"player_count":0,"max_players":24,"Bots":0,"server_type":"Dedicated","server_os":"Linux","password":true,"vac":true,"version":"7723704","steam_id":85568392925397854,"keywords":["cp","nocrits","nodmgspread","uncletopia"],"game_id":440,"stv_port":27056,"stv_name":"Uncletopia | Warsaw | 5 | Stopwatch Beta | STV","players":null},{"server_id":54,"name":"Uncletopia | Warsaw | 6 | Community","name_short":"waw-6","host":"waw-1.pl.uncletopia.com","port":27065,"enabled":true,"region":"eu","cc":"pl","latitude":52.2297,"longitude":21.017532,"reserved":0,"last_update":"0001-01-01T00:00:00Z","name_a2s":"Uncletopia | Warsaw | 6 | Community","protocol":17,"map":"workshop/cp_caldera_rc2.ugc2834196889","folder":"tf","game":"Team Fortress","app_id":440,"player_count":0,"max_players":24,"Bots":0,"server_type":"Dedicated","server_os":"Linux","password":true,"vac":true,"version":"7723704","steam_id":85568392925397856,"keywords":["cp","nocrits","nodmgspread","uncletopia"],"game_id":440,"stv_port":27066,"stv_name":"Uncletopia | Warsaw | 6 | Community | STV","players":null}]}