{"status":true,"message":"","result":[{"server_id":9,"name":"Uncletopia | Atlanta | 1 | All Maps","name_short":"atl-1","host":"atl-1.us.uncletopia.com","port":27015,"enabled":true,"region":"us-east","cc":"us","latitude":33.753746,"longitude":-84.38633,"reserved":0,"last_update":"0001-01-01T00:00:00Z","name_a2s":"Uncletopia | Atlanta | 1 | All Maps","protocol":17,"map":"koth_lakeside_final","folder":"tf","game":"Team Fortress","app_id":440,"player_count":24,"max_players":24,"Bots":0,"server_type":"Dedicated","server_os":"Linux","password":true,"vac":true,"version":"7757534","steam_id":85568392924469982,"keywords":["cp","nocrits","nodmgspread","uncletopia"],"game_id":440,"stv_port":27016,"stv_name":"Uncletopia | Atlanta | 1 | All Maps | STV","players":[{"user_id":426,"name":"Boop","steam_id":76561198376703875,"connected_time":5297000000000,"state":"active","ping":62},{"user_id":460,"name":"RED1 | snoops","steam_id":76561197986760351,"connected_time":1301000000000,"state":"active","ping":73},{"user_id":437,"name":"lker","steam_id":76561197976975075,"connected_time":4154000000000,"state":"active","ping":41},{"user_id":467,"name":"bikerkid207","steam_id":76561198390782783,"connected_time":613000000000,"state":"active","ping":69},{"user_id":461,"name":"rrrr","steam_id":76561198048882285,"connected_time":1285000000000,"state":"active","ping":60},{"user_id":451,"name":"Ashes!","steam_id":76561197998475441,"connected_time":2795000000000,"state":"active","ping":91},{"user_id":463,"name":"Bart Harley Jarvis","steam_id":76561199215811448,"connected_time":1235000000000,"state":"active","ping":87},{"user_id":462,"name":"heisenberg","steam_id":76561198075341060,"connected_time":1249000000000,"state":"active","ping":113},{"user_id":459,"name":"scarecrow (evil)","steam_id":76561198082979347,"connected_time":1358000000000,"state":"active","ping":74},{"user_id":428,"name":"BLU1 | ☙ Corrupt ❧","steam_id":76561197977631915,"connected_time":5195000000000,"state":"active","ping":71},{"user_id":442,"name":"years","steam_id":76561197994098627,"connected_time":3434000000000,"state":"active","ping":115},{"user_id":430,"name":"schizophrenic with a gun","steam_id":76561198016121536,"connected_time":4998000000000,"state":"active","ping":74},{"user_id":394,"name":"Karma","steam_id":76561198030565234,"connected_time":8814000000000,"state":"active","ping":76},{"user_id":438,"name":"shaderoses","steam_id":76561198070800500,"connected_time":4154000000000,"state":"active","ping":69},{"user_id":440,"name":"RED1 | Lylith!!!","steam_id":76561198386687546,"connected_time":4090000000000,"state":"active","ping":46},{"user_id":420,"name":"Spoonful","steam_id":76561198927517471,"connected_time":6630000000000,"state":"active","ping":52},{"user_id":466,"name":"vid_","steam_id":76561198065159053,"connected_time":905000000000,"state":"active","ping":48},{"user_id":468,"name":"Protoshake","steam_id":76561198840276176,"connected_time":193000000000,"state":"active","ping":79},{"user_id":384,"name":"lil hog","steam_id":76561199230929836,"connected_time":9965000000000,"state":"active","ping":79},{"user_id":375,"name":"BLU1 | Psionic Box","steam_id":76561198151019322,"connected_time":11581000000000,"state":"active","ping":76},{"user_id":435,"name":"RED1 | Le4n!!!","steam_id":76561198045522596,"connected_time":4168000000000,"state":"active","ping":72},{"user_id":456,"name":"Sudden Pyro Event","steam_id":76561198085815757,"connected_time":1648000000000,"state":"active","ping":77},{"user_id":450,"name":"pipebombrater","steam_id":76561199029030831,"connected_time":2951000000000,"state":"active","ping":76},{"user_id":464,"name":"Dennis Tight Pants (Hypertight)","steam_id":76561198023306720,"connected_time":1231000000000,"state":"active","ping":90}]},{"server_id":400,"name":"Uncletopia | Atlanta | 3 | Community","name_short":"atl-3","host":"atl-1.us.uncletopia.com","port":27035,"enabled":true,"region":"us-east","cc":"us","latitude":33.753746,"longitude":-84.38633,"reserved":0,"last_update":"0001-01-01T00:00:00Z","name_a2s":"Uncletopia | Atlanta | 3 | Community","protocol":17,"map":"workshop/cp_propaganda_b18.ugc1603743849","folder":"tf","game":"Team Fortress","app_id":440,"player_count":0,"max_players":24,"Bots":0,"server_type":"Dedicated","server_os":"Linux","password":true,"vac":true,"version":"7757534","steam_id":85568392924515187,"keywords":["cp","nocrits","nodmgspread","uncletopia"],"game_id":440,"stv_port":27036,"stv_name":"Uncletopia | Atlanta | 3 | Community | STV","players":null},{"server_id":401,"name":"Uncletopia | Atlanta | 4 | No Payload","name_short":"atl-4","host":"atl-1.us.uncletopia.com","port":27045,"enabled":true,"region":"us-east","cc":"us","latitude":33.753746,"longitude":-84.38633,"reserved":0,"last_update":"0001-01-01T00:00:00Z","name_a2s":"","protocol":0,"map":"","folder":"","game":"","app_id":0,"player_count":0,"max_players":0,"Bots":0,"server_type":"","server_os":"","password":false,"vac":false,"version":"","steam_id":0,"keywords":null,"game_id":0,"stv_port":0,"stv_name":"","players":null},{"server_id":2,"name":"Uncletopia | Chicago | 1 | All Maps","name_short":"chi-1","host":"chi-1.us.uncletopia.com","port":27015,"enabled":true,"region":"us-central","cc":"us","latitude":41.881832,"longitude":-87.62318,"reserved":0,"last_update":"0001-01-01T00:00:00Z","name_a2s":"Uncletopia | Chicago | 1 | All Maps","protocol":17,"map":"cp_sunshine","folder":"tf","game":"Team Fortress","app_id":440,"player_count":24,"max_players":24,"Bots":0,"server_type":"Dedicated","server_os":"Linux","password":true,"vac":true,"version":"7757534","steam_id":85568392924469984,"keywords":["cp","nocrits","nodmgspread","uncletopia"],"game_id":440,"stv_port":27016,"stv_name":"Uncletopia | Chicago | 1 | All Maps | STV","players":[{"user_id":834,"name":"super","steam_id":76561198800358844,"connected_time":4206000000000,"state":"active","ping":83},{"user_id":888,"name":"✪ Hank","steam_id":76561198149253873,"connected_time":859000000000,"state":"active","ping":80},{"user_id":860,"name":"Cheetose Intolerant","steam_id":76561198013399809,"connected_time":2935000000000,"state":"active","ping":77},{"user_id":863,"name":"Matt.jpg","steam_id":76561198132469465,"connected_time":2201000000000,"state":"active","ping":45},{"user_id":862,"name":"Astro Knight","steam_id":76561198062767484,"connected_time":2738000000000,"state":"active","ping":87},{"user_id":890,"name":"[]{}#^*+=","steam_id":76561198127039453,"connected_time":785000000000,"state":"active","ping":104},{"user_id":896,"name":"Goblin Mode","steam_id":76561198064870076,"connected_time":663000000000,"state":"active","ping":104},{"user_id":874,"name":"Poladroid","steam_id":76561198032005291,"connected_time":1567000000000,"state":"active","ping":94},{"user_id":868,"name":"⛧","steam_id":76561198021308963,"connected_time":1690000000000,"state":"active","ping":80},{"user_id":894,"name":"IZISOO | #RIPJayBriscoe","steam_id":76561198970380577,"connected_time":717000000000,"state":"active","ping":54},{"user_id":884,"name":"i am clinically insane","steam_id":76561199013323529,"connected_time":1083000000000,"state":"active","ping":112},{"user_id":891,"name":"Joule Thief","steam_id":76561198010249026,"connected_time":757000000000,"state":"active","ping":89},{"user_id":880,"name":"goblino","steam_id":76561198068260422,"connected_time":1384000000000,"state":"active","ping":50},{"user_id":842,"name":"The Assistant Regional Manager","steam_id":76561199221484936,"connected_time":4134000000000,"state":"active","ping":119},{"user_id":898,"name":"Horrizan","steam_id":76561197965028480,"connected_time":468000000000,"state":"active","ping":72},{"user_id":900,"name":"HoaroBatty","steam_id":76561198120361221,"connected_time":243000000000,"state":"active","ping":74},{"user_id":893,"name":"Rex","steam_id":76561198138365053,"connected_time":729000000000,"state":"active","ping":125},{"user_id":895,"name":"Xan","steam_id":76561198010708247,"connected_time":712000000000,"state":"active","ping":61},{"user_id":865,"name":"Lore","steam_id":76561198098407538,"connected_time":2025000000000,"state":"active","ping":59},{"user_id":877,"name":"microninjeez","steam_id":76561198074936422,"connected_time":1468000000000,"state":"active","ping":64},{"user_id":844,"name":"Kaluka","steam_id":76561198036861445,"connected_time":4129000000000,"state":"active","ping":64},{"user_id":881,"name":"emmett","steam_id":76561198096016270,"connected_time":1273000000000,"state":"active","ping":45},{"user_id":879,"name":"tie dye die guy","steam_id":76561198049845337,"connected_time":1450000000000,"state":"active","ping":104},{"user_id":897,"name":"level 1 pyro","steam_id":76561198281197072,"connected_time":660000000000,"state":"active","ping":58}]},{"server_id":106,"name":"Uncletopia | Chicago | 2 | All Maps","name_short":"chi-2","host":"chi-1.us.uncletopia.com","port":27025,"enabled":true,"region":"us-central","cc":"us","latitude":41.881832,"longitude":-87.62318,"reserved":0,"last_update":"0001-01-01T00:00:00Z","name_a2s":"Uncletopia | Chicago | 2 | All Maps","protocol":17,"map":"pl_pier","folder":"tf","game":"Team Fortress","app_id":440,"player_count":24,"max_players":24,"Bots":0,"server_type":"Dedicated","server_os":"Linux","password":true,"vac":true,"version":"7757534","steam_id":85568392924469985,"keywords":["nocrits","nodmgspread","payload","uncletopia"],"game_id":440,"stv_port":27026,"stv_name":"Uncletopia | Chicago | 2 | All Maps | STV","players":[{"user_id":700,"name":"Birdhorse Of Course","steam_id":76561198038997485,"connected_time":903000000000,"state":"active","ping":70},{"user_id":655,"name":"Fever Dreams","steam_id":76561198116614620,"connected_time":3351000000000,"state":"active","ping":69},{"user_id":711,"name":"Resident Thrussy Lender","steam_id":76561198071790583,"connected_time":239000000000,"state":"active","ping":92},{"user_id":657,"name":"Baka!⑨⑨⑨⑨","steam_id":76561198152948254,"connected_time":3295000000000,"state":"active","ping":65},{"user_id":712,"name":"DOGE??","steam_id":76561198331098675,"connected_time":212000000000,"state":"active","ping":88},{"user_id":634,"name":"shadowjango","steam_id":76561198001475833,"connected_time":4445000000000,"state":"active","ping":63},{"user_id":685,"name":"crayonnipple","steam_id":76561198070253331,"connected_time":1574000000000,"state":"active","ping":54},{"user_id":703,"name":"Gutter Grime","steam_id":76561198100619417,"connected_time":685000000000,"state":"active","ping":70},{"user_id":693,"name":"Howoriginal","steam_id":76561197993701184,"connected_time":1131000000000,"state":"active","ping":60},{"user_id":701,"name":"Otis from Back at the Barnyard","steam_id":76561198051059704,"connected_time":711000000000,"state":"active","ping":49},{"user_id":690,"name":"GreenApples","steam_id":76561198120559543,"connected_time":1322000000000,"state":"active","ping":104},{"user_id":676,"name":"Mr. Dick™","steam_id":76561198047309044,"connected_time":1846000000000,"state":"active","ping":60},{"user_id":691,"name":"shadow wizard money gang","steam_id":76561198172101254,"connected_time":1306000000000,"state":"active","ping":151},{"user_id":692,"name":"Father Jon","steam_id":76561198324730919,"connected_time":1288000000000,"state":"active","ping":94},{"user_id":694,"name":"Kretim","steam_id":76561199204273483,"connected_time":1118000000000,"state":"active","ping":73},{"user_id":695,"name":"All 24 Pokémon movies at once","steam_id":76561198164738311,"connected_time":1114000000000,"state":"active","ping":58},{"user_id":715,"name":"Florist","steam_id":76561198009121060,"connected_time":141000000000,"state":"active","ping":107},{"user_id":704,"name":"Hose water","steam_id":76561198843651958,"connected_time":673000000000,"state":"active","ping":144},{"user_id":707,"name":"LerN","steam_id":76561198083463877,"connected_time":636000000000,"state":"active","ping":54},{"user_id":681,"name":"Poverty's Finest","steam_id":76561198127704044,"connected_time":1678000000000,"state":"active","ping":66},{"user_id":682,"name":"None of that $9.99 bullshit","steam_id":76561198116169903,"connected_time":1675000000000,"state":"active","ping":51},{"user_id":708,"name":"Windchaser123","steam_id":76561198969156571,"connected_time":627000000000,"state":"active","ping":97},{"user_id":668,"name":"hamo456","steam_id":76561198111939938,"connected_time":2615000000000,"state":"active","ping":117},{"user_id":706,"name":"El Gato Paranoico","steam_id":76561198116567116,"connected_time":662000000000,"state":"active","ping":87}]},{"server_id":402,"name":"Uncletopia | Chicago | 3 | All Maps","name_short":"chi-3","host":"chi-1.us.uncletopia.com","port":27035,"enabled":true,"region":"us-central","cc":"us","latitude":41.881832,"longitude":-87.62318,"reserved":0,"last_update":"0001-01-01T00:00:00Z","name_a2s":"Uncletopia | Chicago | 3 | All Maps","protocol":17,"map":"cp_mountainlab","folder":"tf","game":"Team Fortress","app_id":440,"player_count":24,"max_players":24,"Bots":0,"server_type":"Dedicated","server_os":"Linux","password":true,"vac":true,"version":"7757534","steam_id":85568392924515191,"keywords":["cp","nocrits","nodmgspread","uncletopia"],"game_id":440,"stv_port":27036,"stv_name":"Uncletopia | Chicago | 3 | All Maps | STV","players":[{"user_id":542,"name":"General_Jack","steam_id":76561198045894433,"connected_time":1860000000000,"state":"active","ping":112},{"user_id":561,"name":"Deep Peepus","steam_id":76561198205395757,"connected_time":821000000000,"state":"active","ping":97},{"user_id":499,"name":"RokkitFrog","steam_id":76561198046465850,"connected_time":3122000000000,"state":"active","ping":71},{"user_id":500,"name":"robert","steam_id":76561198001196512,"connected_time":3108000000000,"state":"active","ping":47},{"user_id":501,"name":"soup","steam_id":76561198099977572,"connected_time":3102000000000,"state":"active","ping":56},{"user_id":487,"name":"MissMatches_","steam_id":76561198048925904,"connected_time":3751000000000,"state":"active","ping":112},{"user_id":527,"name":"Papa Squat","steam_id":76561198045011208,"connected_time":2326000000000,"state":"active","ping":71},{"user_id":549,"name":"Dirt Man Dan","steam_id":76561198071586519,"connected_time":1684000000000,"state":"active","ping":79},{"user_id":554,"name":"Nightingale von Carstein","steam_id":76561198382793308,"connected_time":1389000000000,"state":"active","ping":84},{"user_id":558,"name":"tanner","steam_id":76561198137381904,"connected_time":929000000000,"state":"active","ping":113},{"user_id":567,"name":"mir","steam_id":76561198878711921,"connected_time":685000000000,"state":"active","ping":73},{"user_id":504,"name":"Buswolley","steam_id":76561197995205571,"connected_time":2963000000000,"state":"active","ping":93},{"user_id":560,"name":"DODE","steam_id":76561198089528086,"connected_time":869000000000,"state":"active","ping":85},{"user_id":565,"name":"pou123321","steam_id":76561198069211237,"connected_time":744000000000,"state":"active","ping":74},{"user_id":546,"name":":3","steam_id":76561198008599033,"connected_time":1703000000000,"state":"active","ping":127},{"user_id":457,"name":"inventor1214","steam_id":76561198062317696,"connected_time":5909000000000,"state":"active","ping":119},{"user_id":531,"name":"Spiderfight1","steam_id":76561199189991528,"connected_time":2188000000000,"state":"active","ping":86},{"user_id":533,"name":"Artistic","steam_id":76561198118159566,"connected_time":2143000000000,"state":"active","ping":96},{"user_id":562,"name":"Acrera","steam_id":76561198086216875,"connected_time":817000000000,"state":"active","ping":118},{"user_id":534,"name":"Vinchâu","steam_id":76561198169289662,"connected_time":2129000000000,"state":"active","ping":73},{"user_id":568,"name":"Trusty","steam_id":76561198035444237,"connected_time":323000000000,"state":"active","ping":66},{"user_id":564,"name":"pond water enthusiast","steam_id":76561198004847013,"connected_time":809000000000,"state":"active","ping":94},{"user_id":566,"name":"Crazybird769","steam_id":76561198097963689,"connected_time":731000000000,"state":"active","ping":57},{"user_id":520,"name":"JPMockMan","steam_id":76561198071370876,"connected_time":2431000000000,"state":"active","ping":86}]},{"server_id":403,"name":"Uncletopia | Chicago | 4 | All Maps","name_short":"chi-4","host":"chi-1.us.uncletopia.com","port":27045,"enabled":true,"region":"us-central","cc":"us","latitude":41.881832,"longitude":-87.62318,"reserved":0,"last_update":"0001-01-01T00:00:00Z","name_a2s":"Uncletopia | Chicago | 4 | All Maps","protocol":17,"map":"pl_borneo","folder":"tf","game":"Team Fortress","app_id":440,"player_count":16,"max_players":24,"Bots":0,"server_type":"Dedicated","server_os":"Linux","password":true,"vac":true,"version":"7757534","steam_id":85568392924515193,"keywords":["nocrits","nodmgspread","payload","uncletopia"],"game_id":440,"stv_port":27046,"stv_name":"Uncletopia | Chicago | 4 | All Maps | STV","players":[{"user_id":278,"name":"Do Moose go Moo?","steam_id":76561198073550620,"connected_time":3359000000000,"state":"active","ping":55},{"user_id":244,"name":"Groth","steam_id":76561198061888926,"connected_time":6610000000000,"state":"active","ping":90},{"user_id":303,"name":"GenericUser","steam_id":76561198010177586,"connected_time":658000000000,"state":"active","ping":91},{"user_id":289,"name":"evilgod","steam_id":76561198890522517,"connected_time":2861000000000,"state":"active","ping":81},{"user_id":282,"name":"Dispenser (Twan)","steam_id":76561197991064908,"connected_time":3281000000000,"state":"active","ping":59},{"user_id":268,"name":"Fantastic","steam_id":76561198079088978,"connected_time":4414000000000,"state":"active","ping":35},{"user_id":280,"name":"Lorelius Hogglefart","steam_id":76561198449527009,"connected_time":3344000000000,"state":"active","ping":58},{"user_id":300,"name":"Dr. Ninja","steam_id":76561198117258139,"connected_time":974000000000,"state":"active","ping":87},{"user_id":273,"name":"real scammer","steam_id":76561198063619558,"connected_time":4043000000000,"state":"active","ping":69},{"user_id":297,"name":"Regi","steam_id":76561198271508598,"connected_time":1127000000000,"state":"active","ping":47},{"user_id":296,"name":"DannyGamerXD","steam_id":76561198799224408,"connected_time":1283000000000,"state":"active","ping":60},{"user_id":298,"name":"bbbbbbbbbbbbbbbbbbbbbbbbbbbbbbb","steam_id":76561198339644583,"connected_time":1080000000000,"state":"active","ping":53},{"user_id":308,"name":"kiwidolphin88","steam_id":76561198067590480,"connected_time":128000000000,"state":"active","ping":93},{"user_id":304,"name":"G6 habib","steam_id":76561198053621664,"connected_time":648000000000,"state":"active","ping":56},{"user_id":291,"name":"LoseThos","steam_id":76561198026610323,"connected_time":1651000000000,"state":"active","ping":100},{"user_id":307,"name":":)","steam_id":76561198154385105,"connected_time":314000000000,"state":"active","ping":43}]},{"server_id":36,"name":"Uncletopia | Chicago | 5 | All Maps","name_short":"chi-5","host":"chi-2.us.uncletopia.com","port":27015,"enabled":true,"region":"us-central","cc":"us","latitude":41.881832,"longitude":-87.62318,"reserved":0,"last_update":"0001-01-01T00:00:00Z","name_a2s":"Uncletopia | Chicago | 5 | All Maps","protocol":17,"map":"koth_highpass","folder":"tf","game":"Team Fortress","app_id":440,"player_count":0,"max_players":24,"Bots":0,"server_type":"Dedicated","server_os":"Linux","password":true,"vac":true,"version":"7757534","steam_id":85568392924866362,"keywords":["cp","nocrits","nodmgspread","uncletopia"],"game_id":440,"stv_port":27016,"stv_name":"Uncletopia | Chicago | 5 | All Maps | STV","players":null},{"server_id":37,"name":"Uncletopia | Chicago | 6 | All Maps","name_short":"chi-6","host":"chi-2.us.uncletopia.com","port":27025,"enabled":true,"region":"us-central","cc":"us","latitude":41.881832,"longitude":-87.62318,"reserved":0,"last_update":"0001-01-01T00:00:00Z","name_a2s":"Uncletopia | Chicago | 6 | All Maps","protocol":17,"map":"cp_metalworks","folder":"tf","game":"Team Fortress","app_id":440,"player_count":23,"max_players":24,"Bots":0,"server_type":"Dedicated","server_os":"Linux","password":true,"vac":true,"version":"7757534","steam_id":85568392924866363,"keywords":["cp","nocrits","nodmgspread","uncletopia"],"game_id":440,"stv_port":27026,"stv_name":"Uncletopia | Chicago | 6 | All Maps | STV","players":[{"user_id":263,"name":"Summer","steam_id":76561198121692871,"connected_time":1051000000000,"state":"active","ping":66},{"user_id":264,"name":"Reverie","steam_id":76561198987005784,"connected_time":1042000000000,"state":"active","ping":67},{"user_id":203,"name":"last one of the tonight","steam_id":76561198099591549,"connected_time":6503000000000,"state":"active","ping":69},{"user_id":178,"name":"James","steam_id":76561198081313916,"connected_time":8369000000000,"state":"active","ping":75},{"user_id":250,"name":"Windex","steam_id":76561198105561395,"connected_time":2972000000000,"state":"active","ping":76},{"user_id":232,"name":"toastman","steam_id":76561198207073088,"connected_time":4348000000000,"state":"active","ping":71},{"user_id":219,"name":"Room","steam_id":76561199174579733,"connected_time":5396000000000,"state":"active","ping":66},{"user_id":255,"name":"Young, Hot, and Full of Grease","steam_id":76561198101092551,"connected_time":2203000000000,"state":"active","ping":74},{"user_id":274,"name":"Candy Sparkles","steam_id":76561198126871264,"connected_time":363000000000,"state":"active","ping":86},{"user_id":251,"name":"invb","steam_id":76561197998263914,"connected_time":2965000000000,"state":"active","ping":46},{"user_id":257,"name":"Prince Charles","steam_id":76561198161199653,"connected_time":1773000000000,"state":"active","ping":80},{"user_id":265,"name":"Deviljinin","steam_id":76561198127549413,"connected_time":1031000000000,"state":"active","ping":61},{"user_id":243,"name":"Bastion","steam_id":76561199133903803,"connected_time":3735000000000,"state":"active","ping":97},{"user_id":202,"name":"ILOVEHOTMOMS","steam_id":76561198232617936,"connected_time":6586000000000,"state":"active","ping":44},{"user_id":266,"name":"PHD From Harvard Nascar Fan","steam_id":76561198121926605,"connected_time":1013000000000,"state":"active","ping":85},{"user_id":246,"name":"HammerHead","steam_id":76561197975668646,"connected_time":3553000000000,"state":"active","ping":75},{"user_id":267,"name":"Six","steam_id":76561198052472822,"connected_time":1003000000000,"state":"active","ping":72},{"user_id":253,"name":"Nodin","steam_id":76561198135757376,"connected_time":2809000000000,"state":"active","ping":57},{"user_id":272,"name":"Jay F","steam_id":76561198046082188,"connected_time":895000000000,"state":"active","ping":61},{"user_id":269,"name":"pathulhu","steam_id":76561198323941614,"connected_time":987000000000,"state":"active","ping":72},{"user_id":270,"name":"Jon Snuh","steam_id":76561198075298635,"connected_time":956000000000,"state":"active","ping":60},{"user_id":275,"name":"WannaSeeA","steam_id":76561198097701042,"connected_time":288000000000,"state":"active","ping":75},{"user_id":271,"name":"Tough Puffin","steam_id":76561198024011010,"connected_time":935000000000,"state":"active","ping":70}]},{"server_id":38,"name":"Uncletopia | Chicago | 7 | Stopwatch Beta","name_short":"chi-7","host":"chi-2.us.uncletopia.com","port":27035,"enabled":true,"region":"us-central","cc":"us","latitude":41.881832,"longitude":-87.62318,"reserved":0,"last_update":"0001-01-01T00:00:00Z","name_a2s":"Uncletopia | Chicago | 7 | Stopwatch Beta","protocol":17,"map":"workshop/koth_ramjam_rc1.ugc459778887","folder":"tf","game":"Team Fortress","app_id":440,"player_count":0,"max_players":24,"Bots":0,"server_type":"Dedicated","server_os":"Linux","password":true,"vac":true,"version":"7757534","steam_id":85568392924866364,"keywords":["cp","nocrits","nodmgspread","uncletopia"],"game_id":440,"stv_port":27036,"stv_name":"Uncletopia | Chicago | 7 | Stopwatch Beta | STV","players":null},{"server_id":39,"name":"Uncletopia | Chicago | 8 | Community","name_short":"chi-8","host":"chi-2.us.uncletopia.com","port":27045,"enabled":true,"region":"us-central","cc":"us","latitude":41.881832,"longitude":-87.62318,"reserved":0,"last_update":"0001-01-01T00:00:00Z","name_a2s":"Uncletopia | Chicago | 8 | Community","protocol":17,"map":"workshop/koth_kemptown_rc1.ugc767410655","folder":"tf","game":"Team Fortress","app_id":440,"player_count":0,"max_players":24,"Bots":0,"server_type":"Dedicated","server_os":"Linux","password":true,"vac":true,"version":"7757534","steam_id":85568392924866365,"keywords":["cp","nocrits","nodmgspread","uncletopia"],"game_id":440,"stv_port":27046,"stv_name":"Uncletopia | Chicago | 8 | Community | STV","players":null},{"server_id":8,"name":"Uncletopia | Dallas | 1 | All Maps","name_short":"dal-1","host":"dal-1.us.uncletopia.com","port":27015,"enabled":true,"region":"us-central","cc":"us","latitude":32.779167,"longitude":-96.80889,"reserved":0,"last_update":"0001-01-01T00:00:00Z","name_a2s":"Uncletopia | Dallas | 1 | All Maps","protocol":17,"map":"pl_swiftwater_final1","folder":"tf","game":"Team Fortress","app_id":440,"player_count":24,"max_players":24,"Bots":0,"server_type":"Dedicated","server_os":"Linux","password":true,"vac":true,"version":"7757534","steam_id":85568392924469986,"keywords":["nocrits","nodmgspread","payload","uncletopia"],"game_id":440,"stv_port":27016,"stv_name":"Uncletopia | Dallas | 1 | All Maps | STV","players":[{"user_id":929,"name":"Major Marshtomp","steam_id":76561198060473622,"connected_time":101000000000,"state":"active","ping":73},{"user_id":919,"name":"Uncle Iroh","steam_id":76561198131467867,"connected_time":696000000000,"state":"active","ping":72},{"user_id":897,"name":"[S]Mr. X [No Monitor]","steam_id":76561197963746035,"connected_time":2394000000000,"state":"active","ping":121},{"user_id":903,"name":"Riske","steam_id":76561198115840568,"connected_time":1862000000000,"state":"active","ping":93},{"user_id":874,"name":"MEDIC!","steam_id":76561198149344029,"connected_time":4049000000000,"state":"active","ping":87},{"user_id":905,"name":"Dozo","steam_id":76561198011546437,"connected_time":1782000000000,"state":"active","ping":64},{"user_id":927,"name":"splooj","steam_id":76561198453203619,"connected_time":394000000000,"state":"active","ping":77},{"user_id":915,"name":"lamadre07","steam_id":76561198067337453,"connected_time":964000000000,"state":"active","ping":73},{"user_id":920,"name":"Fargo","steam_id":76561198044703931,"connected_time":691000000000,"state":"active","ping":73},{"user_id":921,"name":"Cousin Balki","steam_id":76561198070496395,"connected_time":662000000000,"state":"active","ping":99},{"user_id":930,"name":"Sven2Win","steam_id":76561198067289446,"connected_time":86000000000,"state":"active","ping":90},{"user_id":918,"name":"Kriss","steam_id":76561198855556991,"connected_time":739000000000,"state":"active","ping":66},{"user_id":923,"name":"Brian","steam_id":76561198089908485,"connected_time":608000000000,"state":"active","ping":104},{"user_id":912,"name":"pipeline","steam_id":76561198212263380,"connected_time":1298000000000,"state":"active","ping":46},{"user_id":924,"name":"BUFF THE SCORCH SHOT","steam_id":76561198042899484,"connected_time":595000000000,"state":"active","ping":124},{"user_id":925,"name":"huh?","steam_id":76561199083093385,"connected_time":463000000000,"state":"active","ping":74},{"user_id":913,"name":"Professor Sex","steam_id":76561198396414319,"connected_time":1292000000000,"state":"active","ping":83},{"user_id":909,"name":"Vevo","steam_id":76561198316753540,"connected_time":1627000000000,"state":"active","ping":38},{"user_id":828,"name":"M.L.JEW","steam_id":76561198997375055,"connected_time":9075000000000,"state":"active","ping":86},{"user_id":926,"name":"грустный","steam_id":76561198274550638,"connected_time":459000000000,"state":"active","ping":49},{"user_id":885,"name":"Krow","steam_id":76561198010392099,"connected_time":2534000000000,"state":"active","ping":59},{"user_id":928,"name":"Loashes","steam_id":76561198119608299,"connected_time":350000000000,"state":"active","ping":55},{"user_id":917,"name":"SuperEvilPasta","steam_id":76561198078258907,"connected_time":780000000000,"state":"active","ping":69},{"user_id":875,"name":"bash -lc ./asshat.sh","steam_id":76561198004584315,"connected_time":4028000000000,"state":"active","ping":86}]},{"server_id":108,"name":"Uncletopia | Dallas | 2 | All Maps","name_short":"dal-2","host":"dal-1.us.uncletopia.com","port":27025,"enabled":true,"region":"us-central","cc":"us","latitude":32.779167,"longitude":-96.80889,"reserved":0,"last_update":"0001-01-01T00:00:00Z","name_a2s":"Uncletopia | Dallas | 2 | All Maps","protocol":17,"map":"pl_pier","folder":"tf","game":"Team Fortress","app_id":440,"player_count":22,"max_players":24,"Bots":0,"server_type":"Dedicated","server_os":"Linux","password":true,"vac":true,"version":"7757534","steam_id":85568392924469988,"keywords":["nocrits","nodmgspread","payload","uncletopia"],"game_id":440,"stv_port":27026,"stv_name":"Uncletopia | Dallas | 2 | All Maps | STV","players":[{"user_id":695,"name":"Cam(era)","steam_id":76561198285054047,"connected_time":714000000000,"state":"active","ping":70},{"user_id":699,"name":"spot","steam_id":76561198151135298,"connected_time":104000000000,"state":"active","ping":60},{"user_id":683,"name":"tower defense","steam_id":76561198169755734,"connected_time":3175000000000,"state":"active","ping":90},{"user_id":700,"name":"kimin","steam_id":76561198263393063,"connected_time":101000000000,"state":"active","ping":80},{"user_id":701,"name":"heimdall","steam_id":76561198069380992,"connected_time":99000000000,"state":"active","ping":61},{"user_id":667,"name":"smeasly","steam_id":76561198028718812,"connected_time":3677000000000,"state":"active","ping":90},{"user_id":703,"name":"Kronk","steam_id":76561198010276205,"connected_time":61000000000,"state":"active","ping":95},{"user_id":702,"name":"Ryback","steam_id":76561197988711455,"connected_time":83000000000,"state":"active","ping":101},{"user_id":668,"name":"ed","steam_id":76561198080475712,"connected_time":3671000000000,"state":"active","ping":90},{"user_id":696,"name":"skaj","steam_id":76561198082278586,"connected_time":577000000000,"state":"active","ping":71},{"user_id":690,"name":"lamplistener333","steam_id":76561198970261784,"connected_time":1766000000000,"state":"active","ping":93},{"user_id":680,"name":"captain red","steam_id":76561198191587983,"connected_time":3207000000000,"state":"active","ping":67},{"user_id":648,"name":"brobtlcehc","steam_id":76561198043558709,"connected_time":5342000000000,"state":"active","ping":91},{"user_id":686,"name":"Harold","steam_id":76561198057317770,"connected_time":2318000000000,"state":"active","ping":76},{"user_id":697,"name":"Literal.Trash","steam_id":76561198030495810,"connected_time":546000000000,"state":"active","ping":105},{"user_id":688,"name":"NEBULA","steam_id":76561198086878595,"connected_time":1830000000000,"state":"active","ping":93},{"user_id":704,"name":"zeaya","steam_id":76561198078549692,"connected_time":35000000000,"state":"active","ping":110},{"user_id":647,"name":"Junior_198X","steam_id":76561198158596794,"connected_time":5462000000000,"state":"active","ping":83},{"user_id":705,"name":"HOG RIDER","steam_id":76561198298589502,"connected_time":3000000000,"state":"spawning","ping":79},{"user_id":682,"name":"chanoc","steam_id":76561198026734746,"connected_time":3202000000000,"state":"active","ping":90},{"user_id":662,"name":"DeckofDragons","steam_id":76561198057398213,"connected_time":3895000000000,"state":"active","ping":72},{"user_id":650,"name":"p9 jorts","steam_id":76561199041179985,"connected_time":5096000000000,"state":"active","ping":106}]},{"server_id":5,"name":"Uncletopia | Frankfurt | 1 | All Maps","name_short":"frk-1","host":"frk-1.de.uncletopia.com","port":27015,"enabled":true,"region":"eu","cc":"de","latitude":50.110924,"longitude":8.682127,"reserved":0,"last_update":"0001-01-01T00:00:00Z","name_a2s":"Uncletopia | Frankfurt | 1 | All Maps","protocol":17,"map":"pl_snowycoast","folder":"tf","game":"Team Fortress","app_id":440,"player_count":0,"max_players":24,"Bots":0,"server_type":"Dedicated","server_os":"Linux","password":true,"vac":true,"version":"7757534","steam_id":85568392924469989,"keywords":["nocrits","nodmgspread","payload","uncletopia"],"game_id":440,"stv_port":27016,"stv_name":"Uncletopia | Frankfurt | 1 | All Maps | STV","players":null},{"server_id":110,"name":"Uncletopia | Frankfurt | 2 | All Maps","name_short":"frk-2","host":"frk-1.de.uncletopia.com","port":27025,"enabled":true,"region":"eu","cc":"de","latitude":50.110924,"longitude":8.682127,"reserved":0,"last_update":"0001-01-01T00:00:00Z","name_a2s":"Uncletopia | Frankfurt | 2 | All Maps","protocol":17,"map":"pl_snowycoast","folder":"tf","game":"Team Fortress","app_id":440,"player_count":0,"max_players":24,"Bots":0,"server_type":"Dedicated","server_os":"Linux","password":true,"vac":true,"version":"7757534","steam_id":85568392924469990,"keywords":["nocrits","nodmgspread","payload","uncletopia"],"game_id":440,"stv_port":27026,"stv_name":"Uncletopia | Frankfurt | 2 | All Maps | STV","players":null},{"server_id":308,"name":"Uncletopia | Frankfurt | 3 | All Maps","name_short":"frk-3","host":"frk-1.de.uncletopia.com","port":27035,"enabled":true,"region":"eu","cc":"de","latitude":50.110924,"longitude":8.682127,"reserved":0,"last_update":"0001-01-01T00:00:00Z","name_a2s":"Uncletopia | Frankfurt | 3 | All Maps","protocol":17,"map":"cp_altitude","folder":"tf","game":"Team Fortress","app_id":440,"player_count":0,"max_players":24,"Bots":0,"server_type":"Dedicated","server_os":"Linux","password":true,"vac":true,"version":"7757534","steam_id":85568392924504274,"keywords":["cp","nocrits","nodmgspread","uncletopia"],"game_id":440,"stv_port":27036,"stv_name":"Uncletopia | Frankfurt | 3 | All Maps | STV","players":null},{"server_id":309,"name":"Uncletopia | Frankfurt | 4 | All Maps","name_short":"frk-4","host":"frk-1.de.uncletopia.com","port":27045,"enabled":true,"region":"eu","cc":"de","latitude":50.110924,"longitude":8.682127,"reserved":0,"last_update":"0001-01-01T00:00:00Z","name_a2s":"Uncletopia | Frankfurt | 4 | All Maps","protocol":17,"map":"cp_altitude","folder":"tf","game":"Team Fortress","app_id":440,"player_count":0,"max_players":24,"Bots":0,"server_type":"Dedicated","server_os":"Linux","password":true,"vac":true,"version":"7757534","steam_id":85568392924504275,"keywords":["cp","nocrits","nodmgspread","uncletopia"],"game_id":440,"stv_port":27046,"stv_name":"Uncletopia | Frankfurt | 4 | All Maps | STV","players":null},{"server_id":310,"name":"Uncletopia | Frankfurt | 5 | All Maps","name_short":"frk-5","host":"frk-1.de.uncletopia.com","port":27055,"enabled":true,"region":"eu","cc":"de","latitude":50.110924,"longitude":8.682127,"reserved":0,"last_update":"0001-01-01T00:00:00Z","name_a2s":"Uncletopia | Frankfurt | 5 | All Maps","protocol":17,"map":"cp_altitude","folder":"tf","game":"Team Fortress","app_id":440,"player_count":0,"max_players":24,"Bots":0,"server_type":"Dedicated","server_os":"Linux","password":true,"vac":true,"version":"7757534","steam_id":85568392924504277,"keywords":["cp","nocrits","nodmgspread","uncletopia"],"game_id":440,"stv_port":27056,"stv_name":"Uncletopia | Frankfurt | 5 | All Maps | STV","players":null},{"server_id":311,"name":"Uncletopia | Frankfurt | 6 | All Maps","name_short":"frk-6","host":"frk-1.de.uncletopia.com","port":27065,"enabled":true,"region":"eu","cc":"de","latitude":50.110924,"longitude":8.682127,"reserved":0,"last_update":"0001-01-01T00:00:00Z","name_a2s":"Uncletopia | Frankfurt | 6 | All Maps","protocol":17,"map":"koth_highpass","folder":"tf","game":"Team Fortress","app_id":440,"player_count":0,"max_players":24,"Bots":0,"server_type":"Dedicated","server_os":"Linux","password":true,"vac":true,"version":"7757534","steam_id":85568392924504278,"keywords":["cp","nocrits","nodmgspread","uncletopia"],"game_id":440,"stv_port":27066,"stv_name":"Uncletopia | Frankfurt | 6 | All Maps | STV","players":null},{"server_id":23,"name":"Uncletopia | Frankfurt | 7 | Stopwatch Beta","name_short":"frk-7","host":"frk-1.de.uncletopia.com","port":27075,"enabled":true,"region":"eu","cc":"de","latitude":50.110924,"longitude":8.682127,"reserved":0,"last_update":"0001-01-01T00:00:00Z","name_a2s":"Uncletopia | Frankfurt | 7 | Stopwatch Beta","protocol":17,"map":"pl_frontier_final","folder":"tf","game":"Team Fortress","app_id":440,"player_count":0,"max_players":24,"Bots":0,"server_type":"Dedicated","server_os":"Linux","password":true,"vac":true,"version":"7757534","steam_id":85568392924742827,"keywords":["nocrits","nodmgspread","payload","uncletopia"],"game_id":440,"stv_port":27076,"stv_name":"Uncletopia | Frankfurt | 7 | Stopwatch Beta | STV","players":null},{"server_id":24,"name":"Uncletopia | Frankfurt | 8 | Community","name_short":"frk-8","host":"frk-1.de.uncletopia.com","port":27085,"enabled":true,"region":"eu","cc":"de","latitude":50.110924,"longitude":8.682127,"reserved":0,"last_update":"0001-01-01T00:00:00Z","name_a2s":"Uncletopia | Frankfurt | 8 | Community","protocol":17,"map":"pl_badwater","folder":"tf","game":"Team Fortress","app_id":440,"player_count":3,"max_players":24,"Bots":0,"server_type":"Dedicated","server_os":"Linux","password":true,"vac":true,"version":"7757534","steam_id":85568392924742828,"keywords":["nocrits","nodmgspread","payload","uncletopia"],"game_id":440,"stv_port":27086,"stv_name":"Uncletopia | Frankfurt | 8 | Community | STV","players":[{"user_id":4,"name":"fried","steam_id":76561198307522022,"connected_time":1284000000000,"state":"active","ping":54},{"user_id":5,"name":"desu!","steam_id":76561198052878585,"connected_time":693000000000,"state":"active","ping":121},{"user_id":6,"name":"SaSSolino","steam_id":76561198011308018,"connected_time":573000000000,"state":"active","ping":45}]},{"server_id":202,"name":"Uncletopia | Hong Kong | 1 | All Maps","name_short":"hgk-1","host":"hgk-1.hk.uncletopia.com","port":27015,"enabled":true,"region":"asia","cc":"hk","latitude":22.302711,"longitude":114.177216,"reserved":0,"last_update":"0001-01-01T00:00:00Z","name_a2s":"Uncletopia | Hong Kong | 1 | All Maps","protocol":17,"map":"pl_upward","folder":"tf","game":"Team Fortress","app_id":440,"player_count":10,"max_players":24,"Bots":0,"server_type":"Dedicated","server_os":"Linux","password":true,"vac":true,"version":"7757534","steam_id":85568392924494504,"keywords":["nocrits","nodmgspread","payload","uncletopia"],"game_id":440,"stv_port":27016,"stv_name":"Uncletopia | Hong Kong | 1 | All Maps | STV","players":[{"user_id":75,"name":"Humpty Alexander Dumpty","steam_id":76561199116459368,"connected_time":1682000000000,"state":"active","ping":80},{"user_id":13,"name":"Ice Crack, Dude","steam_id":76561199445694770,"connected_time":9859000000000,"state":"active","ping":130},{"user_id":76,"name":"misttry2","steam_id":76561199382679347,"connected_time":557000000000,"state":"active","ping":112},{"user_id":78,"name":"IDontLaunder","steam_id":76561199103223706,"connected_time":515000000000,"state":"active","ping":167},{"user_id":71,"name":"duo","steam_id":76561198314216930,"connected_time":2062000000000,"state":"active","ping":51},{"user_id":79,"name":"Ezylynn","steam_id":76561198388935921,"connected_time":421000000000,"state":"active","ping":57},{"user_id":73,"name":"Shterman","steam_id":76561198074411229,"connected_time":1715000000000,"state":"active","ping":74},{"user_id":80,"name":"善良の墨","steam_id":76561199102754539,"connected_time":368000000000,"state":"active","ping":87},{"user_id":81,"name":"INCREASE GAS PRICES","steam_id":76561199406575369,"connected_time":209000000000,"state":"active","ping":75},{"user_id":82,"name":"tortiglioni","steam_id":76561199131857098,"connected_time":190000000000,"state":"active","ping":61}]},{"server_id":1,"name":"Uncletopia | Los Angeles | 1 | All Maps","name_short":"lax-1","host":"lax-1.us.uncletopia.com","port":27015,"enabled":true,"region":"us-west","cc":"us","latitude":33.94279,"longitude":-118.41004,"reserved":0,"last_update":"0001-01-01T00:00:00Z","name_a2s":"Uncletopia | Los Angeles | 1 | All Maps","protocol":17,"map":"plr_bananabay","folder":"tf","game":"Team Fortress","app_id":440,"player_count":24,"max_players":24,"Bots":0,"server_type":"Dedicated","server_os":"Linux","password":true,"vac":true,"version":"7757534","steam_id":85568392924469991,"keywords":["nocrits","nodmgspread","payload","uncletopia"],"game_id":440,"stv_port":27016,"stv_name":"Uncletopia | Los Angeles | 1 | All Maps | STV","players":[{"user_id":531,"name":"The man not on fire","steam_id":76561198070406766,"connected_time":586000000000,"state":"active","ping":89},{"user_id":472,"name":"intek","steam_id":76561198052705291,"connected_time":6517000000000,"state":"active","ping":88},{"user_id":533,"name":"June","steam_id":76561198141803658,"connected_time":49000000000,"state":"active","ping":52},{"user_id":506,"name":"MistakesWereMade","steam_id":76561199059220481,"connected_time":3288000000000,"state":"active","ping":57},{"user_id":523,"name":"doobiebob","steam_id":76561198071963742,"connected_time":813000000000,"state":"active","ping":57},{"user_id":524,"name":"ChickenGaming","steam_id":76561199321846493,"connected_time":786000000000,"state":"active","ping":122},{"user_id":534,"name":"Gnome","steam_id":76561198096243566,"connected_time":19000000000,"state":"active","ping":67},{"user_id":511,"name":"rose","steam_id":76561197995200743,"connected_time":3182000000000,"state":"active","ping":44},{"user_id":525,"name":"YourWishes","steam_id":76561198154414336,"connected_time":786000000000,"state":"active","ping":53},{"user_id":526,"name":"/r/circumcision","steam_id":76561198045926594,"connected_time":711000000000,"state":"active","ping":66},{"user_id":527,"name":"VVanilla","steam_id":76561198274272066,"connected_time":684000000000,"state":"active","ping":85},{"user_id":532,"name":"Gimmick","steam_id":76561198065873462,"connected_time":302000000000,"state":"active","ping":45},{"user_id":528,"name":"Bill Johnson","steam_id":76561198066355382,"connected_time":659000000000,"state":"active","ping":62},{"user_id":482,"name":"Jared","steam_id":76561198174468986,"connected_time":6291000000000,"state":"active","ping":63},{"user_id":474,"name":"L. F. Spirits","steam_id":76561198022265991,"connected_time":6440000000000,"state":"active","ping":105},{"user_id":490,"name":"Xiangote","steam_id":76561198067436825,"connected_time":5407000000000,"state":"active","ping":99},{"user_id":505,"name":"rock gaming","steam_id":76561199402868311,"connected_time":3373000000000,"state":"active","ping":62},{"user_id":529,"name":"The Great Eagle Scourge of 1822","steam_id":76561198325086209,"connected_time":650000000000,"state":"active","ping":61},{"user_id":530,"name":"Emm","steam_id":76561198114140235,"connected_time":639000000000,"state":"active","ping":57},{"user_id":481,"name":"LazyDoll","steam_id":76561198053186338,"connected_time":6336000000000,"state":"active","ping":53},{"user_id":483,"name":"joe","steam_id":76561198149179519,"connected_time":6287000000000,"state":"active","ping":64},{"user_id":512,"name":"Joe Grumbo","steam_id":76561198048485190,"connected_time":3152000000000,"state":"active","ping":116},{"user_id":519,"name":"❤Blunt.Babe420❤","steam_id":76561199014055970,"connected_time":1969000000000,"state":"active","ping":120},{"user_id":489,"name":"ScoutBox","steam_id":76561198111539895,"connected_time":5502000000000,"state":"active","ping":46}]},{"server_id":112,"name":"Uncletopia | Los Angeles | 2 | All Maps","name_short":"lax-2","host":"lax-1.us.uncletopia.com","port":27025,"enabled":true,"region":"us-west","cc":"us","latitude":33.94279,"longitude":-118.41004,"reserved":0,"last_update":"0001-01-01T00:00:00Z","name_a2s":"Uncletopia | Los Angeles | 2 | All Maps","protocol":17,"map":"koth_cascade","folder":"tf","game":"Team Fortress","app_id":440,"player_count":0,"max_players":24,"Bots":0,"server_type":"Dedicated","server_os":"Linux","password":true,"vac":true,"version":"7757534","steam_id":85568392924469992,"keywords":["cp","nocrits","nodmgspread","uncletopia"],"game_id":440,"stv_port":27026,"stv_name":"Uncletopia | Los Angeles | 2 | All Maps | STV","players":null},{"server_id":324,"name":"Uncletopia | Los Angeles | 3 | All Maps","name_short":"lax-3","host":"lax-1.us.uncletopia.com","port":27035,"enabled":true,"region":"us-west","cc":"us","latitude":33.94279,"longitude":-118.41004,"reserved":0,"last_update":"0001-01-01T00:00:00Z","name_a2s":"Uncletopia | Los Angeles | 3 | All Maps","protocol":17,"map":"pl_badwater","folder":"tf","game":"Team Fortress","app_id":440,"player_count":5,"max_players":24,"Bots":0,"server_type":"Dedicated","server_os":"Linux","password":true,"vac":true,"version":"7757534","steam_id":85568392924510198,"keywords":["nocrits","nodmgspread","payload","uncletopia"],"game_id":440,"stv_port":27036,"stv_name":"Uncletopia | Los Angeles | 3 | All Maps | STV","players":[{"user_id":154,"name":"MINI CRIT!999","steam_id":76561198027649268,"connected_time":489000000000,"state":"active","ping":87},{"user_id":157,"name":"May may :)","steam_id":76561198816778484,"connected_time":187000000000,"state":"active","ping":100},{"user_id":156,"name":"CTRL+V","steam_id":76561198089718016,"connected_time":414000000000,"state":"active","ping":90},{"user_id":153,"name":"golia","steam_id":76561198000264266,"connected_time":515000000000,"state":"active","ping":57},{"user_id":117,"name":"ChibiFerrari","steam_id":76561198825330201,"connected_time":2658000000000,"state":"active","ping":66}]},{"server_id":25,"name":"Uncletopia | Los Angeles | 4 | Stopwatch Beta","name_short":"lax-4","host":"lax-1.us.uncletopia.com","port":27045,"enabled":true,"region":"us-west","cc":"us","latitude":33.94279,"longitude":-118.41004,"reserved":0,"last_update":"0001-01-01T00:00:00Z","name_a2s":"Uncletopia | Los Angeles | 4 | Stopwatch Beta","protocol":17,"map":"workshop/koth_ashville_final.ugc2130459942","folder":"tf","game":"Team Fortress","app_id":440,"player_count":0,"max_players":24,"Bots":0,"server_type":"Dedicated","server_os":"Linux","password":true,"vac":true,"version":"7757534","steam_id":85568392924510199,"keywords":["cp","nocrits","nodmgspread","uncletopia"],"game_id":440,"stv_port":27046,"stv_name":"Uncletopia | Los Angeles | 4 | Stopwatch Beta | STV","players":null},{"server_id":11,"name":"Uncletopia | London | 1 | All Maps","name_short":"lon-1","host":"lon-1.uk.uncletopia.com","port":27015,"enabled":true,"region":"eu","cc":"gb","latitude":51.509865,"longitude":-0.118092,"reserved":0,"last_update":"0001-01-01T00:00:00Z","name_a2s":"Uncletopia | London | 1 | All Maps","protocol":17,"map":"koth_viaduct","folder":"tf","game":"Team Fortress","app_id":440,"player_count":0,"max_players":24,"Bots":0,"server_type":"Dedicated","server_os":"Linux","password":true,"vac":true,"version":"7757534","steam_id":85568392924367362,"keywords":["cp","nocrits","nodmgspread","uncletopia"],"game_id":440,"stv_port":27016,"stv_name":"Uncletopia | London | 1 | All Maps | STV","players":null},{"server_id":114,"name":"Uncletopia | London | 2 | All Maps","name_short":"lon-2","host":"lon-1.uk.uncletopia.com","port":27025,"enabled":true,"region":"eu","cc":"gb","latitude":51.509865,"longitude":-0.118092,"reserved":0,"last_update":"0001-01-01T00:00:00Z","name_a2s":"Uncletopia | London | 2 | All Maps","protocol":17,"map":"cp_dustbowl","folder":"tf","game":"Team Fortress","app_id":440,"player_count":0,"max_players":24,"Bots":0,"server_type":"Dedicated","server_os":"Linux","password":true,"vac":true,"version":"7757534","steam_id":85568392924470941,"keywords":["cp","nocrits","nodmgspread","uncletopia"],"game_id":440,"stv_port":27026,"stv_name":"Uncletopia | London | 2 | All Maps | STV","players":null},{"server_id":320,"name":"Uncletopia | London | 3 | All Maps","name_short":"lon-3","host":"lon-1.uk.uncletopia.com","port":27035,"enabled":true,"region":"eu","cc":"gb","latitude":51.509865,"longitude":-0.118092,"reserved":0,"last_update":"0001-01-01T00:00:00Z","name_a2s":"Uncletopia | London | 3 | All Maps","protocol":17,"map":"pl_badwater","folder":"tf","game":"Team Fortress","app_id":440,"player_count":0,"max_players":24,"Bots":0,"server_type":"Dedicated","server_os":"Linux","password":true,"vac":true,"version":"7757534","steam_id":85568392924510192,"keywords":["nocrits","nodmgspread","payload","uncletopia"],"game_id":440,"stv_port":27036,"stv_name":"Uncletopia | London | 3 | All Maps | STV","players":null},{"server_id":321,"name":"Uncletopia | London | 4 | All Maps","name_short":"lon-4","host":"lon-1.uk.uncletopia.com","port":27045,"enabled":true,"region":"eu","cc":"gb","latitude":51.509865,"longitude":-0.118092,"reserved":0,"last_update":"0001-01-01T00:00:00Z","name_a2s":"Uncletopia | London | 4 | All Maps","protocol":17,"map":"koth_viaduct","folder":"tf","game":"Team Fortress","app_id":440,"player_count":0,"max_players":24,"Bots":0,"server_type":"Dedicated","server_os":"Linux","password":true,"vac":true,"version":"7757534","steam_id":85568392924510193,"keywords":["cp","nocrits","nodmgspread","uncletopia"],"game_id":440,"stv_port":27046,"stv_name":"Uncletopia | London | 4 | All Maps | STV","players":null},{"server_id":21,"name":"Uncletopia | London | 5 | All Maps","name_short":"lon-5","host":"lon-1.uk.uncletopia.com","port":27055,"enabled":true,"region":"eu","cc":"gb","latitude":51.509865,"longitude":-0.118092,"reserved":0,"last_update":"0001-01-01T00:00:00Z","name_a2s":"Uncletopia | London | 5 | All Maps","protocol":17,"map":"cp_snakewater_final1","folder":"tf","game":"Team Fortress","app_id":440,"player_count":0,"max_players":24,"Bots":0,"server_type":"Dedicated","server_os":"Linux","password":true,"vac":true,"version":"7757534","steam_id":85568392924742829,"keywords":["cp","nocrits","nodmgspread","uncletopia"],"game_id":440,"stv_port":27056,"stv_name":"Uncletopia | London | 5 | All Maps | STV","players":null},{"server_id":22,"name":"Uncletopia | London | 6 | All Maps","name_short":"lon-6","host":"lon-1.uk.uncletopia.com","port":27065,"enabled":true,"region":"eu","cc":"gb","latitude":51.509865,"longitude":-0.118092,"reserved":0,"last_update":"0001-01-01T00:00:00Z","name_a2s":"Uncletopia | London | 6 | All Maps","protocol":17,"map":"koth_cascade","folder":"tf","game":"Team Fortress","app_id":440,"player_count":0,"max_players":24,"Bots":0,"server_type":"Dedicated","server_os":"Linux","password":true,"vac":true,"version":"7757534","steam_id":85568392924742830,"keywords":["cp","nocrits","nodmgspread","uncletopia"],"game_id":440,"stv_port":27066,"stv_name":"Uncletopia | London | 6 | All Maps | STV","players":null},{"server_id":40,"name":"Uncletopia | London | 7 | No Payload","name_short":"lon-7","host":"lon-1.uk.uncletopia.com","port":27075,"enabled":true,"region":"eu","cc":"gb","latitude":51.509865,"longitude":-0.118092,"reserved":0,"last_update":"0001-01-01T00:00:00Z","name_a2s":"Uncletopia | London | 7 | No Payload","protocol":17,"map":"cp_process_final","folder":"tf","game":"Team Fortress","app_id":440,"player_count":0,"max_players":24,"Bots":0,"server_type":"Dedicated","server_os":"Linux","password":true,"vac":true,"version":"7757534","steam_id":85568392924964314,"keywords":["cp","nocrits","nodmgspread","uncletopia"],"game_id":440,"stv_port":27076,"stv_name":"Uncletopia | London | 7 | No Payload | STV","players":null},{"server_id":41,"name":"Uncletopia | London | 8 | Community","name_short":"lon-8","host":"lon-1.uk.uncletopia.com","port":27085,"enabled":true,"region":"eu","cc":"gb","latitude":51.509865,"longitude":-0.118092,"reserved":0,"last_update":"0001-01-01T00:00:00Z","name_a2s":"Uncletopia | London | 8 | Community","protocol":17,"map":"pl_upward","folder":"tf","game":"Team Fortress","app_id":440,"player_count":0,"max_players":24,"Bots":0,"server_type":"Dedicated","server_os":"Linux","password":true,"vac":true,"version":"7757534","steam_id":85568392924964315,"keywords":["nocrits","nodmgspread","payload","uncletopia"],"game_id":440,"stv_port":27086,"stv_name":"Uncletopia | London | 8 | Community | STV","players":null},{"server_id":300,"name":"Uncletopia | Montréal | 1 | All Maps","name_short":"mtl-1","host":"mtl-1.ca.uncletopia.com","port":27015,"enabled":true,"region":"us-east","cc":"ca","latitude":45.50889,"longitude":-73.56167,"reserved":0,"last_update":"0001-01-01T00:00:00Z","name_a2s":"Uncletopia | Montréal | 1 | All Maps","protocol":17,"map":"cp_snakewater_final1","folder":"tf","game":"Team Fortress","app_id":440,"player_count":2,"max_players":24,"Bots":0,"server_type":"Dedicated","server_os":"Linux","password":true,"vac":true,"version":"7757534","steam_id":85568392924500087,"keywords":["cp","nocrits","nodmgspread","uncletopia"],"game_id":440,"stv_port":27016,"stv_name":"Uncletopia | Montréal | 1 | All Maps | STV","players":[{"user_id":273,"name":"boi","steam_id":76561199213975119,"connected_time":703000000000,"state":"active","ping":130},{"user_id":252,"name":"xd Clover","steam_id":76561198038905361,"connected_time":2862000000000,"state":"active","ping":59}]},{"server_id":301,"name":"Uncletopia | Montréal | 2 | All Maps","name_short":"mtl-2","host":"mtl-1.ca.uncletopia.com","port":27025,"enabled":true,"region":"us-east","cc":"ca","latitude":45.50889,"longitude":-73.56167,"reserved":0,"last_update":"0001-01-01T00:00:00Z","name_a2s":"Uncletopia | Montréal | 2 | All Maps","protocol":17,"map":"koth_viaduct","folder":"tf","game":"Team Fortress","app_id":440,"player_count":0,"max_players":24,"Bots":0,"server_type":"Dedicated","server_os":"Linux","password":true,"vac":true,"version":"7757534","steam_id":85568392924500088,"keywords":["cp","nocrits","nodmgspread","uncletopia"],"game_id":440,"stv_port":27026,"stv_name":"Uncletopia | Montréal | 2 | All Maps | STV","players":null},{"server_id":302,"name":"Uncletopia | Montréal | 3 | All Maps","name_short":"mtl-3","host":"mtl-1.ca.uncletopia.com","port":27035,"enabled":true,"region":"us-east","cc":"ca","latitude":45.50889,"longitude":-73.56167,"reserved":0,"last_update":"0001-01-01T00:00:00Z","name_a2s":"Uncletopia | Montréal | 3 | All Maps","protocol":17,"map":"pl_frontier_final","folder":"tf","game":"Team Fortress","app_id":440,"player_count":0,"max_players":24,"Bots":0,"server_type":"Dedicated","server_os":"Linux","password":true,"vac":true,"version":"7757534","steam_id":85568392924500089,"keywords":["nocrits","nodmgspread","payload","uncletopia"],"game_id":440,"stv_port":27036,"stv_name":"Uncletopia | Montréal | 3 | All Maps | STV","players":null},{"server_id":303,"name":"Uncletopia | Montréal | 4 | No Payload","name_short":"mtl-4","host":"mtl-1.ca.uncletopia.com","port":27045,"enabled":true,"region":"us-east","cc":"ca","latitude":45.50889,"longitude":-73.56167,"reserved":0,"last_update":"0001-01-01T00:00:00Z","name_a2s":"Uncletopia | Montréal | 4 | No Payload","protocol":17,"map":"pl_borneo","folder":"tf","game":"Team Fortress","app_id":440,"player_count":0,"max_players":24,"Bots":0,"server_type":"Dedicated","server_os":"Linux","password":true,"vac":true,"version":"7757534","steam_id":85568392924500090,"keywords":["nocrits","nodmgspread","payload","uncletopia"],"game_id":440,"stv_port":27046,"stv_name":"Uncletopia | Montréal | 4 | No Payload | STV","players":null},{"server_id":13,"name":"Uncletopia | New York City | 1 | All Maps","name_short":"nyc-1","host":"nyc-1.us.uncletopia.com","port":27015,"enabled":true,"region":"us-east","cc":"us","latitude":40.73061,"longitude":-73.93524,"reserved":0,"last_update":"0001-01-01T00:00:00Z","name_a2s":"Uncletopia | New York City | 1 | All Maps","protocol":17,"map":"pl_frontier_final","folder":"tf","game":"Team Fortress","app_id":440,"player_count":23,"max_players":24,"Bots":0,"server_type":"Dedicated","server_os":"Linux","password":true,"vac":true,"version":"7757534","steam_id":85568392924469993,"keywords":["nocrits","nodmgspread","payload","uncletopia"],"game_id":440,"stv_port":27016,"stv_name":"Uncletopia | New York City | 1 | All Maps | STV","players":[{"user_id":530,"name":"Hagisero the flying merchant","steam_id":76561198279433091,"connected_time":378000000000,"state":"active","ping":61},{"user_id":509,"name":"Ghor7","steam_id":76561198025552658,"connected_time":2279000000000,"state":"active","ping":79},{"user_id":498,"name":"dookie 4hunnid","steam_id":76561198097034115,"connected_time":3490000000000,"state":"active","ping":59},{"user_id":518,"name":"CoryBaxterWH","steam_id":76561198060041823,"connected_time":1518000000000,"state":"active","ping":49},{"user_id":531,"name":"daemon","steam_id":76561198001541433,"connected_time":348000000000,"state":"active","ping":74},{"user_id":541,"name":"C papi","steam_id":76561198027779564,"connected_time":65000000000,"state":"active","ping":48},{"user_id":532,"name":"trappy (showered)","steam_id":76561198402801140,"connected_time":327000000000,"state":"active","ping":85},{"user_id":533,"name":"Tones","steam_id":76561198039572032,"connected_time":317000000000,"state":"active","ping":53},{"user_id":511,"name":"Featherless Biped","steam_id":76561198034171721,"connected_time":2199000000000,"state":"active","ping":87},{"user_id":534,"name":"fish","steam_id":76561198054070811,"connected_time":310000000000,"state":"active","ping":116},{"user_id":517,"name":"Pineapple Okanつ ◕_◕ ༽\ufffd\ufffd","steam_id":76561198069199449,"connected_time":1576000000000,"state":"active","ping":183},{"user_id":490,"name":"Architect","steam_id":76561198015242016,"connected_time":4557000000000,"state":"active","ping":56},{"user_id":519,"name":"BlixyDragon","steam_id":76561198295422834,"connected_time":1496000000000,"state":"active","ping":97},{"user_id":536,"name":"Vladikr1","steam_id":76561198401495362,"connected_time":241000000000,"state":"active","ping":74},{"user_id":545,"name":"Wub","steam_id":76561198072947773,"connected_time":4000000000,"state":"spawning","ping":66},{"user_id":538,"name":"Rock Kickass","steam_id":76561198450510841,"connected_time":211000000000,"state":"active","ping":124},{"user_id":520,"name":"Rakk","steam_id":76561198855176174,"connected_time":1493000000000,"state":"active","ping":121},{"user_id":508,"name":"Gay Cake","steam_id":76561198004388831,"connected_time":2308000000000,"state":"active","ping":81},{"user_id":425,"name":"Glad","steam_id":76561199388372220,"connected_time":9668000000000,"state":"active","ping":54},{"user_id":510,"name":"ROGUE-PLANET","steam_id":76561198116023052,"connected_time":2260000000000,"state":"active","ping":100},{"user_id":542,"name":"nerfington","steam_id":76561198062785419,"connected_time":64000000000,"state":"active","ping":84},{"user_id":544,"name":"FiveHoursLater...","steam_id":76561198092608339,"connected_time":18000000000,"state":"spawning","ping":119},{"user_id":428,"name":"SpinetinglingToast","steam_id":76561198099470670,"connected_time":9640000000000,"state":"active","ping":54}]},{"server_id":14,"name":"Uncletopia | New York City | 2 | All Maps","name_short":"nyc-2","host":"nyc-1.us.uncletopia.com","port":27025,"enabled":true,"region":"us-east","cc":"us","latitude":40.73061,"longitude":-73.93524,"reserved":0,"last_update":"0001-01-01T00:00:00Z","name_a2s":"Uncletopia | New York City | 2 | All Maps","protocol":17,"map":"koth_cascade","folder":"tf","game":"Team Fortress","app_id":440,"player_count":0,"max_players":24,"Bots":0,"server_type":"Dedicated","server_os":"Linux","password":true,"vac":true,"version":"7757534","steam_id":85568392924469994,"keywords":["cp","nocrits","nodmgspread","uncletopia"],"game_id":440,"stv_port":27026,"stv_name":"Uncletopia | New York City | 2 | All Maps | STV","players":null},{"server_id":15,"name":"Uncletopia | New York City | 3 | Stopwatch Beta","name_short":"nyc-3","host":"nyc-1.us.uncletopia.com","port":27035,"enabled":true,"region":"us-east","cc":"us","latitude":40.73061,"longitude":-73.93524,"reserved":0,"last_update":"0001-01-01T00:00:00Z","name_a2s":"Uncletopia | New York City | 3 | Stopwatch Beta","protocol":17,"map":"pl_swiftwater_final1","folder":"tf","game":"Team Fortress","app_id":440,"player_count":0,"max_players":24,"Bots":0,"server_type":"Dedicated","server_os":"Linux","password":true,"vac":true,"version":"7757534","steam_id":85568392924742820,"keywords":["nocrits","nodmgspread","payload","uncletopia"],"game_id":440,"stv_port":27036,"stv_name":"Uncletopia | New York City | 3 | Stopwatch Beta | STV","players":null},{"server_id":16,"name":"Uncletopia | New York City | 4 | Community","name_short":"nyc-4","host":"nyc-1.us.uncletopia.com","port":27045,"enabled":true,"region":"us-east","cc":"us","latitude":40.73061,"longitude":-73.93524,"reserved":0,"last_update":"0001-01-01T00:00:00Z","name_a2s":"Uncletopia | New York City | 4 | Community","protocol":17,"map":"workshop/pl_cashworks_final1.ugc2904065412","folder":"tf","game":"Team Fortress","app_id":440,"player_count":0,"max_players":24,"Bots":0,"server_type":"Dedicated","server_os":"Linux","password":true,"vac":true,"version":"7757534","steam_id":85568392924742821,"keywords":["nocrits","nodmgspread","payload","uncletopia"],"game_id":440,"stv_port":27046,"stv_name":"Uncletopia | New York City | 4 | Community | STV","players":null},{"server_id":142,"name":"Uncletopia | São Paulo | 1 | All Maps","name_short":"sao-1","host":"sao-1.br.uncletopia.com","port":27015,"enabled":true,"region":"sa","cc":"br","latitude":-23.533773,"longitude":-46.62529,"reserved":0,"last_update":"0001-01-01T00:00:00Z","name_a2s":"Uncletopia | São Paulo | 1 | All Maps","protocol":17,"map":"pl_barnblitz","folder":"tf","game":"Team Fortress","app_id":440,"player_count":0,"max_players":24,"Bots":0,"server_type":"Dedicated","server_os":"Linux","password":true,"vac":true,"version":"7757534","steam_id":85568392924469996,"keywords":["nocrits","nodmgspread","payload","uncletopia"],"game_id":440,"stv_port":27016,"stv_name":"Uncletopia | São Paulo | 1 | All Maps | STV","players":null},{"server_id":143,"name":"Uncletopia | São Paulo | 2 | All Maps","name_short":"sao-2","host":"sao-2.br.uncletopia.com","port":27015,"enabled":true,"region":"sa","cc":"br","latitude":-23.533773,"longitude":-46.62529,"reserved":0,"last_update":"0001-01-01T00:00:00Z","name_a2s":"Uncletopia | São Paulo | 2 | All Maps","protocol":17,"map":"koth_viaduct","folder":"tf","game":"Team Fortress","app_id":440,"player_count":0,"max_players":24,"Bots":0,"server_type":"Dedicated","server_os":"Linux","password":true,"vac":true,"version":"7757534","steam_id":85568392924485349,"keywords":["cp","nocrits","nodmgspread","uncletopia"],"game_id":440,"stv_port":27016,"stv_name":"Uncletopia | São Paulo | 2 | All Maps | STV","players":null},{"server_id":7,"name":"Uncletopia | Seattle | 1 | All Maps","name_short":"sea-1","host":"sea-1.us.uncletopia.com","port":27015,"enabled":true,"region":"us-west","cc":"us","latitude":47.608013,"longitude":-122.33517,"reserved":0,"last_update":"0001-01-01T00:00:00Z","name_a2s":"Uncletopia | Seattle | 1 | All Maps","protocol":17,"map":"koth_king","folder":"tf","game":"Team Fortress","app_id":440,"player_count":24,"max_players":24,"Bots":0,"server_type":"Dedicated","server_os":"Linux","password":true,"vac":true,"version":"7757534","steam_id":85568392924469997,"keywords":["cp","nocrits","nodmgspread","uncletopia"],"game_id":440,"stv_port":27016,"stv_name":"Uncletopia | Seattle | 1 | All Maps | STV","players":[{"user_id":349,"name":"Bread Dad","steam_id":76561198088284226,"connected_time":640000000000,"state":"active","ping":40},{"user_id":351,"name":"DAYTONA","steam_id":76561198061975847,"connected_time":592000000000,"state":"active","ping":83},{"user_id":353,"name":"Panckakebro","steam_id":76561198106419992,"connected_time":540000000000,"state":"active","ping":116},{"user_id":292,"name":"Level 99 Mudcrab","steam_id":76561198077452771,"connected_time":5318000000000,"state":"active","ping":56},{"user_id":362,"name":"AjProductions","steam_id":76561198217950125,"connected_time":287000000000,"state":"active","ping":83},{"user_id":337,"name":"lavender","steam_id":76561199069518286,"connected_time":1813000000000,"state":"active","ping":74},{"user_id":352,"name":"DK360","steam_id":76561198796783094,"connected_time":574000000000,"state":"active","ping":72},{"user_id":294,"name":"ShredMaan","steam_id":76561198429982138,"connected_time":4968000000000,"state":"active","ping":86},{"user_id":354,"name":"LX-24","steam_id":76561198016168993,"connected_time":505000000000,"state":"active","ping":115},{"user_id":355,"name":"spongebob_scream.mp3","steam_id":76561199279128457,"connected_time":504000000000,"state":"active","ping":50},{"user_id":357,"name":"Cinna Mon","steam_id":76561198005840633,"connected_time":436000000000,"state":"active","ping":60},{"user_id":341,"name":"Kuma","steam_id":76561199100813140,"connected_time":1245000000000,"state":"active","ping":89},{"user_id":364,"name":"Squid121","steam_id":76561198038832034,"connected_time":119000000000,"state":"active","ping":49},{"user_id":363,"name":"poey","steam_id":76561198865346767,"connected_time":203000000000,"state":"active","ping":92},{"user_id":346,"name":"strong and healthy gamer","steam_id":76561198049489349,"connected_time":767000000000,"state":"active","ping":56},{"user_id":343,"name":"SilentninjaTheUndefenestratable","steam_id":76561198387601885,"connected_time":1185000000000,"state":"active","ping":84},{"user_id":340,"name":"GgDionne","steam_id":76561198079684772,"connected_time":1499000000000,"state":"active","ping":72},{"user_id":312,"name":"Clemont007","steam_id":76561198030935625,"connected_time":3139000000000,"state":"active","ping":80},{"user_id":342,"name":"spenca","steam_id":76561198025371154,"connected_time":1218000000000,"state":"active","ping":68},{"user_id":324,"name":"shoe","steam_id":76561198451476220,"connected_time":2690000000000,"state":"active","ping":60},{"user_id":369,"name":"MusicMan_abc","steam_id":76561198850414921,"connected_time":26000000000,"state":"active","ping":58},{"user_id":334,"name":"Ayayahuasca","steam_id":76561199002906056,"connected_time":1951000000000,"state":"active","ping":48},{"user_id":339,"name":"Tom","steam_id":76561198070630154,"connected_time":1798000000000,"state":"active","ping":81},{"user_id":348,"name":"Ghoster","steam_id":76561198329367716,"connected_time":736000000000,"state":"active","ping":105}]},{"server_id":119,"name":"Uncletopia | Seattle | 2 | All Maps","name_short":"sea-2","host":"sea-1.us.uncletopia.com","port":27025,"enabled":true,"region":"us-west","cc":"us","latitude":47.608013,"longitude":-122.33517,"reserved":0,"last_update":"0001-01-01T00:00:00Z","name_a2s":"Uncletopia | Seattle | 2 | All Maps","protocol":17,"map":"pl_badwater","folder":"tf","game":"Team Fortress","app_id":440,"player_count":24,"max_players":24,"Bots":0,"server_type":"Dedicated","server_os":"Linux","password":true,"vac":true,"version":"7757534","steam_id":85568392924469998,"keywords":["nocrits","nodmgspread","payload","uncletopia"],"game_id":440,"stv_port":27026,"stv_name":"Uncletopia | Seattle | 2 | All Maps | STV","players":[{"user_id":715,"name":"shiftshock01","steam_id":76561199049488870,"connected_time":579000000000,"state":"active","ping":66},{"user_id":716,"name":"TimTam Tom","steam_id":76561198045988062,"connected_time":560000000000,"state":"active","ping":98},{"user_id":518,"name":"pizzaguy4","steam_id":76561198058821622,"connected_time":16293000000000,"state":"active","ping":90},{"user_id":630,"name":"ProtogenJake","steam_id":76561198177771255,"connected_time":9173000000000,"state":"active","ping":72},{"user_id":714,"name":"MyMonkeyBaby","steam_id":76561198046896670,"connected_time":592000000000,"state":"active","ping":61},{"user_id":675,"name":"Thezest","steam_id":76561198043895839,"connected_time":4642000000000,"state":"active","ping":43},{"user_id":703,"name":"YuuriDaThrilla","steam_id":76561198184814466,"connected_time":1874000000000,"state":"active","ping":36},{"user_id":652,"name":"oo","steam_id":76561198119626492,"connected_time":6162000000000,"state":"active","ping":78},{"user_id":699,"name":"fragadelphia","steam_id":76561198066116363,"connected_time":2610000000000,"state":"active","ping":47},{"user_id":711,"name":"Moth","steam_id":76561198170253694,"connected_time":606000000000,"state":"active","ping":58},{"user_id":717,"name":"A UsedNom","steam_id":76561198402832756,"connected_time":505000000000,"state":"active","ping":47},{"user_id":709,"name":"Soto101","steam_id":76561198141538280,"connected_time":1078000000000,"state":"active","ping":105},{"user_id":722,"name":"Twisted Freaking Cyclepath","steam_id":76561198080775161,"connected_time":299000000000,"state":"active","ping":91},{"user_id":669,"name":"Mom","steam_id":76561198207936000,"connected_time":4857000000000,"state":"active","ping":60},{"user_id":679,"name":"Santicules","steam_id":76561198209373536,"connected_time":4266000000000,"state":"active","ping":105},{"user_id":713,"name":"your alcoholic step father","steam_id":76561199386363103,"connected_time":603000000000,"state":"active","ping":70},{"user_id":718,"name":"NFiggy","steam_id":76561198070706289,"connected_time":489000000000,"state":"active","ping":46},{"user_id":719,"name":"Colonel Chikara","steam_id":76561198010021087,"connected_time":485000000000,"state":"active","ping":67},{"user_id":701,"name":"mooney","steam_id":76561199110622484,"connected_time":2609000000000,"state":"active","ping":70},{"user_id":720,"name":"Crispy_Wafers","steam_id":76561198153330995,"connected_time":466000000000,"state":"active","ping":87},{"user_id":710,"name":"Willy Wonker","steam_id":76561198082944789,"connected_time":646000000000,"state":"active","ping":83},{"user_id":721,"name":"when sus","steam_id":76561198283043183,"connected_time":464000000000,"state":"active","ping":52},{"user_id":668,"name":"SomeGuyWhoLikesPotatoes","steam_id":76561198110276797,"connected_time":4865000000000,"state":"active","ping":58},{"user_id":672,"name":"Sivinus","steam_id":76561198025589541,"connected_time":4841000000000,"state":"active","ping":89}]},{"server_id":406,"name":"Uncletopia | Seattle | 3 | Stopwatch Beta","name_short":"sea-3","host":"sea-1.us.uncletopia.com","port":27035,"enabled":true,"region":"us-west","cc":"us","latitude":47.608013,"longitude":-122.33517,"reserved":0,"last_update":"0001-01-01T00:00:00Z","name_a2s":"Uncletopia | Seattle | 3 | Stopwatch Beta","protocol":17,"map":"workshop/pl_vigil_rc9.ugc1266210012","folder":"tf","game":"Team Fortress","app_id":440,"player_count":0,"max_players":24,"Bots":0,"server_type":"Dedicated","server_os":"Linux","password":true,"vac":true,"version":"7757534","steam_id":85568392924515217,"keywords":["nocrits","nodmgspread","payload","uncletopia"],"game_id":440,"stv_port":27036,"stv_name":"Uncletopia | Seattle | 3 | Stopwatch Beta | STV","players":null},{"server_id":17,"name":"Uncletopia | San Francisco | 1 | All Maps","name_short":"sfo-1","host":"sfo-1.us.uncletopia.com","port":27015,"enabled":true,"region":"us-west","cc":"us","latitude":37.77397,"longitude":-122.4313,"reserved":0,"last_update":"0001-01-01T00:00:00Z","name_a2s":"Uncletopia | San Francisco | 1 | All Maps","protocol":17,"map":"cp_snakewater_final1","folder":"tf","game":"Team Fortress","app_id":440,"player_count":0,"max_players":24,"Bots":0,"server_type":"Dedicated","server_os":"Linux","password":true,"vac":true,"version":"7757534","steam_id":85568392924469999,"keywords":["cp","nocrits","nodmgspread","uncletopia"],"game_id":440,"stv_port":27016,"stv_name":"Uncletopia | San Francisco | 1 | All Maps | STV","players":null},{"server_id":18,"name":"Uncletopia | San Francisco | 2 | All Maps","name_short":"sfo-2","host":"sfo-1.us.uncletopia.com","port":27025,"enabled":true,"region":"us-west","cc":"us","latitude":37.77397,"longitude":-122.4313,"reserved":0,"last_update":"0001-01-01T00:00:00Z","name_a2s":"Uncletopia | San Francisco | 2 | All Maps","protocol":17,"map":"pl_borneo","folder":"tf","game":"Team Fortress","app_id":440,"player_count":24,"max_players":24,"Bots":0,"server_type":"Dedicated","server_os":"Linux","password":true,"vac":true,"version":"7757534","steam_id":85568392924470000,"keywords":["nocrits","nodmgspread","payload","uncletopia"],"game_id":440,"stv_port":27026,"stv_name":"Uncletopia | San Francisco | 2 | All Maps | STV","players":[{"user_id":308,"name":"Axeman","steam_id":76561198076669238,"connected_time":1052000000000,"state":"active","ping":87},{"user_id":304,"name":"Sadodere Grimace","steam_id":76561198008332028,"connected_time":1510000000000,"state":"active","ping":65},{"user_id":312,"name":"Fresh","steam_id":76561198068565728,"connected_time":515000000000,"state":"active","ping":46},{"user_id":267,"name":"Antzen","steam_id":76561198041343470,"connected_time":5773000000000,"state":"active","ping":57},{"user_id":299,"name":"oil","steam_id":76561198099980149,"connected_time":2522000000000,"state":"active","ping":69},{"user_id":313,"name":"Mechadrago","steam_id":76561198028058543,"connected_time":510000000000,"state":"active","ping":75},{"user_id":283,"name":"Quon Grene for Vice Prez","steam_id":76561198127545817,"connected_time":4408000000000,"state":"active","ping":69},{"user_id":298,"name":"Swag5","steam_id":76561198065311356,"connected_time":2523000000000,"state":"active","ping":50},{"user_id":265,"name":"Feel the bern","steam_id":76561198078824519,"connected_time":5797000000000,"state":"active","ping":78},{"user_id":180,"name":"tweet","steam_id":76561198166515735,"connected_time":12112000000000,"state":"active","ping":46},{"user_id":306,"name":"Agent Q","steam_id":76561198830829003,"connected_time":1471000000000,"state":"active","ping":86},{"user_id":291,"name":"yolginmo","steam_id":76561198157985901,"connected_time":3889000000000,"state":"active","ping":81},{"user_id":294,"name":"QueeQuee","steam_id":76561198070804012,"connected_time":3688000000000,"state":"active","ping":92},{"user_id":208,"name":"Dosario","steam_id":76561198298095535,"connected_time":9722000000000,"state":"active","ping":74},{"user_id":303,"name":"DUBMonkey","steam_id":76561198046257506,"connected_time":1816000000000,"state":"active","ping":75},{"user_id":297,"name":"Swag6","steam_id":76561198064110837,"connected_time":2742000000000,"state":"active","ping":45},{"user_id":253,"name":"Danzuniverse","steam_id":76561198179817943,"connected_time":6201000000000,"state":"active","ping":75},{"user_id":302,"name":"PonYOOOOOOO","steam_id":76561199067424111,"connected_time":1940000000000,"state":"active","ping":60},{"user_id":282,"name":"TheFakeApple","steam_id":76561199090113472,"connected_time":4730000000000,"state":"active","ping":76},{"user_id":280,"name":"SvicidalBug","steam_id":76561198221390504,"connected_time":4791000000000,"state":"active","ping":87},{"user_id":307,"name":"0","steam_id":76561198071099414,"connected_time":1443000000000,"state":"active","ping":53},{"user_id":300,"name":"goldhed","steam_id":76561198051751133,"connected_time":2227000000000,"state":"active","ping":71},{"user_id":314,"name":"Nuts","steam_id":76561199258535559,"connected_time":429000000000,"state":"active","ping":67},{"user_id":201,"name":"Anthid","steam_id":76561198074493797,"connected_time":10151000000000,"state":"active","ping":75}]},{"server_id":19,"name":"Uncletopia | San Francisco | 3 | Stopwatch Beta","name_short":"sfo-3","host":"sfo-1.us.uncletopia.com","port":27035,"enabled":true,"region":"us-west","cc":"us","latitude":37.77397,"longitude":-122.4313,"reserved":0,"last_update":"0001-01-01T00:00:00Z","name_a2s":"Uncletopia | San Francisco | 3 | Stopwatch Beta","protocol":17,"map":"workshop/koth_ramjam_rc1.ugc459778887","folder":"tf","game":"Team Fortress","app_id":440,"player_count":0,"max_players":24,"Bots":0,"server_type":"Dedicated","server_os":"Linux","password":true,"vac":true,"version":"7757534","steam_id":85568392924742824,"keywords":["cp","nocrits","nodmgspread","uncletopia"],"game_id":440,"stv_port":27036,"stv_name":"Uncletopia | San Francisco | 3 | Stopwatch Beta | STV","players":null},{"server_id":20,"name":"Uncletopia | San Francisco | 4 | Community","name_short":"sfo-4","host":"sfo-1.us.uncletopia.com","port":27045,"enabled":true,"region":"us-west","cc":"us","latitude":37.77397,"longitude":-122.4313,"reserved":0,"last_update":"0001-01-01T00:00:00Z","name_a2s":"Uncletopia | San Francisco | 4 | Community","protocol":17,"map":"workshop/pl_corrode_rc2.ugc546577989","folder":"tf","game":"Team Fortress","app_id":440,"player_count":0,"max_players":24,"Bots":0,"server_type":"Dedicated","server_os":"Linux","password":true,"vac":true,"version":"7757534","steam_id":85568392924742826,"keywords":["nocrits","nodmgspread","payload","uncletopia"],"game_id":440,"stv_port":27046,"stv_name":"Uncletopia | San Francisco | 4 | Community | STV","players":null},{"server_id":141,"name":"Uncletopia | Sydney | 1 | All Maps","name_short":"syd-1","host":"syd-1.au.uncletopia.com","port":27015,"enabled":true,"region":"au","cc":"au","latitude":-33.865143,"longitude":151.2099,"reserved":0,"last_update":"0001-01-01T00:00:00Z","name_a2s":"Uncletopia | Sydney | 1 | All Maps","protocol":17,"map":"koth_highpass","folder":"tf","game":"Team Fortress","app_id":440,"player_count":0,"max_players":24,"Bots":0,"server_type":"Dedicated","server_os":"Linux","password":true,"vac":true,"version":"7757534","steam_id":85568392924470001,"keywords":["cp","nocrits","nodmgspread","uncletopia"],"game_id":440,"stv_port":27016,"stv_name":"Uncletopia | Sydney | 1 | All Maps | STV","players":null},{"server_id":123,"name":"Uncletopia | Sydney | 2 | All Maps","name_short":"syd-2","host":"syd-1.au.uncletopia.com","port":27025,"enabled":true,"region":"au","cc":"au","latitude":-33.865143,"longitude":151.2099,"reserved":0,"last_update":"0001-01-01T00:00:00Z","name_a2s":"Uncletopia | Sydney | 2 | All Maps","protocol":17,"map":"pl_borneo","folder":"tf","game":"Team Fortress","app_id":440,"player_count":23,"max_players":24,"Bots":0,"server_type":"Dedicated","server_os":"Linux","password":true,"vac":true,"version":"7757534","steam_id":85568392924470002,"keywords":["nocrits","nodmgspread","payload","uncletopia"],"game_id":440,"stv_port":27026,"stv_name":"Uncletopia | Sydney | 2 | All Maps | STV","players":[{"user_id":103,"name":"O'rangutan","steam_id":76561198095916681,"connected_time":6000000000,"state":"active","ping":114},{"user_id":64,"name":"monnickev","steam_id":76561198252587162,"connected_time":2235000000000,"state":"active","ping":44},{"user_id":65,"name":"Stumble St.","steam_id":76561198038548013,"connected_time":2215000000000,"state":"active","ping":36},{"user_id":43,"name":"Catto","steam_id":76561197999111589,"connected_time":3396000000000,"state":"active","ping":31},{"user_id":79,"name":"mathgeniuswhocares","steam_id":76561198293036993,"connected_time":1471000000000,"state":"active","ping":45},{"user_id":80,"name":"TW_light2022","steam_id":76561199393566784,"connected_time":1421000000000,"state":"active","ping":63},{"user_id":100,"name":"liam","steam_id":76561198046239819,"connected_time":273000000000,"state":"active","ping":87},{"user_id":71,"name":"doctor morbin' (real)","steam_id":76561199365241695,"connected_time":2123000000000,"state":"active","ping":123},{"user_id":93,"name":"MrMuffin16","steam_id":76561198257303774,"connected_time":1209000000000,"state":"active","ping":55},{"user_id":95,"name":"DKC","steam_id":76561198313578155,"connected_time":1142000000000,"state":"active","ping":30},{"user_id":61,"name":"syl","steam_id":76561198049270541,"connected_time":2610000000000,"state":"active","ping":30},{"user_id":89,"name":"KnowZero","steam_id":76561198095752015,"connected_time":1263000000000,"state":"active","ping":62},{"user_id":85,"name":"Lemon|0_o","steam_id":76561198188258925,"connected_time":1360000000000,"state":"active","ping":45},{"user_id":68,"name":"thrax","steam_id":76561197992385270,"connected_time":2179000000000,"state":"active","ping":53},{"user_id":69,"name":"LordCheese","steam_id":76561198294202833,"connected_time":2177000000000,"state":"active","ping":54},{"user_id":98,"name":"Iuca","steam_id":76561198207782305,"connected_time":434000000000,"state":"active","ping":70},{"user_id":72,"name":"Exornan","steam_id":76561198160180985,"connected_time":2082000000000,"state":"active","ping":62},{"user_id":90,"name":"Zort","steam_id":76561198056414289,"connected_time":1255000000000,"state":"active","ping":68},{"user_id":77,"name":"le0","steam_id":76561197965566926,"connected_time":1832000000000,"state":"active","ping":34},{"user_id":96,"name":"(Voice) Optometrist Prime","steam_id":76561198340730741,"connected_time":884000000000,"state":"active","ping":58},{"user_id":76,"name":"LightningBlock","steam_id":76561198289997742,"connected_time":1882000000000,"state":"active","ping":40},{"user_id":94,"name":"Mr PearBear","steam_id":76561199107069046,"connected_time":1195000000000,"state":"active","ping":54},{"user_id":102,"name":"ziah","steam_id":76561198159375596,"connected_time":91000000000,"state":"active","ping":58}]},{"server_id":395,"name":"Uncletopia | Sydney | 3 | All Maps","name_short":"syd-3","host":"syd-1.au.uncletopia.com","port":27035,"enabled":true,"region":"au","cc":"au","latitude":-33.865143,"longitude":151.2099,"reserved":0,"last_update":"0001-01-01T00:00:00Z","name_a2s":"Uncletopia | Sydney | 3 | All Maps","protocol":17,"map":"pl_frontier_final","folder":"tf","game":"Team Fortress","app_id":440,"player_count":0,"max_players":24,"Bots":0,"server_type":"Dedicated","server_os":"Linux","password":true,"vac":true,"version":"7757534","steam_id":85568392925194467,"keywords":["nocrits","nodmgspread","payload","uncletopia"],"game_id":440,"stv_port":27036,"stv_name":"Uncletopia | Sydney | 3 | All Maps | STV","players":null},{"server_id":396,"name":"Uncletopia | Sydney | 4 | All Maps","name_short":"syd-4","host":"syd-1.au.uncletopia.com","port":27045,"enabled":true,"region":"au","cc":"au","latitude":-33.865143,"longitude":151.2099,"reserved":0,"last_update":"0001-01-01T00:00:00Z","name_a2s":"Uncletopia | Sydney | 4 | All Maps","protocol":17,"map":"koth_lakeside_final","folder":"tf","game":"Team Fortress","app_id":440,"player_count":0,"max_players":24,"Bots":0,"server_type":"Dedicated","server_os":"Linux","password":true,"vac":true,"version":"7757534","steam_id":85568392925397958,"keywords":["cp","nocrits","nodmgspread","uncletopia"],"game_id":440,"stv_port":27046,"stv_name":"Uncletopia | Sydney | 4 | All Maps | STV","players":null},{"server_id":58,"name":"Uncletopia | Sydney | 5 | Stopwatch Beta","name_short":"syd-5","host":"syd-1.au.uncletopia.com","port":27055,"enabled":true,"region":"au","cc":"au","latitude":-33.865143,"longitude":151.2099,"reserved":0,"last_update":"0001-01-01T00:00:00Z","name_a2s":"Uncletopia | Sydney | 5 | Stopwatch Beta","protocol":17,"map":"workshop/koth_clearcut_b15.ugc2107050255","folder":"tf","game":"Team Fortress","app_id":440,"player_count":5,"max_players":24,"Bots":0,"server_type":"Dedicated","server_os":"Linux","password":true,"vac":true,"version":"7757534","steam_id":85568392925397959,"keywords":["cp","nocrits","nodmgspread","uncletopia"],"game_id":440,"stv_port":27056,"stv_name":"Uncletopia | Sydney | 5 | Stopwatch Beta | STV","players":[{"user_id":12,"name":"Dark Knight","steam_id":76561198250889884,"connected_time":11000000000,"state":"active","ping":46},{"user_id":4,"name":"Stinke","steam_id":76561198973797001,"connected_time":1926000000000,"state":"active","ping":97},{"user_id":9,"name":"Branko","steam_id":76561199262196710,"connected_time":799000000000,"state":"active","ping":40},{"user_id":10,"name":"ADUCK","steam_id":76561198249887912,"connected_time":493000000000,"state":"active","ping":62},{"user_id":11,"name":"Yipstar","steam_id":76561198118272135,"connected_time":178000000000,"state":"active","ping":55}]},{"server_id":59,"name":"Uncletopia | Sydney | 6 | Community","name_short":"syd-6","host":"syd-1.au.uncletopia.com","port":27065,"enabled":true,"region":"au","cc":"au","latitude":-33.865143,"longitude":151.2099,"reserved":0,"last_update":"0001-01-01T00:00:00Z","name_a2s":"Uncletopia | Sydney | 6 | Community","protocol":17,"map":"workshop/cp_sulfur_rc2.ugc619869471","folder":"tf","game":"Team Fortress","app_id":440,"player_count":0,"max_players":24,"Bots":0,"server_type":"Dedicated","server_os":"Linux","password":true,"vac":true,"version":"7757534","steam_id":85568392925397960,"keywords":["cp","nocrits","nodmgspread","uncletopia"],"game_id":440,"stv_port":27066,"stv_name":"Uncletopia | Sydney | 6 | Community | STV","players":null},{"server_id":49,"name":"Uncletopia | Warsaw | 1 | All Maps","name_short":"waw-1","host":"waw-1.pl.uncletopia.com","port":27015,"enabled":true,"region":"eu","cc":"pl","latitude":52.2297,"longitude":21.017532,"reserved":0,"last_update":"0001-01-01T00:00:00Z","name_a2s":"","protocol":0,"map":"","folder":"","game":"","app_id":0,"player_count":0,"max_players":0,"Bots":0,"server_type":"","server_os":"","password":false,"vac":false,"version":"","steam_id":0,"keywords":null,"game_id":0,"stv_port":0,"stv_name":"","players":null},{"server_id":50,"name":"Uncletopia | Warsaw | 2 | All Maps","name_short":"waw-2","host":"waw-1.pl.uncletopia.com","port":27025,"enabled":true,"region":"eu","cc":"pl","latitude":52.2297,"longitude":21.017532,"reserved":0,"last_update":"0001-01-01T00:00:00Z","name_a2s":"Uncletopia | Warsaw | 2 | All Maps","protocol":17,"map":"cp_process_final","folder":"tf","game":"Team Fortress","app_id":440,"player_count":0,"max_players":24,"Bots":0,"server_type":"Dedicated","server_os":"Linux","password":true,"vac":true,"version":"7757534","steam_id":85568392925397851,"keywords":["cp","nocrits","nodmgspread","uncletopia"],"game_id":440,"stv_port":27026,"stv_name":"Uncletopia | Warsaw | 2 | All Maps | STV","players":null},{"server_id":51,"name":"Uncletopia | Warsaw | 3 | All Maps","name_short":"waw-3","host":"waw-1.pl.uncletopia.com","port":27035,"enabled":true,"region":"eu","cc":"pl","latitude":52.2297,"longitude":21.017532,"reserved":0,"last_update":"0001-01-01T00:00:00Z","name_a2s":"Uncletopia | Warsaw | 3 | All Maps","protocol":17,"map":"pl_barnblitz","folder":"tf","game":"Team Fortress","app_id":440,"player_count":0,"max_players":24,"Bots":0,"server_type":"Dedicated","server_os":"Linux","password":true,"vac":true,"version":"7757534","steam_id":85568392925397852,"keywords":["nocrits","nodmgspread","payload","uncletopia"],"game_id":440,"stv_port":27036,"stv_name":"Uncletopia | Warsaw | 3 | All Maps | STV","players":null},{"server_id":52,"name":"Uncletopia | Warsaw | 4 | All Maps","name_short":"waw-4","host":"waw-1.pl.uncletopia.com","port":27045,"enabled":true,"region":"eu","cc":"pl","latitude":52.2297,"longitude":21.017532,"reserved":0,"last_update":"0001-01-01T00:00:00Z","name_a2s":"Uncletopia | Warsaw | 4 | All Maps","protocol":17,"map":"pl_snowycoast","folder":"tf","game":"Team Fortress","app_id":440,"player_count":0,"max_players":24,"Bots":0,"server_type":"Dedicated","server_os":"Linux","password":true,"vac":true,"version":"7757534","steam_id":85568392925397853,"keywords":["nocrits","nodmgspread","payload","uncletopia"],"game_id":440,"stv_port":27046,"stv_name":"Uncletopia | Warsaw | 4 | All Maps | STV","players":null},{"server_id":53,"name":"Uncletopia | Warsaw | 5 | Stopwatch Beta","name_short":"waw-5","host":"waw-1.pl.uncletopia.com","port":27055,"enabled":true,"region":"eu","cc":"pl","latitude":52.2297,"longitude":21.017532,"reserved":0,"last_update":"0001-01-01T00:00:00Z","name_a2s":"Uncletopia | Warsaw | 5 | Stopwatch Beta","protocol":17,"map":"pl_barnblitz","folder":"tf","game":"Team Fortress","app_id":440,"player_count":0,"max_players":24,"Bots":0,"server_type":"Dedicated","server_os":"Linux","password":true,"vac":true,"version":"7757534","steam_id":85568392925397854,"keywords":["nocrits","nodmgspread","payload","uncletopia"],"game_id":440,"stv_port":27056,"stv_name":"Uncletopia | Warsaw | 5 | Stopwatch Beta | STV","players":null},{"server_id":54,"name":"Uncletopia | Warsaw | 6 | Community","name_short":"waw-6","host":"waw-1.pl.uncletopia.com","port":27065,"enabled":true,"region":"eu","cc":"pl","latitude":52.2297,"longitude":21.017532,"reserved":0,"last_update":"0001-01-01T00:00:00Z","name_a2s":"Uncletopia | Warsaw | 6 | Community","protocol":17,"map":"pl_swiftwater_final1","folder":"tf","game":"Team Fortress","app_id":440,"player_count":0,"max_players":24,"Bots":0,"server_type":"Dedicated","server_os":"Linux","password":true,"vac":true,"version":"7757534","steam_id":85568392925397856,"keywords":["nocrits","nodmgspread","payload","uncletopia"],"game_id":440,"stv_port":27066,"stv_name":"Uncletopia | Warsaw | 6 | Community | STV","players":null}]}