{"status":true,"message":"","result":[{"server_id":9,"name":"Uncletopia | Atlanta | 1 | All Maps","name_short":"atl-1","host":"atl-1.us.uncletopia.com","port":27015,"enabled":true,"region":"us-east","cc":"us","latitude":33.753746,"longitude":-84.38633,"reserved":0,"last_update":"0001-01-01T00:00:00Z","name_a2s":"Uncletopia | Atlanta | 1 | All Maps","protocol":17,"map":"cp_process_final","folder":"tf","game":"Team Fortress","app_id":440,"player_count":24,"max_players":24,"Bots":0,"server_type":"Dedicated","server_os":"Linux","password":true,"vac":true,"version":"7757534","steam_id":85568392924469982,"keywords":["cp","nocrits","nodmgspread","uncletopia"],"game_id":440,"stv_port":27016,"stv_name":"Uncletopia | Atlanta | 1 | All Maps | STV","players":[{"user_id":402,"name":"fr","steam_id":76561198119826352,"connected_time":3279000000000,"state":"active","ping":62},{"user_id":297,"name":"Stewartsaurus","steam_id":76561198173175137,"connected_time":10510000000000,"state":"active","ping":112},{"user_id":441,"name":"St. Michael","steam_id":76561198037611052,"connected_time":729000000000,"state":"active","ping":58},{"user_id":430,"name":"Flint","steam_id":76561198066547582,"connected_time":1414000000000,"state":"active","ping":105},{"user_id":431,"name":"Dr.Zarann","steam_id":76561198163952958,"connected_time":1413000000000,"state":"active","ping":55},{"user_id":406,"name":"Constable","steam_id":76561198135578153,"connected_time":2836000000000,"state":"active","ping":62},{"user_id":417,"name":"Crazy","steam_id":76561198027519329,"connected_time":2321000000000,"state":"active","ping":89},{"user_id":435,"name":"nat","steam_id":76561198111914797,"connected_time":1278000000000,"state":"active","ping":72},{"user_id":385,"name":"stink","steam_id":76561198099318923,"connected_time":4493000000000,"state":"active","ping":75},{"user_id":440,"name":"Impresio","steam_id":76561198129127347,"connected_time":879000000000,"state":"active","ping":84},{"user_id":398,"name":"jae","steam_id":76561199239926014,"connected_time":3546000000000,"state":"active","ping":62},{"user_id":330,"name":"cola","steam_id":76561198374390458,"connected_time":8490000000000,"state":"active","ping":59},{"user_id":407,"name":"Lilith","steam_id":76561198125102885,"connected_time":2626000000000,"state":"active","ping":68},{"user_id":438,"name":"joyboy","steam_id":76561198400381132,"connected_time":959000000000,"state":"active","ping":60},{"user_id":439,"name":"Mister Fister","steam_id":76561199059653595,"connected_time":880000000000,"state":"active","ping":115},{"user_id":434,"name":"Decolour","steam_id":76561199045608372,"connected_time":1376000000000,"state":"active","ping":68},{"user_id":429,"name":"onsen episode","steam_id":76561197965022076,"connected_time":1933000000000,"state":"active","ping":75},{"user_id":433,"name":"jaketropolis","steam_id":76561198044728812,"connected_time":1389000000000,"state":"active","ping":77},{"user_id":428,"name":"Crows go mooo","steam_id":76561198089489656,"connected_time":1961000000000,"state":"active","ping":90},{"user_id":432,"name":"Broken Cereal√","steam_id":76561198087489795,"connected_time":1410000000000,"state":"active","ping":88},{"user_id":408,"name":"♡Alyx♡","steam_id":76561198024303978,"connected_time":2622000000000,"state":"active","ping":49},{"user_id":425,"name":"egg","steam_id":76561198081367345,"connected_time":2187000000000,"state":"active","ping":72},{"user_id":404,"name":"Brian","steam_id":76561198089908485,"connected_time":2873000000000,"state":"active","ping":62},{"user_id":409,"name":"DFR DeezNoodlez","steam_id":76561198246700372,"connected_time":2622000000000,"state":"active","ping":60}]},{"server_id":104,"name":"Uncletopia | Atlanta | 2 | All Maps","name_short":"atl-2","host":"atl-1.us.uncletopia.com","port":27025,"enabled":true,"region":"us-east","cc":"us","latitude":33.753746,"longitude":-84.38633,"reserved":0,"last_update":"0001-01-01T00:00:00Z","name_a2s":"Uncletopia | Atlanta | 2 | All Maps","protocol":17,"map":"pl_badwater","folder":"tf","game":"Team Fortress","app_id":440,"player_count":24,"max_players":24,"Bots":0,"server_type":"Dedicated","server_os":"Linux","password":true,"vac":true,"version":"7757534","steam_id":85568392924469983,"keywords":["nocrits","nodmgspread","payload","uncletopia"],"game_id":440,"stv_port":27026,"stv_name":"Uncletopia | Atlanta | 2 | All Maps | STV","players":[{"user_id":168,"name":"Quqk | IFN.GG","steam_id":76561199229852473,"connected_time":1215000000000,"state":"active","ping":58},{"user_id":129,"name":"MyamE","steam_id":76561198133278462,"connected_time":5437000000000,"state":"active","ping":70},{"user_id":101,"name":"Garlb","steam_id":76561198044636706,"connected_time":8014000000000,"state":"active","ping":96},{"user_id":170,"name":"faka","steam_id":76561199093280815,"connected_time":957000000000,"state":"active","ping":102},{"user_id":138,"name":"Razz","steam_id":76561198158027533,"connected_time":4724000000000,"state":"active","ping":62},{"user_id":169,"name":"neo","steam_id":76561198438435876,"connected_time":1182000000000,"state":"active","ping":101},{"user_id":172,"name":"LilDreamer","steam_id":76561198804054102,"connected_time":770000000000,"state":"active","ping":84},{"user_id":136,"name":"2funky","steam_id":76561198210915723,"connected_time":4862000000000,"state":"active","ping":69},{"user_id":134,"name":"black_gazebo","steam_id":76561197991652544,"connected_time":4913000000000,"state":"active","ping":97},{"user_id":144,"name":"Treeckogeek","steam_id":76561198453328078,"connected_time":4060000000000,"state":"active","ping":70},{"user_id":114,"name":"SeaBass","steam_id":76561198278914206,"connected_time":7562000000000,"state":"active","ping":82},{"user_id":99,"name":"Hindmost","steam_id":76561199081837220,"connected_time":8145000000000,"state":"active","ping":57},{"user_id":105,"name":"Wilhelmktx","steam_id":76561198158102295,"connected_time":7936000000000,"state":"active","ping":72},{"user_id":162,"name":"MrLeftTurn","steam_id":76561198856743969,"connected_time":2134000000000,"state":"active","ping":153},{"user_id":163,"name":"CreativeUsername","steam_id":76561198186045503,"connected_time":2017000000000,"state":"active","ping":69},{"user_id":176,"name":"myo0mity","steam_id":76561199018184096,"connected_time":4000000000,"state":"spawning","ping":118},{"user_id":100,"name":"Coffeebeans","steam_id":76561197987543188,"connected_time":8117000000000,"state":"active","ping":100},{"user_id":154,"name":"flappyflap2","steam_id":76561198285048973,"connected_time":2668000000000,"state":"active","ping":62},{"user_id":164,"name":"Papyrus Undertale","steam_id":76561199202517286,"connected_time":1913000000000,"state":"active","ping":52},{"user_id":173,"name":"Propaniac Gaming ☑","steam_id":76561198133963270,"connected_time":711000000000,"state":"active","ping":45},{"user_id":66,"name":"Atlas","steam_id":76561198127975050,"connected_time":10953000000000,"state":"active","ping":53},{"user_id":159,"name":"Snoogs","steam_id":76561198444880931,"connected_time":2178000000000,"state":"active","ping":63},{"user_id":166,"name":"Xmoonsheep","steam_id":76561198158384685,"connected_time":1601000000000,"state":"active","ping":52},{"user_id":79,"name":"Skinny Pete","steam_id":76561198801608576,"connected_time":10246000000000,"state":"active","ping":75}]},{"server_id":400,"name":"Uncletopia | Atlanta | 3 | Community","name_short":"atl-3","host":"atl-1.us.uncletopia.com","port":27035,"enabled":true,"region":"us-east","cc":"us","latitude":33.753746,"longitude":-84.38633,"reserved":0,"last_update":"0001-01-01T00:00:00Z","name_a2s":"Uncletopia | Atlanta | 3 | Community","protocol":17,"map":"workshop/cp_glacier_rc6.ugc2905735376","folder":"tf","game":"Team Fortress","app_id":440,"player_count":0,"max_players":24,"Bots":0,"server_type":"Dedicated","server_os":"Linux","password":true,"vac":true,"version":"7757534","steam_id":85568392924515187,"keywords":["cp","nocrits","nodmgspread","uncletopia"],"game_id":440,"stv_port":27036,"stv_name":"Uncletopia | Atlanta | 3 | Community | STV","players":null},{"server_id":401,"name":"Uncletopia | Atlanta | 4 | No Payload","name_short":"atl-4","host":"atl-1.us.uncletopia.com","port":27045,"enabled":true,"region":"us-east","cc":"us","latitude":33.753746,"longitude":-84.38633,"reserved":0,"last_update":"0001-01-01T00:00:00Z","name_a2s":"","protocol":0,"map":"","folder":"","game":"","app_id":0,"player_count":0,"max_players":0,"Bots":0,"server_type":"","server_os":"","password":false,"vac":false,"version":"","steam_id":0,"keywords":null,"game_id":0,"stv_port":0,"stv_name":"","players":null},{"server_id":2,"name":"Uncletopia | Chicago | 1 | All Maps","name_short":"chi-1","host":"chi-1.us.uncletopia.com","port":27015,"enabled":true,"region":"us-central","cc":"us","latitude":41.881832,"longitude":-87.62318,"reserved":0,"last_update":"0001-01-01T00:00:00Z","name_a2s":"Uncletopia | Chicago | 1 | All Maps","protocol":17,"map":"pl_borneo","folder":"tf","game":"Team Fortress","app_id":440,"player_count":24,"max_players":24,"Bots":0,"server_type":"Dedicated","server_os":"Linux","password":true,"vac":true,"version":"7757534","steam_id":85568392924469984,"keywords":["nocrits","nodmgspread","payload","uncletopia"],"game_id":440,"stv_port":27016,"stv_name":"Uncletopia | Chicago | 1 | All Maps | STV","players":[{"user_id":706,"name":"Scared Duck","steam_id":76561198081348409,"connected_time":660000000000,"state":"active","ping":58},{"user_id":670,"name":"Horrizan","steam_id":76561197965028480,"connected_time":4772000000000,"state":"active","ping":86},{"user_id":700,"name":"fancyfreak","steam_id":76561198326466375,"connected_time":1560000000000,"state":"active","ping":202},{"user_id":667,"name":"alexfuzzy","steam_id":76561199291945851,"connected_time":4858000000000,"state":"active","ping":91},{"user_id":713,"name":"Løst","steam_id":76561198035677801,"connected_time":45000000000,"state":"connecting","ping":0},{"user_id":661,"name":"doug jones REAL","steam_id":76561198046650995,"connected_time":5919000000000,"state":"active","ping":77},{"user_id":651,"name":"hi","steam_id":76561198809577048,"connected_time":6747000000000,"state":"active","ping":92},{"user_id":705,"name":"Uppercut Enjoyer","steam_id":76561198097432114,"connected_time":687000000000,"state":"active","ping":74},{"user_id":710,"name":"Bag","steam_id":76561198012395490,"connected_time":399000000000,"state":"active","ping":62},{"user_id":698,"name":"deepmeta","steam_id":76561199053600691,"connected_time":1713000000000,"state":"active","ping":61},{"user_id":672,"name":"Lore","steam_id":76561198098407538,"connected_time":4145000000000,"state":"active","ping":51},{"user_id":703,"name":"president biden's strongest war","steam_id":76561198039909187,"connected_time":955000000000,"state":"active","ping":55},{"user_id":652,"name":"Astoriae!","steam_id":76561199090168858,"connected_time":6747000000000,"state":"active","ping":76},{"user_id":673,"name":"Person","steam_id":76561198093244204,"connected_time":4144000000000,"state":"active","ping":69},{"user_id":693,"name":"Siri Keeton","steam_id":76561198006579827,"connected_time":2193000000000,"state":"active","ping":83},{"user_id":711,"name":"Thatoneguybunchanumbers","steam_id":76561198028039160,"connected_time":64000000000,"state":"active","ping":75},{"user_id":676,"name":"eThaNos","steam_id":76561198035403279,"connected_time":3947000000000,"state":"active","ping":68},{"user_id":707,"name":"The Cop Fentanyl Debuff ☭","steam_id":76561197991817974,"connected_time":659000000000,"state":"active","ping":101},{"user_id":702,"name":"Laggy","steam_id":76561198125110756,"connected_time":1069000000000,"state":"active","ping":102},{"user_id":704,"name":"Waluigi","steam_id":76561198891626233,"connected_time":842000000000,"state":"active","ping":53},{"user_id":656,"name":"Thundermonkey (SMOKE)","steam_id":76561198017631728,"connected_time":6581000000000,"state":"active","ping":62},{"user_id":708,"name":"[DATS➡] Sugar Meowth","steam_id":76561197995251793,"connected_time":642000000000,"state":"active","ping":74},{"user_id":712,"name":"wheres my drink?","steam_id":76561198031675881,"connected_time":63000000000,"state":"active","ping":48},{"user_id":526,"name":"HumFreY","steam_id":76561198076639682,"connected_time":13189000000000,"state":"active","ping":71}]},{"server_id":106,"name":"Uncletopia | Chicago | 2 | All Maps","name_short":"chi-2","host":"chi-1.us.uncletopia.com","port":27025,"enabled":true,"region":"us-central","cc":"us","latitude":41.881832,"longitude":-87.62318,"reserved":0,"last_update":"0001-01-01T00:00:00Z","name_a2s":"Uncletopia | Chicago | 2 | All Maps","protocol":17,"map":"pl_goldrush","folder":"tf","game":"Team Fortress","app_id":440,"player_count":24,"max_players":24,"Bots":0,"server_type":"Dedicated","server_os":"Linux","password":true,"vac":true,"version":"7757534","steam_id":85568392924469985,"keywords":["nocrits","nodmgspread","payload","uncletopia"],"game_id":440,"stv_port":27026,"stv_name":"Uncletopia | Chicago | 2 | All Maps | STV","players":[{"user_id":592,"name":"Pal","steam_id":76561198004363431,"connected_time":5873000000000,"state":"active","ping":103},{"user_id":649,"name":"Poppet","steam_id":76561198012301951,"connected_time":1158000000000,"state":"active","ping":53},{"user_id":624,"name":"iceman","steam_id":76561198135397441,"connected_time":3119000000000,"state":"active","ping":75},{"user_id":653,"name":"Gamba","steam_id":76561198069264650,"connected_time":761000000000,"state":"active","ping":62},{"user_id":627,"name":"蓝光版乔污垢","steam_id":76561199088154401,"connected_time":2530000000000,"state":"active","ping":67},{"user_id":656,"name":"D.LeBlanc","steam_id":76561198119483989,"connected_time":477000000000,"state":"active","ping":75},{"user_id":657,"name":"nezorf2","steam_id":76561197972434542,"connected_time":455000000000,"state":"active","ping":94},{"user_id":666,"name":"polaris","steam_id":76561198212481737,"connected_time":221000000000,"state":"active","ping":45},{"user_id":632,"name":"Poopie Babie","steam_id":76561198047500494,"connected_time":2440000000000,"state":"active","ping":68},{"user_id":629,"name":"Speedy","steam_id":76561198080761661,"connected_time":2490000000000,"state":"active","ping":81},{"user_id":659,"name":"Thumbs","steam_id":76561199065890132,"connected_time":416000000000,"state":"active","ping":58},{"user_id":647,"name":"majorbobfunction","steam_id":76561198042464632,"connected_time":1390000000000,"state":"active","ping":47},{"user_id":599,"name":"Digitic","steam_id":76561198080295536,"connected_time":5252000000000,"state":"active","ping":73},{"user_id":630,"name":"your mom calls me princess too","steam_id":76561198020400899,"connected_time":2489000000000,"state":"active","ping":65},{"user_id":633,"name":"Codo Sapien","steam_id":76561198014206810,"connected_time":2411000000000,"state":"active","ping":29},{"user_id":646,"name":".ﱞﱞﱞrﱞﱞﱞrﱞﱞﱞ ","steam_id":76561198256821358,"connected_time":1415000000000,"state":"active","ping":143},{"user_id":660,"name":"blaze.","steam_id":76561199416288147,"connected_time":392000000000,"state":"active","ping":102},{"user_id":661,"name":"N̸̩̏ö̶̻́o̴̹͗t̷̼̃","steam_id":76561198023933437,"connected_time":342000000000,"state":"active","ping":72},{"user_id":623,"name":"hashmap","steam_id":76561198043794014,"connected_time":3162000000000,"state":"active","ping":51},{"user_id":644,"name":"The Drunk Clown","steam_id":76561197986850426,"connected_time":1461000000000,"state":"active","ping":75},{"user_id":498,"name":"rudy","steam_id":76561198088712799,"connected_time":8644000000000,"state":"active","ping":78},{"user_id":635,"name":"TheSky4lif","steam_id":76561198871331139,"connected_time":2385000000000,"state":"active","ping":70},{"user_id":662,"name":"peeto","steam_id":76561198193013228,"connected_time":326000000000,"state":"active","ping":37},{"user_id":665,"name":"habib_g6ix_God","steam_id":76561198053621664,"connected_time":260000000000,"state":"active","ping":47}]},{"server_id":402,"name":"Uncletopia | Chicago | 3 | All Maps","name_short":"chi-3","host":"chi-1.us.uncletopia.com","port":27035,"enabled":true,"region":"us-central","cc":"us","latitude":41.881832,"longitude":-87.62318,"reserved":0,"last_update":"0001-01-01T00:00:00Z","name_a2s":"Uncletopia | Chicago | 3 | All Maps","protocol":17,"map":"pl_swiftwater_final1","folder":"tf","game":"Team Fortress","app_id":440,"player_count":21,"max_players":24,"Bots":0,"server_type":"Dedicated","server_os":"Linux","password":true,"vac":true,"version":"7757534","steam_id":85568392924515191,"keywords":["nocrits","nodmgspread","payload","uncletopia"],"game_id":440,"stv_port":27036,"stv_name":"Uncletopia | Chicago | 3 | All Maps | STV","players":[{"user_id":413,"name":"Oxami","steam_id":76561198017101684,"connected_time":1580000000000,"state":"active","ping":81},{"user_id":426,"name":"Red_Hatkins","steam_id":76561198214004105,"connected_time":908000000000,"state":"active","ping":75},{"user_id":367,"name":"brinks truck","steam_id":76561198126489501,"connected_time":6100000000000,"state":"active","ping":45},{"user_id":378,"name":"Felipe Ramirez 2013","steam_id":76561198150497397,"connected_time":4983000000000,"state":"active","ping":68},{"user_id":420,"name":"sweatshirt","steam_id":76561198277477109,"connected_time":1279000000000,"state":"active","ping":63},{"user_id":429,"name":"Aeri","steam_id":76561197996522919,"connected_time":0,"state":"spawning","ping":0},{"user_id":380,"name":"ShitsandGiggles™","steam_id":76561198058708019,"connected_time":4819000000000,"state":"active","ping":59},{"user_id":383,"name":"Mush","steam_id":76561198393461065,"connected_time":4240000000000,"state":"active","ping":84},{"user_id":428,"name":"Løst","steam_id":76561198035677801,"connected_time":44000000000,"state":"spawning","ping":51},{"user_id":418,"name":"Murdoll","steam_id":76561198347654596,"connected_time":1300000000000,"state":"active","ping":68},{"user_id":411,"name":"Toottoot","steam_id":76561197992404836,"connected_time":1904000000000,"state":"active","ping":44},{"user_id":427,"name":"Take the L","steam_id":76561198379223875,"connected_time":51000000000,"state":"active","ping":66},{"user_id":419,"name":"loganismissing","steam_id":76561199245565071,"connected_time":1292000000000,"state":"active","ping":47},{"user_id":424,"name":"Wool","steam_id":76561198332704108,"connected_time":1080000000000,"state":"active","ping":72},{"user_id":409,"name":"Nodin","steam_id":76561198135757376,"connected_time":1944000000000,"state":"active","ping":47},{"user_id":425,"name":"Joseph Stalin","steam_id":76561198126234142,"connected_time":973000000000,"state":"active","ping":82},{"user_id":384,"name":"Fudgely","steam_id":76561198039425862,"connected_time":4219000000000,"state":"active","ping":63},{"user_id":393,"name":"Anderred","steam_id":76561198149983847,"connected_time":3305000000000,"state":"active","ping":85},{"user_id":389,"name":"boop","steam_id":76561198043787598,"connected_time":3885000000000,"state":"active","ping":59},{"user_id":401,"name":"Front Facing Magikarp","steam_id":76561198085888959,"connected_time":2011000000000,"state":"spawning","ping":56},{"user_id":406,"name":"vacachimuela","steam_id":76561198297332421,"connected_time":1981000000000,"state":"active","ping":112}]},{"server_id":403,"name":"Uncletopia | Chicago | 4 | All Maps","name_short":"chi-4","host":"chi-1.us.uncletopia.com","port":27045,"enabled":true,"region":"us-central","cc":"us","latitude":41.881832,"longitude":-87.62318,"reserved":0,"last_update":"0001-01-01T00:00:00Z","name_a2s":"Uncletopia | Chicago | 4 | All Maps","protocol":17,"map":"koth_cascade","folder":"tf","game":"Team Fortress","app_id":440,"player_count":24,"max_players":24,"Bots":0,"server_type":"Dedicated","server_os":"Linux","password":true,"vac":true,"version":"7757534","steam_id":85568392924515193,"keywords":["cp","nocrits","nodmgspread","uncletopia"],"game_id":440,"stv_port":27046,"stv_name":"Uncletopia | Chicago | 4 | All Maps | STV","players":[{"user_id":687,"name":"fug","steam_id":76561198043706112,"connected_time":10000000000,"state":"active","ping":94},{"user_id":669,"name":"Nightflashゴゴ","steam_id":76561198091606745,"connected_time":1424000000000,"state":"active","ping":64},{"user_id":676,"name":"Poyo Boyo","steam_id":76561198010201227,"connected_time":1083000000000,"state":"active","ping":72},{"user_id":685,"name":"Hooded","steam_id":76561198160319183,"connected_time":255000000000,"state":"active","ping":94},{"user_id":653,"name":"igotmail","steam_id":76561198070631899,"connected_time":2840000000000,"state":"active","ping":68},{"user_id":654,"name":"Dojoloachfr","steam_id":76561198826298849,"connected_time":2807000000000,"state":"active","ping":95},{"user_id":640,"name":"ultralisk52","steam_id":76561198051666604,"connected_time":4366000000000,"state":"active","ping":66},{"user_id":603,"name":"wokky bin laddn","steam_id":76561198265200834,"connected_time":6482000000000,"state":"active","ping":78},{"user_id":682,"name":"Hammerhead","steam_id":76561198897122890,"connected_time":312000000000,"state":"active","ping":57},{"user_id":663,"name":"Qwerty","steam_id":76561198023525894,"connected_time":2098000000000,"state":"active","ping":168},{"user_id":644,"name":"surfer","steam_id":76561198068409067,"connected_time":3878000000000,"state":"active","ping":76},{"user_id":683,"name":"deka","steam_id":76561198149826808,"connected_time":288000000000,"state":"active","ping":85},{"user_id":627,"name":"Metbol","steam_id":76561198001362410,"connected_time":5025000000000,"state":"active","ping":80},{"user_id":684,"name":"Ehttri","steam_id":76561198170138667,"connected_time":274000000000,"state":"active","ping":166},{"user_id":677,"name":"Glass Joe","steam_id":76561198317365741,"connected_time":1047000000000,"state":"active","ping":63},{"user_id":675,"name":".jpg","steam_id":76561198137237377,"connected_time":1198000000000,"state":"active","ping":67},{"user_id":648,"name":"Leviathan","steam_id":76561197997528907,"connected_time":3665000000000,"state":"active","ping":59},{"user_id":686,"name":"Fermenting Kiwi","steam_id":76561198253303497,"connected_time":76000000000,"state":"active","ping":75},{"user_id":678,"name":"Dabbledornk","steam_id":76561198065241300,"connected_time":990000000000,"state":"active","ping":60},{"user_id":664,"name":"Scoober","steam_id":76561198079736959,"connected_time":2018000000000,"state":"active","ping":85},{"user_id":674,"name":"Moregun Freeman | trade.tf","steam_id":76561198159772617,"connected_time":1244000000000,"state":"active","ping":70},{"user_id":646,"name":"Trumpetspyman59","steam_id":76561198048989561,"connected_time":3858000000000,"state":"active","ping":76},{"user_id":597,"name":"PaintMyMeow","steam_id":76561198056860387,"connected_time":7136000000000,"state":"active","ping":82},{"user_id":659,"name":"Salad gaming (real)","steam_id":76561198298310744,"connected_time":2710000000000,"state":"active","ping":84}]},{"server_id":36,"name":"Uncletopia | Chicago | 5 | All Maps","name_short":"chi-5","host":"chi-2.us.uncletopia.com","port":27015,"enabled":true,"region":"us-central","cc":"us","latitude":41.881832,"longitude":-87.62318,"reserved":0,"last_update":"0001-01-01T00:00:00Z","name_a2s":"Uncletopia | Chicago | 5 | All Maps","protocol":17,"map":"pl_barnblitz","folder":"tf","game":"Team Fortress","app_id":440,"player_count":24,"max_players":24,"Bots":0,"server_type":"Dedicated","server_os":"Linux","password":true,"vac":true,"version":"7757534","steam_id":85568392924866362,"keywords":["nocrits","nodmgspread","payload","uncletopia"],"game_id":440,"stv_port":27016,"stv_name":"Uncletopia | Chicago | 5 | All Maps | STV","players":[{"user_id":440,"name":"_normal","steam_id":76561198338505734,"connected_time":2476000000000,"state":"active","ping":59},{"user_id":459,"name":"Irate Gamer Official","steam_id":76561198162688146,"connected_time":1992000000000,"state":"active","ping":102},{"user_id":364,"name":"Erious","steam_id":76561198431446386,"connected_time":6552000000000,"state":"active","ping":66},{"user_id":457,"name":"Apricot","steam_id":76561198355699935,"connected_time":2052000000000,"state":"active","ping":62},{"user_id":464,"name":"izzydex","steam_id":76561199101531034,"connected_time":980000000000,"state":"active","ping":60},{"user_id":325,"name":"Piyono","steam_id":76561197962188504,"connected_time":9290000000000,"state":"active","ping":77},{"user_id":446,"name":"Kingston","steam_id":76561198165640491,"connected_time":2317000000000,"state":"active","ping":89},{"user_id":448,"name":"WarMace","steam_id":76561198395937853,"connected_time":2255000000000,"state":"active","ping":75},{"user_id":468,"name":"normal guy (normal)","steam_id":76561198062712676,"connected_time":330000000000,"state":"active","ping":100},{"user_id":449,"name":"Karl","steam_id":76561198269578048,"connected_time":2251000000000,"state":"active","ping":90},{"user_id":469,"name":"Tick","steam_id":76561198184161214,"connected_time":298000000000,"state":"active","ping":41},{"user_id":431,"name":"Dangerous_Dave76","steam_id":76561199230056550,"connected_time":2655000000000,"state":"active","ping":120},{"user_id":462,"name":"Asteroid","steam_id":76561198206209017,"connected_time":1034000000000,"state":"active","ping":67},{"user_id":447,"name":"Ringo x Seiran","steam_id":76561198357437908,"connected_time":2308000000000,"state":"active","ping":61},{"user_id":467,"name":"Shystie","steam_id":76561198025371440,"connected_time":757000000000,"state":"active","ping":84},{"user_id":450,"name":"Soda","steam_id":76561198219209367,"connected_time":2251000000000,"state":"active","ping":58},{"user_id":451,"name":"doctor large","steam_id":76561199195836752,"connected_time":2220000000000,"state":"active","ping":72},{"user_id":456,"name":"Delightful MadCat","steam_id":76561198086178426,"connected_time":2142000000000,"state":"active","ping":72},{"user_id":453,"name":"Streetwise","steam_id":76561197971684268,"connected_time":2204000000000,"state":"active","ping":94},{"user_id":433,"name":"MILF PLANET","steam_id":76561198079026982,"connected_time":2639000000000,"state":"active","ping":90},{"user_id":460,"name":"shibaba bababool","steam_id":76561197972601902,"connected_time":1797000000000,"state":"active","ping":88},{"user_id":434,"name":"boomawrnamglrhejgoughdrg","steam_id":76561198056324307,"connected_time":2628000000000,"state":"active","ping":59},{"user_id":466,"name":"Doc","steam_id":76561198044196439,"connected_time":870000000000,"state":"active","ping":130},{"user_id":455,"name":"BubbaBasher","steam_id":76561198829909547,"connected_time":2167000000000,"state":"active","ping":57}]},{"server_id":37,"name":"Uncletopia | Chicago | 6 | All Maps","name_short":"chi-6","host":"chi-2.us.uncletopia.com","port":27025,"enabled":true,"region":"us-central","cc":"us","latitude":41.881832,"longitude":-87.62318,"reserved":0,"last_update":"0001-01-01T00:00:00Z","name_a2s":"Uncletopia | Chicago | 6 | All Maps","protocol":17,"map":"pl_frontier_final","folder":"tf","game":"Team Fortress","app_id":440,"player_count":23,"max_players":24,"Bots":0,"server_type":"Dedicated","server_os":"Linux","password":true,"vac":true,"version":"7757534","steam_id":85568392924866363,"keywords":["nocrits","nodmgspread","payload","uncletopia"],"game_id":440,"stv_port":27026,"stv_name":"Uncletopia | Chicago | 6 | All Maps | STV","players":[{"user_id":237,"name":"=3][canners]","steam_id":76561198103496593,"connected_time":3771000000000,"state":"active","ping":62},{"user_id":274,"name":"thock enjoyer","steam_id":76561198392539722,"connected_time":1926000000000,"state":"active","ping":84},{"user_id":225,"name":"45 Cent","steam_id":76561198048690188,"connected_time":3967000000000,"state":"active","ping":74},{"user_id":300,"name":"l8rsxx","steam_id":76561198803030993,"connected_time":525000000000,"state":"active","ping":115},{"user_id":293,"name":"a fuddruckers","steam_id":76561198092656099,"connected_time":1149000000000,"state":"active","ping":40},{"user_id":305,"name":"Fargo","steam_id":76561198044703931,"connected_time":162000000000,"state":"active","ping":67},{"user_id":282,"name":"Chuckster","steam_id":76561198093523937,"connected_time":1470000000000,"state":"active","ping":76},{"user_id":301,"name":"Kip","steam_id":76561197998180212,"connected_time":371000000000,"state":"active","ping":57},{"user_id":299,"name":"Saggy","steam_id":76561198166706479,"connected_time":712000000000,"state":"active","ping":71},{"user_id":284,"name":"Daze","steam_id":76561198063112189,"connected_time":1460000000000,"state":"active","ping":91},{"user_id":306,"name":"bad","steam_id":76561198372994028,"connected_time":153000000000,"state":"active","ping":75},{"user_id":292,"name":"Rat_king","steam_id":76561199465689129,"connected_time":1213000000000,"state":"active","ping":82},{"user_id":258,"name":"Truth","steam_id":76561198047385041,"connected_time":2735000000000,"state":"active","ping":113},{"user_id":304,"name":"Biggles","steam_id":76561198126576389,"connected_time":170000000000,"state":"active","ping":72},{"user_id":214,"name":"Ace Chromatica","steam_id":76561198042211131,"connected_time":6077000000000,"state":"active","ping":61},{"user_id":286,"name":"issues","steam_id":76561197994492154,"connected_time":1414000000000,"state":"active","ping":165},{"user_id":307,"name":"old slimey ichabod","steam_id":76561198043900518,"connected_time":152000000000,"state":"active","ping":60},{"user_id":278,"name":"Major_Pippy","steam_id":76561198004482878,"connected_time":1511000000000,"state":"active","ping":99},{"user_id":295,"name":"RagingRoosevelt","steam_id":76561197985483153,"connected_time":827000000000,"state":"active","ping":101},{"user_id":308,"name":"fice","steam_id":76561198860361610,"connected_time":150000000000,"state":"active","ping":73},{"user_id":309,"name":"General Sherman","steam_id":76561198044769376,"connected_time":147000000000,"state":"active","ping":78},{"user_id":297,"name":"迷路的狐狸akemi!","steam_id":76561198406252824,"connected_time":813000000000,"state":"active","ping":106},{"user_id":310,"name":"Menthol Cop","steam_id":76561198179817985,"connected_time":143000000000,"state":"active","ping":84}]},{"server_id":38,"name":"Uncletopia | Chicago | 7 | Stopwatch Beta","name_short":"chi-7","host":"chi-2.us.uncletopia.com","port":27035,"enabled":true,"region":"us-central","cc":"us","latitude":41.881832,"longitude":-87.62318,"reserved":0,"last_update":"0001-01-01T00:00:00Z","name_a2s":"Uncletopia | Chicago | 7 | Stopwatch Beta","protocol":17,"map":"koth_viaduct","folder":"tf","game":"Team Fortress","app_id":440,"player_count":0,"max_players":24,"Bots":0,"server_type":"Dedicated","server_os":"Linux","password":true,"vac":true,"version":"7757534","steam_id":85568392924866364,"keywords":["cp","nocrits","nodmgspread","uncletopia"],"game_id":440,"stv_port":27036,"stv_name":"Uncletopia | Chicago | 7 | Stopwatch Beta | STV","players":null},{"server_id":39,"name":"Uncletopia | Chicago | 8 | Community","name_short":"chi-8","host":"chi-2.us.uncletopia.com","port":27045,"enabled":true,"region":"us-central","cc":"us","latitude":41.881832,"longitude":-87.62318,"reserved":0,"last_update":"0001-01-01T00:00:00Z","name_a2s":"Uncletopia | Chicago | 8 | Community","protocol":17,"map":"workshop/cp_mannbase_rc2a.ugc1900737467","folder":"tf","game":"Team Fortress","app_id":440,"player_count":0,"max_players":24,"Bots":0,"server_type":"Dedicated","server_os":"Linux","password":true,"vac":true,"version":"7757534","steam_id":85568392924866365,"keywords":["cp","nocrits","nodmgspread","uncletopia"],"game_id":440,"stv_port":27046,"stv_name":"Uncletopia | Chicago | 8 | Community | STV","players":null},{"server_id":8,"name":"Uncletopia | Dallas | 1 | All Maps","name_short":"dal-1","host":"dal-1.us.uncletopia.com","port":27015,"enabled":true,"region":"us-central","cc":"us","latitude":32.779167,"longitude":-96.80889,"reserved":0,"last_update":"0001-01-01T00:00:00Z","name_a2s":"Uncletopia | Dallas | 1 | All Maps","protocol":17,"map":"pl_badwater","folder":"tf","game":"Team Fortress","app_id":440,"player_count":24,"max_players":24,"Bots":0,"server_type":"Dedicated","server_os":"Linux","password":true,"vac":true,"version":"7757534","steam_id":85568392924469986,"keywords":["nocrits","nodmgspread","payload","uncletopia"],"game_id":440,"stv_port":27016,"stv_name":"Uncletopia | Dallas | 1 | All Maps | STV","players":[{"user_id":432,"name":"mac_cheese","steam_id":76561198071334162,"connected_time":802000000000,"state":"active","ping":92},{"user_id":400,"name":"Cofi","steam_id":76561199026721822,"connected_time":3825000000000,"state":"active","ping":83},{"user_id":439,"name":"jimmyfnaf172198yay","steam_id":76561198311446636,"connected_time":446000000000,"state":"active","ping":75},{"user_id":406,"name":"FoamyPirate.h","steam_id":76561197970312151,"connected_time":2995000000000,"state":"active","ping":71},{"user_id":435,"name":"November","steam_id":76561198131631865,"connected_time":770000000000,"state":"active","ping":73},{"user_id":399,"name":"El Camino","steam_id":76561197992848313,"connected_time":3876000000000,"state":"active","ping":85},{"user_id":445,"name":"Spytron 3000","steam_id":76561198067791086,"connected_time":36000000000,"state":"active","ping":75},{"user_id":436,"name":"DargaribdusPersonOfLordlyCalibe","steam_id":76561198020876416,"connected_time":736000000000,"state":"active","ping":65},{"user_id":421,"name":"GLG.Liz","steam_id":76561198021957956,"connected_time":1941000000000,"state":"active","ping":54},{"user_id":440,"name":"errant","steam_id":76561197961758410,"connected_time":254000000000,"state":"active","ping":38},{"user_id":409,"name":"Sean","steam_id":76561198011422340,"connected_time":2959000000000,"state":"active","ping":60},{"user_id":443,"name":"_cza","steam_id":76561198079793576,"connected_time":206000000000,"state":"active","ping":105},{"user_id":333,"name":"Estetrius","steam_id":76561198016993850,"connected_time":9506000000000,"state":"active","ping":60},{"user_id":410,"name":"Halcyon","steam_id":76561199103213955,"connected_time":2959000000000,"state":"active","ping":103},{"user_id":395,"name":"Gengoron","steam_id":76561197994829919,"connected_time":4065000000000,"state":"active","ping":114},{"user_id":431,"name":"Gabedaboi","steam_id":76561198451205283,"connected_time":1119000000000,"state":"active","ping":88},{"user_id":368,"name":"mkl","steam_id":76561197986401685,"connected_time":6345000000000,"state":"active","ping":59},{"user_id":351,"name":"tj3002rocks","steam_id":76561199017921546,"connected_time":7416000000000,"state":"active","ping":60},{"user_id":438,"name":"Sagertooth","steam_id":76561198060863894,"connected_time":464000000000,"state":"active","ping":61},{"user_id":444,"name":"BunnBunn669","steam_id":76561199142118287,"connected_time":191000000000,"state":"active","ping":82},{"user_id":418,"name":"Stillkill","steam_id":76561198065069057,"connected_time":2147000000000,"state":"active","ping":44},{"user_id":427,"name":"ElBentz","steam_id":76561199059582221,"connected_time":1600000000000,"state":"active","ping":76},{"user_id":442,"name":"Angry Esox","steam_id":76561198152128848,"connected_time":237000000000,"state":"active","ping":95},{"user_id":430,"name":"Shaizo","steam_id":76561199118241286,"connected_time":1358000000000,"state":"active","ping":78}]},{"server_id":108,"name":"Uncletopia | Dallas | 2 | All Maps","name_short":"dal-2","host":"dal-1.us.uncletopia.com","port":27025,"enabled":true,"region":"us-central","cc":"us","latitude":32.779167,"longitude":-96.80889,"reserved":0,"last_update":"0001-01-01T00:00:00Z","name_a2s":"Uncletopia | Dallas | 2 | All Maps","protocol":17,"map":"cp_dustbowl","folder":"tf","game":"Team Fortress","app_id":440,"player_count":24,"max_players":24,"Bots":0,"server_type":"Dedicated","server_os":"Linux","password":true,"vac":true,"version":"7757534","steam_id":85568392924469988,"keywords":["cp","nocrits","nodmgspread","uncletopia"],"game_id":440,"stv_port":27026,"stv_name":"Uncletopia | Dallas | 2 | All Maps | STV","players":[{"user_id":130,"name":"Pixel JC","steam_id":76561198014618589,"connected_time":2253000000000,"state":"active","ping":121},{"user_id":48,"name":"Dragons\u003eEverything","steam_id":76561199140784635,"connected_time":7142000000000,"state":"active","ping":55},{"user_id":98,"name":"BMB","steam_id":76561198254205844,"connected_time":4494000000000,"state":"active","ping":60},{"user_id":125,"name":"Jankyo","steam_id":76561198083339492,"connected_time":2620000000000,"state":"active","ping":80},{"user_id":144,"name":"Tranq","steam_id":76561197967250757,"connected_time":198000000000,"state":"active","ping":69},{"user_id":111,"name":"Fire Wizard","steam_id":76561198972006814,"connected_time":3431000000000,"state":"active","ping":57},{"user_id":133,"name":"iluvtoust","steam_id":76561198869269207,"connected_time":1976000000000,"state":"active","ping":46},{"user_id":56,"name":"Foof","steam_id":76561198068996707,"connected_time":6650000000000,"state":"active","ping":59},{"user_id":134,"name":"S O L I D","steam_id":76561198086095072,"connected_time":1919000000000,"state":"active","ping":52},{"user_id":145,"name":"KevinVG","steam_id":76561198213234617,"connected_time":50000000000,"state":"active","ping":126},{"user_id":140,"name":"Flubdy_","steam_id":76561198073338521,"connected_time":1738000000000,"state":"active","ping":56},{"user_id":135,"name":"Robotified","steam_id":76561198810946967,"connected_time":1900000000000,"state":"active","ping":45},{"user_id":61,"name":"Voicez The Lunatic","steam_id":76561199261271286,"connected_time":6611000000000,"state":"active","ping":74},{"user_id":131,"name":"Businessman_BillTTV","steam_id":76561198035631987,"connected_time":2050000000000,"state":"active","ping":58},{"user_id":142,"name":"Mof","steam_id":76561198871385923,"connected_time":1555000000000,"state":"active","ping":60},{"user_id":132,"name":"Dumgum","steam_id":76561198044960992,"connected_time":1989000000000,"state":"active","ping":74},{"user_id":113,"name":"Bullwinkle J. Moose","steam_id":76561198075977196,"connected_time":3421000000000,"state":"active","ping":57},{"user_id":114,"name":"Sheriff","steam_id":76561198286769436,"connected_time":3419000000000,"state":"active","ping":65},{"user_id":129,"name":"Lezabel","steam_id":76561198970753261,"connected_time":2493000000000,"state":"active","ping":67},{"user_id":127,"name":"Lots0","steam_id":76561198043143145,"connected_time":2577000000000,"state":"active","ping":77},{"user_id":92,"name":"Bobbn","steam_id":76561198876124683,"connected_time":5196000000000,"state":"active","ping":89},{"user_id":143,"name":"Pope","steam_id":76561198053768137,"connected_time":1318000000000,"state":"active","ping":46},{"user_id":137,"name":"Faust main","steam_id":76561198971799149,"connected_time":1852000000000,"state":"active","ping":70},{"user_id":138,"name":"EvilPigglet","steam_id":76561197987243470,"connected_time":1846000000000,"state":"active","ping":79}]},{"server_id":5,"name":"Uncletopia | Frankfurt | 1 | All Maps","name_short":"frk-1","host":"frk-1.de.uncletopia.com","port":27015,"enabled":true,"region":"eu","cc":"de","latitude":50.110924,"longitude":8.682127,"reserved":0,"last_update":"0001-01-01T00:00:00Z","name_a2s":"Uncletopia | Frankfurt | 1 | All Maps","protocol":17,"map":"pl_pier","folder":"tf","game":"Team Fortress","app_id":440,"player_count":0,"max_players":24,"Bots":0,"server_type":"Dedicated","server_os":"Linux","password":true,"vac":true,"version":"7757534","steam_id":85568392924469989,"keywords":["nocrits","nodmgspread","payload","uncletopia"],"game_id":440,"stv_port":27016,"stv_name":"Uncletopia | Frankfurt | 1 | All Maps | STV","players":null},{"server_id":110,"name":"Uncletopia | Frankfurt | 2 | All Maps","name_short":"frk-2","host":"frk-1.de.uncletopia.com","port":27025,"enabled":true,"region":"eu","cc":"de","latitude":50.110924,"longitude":8.682127,"reserved":0,"last_update":"0001-01-01T00:00:00Z","name_a2s":"Uncletopia | Frankfurt | 2 | All Maps","protocol":17,"map":"pl_pier","folder":"tf","game":"Team Fortress","app_id":440,"player_count":5,"max_players":24,"Bots":0,"server_type":"Dedicated","server_os":"Linux","password":true,"vac":true,"version":"7757534","steam_id":85568392924469990,"keywords":["nocrits","nodmgspread","payload","uncletopia"],"game_id":440,"stv_port":27026,"stv_name":"Uncletopia | Frankfurt | 2 | All Maps | STV","players":[{"user_id":750,"name":"Yarch0","steam_id":76561199106172477,"connected_time":128000000000,"state":"active","ping":199},{"user_id":743,"name":"Cute Fluffy Eevee,(With Gun)","steam_id":76561198354228568,"connected_time":1484000000000,"state":"active","ping":218},{"user_id":741,"name":"Sir Helbram","steam_id":76561199475859382,"connected_time":1611000000000,"state":"active","ping":66},{"user_id":729,"name":"EdSuedi","steam_id":76561199387956486,"connected_time":2902000000000,"state":"active","ping":46},{"user_id":645,"name":"Valkaisin","steam_id":76561198061197114,"connected_time":9808000000000,"state":"active","ping":63}]},{"server_id":308,"name":"Uncletopia | Frankfurt | 3 | All Maps","name_short":"frk-3","host":"frk-1.de.uncletopia.com","port":27035,"enabled":true,"region":"eu","cc":"de","latitude":50.110924,"longitude":8.682127,"reserved":0,"last_update":"0001-01-01T00:00:00Z","name_a2s":"Uncletopia | Frankfurt | 3 | All Maps","protocol":17,"map":"koth_suijin","folder":"tf","game":"Team Fortress","app_id":440,"player_count":0,"max_players":24,"Bots":0,"server_type":"Dedicated","server_os":"Linux","password":true,"vac":true,"version":"7757534","steam_id":85568392924504274,"keywords":["cp","nocrits","nodmgspread","uncletopia"],"game_id":440,"stv_port":27036,"stv_name":"Uncletopia | Frankfurt | 3 | All Maps | STV","players":null},{"server_id":309,"name":"Uncletopia | Frankfurt | 4 | All Maps","name_short":"frk-4","host":"frk-1.de.uncletopia.com","port":27045,"enabled":true,"region":"eu","cc":"de","latitude":50.110924,"longitude":8.682127,"reserved":0,"last_update":"0001-01-01T00:00:00Z","name_a2s":"Uncletopia | Frankfurt | 4 | All Maps","protocol":17,"map":"koth_cascade","folder":"tf","game":"Team Fortress","app_id":440,"player_count":0,"max_players":24,"Bots":0,"server_type":"Dedicated","server_os":"Linux","password":true,"vac":true,"version":"7757534","steam_id":85568392924504275,"keywords":["cp","nocrits","nodmgspread","uncletopia"],"game_id":440,"stv_port":27046,"stv_name":"Uncletopia | Frankfurt | 4 | All Maps | STV","players":null},{"server_id":310,"name":"Uncletopia | Frankfurt | 5 | All Maps","name_short":"frk-5","host":"frk-1.de.uncletopia.com","port":27055,"enabled":true,"region":"eu","cc":"de","latitude":50.110924,"longitude":8.682127,"reserved":0,"last_update":"0001-01-01T00:00:00Z","name_a2s":"Uncletopia | Frankfurt | 5 | All Maps","protocol":17,"map":"pl_swiftwater_final1","folder":"tf","game":"Team Fortress","app_id":440,"player_count":0,"max_players":24,"Bots":0,"server_type":"Dedicated","server_os":"Linux","password":true,"vac":true,"version":"7757534","steam_id":85568392924504277,"keywords":["nocrits","nodmgspread","payload","uncletopia"],"game_id":440,"stv_port":27056,"stv_name":"Uncletopia | Frankfurt | 5 | All Maps | STV","players":null},{"server_id":311,"name":"Uncletopia | Frankfurt | 6 | All Maps","name_short":"frk-6","host":"frk-1.de.uncletopia.com","port":27065,"enabled":true,"region":"eu","cc":"de","latitude":50.110924,"longitude":8.682127,"reserved":0,"last_update":"0001-01-01T00:00:00Z","name_a2s":"Uncletopia | Frankfurt | 6 | All Maps","protocol":17,"map":"cp_sunshine","folder":"tf","game":"Team Fortress","app_id":440,"player_count":0,"max_players":24,"Bots":0,"server_type":"Dedicated","server_os":"Linux","password":true,"vac":true,"version":"7757534","steam_id":85568392924504278,"keywords":["cp","nocrits","nodmgspread","uncletopia"],"game_id":440,"stv_port":27066,"stv_name":"Uncletopia | Frankfurt | 6 | All Maps | STV","players":null},{"server_id":23,"name":"Uncletopia | Frankfurt | 7 | Stopwatch Beta","name_short":"frk-7","host":"frk-1.de.uncletopia.com","port":27075,"enabled":true,"region":"eu","cc":"de","latitude":50.110924,"longitude":8.682127,"reserved":0,"last_update":"0001-01-01T00:00:00Z","name_a2s":"Uncletopia | Frankfurt | 7 | Stopwatch Beta","protocol":17,"map":"pl_borneo","folder":"tf","game":"Team Fortress","app_id":440,"player_count":0,"max_players":24,"Bots":0,"server_type":"Dedicated","server_os":"Linux","password":true,"vac":true,"version":"7757534","steam_id":85568392924742827,"keywords":["nocrits","nodmgspread","payload","uncletopia"],"game_id":440,"stv_port":27076,"stv_name":"Uncletopia | Frankfurt | 7 | Stopwatch Beta | STV","players":null},{"server_id":24,"name":"Uncletopia | Frankfurt | 8 | Community","name_short":"frk-8","host":"frk-1.de.uncletopia.com","port":27085,"enabled":true,"region":"eu","cc":"de","latitude":50.110924,"longitude":8.682127,"reserved":0,"last_update":"0001-01-01T00:00:00Z","name_a2s":"Uncletopia | Frankfurt | 8 | Community","protocol":17,"map":"workshop/koth_bagel_rc6.ugc2514036946","folder":"tf","game":"Team Fortress","app_id":440,"player_count":0,"max_players":24,"Bots":0,"server_type":"Dedicated","server_os":"Linux","password":true,"vac":true,"version":"7757534","steam_id":85568392924742828,"keywords":["cp","nocrits","nodmgspread","uncletopia"],"game_id":440,"stv_port":27086,"stv_name":"Uncletopia | Frankfurt | 8 | Community | STV","players":null},{"server_id":202,"name":"Uncletopia | Hong Kong | 1 | All Maps","name_short":"hgk-1","host":"hgk-1.hk.uncletopia.com","port":27015,"enabled":true,"region":"asia","cc":"hk","latitude":22.302711,"longitude":114.177216,"reserved":0,"last_update":"0001-01-01T00:00:00Z","name_a2s":"Uncletopia | Hong Kong | 1 | All Maps","protocol":17,"map":"pl_swiftwater_final1","folder":"tf","game":"Team Fortress","app_id":440,"player_count":0,"max_players":24,"Bots":0,"server_type":"Dedicated","server_os":"Linux","password":true,"vac":true,"version":"7757534","steam_id":85568392924494504,"keywords":["nocrits","nodmgspread","payload","uncletopia"],"game_id":440,"stv_port":27016,"stv_name":"Uncletopia | Hong Kong | 1 | All Maps | STV","players":null},{"server_id":1,"name":"Uncletopia | Los Angeles | 1 | All Maps","name_short":"lax-1","host":"lax-1.us.uncletopia.com","port":27015,"enabled":true,"region":"us-west","cc":"us","latitude":33.94279,"longitude":-118.41004,"reserved":0,"last_update":"0001-01-01T00:00:00Z","name_a2s":"Uncletopia | Los Angeles | 1 | All Maps","protocol":17,"map":"pl_badwater","folder":"tf","game":"Team Fortress","app_id":440,"player_count":21,"max_players":24,"Bots":0,"server_type":"Dedicated","server_os":"Linux","password":true,"vac":true,"version":"7757534","steam_id":85568392924469991,"keywords":["nocrits","nodmgspread","payload","uncletopia"],"game_id":440,"stv_port":27016,"stv_name":"Uncletopia | Los Angeles | 1 | All Maps | STV","players":[{"user_id":232,"name":"john joe","steam_id":76561198978951141,"connected_time":643000000000,"state":"active","ping":88},{"user_id":190,"name":"Zero","steam_id":76561199383267408,"connected_time":3888000000000,"state":"active","ping":75},{"user_id":213,"name":"Nugakku","steam_id":76561198082346219,"connected_time":2916000000000,"state":"active","ping":53},{"user_id":148,"name":"bro i think i got rabies","steam_id":76561198204169516,"connected_time":6039000000000,"state":"active","ping":77},{"user_id":16,"name":"Troy Winters","steam_id":76561198051442422,"connected_time":16250000000000,"state":"active","ping":60},{"user_id":187,"name":"Demianeithor","steam_id":76561198800036537,"connected_time":4147000000000,"state":"active","ping":62},{"user_id":193,"name":"tommie_","steam_id":76561199192883108,"connected_time":3742000000000,"state":"active","ping":95},{"user_id":224,"name":"≃","steam_id":76561198157393205,"connected_time":1317000000000,"state":"active","ping":58},{"user_id":230,"name":"Pines","steam_id":76561199024146278,"connected_time":767000000000,"state":"active","ping":60},{"user_id":216,"name":"Big Jackalicious","steam_id":76561199135213338,"connected_time":2185000000000,"state":"active","ping":78},{"user_id":233,"name":"HOT SOUP","steam_id":76561199077389918,"connected_time":589000000000,"state":"active","ping":113},{"user_id":200,"name":"daws","steam_id":76561198047764222,"connected_time":3481000000000,"state":"active","ping":78},{"user_id":235,"name":"zinnk","steam_id":76561198092081825,"connected_time":120000000000,"state":"active","ping":45},{"user_id":221,"name":"Toad :)","steam_id":76561198163008022,"connected_time":1776000000000,"state":"active","ping":64},{"user_id":198,"name":"Bearegard","steam_id":76561198061926542,"connected_time":3507000000000,"state":"active","ping":116},{"user_id":228,"name":"flo rida","steam_id":76561198226169704,"connected_time":1072000000000,"state":"active","ping":56},{"user_id":201,"name":"VicLoL","steam_id":76561198045580784,"connected_time":3468000000000,"state":"active","ping":50},{"user_id":227,"name":"0r161n4lj0k3","steam_id":76561198127328235,"connected_time":1212000000000,"state":"active","ping":65},{"user_id":236,"name":"what is","steam_id":76561198329367716,"connected_time":63000000000,"state":"active","ping":54},{"user_id":234,"name":"Nez","steam_id":76561197963109059,"connected_time":403000000000,"state":"active","ping":60},{"user_id":210,"name":"kr1tsurf3r","steam_id":76561198076402476,"connected_time":3180000000000,"state":"active","ping":68}]},{"server_id":112,"name":"Uncletopia | Los Angeles | 2 | All Maps","name_short":"lax-2","host":"lax-1.us.uncletopia.com","port":27025,"enabled":true,"region":"us-west","cc":"us","latitude":33.94279,"longitude":-118.41004,"reserved":0,"last_update":"0001-01-01T00:00:00Z","name_a2s":"Uncletopia | Los Angeles | 2 | All Maps","protocol":17,"map":"ctf_2fort","folder":"tf","game":"Team Fortress","app_id":440,"player_count":24,"max_players":24,"Bots":0,"server_type":"Dedicated","server_os":"Linux","password":true,"vac":true,"version":"7757534","steam_id":85568392924469992,"keywords":["ctf","nocrits","nodmgspread","uncletopia"],"game_id":440,"stv_port":27026,"stv_name":"Uncletopia | Los Angeles | 2 | All Maps | STV","players":[{"user_id":105,"name":"VioletChan She/Her","steam_id":76561198074713124,"connected_time":895000000000,"state":"active","ping":65},{"user_id":59,"name":"silly jester","steam_id":76561198079609974,"connected_time":4524000000000,"state":"active","ping":63},{"user_id":23,"name":"Fractured_Mango","steam_id":76561199013113268,"connected_time":5882000000000,"state":"active","ping":70},{"user_id":24,"name":"donutdagger","steam_id":76561199203048300,"connected_time":5871000000000,"state":"active","ping":55},{"user_id":99,"name":"EatSomeBEES","steam_id":76561198047334307,"connected_time":1543000000000,"state":"active","ping":79},{"user_id":53,"name":"Altruisticailuridae","steam_id":76561198335295596,"connected_time":4804000000000,"state":"active","ping":54},{"user_id":106,"name":"[EASY] Necie","steam_id":76561198193908728,"connected_time":635000000000,"state":"active","ping":63},{"user_id":108,"name":"HOG RIDER","steam_id":76561198298589502,"connected_time":297000000000,"state":"active","ping":53},{"user_id":20,"name":"LX-24","steam_id":76561198016168993,"connected_time":5942000000000,"state":"active","ping":82},{"user_id":102,"name":"MerkyWaters","steam_id":76561197998853063,"connected_time":1456000000000,"state":"active","ping":66},{"user_id":26,"name":"tomiz","steam_id":76561198827013832,"connected_time":5858000000000,"state":"active","ping":49},{"user_id":60,"name":"Cpt. Dingle","steam_id":76561198025720199,"connected_time":4461000000000,"state":"active","ping":90},{"user_id":85,"name":"Noob-a-tron","steam_id":76561197970555113,"connected_time":2534000000000,"state":"active","ping":49},{"user_id":113,"name":"God Monke","steam_id":76561198070201790,"connected_time":52000000000,"state":"active","ping":62},{"user_id":115,"name":"thepopeofshame","steam_id":76561199047823974,"connected_time":25000000000,"state":"spawning","ping":31},{"user_id":80,"name":"ThatWACK","steam_id":76561198995415153,"connected_time":2796000000000,"state":"active","ping":50},{"user_id":103,"name":"Jolly","steam_id":76561198116357972,"connected_time":1171000000000,"state":"active","ping":45},{"user_id":109,"name":"A Fancy Meat Bicycle","steam_id":76561198358757709,"connected_time":232000000000,"state":"active","ping":131},{"user_id":104,"name":"Arsonist Goose","steam_id":76561198147441830,"connected_time":1052000000000,"state":"active","ping":47},{"user_id":77,"name":"Pez","steam_id":76561199197778137,"connected_time":2852000000000,"state":"active","ping":68},{"user_id":114,"name":"Tomoko2001","steam_id":76561198047117990,"connected_time":38000000000,"state":"active","ping":96},{"user_id":87,"name":"Cancerous Pineapple","steam_id":76561198097307656,"connected_time":2059000000000,"state":"active","ping":66},{"user_id":101,"name":"Trouble8X","steam_id":76561198377282366,"connected_time":1515000000000,"state":"active","ping":90},{"user_id":111,"name":"A UsedNom","steam_id":76561198402832756,"connected_time":205000000000,"state":"active","ping":60}]},{"server_id":324,"name":"Uncletopia | Los Angeles | 3 | All Maps","name_short":"lax-3","host":"lax-1.us.uncletopia.com","port":27035,"enabled":true,"region":"us-west","cc":"us","latitude":33.94279,"longitude":-118.41004,"reserved":0,"last_update":"0001-01-01T00:00:00Z","name_a2s":"Uncletopia | Los Angeles | 3 | All Maps","protocol":17,"map":"cp_powerhouse","folder":"tf","game":"Team Fortress","app_id":440,"player_count":23,"max_players":24,"Bots":0,"server_type":"Dedicated","server_os":"Linux","password":true,"vac":true,"version":"7757534","steam_id":85568392924510198,"keywords":["cp","nocrits","nodmgspread","uncletopia"],"game_id":440,"stv_port":27036,"stv_name":"Uncletopia | Los Angeles | 3 | All Maps | STV","players":[{"user_id":22,"name":"Munky","steam_id":76561197993491054,"connected_time":3086000000000,"state":"active","ping":82},{"user_id":55,"name":"Krumping to Save America","steam_id":76561198010708247,"connected_time":1320000000000,"state":"active","ping":125},{"user_id":23,"name":"Armpit!","steam_id":76561197978095727,"connected_time":3064000000000,"state":"active","ping":97},{"user_id":12,"name":"nfseskimo","steam_id":76561198078745666,"connected_time":3942000000000,"state":"active","ping":75},{"user_id":67,"name":"Derp140","steam_id":76561198887787200,"connected_time":121000000000,"state":"active","ping":49},{"user_id":56,"name":"MonkeyNobody","steam_id":76561199451266605,"connected_time":1316000000000,"state":"active","ping":54},{"user_id":57,"name":"Ended","steam_id":76561198112214021,"connected_time":1277000000000,"state":"active","ping":61},{"user_id":29,"name":"DaPickles","steam_id":76561199196369249,"connected_time":2926000000000,"state":"active","ping":115},{"user_id":24,"name":"Shin Tae Il's Lighter","steam_id":76561198984360849,"connected_time":3048000000000,"state":"active","ping":75},{"user_id":18,"name":"\u003e:3 Muiramme εїз","steam_id":76561197994458543,"connected_time":3118000000000,"state":"active","ping":75},{"user_id":25,"name":"duane (stinks good)","steam_id":76561198149565822,"connected_time":3044000000000,"state":"active","ping":96},{"user_id":66,"name":"walidov","steam_id":76561198079965605,"connected_time":469000000000,"state":"active","ping":101},{"user_id":64,"name":"Type Three Dabeetus","steam_id":76561198062710038,"connected_time":1013000000000,"state":"active","ping":56},{"user_id":59,"name":"Bony","steam_id":76561199001748822,"connected_time":1132000000000,"state":"active","ping":72},{"user_id":31,"name":"Danny Zeta","steam_id":76561198071280648,"connected_time":2854000000000,"state":"active","ping":65},{"user_id":32,"name":"slowdance","steam_id":76561198097427947,"connected_time":2835000000000,"state":"active","ping":90},{"user_id":52,"name":"PinguEnjoyer6","steam_id":76561199186723516,"connected_time":1502000000000,"state":"active","ping":40},{"user_id":60,"name":"Good 'ol Eggs Benedict","steam_id":76561198981570921,"connected_time":1054000000000,"state":"active","ping":87},{"user_id":50,"name":"LuigiRed","steam_id":76561198230578712,"connected_time":2145000000000,"state":"active","ping":40},{"user_id":51,"name":"LoGrove","steam_id":76561197969305602,"connected_time":1895000000000,"state":"active","ping":113},{"user_id":68,"name":"rip drakeo the ruler","steam_id":76561199072142013,"connected_time":87000000000,"state":"active","ping":71},{"user_id":62,"name":"Dr. Pleasant","steam_id":76561198111945101,"connected_time":1048000000000,"state":"active","ping":121},{"user_id":63,"name":"Gay Loogi Gang","steam_id":76561198097031529,"connected_time":1031000000000,"state":"active","ping":97}]},{"server_id":25,"name":"Uncletopia | Los Angeles | 4 | Stopwatch Beta","name_short":"lax-4","host":"lax-1.us.uncletopia.com","port":27045,"enabled":true,"region":"us-west","cc":"us","latitude":33.94279,"longitude":-118.41004,"reserved":0,"last_update":"0001-01-01T00:00:00Z","name_a2s":"Uncletopia | Los Angeles | 4 | Stopwatch Beta","protocol":17,"map":"cp_dustbowl","folder":"tf","game":"Team Fortress","app_id":440,"player_count":0,"max_players":24,"Bots":0,"server_type":"Dedicated","server_os":"Linux","password":true,"vac":true,"version":"7757534","steam_id":85568392924510199,"keywords":["cp","nocrits","nodmgspread","uncletopia"],"game_id":440,"stv_port":27046,"stv_name":"Uncletopia | Los Angeles | 4 | Stopwatch Beta | STV","players":null},{"server_id":11,"name":"Uncletopia | London | 1 | All Maps","name_short":"lon-1","host":"lon-1.uk.uncletopia.com","port":27015,"enabled":true,"region":"eu","cc":"gb","latitude":51.509865,"longitude":-0.118092,"reserved":0,"last_update":"0001-01-01T00:00:00Z","name_a2s":"Uncletopia | London | 1 | All Maps","protocol":17,"map":"koth_viaduct","folder":"tf","game":"Team Fortress","app_id":440,"player_count":0,"max_players":24,"Bots":0,"server_type":"Dedicated","server_os":"Linux","password":true,"vac":true,"version":"7757534","steam_id":85568392924367362,"keywords":["cp","nocrits","nodmgspread","uncletopia"],"game_id":440,"stv_port":27016,"stv_name":"Uncletopia | London | 1 | All Maps | STV","players":null},{"server_id":114,"name":"Uncletopia | London | 2 | All Maps","name_short":"lon-2","host":"lon-1.uk.uncletopia.com","port":27025,"enabled":true,"region":"eu","cc":"gb","latitude":51.509865,"longitude":-0.118092,"reserved":0,"last_update":"0001-01-01T00:00:00Z","name_a2s":"Uncletopia | London | 2 | All Maps","protocol":17,"map":"koth_viaduct","folder":"tf","game":"Team Fortress","app_id":440,"player_count":0,"max_players":24,"Bots":0,"server_type":"Dedicated","server_os":"Linux","password":true,"vac":true,"version":"7757534","steam_id":85568392924470941,"keywords":["cp","nocrits","nodmgspread","uncletopia"],"game_id":440,"stv_port":27026,"stv_name":"Uncletopia | London | 2 | All Maps | STV","players":null},{"server_id":320,"name":"Uncletopia | London | 3 | All Maps","name_short":"lon-3","host":"lon-1.uk.uncletopia.com","port":27035,"enabled":true,"region":"eu","cc":"gb","latitude":51.509865,"longitude":-0.118092,"reserved":0,"last_update":"0001-01-01T00:00:00Z","name_a2s":"Uncletopia | London | 3 | All Maps","protocol":17,"map":"cp_altitude","folder":"tf","game":"Team Fortress","app_id":440,"player_count":0,"max_players":24,"Bots":0,"server_type":"Dedicated","server_os":"Linux","password":true,"vac":true,"version":"7757534","steam_id":85568392924510192,"keywords":["cp","nocrits","nodmgspread","uncletopia"],"game_id":440,"stv_port":27036,"stv_name":"Uncletopia | London | 3 | All Maps | STV","players":null},{"server_id":321,"name":"Uncletopia | London | 4 | All Maps","name_short":"lon-4","host":"lon-1.uk.uncletopia.com","port":27045,"enabled":true,"region":"eu","cc":"gb","latitude":51.509865,"longitude":-0.118092,"reserved":0,"last_update":"0001-01-01T00:00:00Z","name_a2s":"Uncletopia | London | 4 | All Maps","protocol":17,"map":"pl_barnblitz","folder":"tf","game":"Team Fortress","app_id":440,"player_count":0,"max_players":24,"Bots":0,"server_type":"Dedicated","server_os":"Linux","password":true,"vac":true,"version":"7757534","steam_id":85568392924510193,"keywords":["nocrits","nodmgspread","payload","uncletopia"],"game_id":440,"stv_port":27046,"stv_name":"Uncletopia | London | 4 | All Maps | STV","players":null},{"server_id":21,"name":"Uncletopia | London | 5 | All Maps","name_short":"lon-5","host":"lon-1.uk.uncletopia.com","port":27055,"enabled":true,"region":"eu","cc":"gb","latitude":51.509865,"longitude":-0.118092,"reserved":0,"last_update":"0001-01-01T00:00:00Z","name_a2s":"Uncletopia | London | 5 | All Maps","protocol":17,"map":"koth_lakeside_final","folder":"tf","game":"Team Fortress","app_id":440,"player_count":0,"max_players":24,"Bots":0,"server_type":"Dedicated","server_os":"Linux","password":true,"vac":true,"version":"7757534","steam_id":85568392924742829,"keywords":["cp","nocrits","nodmgspread","uncletopia"],"game_id":440,"stv_port":27056,"stv_name":"Uncletopia | London | 5 | All Maps | STV","players":null},{"server_id":22,"name":"Uncletopia | London | 6 | All Maps","name_short":"lon-6","host":"lon-1.uk.uncletopia.com","port":27065,"enabled":true,"region":"eu","cc":"gb","latitude":51.509865,"longitude":-0.118092,"reserved":0,"last_update":"0001-01-01T00:00:00Z","name_a2s":"Uncletopia | London | 6 | All Maps","protocol":17,"map":"koth_lakeside_final","folder":"tf","game":"Team Fortress","app_id":440,"player_count":0,"max_players":24,"Bots":0,"server_type":"Dedicated","server_os":"Linux","password":true,"vac":true,"version":"7757534","steam_id":85568392924742830,"keywords":["cp","nocrits","nodmgspread","uncletopia"],"game_id":440,"stv_port":27066,"stv_name":"Uncletopia | London | 6 | All Maps | STV","players":null},{"server_id":40,"name":"Uncletopia | London | 7 | No Payload","name_short":"lon-7","host":"lon-1.uk.uncletopia.com","port":27075,"enabled":true,"region":"eu","cc":"gb","latitude":51.509865,"longitude":-0.118092,"reserved":0,"last_update":"0001-01-01T00:00:00Z","name_a2s":"Uncletopia | London | 7 | No Payload","protocol":17,"map":"cp_vanguard","folder":"tf","game":"Team Fortress","app_id":440,"player_count":0,"max_players":24,"Bots":0,"server_type":"Dedicated","server_os":"Linux","password":true,"vac":true,"version":"7757534","steam_id":85568392924964314,"keywords":["cp","nocrits","nodmgspread","uncletopia"],"game_id":440,"stv_port":27076,"stv_name":"Uncletopia | London | 7 | No Payload | STV","players":null},{"server_id":41,"name":"Uncletopia | London | 8 | Community","name_short":"lon-8","host":"lon-1.uk.uncletopia.com","port":27085,"enabled":true,"region":"eu","cc":"gb","latitude":51.509865,"longitude":-0.118092,"reserved":0,"last_update":"0001-01-01T00:00:00Z","name_a2s":"Uncletopia | London | 8 | Community","protocol":17,"map":"workshop/cp_alloy_rc3.ugc592805587","folder":"tf","game":"Team Fortress","app_id":440,"player_count":0,"max_players":24,"Bots":0,"server_type":"Dedicated","server_os":"Linux","password":true,"vac":true,"version":"7757534","steam_id":85568392924964315,"keywords":["cp","nocrits","nodmgspread","uncletopia"],"game_id":440,"stv_port":27086,"stv_name":"Uncletopia | London | 8 | Community | STV","players":null},{"server_id":300,"name":"Uncletopia | Montréal | 1 | All Maps","name_short":"mtl-1","host":"mtl-1.ca.uncletopia.com","port":27015,"enabled":true,"region":"us-east","cc":"ca","latitude":45.50889,"longitude":-73.56167,"reserved":0,"last_update":"0001-01-01T00:00:00Z","name_a2s":"Uncletopia | Montréal | 1 | All Maps","protocol":17,"map":"koth_lakeside_final","folder":"tf","game":"Team Fortress","app_id":440,"player_count":0,"max_players":24,"Bots":0,"server_type":"Dedicated","server_os":"Linux","password":true,"vac":true,"version":"7757534","steam_id":85568392924500087,"keywords":["cp","nocrits","nodmgspread","uncletopia"],"game_id":440,"stv_port":27016,"stv_name":"Uncletopia | Montréal | 1 | All Maps | STV","players":null},{"server_id":301,"name":"Uncletopia | Montréal | 2 | All Maps","name_short":"mtl-2","host":"mtl-1.ca.uncletopia.com","port":27025,"enabled":true,"region":"us-east","cc":"ca","latitude":45.50889,"longitude":-73.56167,"reserved":0,"last_update":"0001-01-01T00:00:00Z","name_a2s":"Uncletopia | Montréal | 2 | All Maps","protocol":17,"map":"pl_frontier_final","folder":"tf","game":"Team Fortress","app_id":440,"player_count":0,"max_players":24,"Bots":0,"server_type":"Dedicated","server_os":"Linux","password":true,"vac":true,"version":"7757534","steam_id":85568392924500088,"keywords":["nocrits","nodmgspread","payload","uncletopia"],"game_id":440,"stv_port":27026,"stv_name":"Uncletopia | Montréal | 2 | All Maps | STV","players":null},{"server_id":302,"name":"Uncletopia | Montréal | 3 | All Maps","name_short":"mtl-3","host":"mtl-1.ca.uncletopia.com","port":27035,"enabled":true,"region":"us-east","cc":"ca","latitude":45.50889,"longitude":-73.56167,"reserved":0,"last_update":"0001-01-01T00:00:00Z","name_a2s":"Uncletopia | Montréal | 3 | All Maps","protocol":17,"map":"pl_pier","folder":"tf","game":"Team Fortress","app_id":440,"player_count":0,"max_players":24,"Bots":0,"server_type":"Dedicated","server_os":"Linux","password":true,"vac":true,"version":"7757534","steam_id":85568392924500089,"keywords":["nocrits","nodmgspread","payload","uncletopia"],"game_id":440,"stv_port":27036,"stv_name":"Uncletopia | Montréal | 3 | All Maps | STV","players":null},{"server_id":303,"name":"Uncletopia | Montréal | 4 | No Payload","name_short":"mtl-4","host":"mtl-1.ca.uncletopia.com","port":27045,"enabled":true,"region":"us-east","cc":"ca","latitude":45.50889,"longitude":-73.56167,"reserved":0,"last_update":"0001-01-01T00:00:00Z","name_a2s":"Uncletopia | Montréal | 4 | No Payload","protocol":17,"map":"plr_nightfall_final","folder":"tf","game":"Team Fortress","app_id":440,"player_count":0,"max_players":24,"Bots":0,"server_type":"Dedicated","server_os":"Linux","password":true,"vac":true,"version":"7757534","steam_id":85568392924500090,"keywords":["nocrits","nodmgspread","payload","uncletopia"],"game_id":440,"stv_port":27046,"stv_name":"Uncletopia | Montréal | 4 | No Payload | STV","players":null},{"server_id":13,"name":"Uncletopia | New York City | 1 | All Maps","name_short":"nyc-1","host":"nyc-1.us.uncletopia.com","port":27015,"enabled":true,"region":"us-east","cc":"us","latitude":40.73061,"longitude":-73.93524,"reserved":0,"last_update":"0001-01-01T00:00:00Z","name_a2s":"Uncletopia | New York City | 1 | All Maps","protocol":17,"map":"pl_upward","folder":"tf","game":"Team Fortress","app_id":440,"player_count":24,"max_players":24,"Bots":0,"server_type":"Dedicated","server_os":"Linux","password":true,"vac":true,"version":"7757534","steam_id":85568392924469993,"keywords":["nocrits","nodmgspread","payload","uncletopia"],"game_id":440,"stv_port":27016,"stv_name":"Uncletopia | New York City | 1 | All Maps | STV","players":[{"user_id":412,"name":"King Smegma","steam_id":76561198139389573,"connected_time":437000000000,"state":"active","ping":60},{"user_id":377,"name":"Salt","steam_id":76561198073863777,"connected_time":2927000000000,"state":"active","ping":56},{"user_id":359,"name":"GoldtoothFour","steam_id":76561198055529332,"connected_time":5321000000000,"state":"active","ping":70},{"user_id":413,"name":"Aristotle Voulton","steam_id":76561198100174923,"connected_time":410000000000,"state":"active","ping":105},{"user_id":418,"name":"NoahSherlock(wln.tf)","steam_id":76561199015641953,"connected_time":203000000000,"state":"active","ping":136},{"user_id":415,"name":"I Might Get Sued For This","steam_id":76561198357894803,"connected_time":329000000000,"state":"active","ping":151},{"user_id":420,"name":"Just Luke","steam_id":76561198072134257,"connected_time":169000000000,"state":"active","ping":47},{"user_id":417,"name":"lumber joN","steam_id":76561198135507236,"connected_time":295000000000,"state":"active","ping":55},{"user_id":401,"name":"Theodore Roosevelt","steam_id":76561197993295656,"connected_time":1640000000000,"state":"active","ping":67},{"user_id":408,"name":"Bestest User","steam_id":76561198129530509,"connected_time":466000000000,"state":"active","ping":44},{"user_id":409,"name":"Vivid Hut 64","steam_id":76561198170050059,"connected_time":461000000000,"state":"active","ping":55},{"user_id":403,"name":"Krellah","steam_id":76561198287045069,"connected_time":1451000000000,"state":"active","ping":60},{"user_id":393,"name":"Jmciano24","steam_id":76561198050723212,"connected_time":2513000000000,"state":"active","ping":45},{"user_id":419,"name":"garuda","steam_id":76561198098295445,"connected_time":189000000000,"state":"active","ping":76},{"user_id":389,"name":"Pig","steam_id":76561198276179693,"connected_time":2716000000000,"state":"active","ping":72},{"user_id":332,"name":"peee pee man","steam_id":76561198044979205,"connected_time":6866000000000,"state":"active","ping":57},{"user_id":338,"name":"Gocel","steam_id":76561198071467515,"connected_time":6300000000000,"state":"active","ping":45},{"user_id":404,"name":"sonic1394","steam_id":76561198054636788,"connected_time":979000000000,"state":"active","ping":70},{"user_id":394,"name":"Gustavo Fring","steam_id":76561198132807405,"connected_time":2413000000000,"state":"active","ping":91},{"user_id":406,"name":"Azaraxis","steam_id":76561198169208459,"connected_time":471000000000,"state":"active","ping":74},{"user_id":410,"name":"ʕ•ᴥ•ʔ the bear","steam_id":76561197989591976,"connected_time":450000000000,"state":"active","ping":62},{"user_id":411,"name":"Grand Piano Tuna","steam_id":76561198135137213,"connected_time":449000000000,"state":"active","ping":103},{"user_id":392,"name":"Sam","steam_id":76561198079393512,"connected_time":2647000000000,"state":"active","ping":61},{"user_id":407,"name":"nissan maltima","steam_id":76561198044034546,"connected_time":471000000000,"state":"active","ping":54}]},{"server_id":14,"name":"Uncletopia | New York City | 2 | All Maps","name_short":"nyc-2","host":"nyc-1.us.uncletopia.com","port":27025,"enabled":true,"region":"us-east","cc":"us","latitude":40.73061,"longitude":-73.93524,"reserved":0,"last_update":"0001-01-01T00:00:00Z","name_a2s":"Uncletopia | New York City | 2 | All Maps","protocol":17,"map":"cp_altitude","folder":"tf","game":"Team Fortress","app_id":440,"player_count":24,"max_players":24,"Bots":0,"server_type":"Dedicated","server_os":"Linux","password":true,"vac":true,"version":"7757534","steam_id":85568392924469994,"keywords":["cp","nocrits","nodmgspread","uncletopia"],"game_id":440,"stv_port":27026,"stv_name":"Uncletopia | New York City | 2 | All Maps | STV","players":[{"user_id":251,"name":"Frimpimy","steam_id":76561198142605675,"connected_time":10794000000000,"state":"active","ping":74},{"user_id":372,"name":"OpenDown","steam_id":76561198064132688,"connected_time":767000000000,"state":"active","ping":84},{"user_id":365,"name":"Universe Man","steam_id":76561197997710655,"connected_time":1251000000000,"state":"active","ping":85},{"user_id":351,"name":"Alpha Goose","steam_id":76561198038927852,"connected_time":2190000000000,"state":"active","ping":88},{"user_id":373,"name":"Kelpy","steam_id":76561198294906383,"connected_time":700000000000,"state":"active","ping":45},{"user_id":343,"name":"Biggest AL","steam_id":76561198260719207,"connected_time":2692000000000,"state":"active","ping":84},{"user_id":355,"name":"Exio","steam_id":76561198218639325,"connected_time":1996000000000,"state":"active","ping":58},{"user_id":330,"name":"I_Am_Lazy","steam_id":76561199030283067,"connected_time":4406000000000,"state":"active","ping":70},{"user_id":371,"name":"/steez/","steam_id":76561198124133482,"connected_time":813000000000,"state":"active","ping":52},{"user_id":331,"name":"Blackstar","steam_id":76561198169039095,"connected_time":4254000000000,"state":"active","ping":82},{"user_id":374,"name":"daemon","steam_id":76561198001541433,"connected_time":668000000000,"state":"active","ping":61},{"user_id":356,"name":"great1photo","steam_id":76561198085481933,"connected_time":1975000000000,"state":"active","ping":70},{"user_id":363,"name":"AllMightyBigBone","steam_id":76561198168468442,"connected_time":1319000000000,"state":"active","ping":84},{"user_id":377,"name":"C papi","steam_id":76561198027779564,"connected_time":409000000000,"state":"active","ping":60},{"user_id":375,"name":"Strange Festive Femboy","steam_id":76561198050385093,"connected_time":663000000000,"state":"active","ping":65},{"user_id":366,"name":"ShadowWasUhOh","steam_id":76561198400361935,"connected_time":1223000000000,"state":"active","ping":65},{"user_id":361,"name":"CockroachEngie","steam_id":76561199217069119,"connected_time":1858000000000,"state":"active","ping":53},{"user_id":369,"name":"Post nut clarity","steam_id":76561198060246831,"connected_time":1173000000000,"state":"active","ping":82},{"user_id":376,"name":"sɐʞnl","steam_id":76561198172454407,"connected_time":662000000000,"state":"active","ping":90},{"user_id":307,"name":"Monsterjessy","steam_id":76561198035630985,"connected_time":7263000000000,"state":"active","ping":54},{"user_id":344,"name":"Snowy Squill","steam_id":76561198073504207,"connected_time":2571000000000,"state":"active","ping":150},{"user_id":347,"name":"JohnnyGitGud","steam_id":76561198401455467,"connected_time":2521000000000,"state":"active","ping":121},{"user_id":326,"name":"chicken joe from surfs up 2","steam_id":76561198060807152,"connected_time":4541000000000,"state":"active","ping":60},{"user_id":333,"name":"Hey! I'm Walkin 'ere!","steam_id":76561198882785912,"connected_time":3991000000000,"state":"active","ping":63}]},{"server_id":15,"name":"Uncletopia | New York City | 3 | Stopwatch Beta","name_short":"nyc-3","host":"nyc-1.us.uncletopia.com","port":27035,"enabled":true,"region":"us-east","cc":"us","latitude":40.73061,"longitude":-73.93524,"reserved":0,"last_update":"0001-01-01T00:00:00Z","name_a2s":"Uncletopia | New York City | 3 | Stopwatch Beta","protocol":17,"map":"pl_borneo","folder":"tf","game":"Team Fortress","app_id":440,"player_count":0,"max_players":24,"Bots":0,"server_type":"Dedicated","server_os":"Linux","password":true,"vac":true,"version":"7757534","steam_id":85568392924742820,"keywords":["nocrits","nodmgspread","payload","uncletopia"],"game_id":440,"stv_port":27036,"stv_name":"Uncletopia | New York City | 3 | Stopwatch Beta | STV","players":null},{"server_id":16,"name":"Uncletopia | New York City | 4 | Community","name_short":"nyc-4","host":"nyc-1.us.uncletopia.com","port":27045,"enabled":true,"region":"us-east","cc":"us","latitude":40.73061,"longitude":-73.93524,"reserved":0,"last_update":"0001-01-01T00:00:00Z","name_a2s":"Uncletopia | New York City | 4 | Community","protocol":17,"map":"workshop/pl_corrode_rc2.ugc546577989","folder":"tf","game":"Team Fortress","app_id":440,"player_count":24,"max_players":24,"Bots":0,"server_type":"Dedicated","server_os":"Linux","password":true,"vac":true,"version":"7757534","steam_id":85568392924742821,"keywords":["nocrits","nodmgspread","payload","uncletopia"],"game_id":440,"stv_port":27046,"stv_name":"Uncletopia | New York City | 4 | Community | STV","players":[{"user_id":316,"name":"🅜🅔🅔🅚🅢🅣🅔\ufffd\ufffd\ufffd","steam_id":76561197999748343,"connected_time":417000000000,"state":"active","ping":77},{"user_id":317,"name":"Do Moose go Moo?","steam_id":76561198073550620,"connected_time":400000000000,"state":"active","ping":57},{"user_id":205,"name":"Gumit","steam_id":76561198208126512,"connected_time":7324000000000,"state":"active","ping":56},{"user_id":207,"name":"MIKE JOANS","steam_id":76561198267470325,"connected_time":7253000000000,"state":"active","ping":50},{"user_id":208,"name":"bob27","steam_id":76561198807658771,"connected_time":7241000000000,"state":"active","ping":62},{"user_id":284,"name":"rontu","steam_id":76561199072955534,"connected_time":2012000000000,"state":"active","ping":76},{"user_id":309,"name":"MetalTao","steam_id":76561198189408110,"connected_time":802000000000,"state":"active","ping":80},{"user_id":292,"name":"Phillip Jeffries","steam_id":76561198064052174,"connected_time":1647000000000,"state":"active","ping":60},{"user_id":306,"name":"Fragment Guy","steam_id":76561198178413086,"connected_time":895000000000,"state":"active","ping":64},{"user_id":303,"name":"Barry","steam_id":76561198371953939,"connected_time":1315000000000,"state":"active","ping":60},{"user_id":307,"name":"El grande 2","steam_id":76561198429949450,"connected_time":845000000000,"state":"active","ping":54},{"user_id":311,"name":"Kacey","steam_id":76561198017063317,"connected_time":764000000000,"state":"active","ping":65},{"user_id":308,"name":"cupofwater","steam_id":76561198044000478,"connected_time":828000000000,"state":"active","ping":55},{"user_id":320,"name":"BULLSHIT MATADOR","steam_id":76561198044488913,"connected_time":141000000000,"state":"active","ping":99},{"user_id":318,"name":"horny jail","steam_id":76561199402473517,"connected_time":362000000000,"state":"active","ping":90},{"user_id":285,"name":"Chin","steam_id":76561198247426906,"connected_time":2006000000000,"state":"active","ping":69},{"user_id":297,"name":"SoundslikeJustice","steam_id":76561198963640645,"connected_time":1494000000000,"state":"active","ping":63},{"user_id":314,"name":"Reno Gato","steam_id":76561198048417246,"connected_time":549000000000,"state":"active","ping":86},{"user_id":319,"name":"primordialheath","steam_id":76561199386942638,"connected_time":199000000000,"state":"active","ping":65},{"user_id":289,"name":"GiraffeMan","steam_id":76561198042104084,"connected_time":1784000000000,"state":"active","ping":52},{"user_id":321,"name":"British Zoner","steam_id":76561198977330214,"connected_time":38000000000,"state":"spawning","ping":213},{"user_id":322,"name":"Dawoud621","steam_id":76561198125279021,"connected_time":15000000000,"state":"spawning","ping":133},{"user_id":237,"name":"The Necronomiconeconomist","steam_id":76561198010358323,"connected_time":5023000000000,"state":"active","ping":110},{"user_id":262,"name":"Puppeteer","steam_id":76561198159928108,"connected_time":3391000000000,"state":"active","ping":119}]},{"server_id":142,"name":"Uncletopia | São Paulo | 1 | All Maps","name_short":"sao-1","host":"sao-1.br.uncletopia.com","port":27015,"enabled":true,"region":"sa","cc":"br","latitude":-23.533773,"longitude":-46.62529,"reserved":0,"last_update":"0001-01-01T00:00:00Z","name_a2s":"Uncletopia | São Paulo | 1 | All Maps","protocol":17,"map":"koth_viaduct","folder":"tf","game":"Team Fortress","app_id":440,"player_count":0,"max_players":24,"Bots":0,"server_type":"Dedicated","server_os":"Linux","password":true,"vac":true,"version":"7757534","steam_id":85568392924469996,"keywords":["cp","nocrits","nodmgspread","uncletopia"],"game_id":440,"stv_port":27016,"stv_name":"Uncletopia | São Paulo | 1 | All Maps | STV","players":null},{"server_id":143,"name":"Uncletopia | São Paulo | 2 | All Maps","name_short":"sao-2","host":"sao-2.br.uncletopia.com","port":27015,"enabled":true,"region":"sa","cc":"br","latitude":-23.533773,"longitude":-46.62529,"reserved":0,"last_update":"0001-01-01T00:00:00Z","name_a2s":"Uncletopia | São Paulo | 2 | All Maps","protocol":17,"map":"cp_sunshine","folder":"tf","game":"Team Fortress","app_id":440,"player_count":0,"max_players":24,"Bots":0,"server_type":"Dedicated","server_os":"Linux","password":true,"vac":true,"version":"7757534","steam_id":85568392924485349,"keywords":["cp","nocrits","nodmgspread","uncletopia"],"game_id":440,"stv_port":27016,"stv_name":"Uncletopia | São Paulo | 2 | All Maps | STV","players":null},{"server_id":7,"name":"Uncletopia | Seattle | 1 | All Maps","name_short":"sea-1","host":"sea-1.us.uncletopia.com","port":27015,"enabled":true,"region":"us-west","cc":"us","latitude":47.608013,"longitude":-122.33517,"reserved":0,"last_update":"0001-01-01T00:00:00Z","name_a2s":"Uncletopia | Seattle | 1 | All Maps","protocol":17,"map":"pl_badwater","folder":"tf","game":"Team Fortress","app_id":440,"player_count":23,"max_players":24,"Bots":0,"server_type":"Dedicated","server_os":"Linux","password":true,"vac":true,"version":"7757534","steam_id":85568392924469997,"keywords":["nocrits","nodmgspread","payload","uncletopia"],"game_id":440,"stv_port":27016,"stv_name":"Uncletopia | Seattle | 1 | All Maps | STV","players":[{"user_id":536,"name":"fwoov","steam_id":76561198129166260,"connected_time":994000000000,"state":"active","ping":79},{"user_id":547,"name":"soda","steam_id":76561198105924953,"connected_time":620000000000,"state":"active","ping":77},{"user_id":525,"name":"I have a tapeworm","steam_id":76561198112705880,"connected_time":1511000000000,"state":"active","ping":63},{"user_id":444,"name":"Nightshade","steam_id":76561199011017814,"connected_time":6728000000000,"state":"active","ping":80},{"user_id":552,"name":"Res Ipsa","steam_id":76561198041349210,"connected_time":3000000000,"state":"spawning","ping":57},{"user_id":544,"name":"mommy","steam_id":76561198129195009,"connected_time":794000000000,"state":"active","ping":64},{"user_id":538,"name":"Glizzy Mcguire","steam_id":76561198101618568,"connected_time":992000000000,"state":"active","ping":46},{"user_id":510,"name":"Tungsten","steam_id":76561198312854342,"connected_time":2166000000000,"state":"active","ping":67},{"user_id":551,"name":"WACKY JIM","steam_id":76561198961641122,"connected_time":50000000000,"state":"active","ping":56},{"user_id":545,"name":"🎄AndreaJingling🎄","steam_id":76561198198658783,"connected_time":774000000000,"state":"active","ping":77},{"user_id":526,"name":"Gammaplex","steam_id":76561198981228176,"connected_time":1457000000000,"state":"active","ping":97},{"user_id":533,"name":"float","steam_id":76561198363371528,"connected_time":1125000000000,"state":"active","ping":50},{"user_id":542,"name":"DAYTONA","steam_id":76561198061975847,"connected_time":930000000000,"state":"active","ping":80},{"user_id":548,"name":"HanakoToast","steam_id":76561198045233131,"connected_time":606000000000,"state":"active","ping":98},{"user_id":497,"name":"Sudsen","steam_id":76561198370603787,"connected_time":3009000000000,"state":"active","ping":68},{"user_id":504,"name":"Lawyer","steam_id":76561197974126447,"connected_time":2435000000000,"state":"active","ping":87},{"user_id":549,"name":"Tybalt","steam_id":76561198142464684,"connected_time":374000000000,"state":"active","ping":86},{"user_id":537,"name":"mooney","steam_id":76561199110622484,"connected_time":993000000000,"state":"active","ping":67},{"user_id":539,"name":"Luna_Blossom","steam_id":76561198816384987,"connected_time":981000000000,"state":"active","ping":83},{"user_id":531,"name":"Zizen","steam_id":76561199011832069,"connected_time":1431000000000,"state":"active","ping":74},{"user_id":550,"name":"lavender","steam_id":76561199069518286,"connected_time":139000000000,"state":"active","ping":65},{"user_id":543,"name":"harmless_nerd","steam_id":76561199470510373,"connected_time":890000000000,"state":"active","ping":92},{"user_id":508,"name":"Hassium","steam_id":76561198162541373,"connected_time":2379000000000,"state":"active","ping":55}]},{"server_id":119,"name":"Uncletopia | Seattle | 2 | All Maps","name_short":"sea-2","host":"sea-1.us.uncletopia.com","port":27025,"enabled":true,"region":"us-west","cc":"us","latitude":47.608013,"longitude":-122.33517,"reserved":0,"last_update":"0001-01-01T00:00:00Z","name_a2s":"Uncletopia | Seattle | 2 | All Maps","protocol":17,"map":"pl_goldrush","folder":"tf","game":"Team Fortress","app_id":440,"player_count":24,"max_players":24,"Bots":0,"server_type":"Dedicated","server_os":"Linux","password":true,"vac":true,"version":"7757534","steam_id":85568392924469998,"keywords":["nocrits","nodmgspread","payload","uncletopia"],"game_id":440,"stv_port":27026,"stv_name":"Uncletopia | Seattle | 2 | All Maps | STV","players":[{"user_id":356,"name":"Rufious","steam_id":76561198082572510,"connected_time":167000000000,"state":"active","ping":76},{"user_id":288,"name":"AmiableNebula","steam_id":76561198094306627,"connected_time":6142000000000,"state":"active","ping":74},{"user_id":331,"name":"RipHunter77","steam_id":76561198272973014,"connected_time":2296000000000,"state":"active","ping":90},{"user_id":347,"name":"kezia","steam_id":76561198059815894,"connected_time":647000000000,"state":"active","ping":90},{"user_id":361,"name":"Tritium","steam_id":76561198043305626,"connected_time":71000000000,"state":"active","ping":73},{"user_id":324,"name":"cornshot","steam_id":76561198043496387,"connected_time":2707000000000,"state":"active","ping":75},{"user_id":354,"name":"Tom Skirrett","steam_id":76561198014600788,"connected_time":311000000000,"state":"active","ping":60},{"user_id":300,"name":"benji","steam_id":76561198084417967,"connected_time":4845000000000,"state":"active","ping":68},{"user_id":346,"name":"Wso1123","steam_id":76561198048040111,"connected_time":655000000000,"state":"active","ping":59},{"user_id":351,"name":"Re-Crix","steam_id":76561198351895601,"connected_time":352000000000,"state":"active","ping":92},{"user_id":236,"name":"Grammaring","steam_id":76561198867366139,"connected_time":9870000000000,"state":"active","ping":79},{"user_id":341,"name":"This game sucks","steam_id":76561198042007578,"connected_time":1741000000000,"state":"active","ping":82},{"user_id":345,"name":"TROY","steam_id":76561197983852176,"connected_time":665000000000,"state":"active","ping":75},{"user_id":344,"name":"Mr8bittripper","steam_id":76561198133894229,"connected_time":1226000000000,"state":"active","ping":50},{"user_id":359,"name":"Harold","steam_id":76561198057317770,"connected_time":125000000000,"state":"active","ping":55},{"user_id":294,"name":"Keamy","steam_id":76561199471434875,"connected_time":4941000000000,"state":"active","ping":43},{"user_id":310,"name":"professional gaymer","steam_id":76561198063949642,"connected_time":4288000000000,"state":"active","ping":44},{"user_id":343,"name":"SuperViolence","steam_id":76561198973670368,"connected_time":1581000000000,"state":"active","ping":99},{"user_id":328,"name":"Finic Fox","steam_id":76561198154785984,"connected_time":2430000000000,"state":"active","ping":56},{"user_id":360,"name":"Ellen Baker","steam_id":76561198065712435,"connected_time":73000000000,"state":"active","ping":84},{"user_id":231,"name":"Dr. Banana boy","steam_id":76561199012105803,"connected_time":10213000000000,"state":"active","ping":58},{"user_id":342,"name":"CB1 Cousin Junebug","steam_id":76561198090573639,"connected_time":1602000000000,"state":"active","ping":69},{"user_id":329,"name":"TheCowledWiz","steam_id":76561198016735868,"connected_time":2356000000000,"state":"active","ping":49},{"user_id":338,"name":"PokemzX","steam_id":76561198303574256,"connected_time":1900000000000,"state":"active","ping":35}]},{"server_id":406,"name":"Uncletopia | Seattle | 3 | Stopwatch Beta","name_short":"sea-3","host":"sea-1.us.uncletopia.com","port":27035,"enabled":true,"region":"us-west","cc":"us","latitude":47.608013,"longitude":-122.33517,"reserved":0,"last_update":"0001-01-01T00:00:00Z","name_a2s":"Uncletopia | Seattle | 3 | Stopwatch Beta","protocol":17,"map":"workshop/pl_barnblitz_pro7.ugc582280235","folder":"tf","game":"Team Fortress","app_id":440,"player_count":0,"max_players":24,"Bots":0,"server_type":"Dedicated","server_os":"Linux","password":true,"vac":true,"version":"7757534","steam_id":85568392924515217,"keywords":["nocrits","nodmgspread","payload","uncletopia"],"game_id":440,"stv_port":27036,"stv_name":"Uncletopia | Seattle | 3 | Stopwatch Beta | STV","players":null},{"server_id":17,"name":"Uncletopia | San Francisco | 1 | All Maps","name_short":"sfo-1","host":"sfo-1.us.uncletopia.com","port":27015,"enabled":true,"region":"us-west","cc":"us","latitude":37.77397,"longitude":-122.4313,"reserved":0,"last_update":"0001-01-01T00:00:00Z","name_a2s":"Uncletopia | San Francisco | 1 | All Maps","protocol":17,"map":"pl_swiftwater_final1","folder":"tf","game":"Team Fortress","app_id":440,"player_count":24,"max_players":24,"Bots":0,"server_type":"Dedicated","server_os":"Linux","password":true,"vac":true,"version":"7757534","steam_id":85568392924469999,"keywords":["nocrits","nodmgspread","payload","uncletopia"],"game_id":440,"stv_port":27016,"stv_name":"Uncletopia | San Francisco | 1 | All Maps | STV","players":[{"user_id":725,"name":"stump","steam_id":76561198012653832,"connected_time":82000000000,"state":"active","ping":114},{"user_id":691,"name":"gulch","steam_id":76561199227946025,"connected_time":1873000000000,"state":"active","ping":90},{"user_id":673,"name":"Destroyer1004","steam_id":76561199367685913,"connected_time":2685000000000,"state":"active","ping":74},{"user_id":701,"name":"self sufficient kitten","steam_id":76561197960592612,"connected_time":1297000000000,"state":"active","ping":63},{"user_id":711,"name":"oxbudy","steam_id":76561198022120207,"connected_time":837000000000,"state":"active","ping":74},{"user_id":707,"name":"090-nsalih","steam_id":76561199467467873,"connected_time":1176000000000,"state":"active","ping":182},{"user_id":724,"name":"Firedude","steam_id":76561198852497745,"connected_time":96000000000,"state":"active","ping":77},{"user_id":681,"name":"Tort boi","steam_id":76561198125327110,"connected_time":2504000000000,"state":"active","ping":71},{"user_id":706,"name":"shy guy","steam_id":76561198151246059,"connected_time":1208000000000,"state":"active","ping":45},{"user_id":702,"name":"iamoctopii","steam_id":76561198876901076,"connected_time":1294000000000,"state":"active","ping":167},{"user_id":709,"name":"All Class Gaming","steam_id":76561198806729611,"connected_time":1104000000000,"state":"active","ping":73},{"user_id":692,"name":"Nuts","steam_id":76561199258535559,"connected_time":1853000000000,"state":"active","ping":66},{"user_id":677,"name":"toodles","steam_id":76561198025463883,"connected_time":2583000000000,"state":"active","ping":77},{"user_id":726,"name":"FUSION","steam_id":76561197972659738,"connected_time":29000000000,"state":"active","ping":101},{"user_id":717,"name":"Lil' Urban Achiever","steam_id":76561197970450546,"connected_time":482000000000,"state":"active","ping":78},{"user_id":703,"name":"Pyrotek⁴","steam_id":76561198072747672,"connected_time":1259000000000,"state":"active","ping":50},{"user_id":699,"name":"Dzlink","steam_id":76561198390656783,"connected_time":1500000000000,"state":"active","ping":64},{"user_id":679,"name":"SomeRandomBetaFish","steam_id":76561198827731399,"connected_time":2575000000000,"state":"active","ping":84},{"user_id":722,"name":"Minerkid2004","steam_id":76561198044262827,"connected_time":142000000000,"state":"active","ping":54},{"user_id":698,"name":"toaster oven","steam_id":76561199062294158,"connected_time":1563000000000,"state":"active","ping":120},{"user_id":723,"name":"Interrobang","steam_id":76561198385044529,"connected_time":111000000000,"state":"active","ping":104},{"user_id":705,"name":"❤ Ashley ❤","steam_id":76561198056428303,"connected_time":1257000000000,"state":"active","ping":53},{"user_id":714,"name":"DAMM BRO","steam_id":76561198984762462,"connected_time":689000000000,"state":"active","ping":50},{"user_id":715,"name":"Anor","steam_id":76561198356139775,"connected_time":687000000000,"state":"active","ping":92}]},{"server_id":18,"name":"Uncletopia | San Francisco | 2 | All Maps","name_short":"sfo-2","host":"sfo-1.us.uncletopia.com","port":27025,"enabled":true,"region":"us-west","cc":"us","latitude":37.77397,"longitude":-122.4313,"reserved":0,"last_update":"0001-01-01T00:00:00Z","name_a2s":"Uncletopia | San Francisco | 2 | All Maps","protocol":17,"map":"pl_borneo","folder":"tf","game":"Team Fortress","app_id":440,"player_count":24,"max_players":24,"Bots":0,"server_type":"Dedicated","server_os":"Linux","password":true,"vac":true,"version":"7757534","steam_id":85568392924470000,"keywords":["nocrits","nodmgspread","payload","uncletopia"],"game_id":440,"stv_port":27026,"stv_name":"Uncletopia | San Francisco | 2 | All Maps | STV","players":[{"user_id":456,"name":"What? Who?","steam_id":76561198117008644,"connected_time":604000000000,"state":"active","ping":51},{"user_id":455,"name":"chocolat3823","steam_id":76561199249875689,"connected_time":745000000000,"state":"active","ping":66},{"user_id":464,"name":"god's drunkest driver","steam_id":76561198212115640,"connected_time":284000000000,"state":"active","ping":58},{"user_id":432,"name":"Sivinus","steam_id":76561198025589541,"connected_time":2254000000000,"state":"active","ping":74},{"user_id":383,"name":"terrorism? boy howdy","steam_id":76561198844003641,"connected_time":4493000000000,"state":"active","ping":66},{"user_id":406,"name":"jello","steam_id":76561198149683030,"connected_time":3271000000000,"state":"active","ping":45},{"user_id":458,"name":"D_10.Shin","steam_id":76561198209278033,"connected_time":567000000000,"state":"active","ping":94},{"user_id":470,"name":"fiberbriver","steam_id":76561198253933991,"connected_time":12000000000,"state":"spawning","ping":49},{"user_id":320,"name":"dark luigi","steam_id":76561198048007844,"connected_time":6740000000000,"state":"active","ping":51},{"user_id":431,"name":"SoundKitKiller","steam_id":76561198053535873,"connected_time":2268000000000,"state":"active","ping":131},{"user_id":459,"name":"Nani?","steam_id":76561198130982692,"connected_time":489000000000,"state":"active","ping":104},{"user_id":460,"name":"stboncho","steam_id":76561198172275301,"connected_time":392000000000,"state":"active","ping":57},{"user_id":461,"name":"Black Uncle Dane","steam_id":76561199455732510,"connected_time":351000000000,"state":"active","ping":107},{"user_id":410,"name":"TothBrush","steam_id":76561198028254471,"connected_time":3133000000000,"state":"active","ping":74},{"user_id":454,"name":"GGN","steam_id":76561198233603808,"connected_time":1123000000000,"state":"active","ping":59},{"user_id":462,"name":"Charlatan","steam_id":76561198345242865,"connected_time":304000000000,"state":"active","ping":56},{"user_id":463,"name":"alcoholic","steam_id":76561199217503417,"connected_time":301000000000,"state":"active","ping":83},{"user_id":465,"name":"Volkan","steam_id":76561198401314312,"connected_time":234000000000,"state":"active","ping":70},{"user_id":466,"name":"lamadre07","steam_id":76561198067337453,"connected_time":178000000000,"state":"active","ping":117},{"user_id":427,"name":"John Wick's puppy","steam_id":76561198064662875,"connected_time":2283000000000,"state":"active","ping":48},{"user_id":467,"name":"ExplosiveGamer21","steam_id":76561198132370955,"connected_time":173000000000,"state":"active","ping":87},{"user_id":428,"name":"voidpuppy","steam_id":76561198799922000,"connected_time":2283000000000,"state":"active","ping":60},{"user_id":468,"name":"Creme","steam_id":76561198034166729,"connected_time":137000000000,"state":"active","ping":132},{"user_id":469,"name":"Stapler","steam_id":76561198099295077,"connected_time":108000000000,"state":"active","ping":52}]},{"server_id":19,"name":"Uncletopia | San Francisco | 3 | Stopwatch Beta","name_short":"sfo-3","host":"sfo-1.us.uncletopia.com","port":27035,"enabled":true,"region":"us-west","cc":"us","latitude":37.77397,"longitude":-122.4313,"reserved":0,"last_update":"0001-01-01T00:00:00Z","name_a2s":"Uncletopia | San Francisco | 3 | Stopwatch Beta","protocol":17,"map":"workshop/koth_product_final.ugc454272353","folder":"tf","game":"Team Fortress","app_id":440,"player_count":0,"max_players":24,"Bots":0,"server_type":"Dedicated","server_os":"Linux","password":true,"vac":true,"version":"7757534","steam_id":85568392924742824,"keywords":["cp","nocrits","nodmgspread","uncletopia"],"game_id":440,"stv_port":27036,"stv_name":"Uncletopia | San Francisco | 3 | Stopwatch Beta | STV","players":null},{"server_id":20,"name":"Uncletopia | San Francisco | 4 | Community","name_short":"sfo-4","host":"sfo-1.us.uncletopia.com","port":27045,"enabled":true,"region":"us-west","cc":"us","latitude":37.77397,"longitude":-122.4313,"reserved":0,"last_update":"0001-01-01T00:00:00Z","name_a2s":"Uncletopia | San Francisco | 4 | Community","protocol":17,"map":"workshop/cp_snowbase_b18.ugc2081770490","folder":"tf","game":"Team Fortress","app_id":440,"player_count":2,"max_players":24,"Bots":0,"server_type":"Dedicated","server_os":"Linux","password":true,"vac":true,"version":"7757534","steam_id":85568392924742826,"keywords":["cp","nocrits","nodmgspread","uncletopia"],"game_id":440,"stv_port":27046,"stv_name":"Uncletopia | San Francisco | 4 | Community | STV","players":[{"user_id":16,"name":"Silvercoat's Stargazer","steam_id":76561198399525329,"connected_time":968000000000,"state":"active","ping":124},{"user_id":17,"name":"The Winter Medic","steam_id":76561198197112922,"connected_time":916000000000,"state":"active","ping":128}]},{"server_id":141,"name":"Uncletopia | Sydney | 1 | All Maps","name_short":"syd-1","host":"syd-1.au.uncletopia.com","port":27015,"enabled":true,"region":"au","cc":"au","latitude":-33.865143,"longitude":151.2099,"reserved":0,"last_update":"0001-01-01T00:00:00Z","name_a2s":"Uncletopia | Sydney | 1 | All Maps","protocol":17,"map":"pl_upward","folder":"tf","game":"Team Fortress","app_id":440,"player_count":16,"max_players":24,"Bots":0,"server_type":"Dedicated","server_os":"Linux","password":true,"vac":true,"version":"7757534","steam_id":85568392924470001,"keywords":["nocrits","nodmgspread","payload","uncletopia"],"game_id":440,"stv_port":27016,"stv_name":"Uncletopia | Sydney | 1 | All Maps | STV","players":[{"user_id":5,"name":"Jett","steam_id":76561198969434128,"connected_time":8704000000000,"state":"active","ping":90},{"user_id":123,"name":"Mail Bomb Victim","steam_id":76561198284533039,"connected_time":1307000000000,"state":"active","ping":54},{"user_id":132,"name":"das conk creet baybee","steam_id":76561198256416570,"connected_time":788000000000,"state":"active","ping":60},{"user_id":103,"name":"Zieria","steam_id":76561199261811388,"connected_time":2341000000000,"state":"active","ping":43},{"user_id":140,"name":"Sainator","steam_id":76561198202770490,"connected_time":331000000000,"state":"active","ping":58},{"user_id":142,"name":"Soru","steam_id":76561198010844786,"connected_time":197000000000,"state":"active","ping":60},{"user_id":124,"name":"Jy","steam_id":76561198104427524,"connected_time":1292000000000,"state":"active","ping":56},{"user_id":134,"name":"Daniel Plainview (no sound)","steam_id":76561197990817274,"connected_time":664000000000,"state":"active","ping":73},{"user_id":129,"name":"Pug","steam_id":76561198136794372,"connected_time":957000000000,"state":"active","ping":46},{"user_id":136,"name":"Humboldt","steam_id":76561198064930358,"connected_time":475000000000,"state":"active","ping":70},{"user_id":137,"name":"Cv76","steam_id":76561198817942619,"connected_time":471000000000,"state":"active","ping":43},{"user_id":39,"name":"MindlessTie","steam_id":76561198107844324,"connected_time":5759000000000,"state":"active","ping":60},{"user_id":113,"name":"luxi","steam_id":76561198045695969,"connected_time":1859000000000,"state":"active","ping":49},{"user_id":114,"name":"Chicken","steam_id":76561198102356311,"connected_time":1850000000000,"state":"active","ping":69},{"user_id":138,"name":"Gwarp","steam_id":76561198061960926,"connected_time":466000000000,"state":"active","ping":94},{"user_id":120,"name":"MR Martian","steam_id":76561198157854561,"connected_time":1489000000000,"state":"active","ping":90}]},{"server_id":123,"name":"Uncletopia | Sydney | 2 | All Maps","name_short":"syd-2","host":"syd-1.au.uncletopia.com","port":27025,"enabled":true,"region":"au","cc":"au","latitude":-33.865143,"longitude":151.2099,"reserved":0,"last_update":"0001-01-01T00:00:00Z","name_a2s":"Uncletopia | Sydney | 2 | All Maps","protocol":17,"map":"koth_highpass","folder":"tf","game":"Team Fortress","app_id":440,"player_count":0,"max_players":24,"Bots":0,"server_type":"Dedicated","server_os":"Linux","password":true,"vac":true,"version":"7757534","steam_id":85568392924470002,"keywords":["cp","nocrits","nodmgspread","uncletopia"],"game_id":440,"stv_port":27026,"stv_name":"Uncletopia | Sydney | 2 | All Maps | STV","players":null},{"server_id":395,"name":"Uncletopia | Sydney | 3 | All Maps","name_short":"syd-3","host":"syd-1.au.uncletopia.com","port":27035,"enabled":true,"region":"au","cc":"au","latitude":-33.865143,"longitude":151.2099,"reserved":0,"last_update":"0001-01-01T00:00:00Z","name_a2s":"Uncletopia | Sydney | 3 | All Maps","protocol":17,"map":"cp_altitude","folder":"tf","game":"Team Fortress","app_id":440,"player_count":0,"max_players":24,"Bots":0,"server_type":"Dedicated","server_os":"Linux","password":true,"vac":true,"version":"7757534","steam_id":85568392925194467,"keywords":["cp","nocrits","nodmgspread","uncletopia"],"game_id":440,"stv_port":27036,"stv_name":"Uncletopia | Sydney | 3 | All Maps | STV","players":null},{"server_id":396,"name":"Uncletopia | Sydney | 4 | All Maps","name_short":"syd-4","host":"syd-1.au.uncletopia.com","port":27045,"enabled":true,"region":"au","cc":"au","latitude":-33.865143,"longitude":151.2099,"reserved":0,"last_update":"0001-01-01T00:00:00Z","name_a2s":"Uncletopia | Sydney | 4 | All Maps","protocol":17,"map":"cp_process_final","folder":"tf","game":"Team Fortress","app_id":440,"player_count":0,"max_players":24,"Bots":0,"server_type":"Dedicated","server_os":"Linux","password":true,"vac":true,"version":"7757534","steam_id":85568392925397958,"keywords":["cp","nocrits","nodmgspread","uncletopia"],"game_id":440,"stv_port":27046,"stv_name":"Uncletopia | Sydney | 4 | All Maps | STV","players":null},{"server_id":58,"name":"Uncletopia | Sydney | 5 | Stopwatch Beta","name_short":"syd-5","host":"syd-1.au.uncletopia.com","port":27055,"enabled":true,"region":"au","cc":"au","latitude":-33.865143,"longitude":151.2099,"reserved":0,"last_update":"0001-01-01T00:00:00Z","name_a2s":"Uncletopia | Sydney | 5 | Stopwatch Beta","protocol":17,"map":"koth_highpass","folder":"tf","game":"Team Fortress","app_id":440,"player_count":0,"max_players":24,"Bots":0,"server_type":"Dedicated","server_os":"Linux","password":true,"vac":true,"version":"7757534","steam_id":85568392925397959,"keywords":["cp","nocrits","nodmgspread","uncletopia"],"game_id":440,"stv_port":27056,"stv_name":"Uncletopia | Sydney | 5 | Stopwatch Beta | STV","players":null},{"server_id":59,"name":"Uncletopia | Sydney | 6 | Community","name_short":"syd-6","host":"syd-1.au.uncletopia.com","port":27065,"enabled":true,"region":"au","cc":"au","latitude":-33.865143,"longitude":151.2099,"reserved":0,"last_update":"0001-01-01T00:00:00Z","name_a2s":"Uncletopia | Sydney | 6 | Community","protocol":17,"map":"pl_badwater","folder":"tf","game":"Team Fortress","app_id":440,"player_count":0,"max_players":24,"Bots":0,"server_type":"Dedicated","server_os":"Linux","password":true,"vac":true,"version":"7757534","steam_id":85568392925397960,"keywords":["nocrits","nodmgspread","payload","uncletopia"],"game_id":440,"stv_port":27066,"stv_name":"Uncletopia | Sydney | 6 | Community | STV","players":null},{"server_id":49,"name":"Uncletopia | Warsaw | 1 | All Maps","name_short":"waw-1","host":"waw-1.pl.uncletopia.com","port":27015,"enabled":true,"region":"eu","cc":"pl","latitude":52.2297,"longitude":21.017532,"reserved":0,"last_update":"0001-01-01T00:00:00Z","name_a2s":"","protocol":0,"map":"","folder":"","game":"","app_id":0,"player_count":0,"max_players":0,"Bots":0,"server_type":"","server_os":"","password":false,"vac":false,"version":"","steam_id":0,"keywords":null,"game_id":0,"stv_port":0,"stv_name":"","players":null},{"server_id":50,"name":"Uncletopia | Warsaw | 2 | All Maps","name_short":"waw-2","host":"waw-1.pl.uncletopia.com","port":27025,"enabled":true,"region":"eu","cc":"pl","latitude":52.2297,"longitude":21.017532,"reserved":0,"last_update":"0001-01-01T00:00:00Z","name_a2s":"Uncletopia | Warsaw | 2 | All Maps","protocol":17,"map":"cp_altitude","folder":"tf","game":"Team Fortress","app_id":440,"player_count":0,"max_players":24,"Bots":0,"server_type":"Dedicated","server_os":"Linux","password":true,"vac":true,"version":"7757534","steam_id":85568392925397851,"keywords":["cp","nocrits","nodmgspread","uncletopia"],"game_id":440,"stv_port":27026,"stv_name":"Uncletopia | Warsaw | 2 | All Maps | STV","players":null},{"server_id":51,"name":"Uncletopia | Warsaw | 3 | All Maps","name_short":"waw-3","host":"waw-1.pl.uncletopia.com","port":27035,"enabled":true,"region":"eu","cc":"pl","latitude":52.2297,"longitude":21.017532,"reserved":0,"last_update":"0001-01-01T00:00:00Z","name_a2s":"Uncletopia | Warsaw | 3 | All Maps","protocol":17,"map":"koth_viaduct","folder":"tf","game":"Team Fortress","app_id":440,"player_count":1,"max_players":24,"Bots":0,"server_type":"Dedicated","server_os":"Linux","password":true,"vac":true,"version":"7757534","steam_id":85568392925397852,"keywords":["cp","nocrits","nodmgspread","uncletopia"],"game_id":440,"stv_port":27036,"stv_name":"Uncletopia | Warsaw | 3 | All Maps | STV","players":[{"user_id":6,"name":"Get gud","steam_id":76561198389057210,"connected_time":424000000000,"state":"active","ping":60}]},{"server_id":52,"name":"Uncletopia | Warsaw | 4 | All Maps","name_short":"waw-4","host":"waw-1.pl.uncletopia.com","port":27045,"enabled":true,"region":"eu","cc":"pl","latitude":52.2297,"longitude":21.017532,"reserved":0,"last_update":"0001-01-01T00:00:00Z","name_a2s":"Uncletopia | Warsaw | 4 | All Maps","protocol":17,"map":"pl_upward","folder":"tf","game":"Team Fortress","app_id":440,"player_count":0,"max_players":24,"Bots":0,"server_type":"Dedicated","server_os":"Linux","password":true,"vac":true,"version":"7757534","steam_id":85568392925397853,"keywords":["nocrits","nodmgspread","payload","uncletopia"],"game_id":440,"stv_port":27046,"stv_name":"Uncletopia | Warsaw | 4 | All Maps | STV","players":null},{"server_id":53,"name":"Uncletopia | Warsaw | 5 | Stopwatch Beta","name_short":"waw-5","host":"waw-1.pl.uncletopia.com","port":27055,"enabled":true,"region":"eu","cc":"pl","latitude":52.2297,"longitude":21.017532,"reserved":0,"last_update":"0001-01-01T00:00:00Z","name_a2s":"Uncletopia | Warsaw | 5 | Stopwatch Beta","protocol":17,"map":"pl_pier","folder":"tf","game":"Team Fortress","app_id":440,"player_count":0,"max_players":24,"Bots":0,"server_type":"Dedicated","server_os":"Linux","password":true,"vac":true,"version":"7757534","steam_id":85568392925397854,"keywords":["nocrits","nodmgspread","payload","uncletopia"],"game_id":440,"stv_port":27056,"stv_name":"Uncletopia | Warsaw | 5 | Stopwatch Beta | STV","players":null},{"server_id":54,"name":"Uncletopia | Warsaw | 6 | Community","name_short":"waw-6","host":"waw-1.pl.uncletopia.com","port":27065,"enabled":true,"region":"eu","cc":"pl","latitude":52.2297,"longitude":21.017532,"reserved":0,"last_update":"0001-01-01T00:00:00Z","name_a2s":"Uncletopia | Warsaw | 6 | Community","protocol":17,"map":"koth_highpass","folder":"tf","game":"Team Fortress","app_id":440,"player_count":0,"max_players":24,"Bots":0,"server_type":"Dedicated","server_os":"Linux","password":true,"vac":true,"version":"7757534","steam_id":85568392925397856,"keywords":["cp","nocrits","nodmgspread","uncletopia"],"game_id":440,"stv_port":27066,"stv_name":"Uncletopia | Warsaw | 6 | Community | STV","players":null}]}