{"status":true,"message":"","result":[{"server_id":9,"name":"Uncletopia | Atlanta | 1 | All Maps","name_short":"atl-1","host":"atl-1.us.uncletopia.com","port":27015,"enabled":true,"region":"us-east","cc":"us","latitude":33.753746,"longitude":-84.38633,"reserved":0,"last_update":"0001-01-01T00:00:00Z","name_a2s":"Uncletopia | Atlanta | 1 | All Maps","protocol":17,"map":"pl_pier","folder":"tf","game":"Team Fortress","app_id":440,"player_count":24,"max_players":24,"Bots":0,"server_type":"Dedicated","server_os":"Linux","password":true,"vac":true,"version":"7757534","steam_id":85568392924469982,"keywords":["nocrits","nodmgspread","payload","uncletopia"],"game_id":440,"stv_port":27016,"stv_name":"Uncletopia | Atlanta | 1 | All Maps | STV","players":[{"user_id":526,"name":"kohlhagen","steam_id":76561198120440587,"connected_time":4777000000000,"state":"active","ping":46},{"user_id":554,"name":"lil hog","steam_id":76561199230929836,"connected_time":1682000000000,"state":"active","ping":81},{"user_id":574,"name":"DFR DeezNoodlez","steam_id":76561198246700372,"connected_time":533000000000,"state":"active","ping":53},{"user_id":546,"name":"ATL 1 | Save your wifi","steam_id":76561198286147372,"connected_time":2673000000000,"state":"active","ping":54},{"user_id":569,"name":"fredpimpstone","steam_id":76561198201872929,"connected_time":954000000000,"state":"active","ping":45},{"user_id":549,"name":"WoshTheTriangle","steam_id":76561198120928409,"connected_time":1888000000000,"state":"active","ping":82},{"user_id":346,"name":"DFR Le4n!!!","steam_id":76561198045522596,"connected_time":20565000000000,"state":"active","ping":71},{"user_id":566,"name":"The_Stomach_Stone_Surgeon","steam_id":76561198044643725,"connected_time":1327000000000,"state":"active","ping":52},{"user_id":568,"name":"BIG HOG","steam_id":76561198079923652,"connected_time":966000000000,"state":"active","ping":75},{"user_id":552,"name":"BackThrowTheBaguetteBrawler","steam_id":76561198118340623,"connected_time":1877000000000,"state":"active","ping":60},{"user_id":548,"name":"BackAxeTheCharacter","steam_id":76561198025042484,"connected_time":2486000000000,"state":"active","ping":75},{"user_id":517,"name":"ATL1 | Vee (very cool)","steam_id":76561198330432889,"connected_time":5709000000000,"state":"active","ping":64},{"user_id":545,"name":"Onyx","steam_id":76561198275349640,"connected_time":2782000000000,"state":"active","ping":632},{"user_id":573,"name":"dolly","steam_id":76561198061041601,"connected_time":600000000000,"state":"active","ping":51},{"user_id":556,"name":"Lilith","steam_id":76561198125102885,"connected_time":1559000000000,"state":"active","ping":64},{"user_id":527,"name":"Ghetto Smosh Fan","steam_id":76561198097272509,"connected_time":4777000000000,"state":"active","ping":36},{"user_id":562,"name":"Wormy","steam_id":76561198045221301,"connected_time":1385000000000,"state":"active","ping":55},{"user_id":563,"name":"PlanktonTheWayICumBuckets","steam_id":76561198074678273,"connected_time":1377000000000,"state":"active","ping":61},{"user_id":564,"name":"Brandonazz","steam_id":76561197994366351,"connected_time":1374000000000,"state":"active","ping":82},{"user_id":544,"name":"Applesauce","steam_id":76561198049642811,"connected_time":2805000000000,"state":"active","ping":54},{"user_id":519,"name":"Mage","steam_id":76561198285026879,"connected_time":5310000000000,"state":"active","ping":84},{"user_id":565,"name":"Constable","steam_id":76561198135578153,"connected_time":1355000000000,"state":"active","ping":101},{"user_id":567,"name":"puppy boy","steam_id":76561198255639473,"connected_time":1319000000000,"state":"active","ping":84},{"user_id":576,"name":"bogginwater","steam_id":76561198155547142,"connected_time":128000000000,"state":"active","ping":66}]},{"server_id":104,"name":"Uncletopia | Atlanta | 2 | All Maps","name_short":"atl-2","host":"atl-1.us.uncletopia.com","port":27025,"enabled":true,"region":"us-east","cc":"us","latitude":33.753746,"longitude":-84.38633,"reserved":0,"last_update":"0001-01-01T00:00:00Z","name_a2s":"Uncletopia | Atlanta | 2 | All Maps","protocol":17,"map":"pl_pier","folder":"tf","game":"Team Fortress","app_id":440,"player_count":23,"max_players":24,"Bots":0,"server_type":"Dedicated","server_os":"Linux","password":true,"vac":true,"version":"7757534","steam_id":85568392924469983,"keywords":["nocrits","nodmgspread","payload","uncletopia"],"game_id":440,"stv_port":27026,"stv_name":"Uncletopia | Atlanta | 2 | All Maps | STV","players":[{"user_id":594,"name":"Jake The Snake","steam_id":76561198047722285,"connected_time":3042000000000,"state":"active","ping":64},{"user_id":586,"name":"Sabakaii","steam_id":76561198149191879,"connected_time":3202000000000,"state":"active","ping":77},{"user_id":622,"name":"WEAPON OF ASS DESTRUCTION","steam_id":76561199475507686,"connected_time":639000000000,"state":"active","ping":54},{"user_id":608,"name":"DJ Spit","steam_id":76561198186637025,"connected_time":1824000000000,"state":"active","ping":91},{"user_id":601,"name":"Temm32","steam_id":76561198440657154,"connected_time":2886000000000,"state":"active","ping":88},{"user_id":595,"name":"Pokon","steam_id":76561198053113088,"connected_time":3038000000000,"state":"active","ping":47},{"user_id":617,"name":"Satori Komeiji","steam_id":76561198158211423,"connected_time":1196000000000,"state":"active","ping":96},{"user_id":615,"name":"Krome","steam_id":76561198087317232,"connected_time":1607000000000,"state":"active","ping":120},{"user_id":606,"name":"Arcadletus","steam_id":76561198976009938,"connected_time":2098000000000,"state":"active","ping":74},{"user_id":626,"name":"bingus the great king of evil","steam_id":76561198271706007,"connected_time":83000000000,"state":"active","ping":106},{"user_id":627,"name":"the spy from team fortress 2","steam_id":76561198047797306,"connected_time":65000000000,"state":"active","ping":59},{"user_id":575,"name":"Havok","steam_id":76561198063455003,"connected_time":3768000000000,"state":"active","ping":70},{"user_id":588,"name":"DiscoTraveler","steam_id":76561199240168088,"connected_time":3194000000000,"state":"active","ping":57},{"user_id":623,"name":"Glim Glam","steam_id":76561198043111286,"connected_time":622000000000,"state":"active","ping":59},{"user_id":628,"name":"BallBreaker","steam_id":76561198237263498,"connected_time":60000000000,"state":"active","ping":95},{"user_id":629,"name":"Draven","steam_id":76561198074776388,"connected_time":5000000000,"state":"spawning","ping":60},{"user_id":589,"name":"m4l","steam_id":76561198360123001,"connected_time":3176000000000,"state":"active","ping":88},{"user_id":624,"name":"Crunchy","steam_id":76561198240523882,"connected_time":547000000000,"state":"active","ping":108},{"user_id":625,"name":"BleedingAngel NIGHTCORE (NOISE ","steam_id":76561198116859659,"connected_time":129000000000,"state":"active","ping":94},{"user_id":437,"name":"the mother in question","steam_id":76561198103496593,"connected_time":8856000000000,"state":"active","ping":47},{"user_id":600,"name":"@_@","steam_id":76561197960304720,"connected_time":2922000000000,"state":"active","ping":72},{"user_id":614,"name":"THE MONARCH","steam_id":76561198144158938,"connected_time":1654000000000,"state":"active","ping":45},{"user_id":541,"name":"‚úøÁãêÂ¶ªakemi","steam_id":76561198406252824,"connected_time":5914000000000,"state":"active","ping":108}]},{"server_id":400,"name":"Uncletopia | Atlanta | 3 | Community","name_short":"atl-3","host":"atl-1.us.uncletopia.com","port":27035,"enabled":true,"region":"us-east","cc":"us","latitude":33.753746,"longitude":-84.38633,"reserved":0,"last_update":"0001-01-01T00:00:00Z","name_a2s":"Uncletopia | Atlanta | 3 | Community","protocol":17,"map":"workshop/cp_croissant_final.ugc458840209","folder":"tf","game":"Team Fortress","app_id":440,"player_count":23,"max_players":24,"Bots":0,"server_type":"Dedicated","server_os":"Linux","password":true,"vac":true,"version":"7757534","steam_id":85568392924515187,"keywords":["cp","nocrits","nodmgspread","uncletopia"],"game_id":440,"stv_port":27036,"stv_name":"Uncletopia | Atlanta | 3 | Community | STV","players":[{"user_id":567,"name":"RagingHammer","steam_id":76561198228755224,"connected_time":1916000000000,"state":"active","ping":89},{"user_id":582,"name":"schizophrenic Stack stan","steam_id":76561198214370515,"connected_time":782000000000,"state":"active","ping":70},{"user_id":572,"name":"AntiAnimus","steam_id":76561198039074432,"connected_time":1133000000000,"state":"active","ping":76},{"user_id":583,"name":"Seli_Petra","steam_id":76561199122253034,"connected_time":777000000000,"state":"active","ping":110},{"user_id":587,"name":"DO THE DEVIL CHALLENGE","steam_id":76561198045437723,"connected_time":612000000000,"state":"active","ping":61},{"user_id":569,"name":"Hard Soap","steam_id":76561198267905614,"connected_time":1546000000000,"state":"active","ping":70},{"user_id":589,"name":"woooooooooooooooooooooooooooooo","steam_id":76561198328312758,"connected_time":194000000000,"state":"active","ping":78},{"user_id":570,"name":"BroBoss64","steam_id":76561198995865904,"connected_time":1398000000000,"state":"active","ping":96},{"user_id":591,"name":"Cheese","steam_id":76561199207081299,"connected_time":27000000000,"state":"spawning","ping":340},{"user_id":566,"name":"Camohno","steam_id":76561198283519918,"connected_time":2070000000000,"state":"active","ping":115},{"user_id":528,"name":"breadroll","steam_id":76561198039506482,"connected_time":4477000000000,"state":"active","ping":60},{"user_id":576,"name":"Combat Wombat","steam_id":76561198084134052,"connected_time":1015000000000,"state":"active","ping":64},{"user_id":579,"name":"GatorAIDS","steam_id":76561198043220092,"connected_time":939000000000,"state":"active","ping":72},{"user_id":557,"name":"Shy","steam_id":76561198394890836,"connected_time":3105000000000,"state":"active","ping":53},{"user_id":560,"name":"Zero","steam_id":76561198142112204,"connected_time":3068000000000,"state":"active","ping":94},{"user_id":588,"name":"Ltn. What's-his-Nuts","steam_id":76561198133834262,"connected_time":267000000000,"state":"active","ping":77},{"user_id":578,"name":"Guns Blazing","steam_id":76561198379461118,"connected_time":959000000000,"state":"active","ping":79},{"user_id":529,"name":"Rari","steam_id":76561198128537564,"connected_time":4275000000000,"state":"active","ping":65},{"user_id":581,"name":"chicken on quack","steam_id":76561199235538552,"connected_time":813000000000,"state":"active","ping":110},{"user_id":584,"name":"LatinRhythms","steam_id":76561198025110751,"connected_time":771000000000,"state":"active","ping":159},{"user_id":562,"name":"J√§ger2316","steam_id":76561197974928362,"connected_time":2872000000000,"state":"active","ping":80},{"user_id":585,"name":"Reversed","steam_id":76561198136433466,"connected_time":758000000000,"state":"active","ping":75},{"user_id":586,"name":"Big G","steam_id":76561198067496197,"connected_time":723000000000,"state":"active","ping":64}]},{"server_id":401,"name":"Uncletopia | Atlanta | 4 | No Payload","name_short":"atl-4","host":"atl-1.us.uncletopia.com","port":27045,"enabled":true,"region":"us-east","cc":"us","latitude":33.753746,"longitude":-84.38633,"reserved":0,"last_update":"0001-01-01T00:00:00Z","name_a2s":"","protocol":0,"map":"","folder":"","game":"","app_id":0,"player_count":0,"max_players":0,"Bots":0,"server_type":"","server_os":"","password":false,"vac":false,"version":"","steam_id":0,"keywords":null,"game_id":0,"stv_port":0,"stv_name":"","players":null},{"server_id":2,"name":"Uncletopia | Chicago | 1 | All Maps","name_short":"chi-1","host":"chi-1.us.uncletopia.com","port":27015,"enabled":true,"region":"us-central","cc":"us","latitude":41.881832,"longitude":-87.62318,"reserved":0,"last_update":"0001-01-01T00:00:00Z","name_a2s":"Uncletopia | Chicago | 1 | All Maps","protocol":17,"map":"cp_junction_final","folder":"tf","game":"Team Fortress","app_id":440,"player_count":4,"max_players":24,"Bots":0,"server_type":"Dedicated","server_os":"Linux","password":true,"vac":true,"version":"7757534","steam_id":85568392924469984,"keywords":["cp","nocrits","nodmgspread","uncletopia"],"game_id":440,"stv_port":27016,"stv_name":"Uncletopia | Chicago | 1 | All Maps | STV","players":[{"user_id":951,"name":"Mengle","steam_id":76561198001953684,"connected_time":117000000000,"state":"active","ping":58},{"user_id":920,"name":"Doublebagel47","steam_id":76561198832021744,"connected_time":2901000000000,"state":"active","ping":69},{"user_id":948,"name":"Gamblin' Man Old Scratch","steam_id":76561198042197747,"connected_time":263000000000,"state":"active","ping":65},{"user_id":928,"name":"Pan-Demonica","steam_id":76561198294350105,"connected_time":2117000000000,"state":"active","ping":84}]},{"server_id":106,"name":"Uncletopia | Chicago | 2 | All Maps","name_short":"chi-2","host":"chi-1.us.uncletopia.com","port":27025,"enabled":true,"region":"us-central","cc":"us","latitude":41.881832,"longitude":-87.62318,"reserved":0,"last_update":"0001-01-01T00:00:00Z","name_a2s":"Uncletopia | Chicago | 2 | All Maps","protocol":17,"map":"cp_dustbowl","folder":"tf","game":"Team Fortress","app_id":440,"player_count":11,"max_players":24,"Bots":0,"server_type":"Dedicated","server_os":"Linux","password":true,"vac":true,"version":"7757534","steam_id":85568392924469985,"keywords":["cp","nocrits","nodmgspread","uncletopia"],"game_id":440,"stv_port":27026,"stv_name":"Uncletopia | Chicago | 2 | All Maps | STV","players":[{"user_id":733,"name":"Pepsiman","steam_id":76561198085789499,"connected_time":336000000000,"state":"active","ping":54},{"user_id":713,"name":"SunBro","steam_id":76561198178030045,"connected_time":2007000000000,"state":"active","ping":73},{"user_id":697,"name":"El Gato Paranoico","steam_id":76561198116567116,"connected_time":3720000000000,"state":"active","ping":90},{"user_id":658,"name":"Semper Ber","steam_id":76561198274021990,"connected_time":5254000000000,"state":"active","ping":84},{"user_id":736,"name":"Enderneer is using tilt control","steam_id":76561198012136653,"connected_time":38000000000,"state":"active","ping":59},{"user_id":734,"name":"Penrose42","steam_id":76561198288577396,"connected_time":258000000000,"state":"active","ping":80},{"user_id":731,"name":"mischievous imp","steam_id":76561199074875663,"connected_time":459000000000,"state":"active","ping":75},{"user_id":707,"name":"Toaster Time","steam_id":76561198158794507,"connected_time":2083000000000,"state":"active","ping":80},{"user_id":709,"name":"Windows","steam_id":76561198252516664,"connected_time":2070000000000,"state":"active","ping":71},{"user_id":724,"name":"nic","steam_id":76561198030654668,"connected_time":934000000000,"state":"active","ping":71},{"user_id":714,"name":"Big Boss","steam_id":76561198090271815,"connected_time":2002000000000,"state":"active","ping":111}]},{"server_id":402,"name":"Uncletopia | Chicago | 3 | All Maps","name_short":"chi-3","host":"chi-1.us.uncletopia.com","port":27035,"enabled":true,"region":"us-central","cc":"us","latitude":41.881832,"longitude":-87.62318,"reserved":0,"last_update":"0001-01-01T00:00:00Z","name_a2s":"Uncletopia | Chicago | 3 | All Maps","protocol":17,"map":"koth_viaduct","folder":"tf","game":"Team Fortress","app_id":440,"player_count":23,"max_players":24,"Bots":0,"server_type":"Dedicated","server_os":"Linux","password":true,"vac":true,"version":"7757534","steam_id":85568392924515191,"keywords":["cp","nocrits","nodmgspread","uncletopia"],"game_id":440,"stv_port":27036,"stv_name":"Uncletopia | Chicago | 3 | All Maps | STV","players":[{"user_id":637,"name":"Marshall","steam_id":76561198042570322,"connected_time":774000000000,"state":"active","ping":56},{"user_id":629,"name":"Jeeper","steam_id":76561198155583692,"connected_time":898000000000,"state":"active","ping":72},{"user_id":631,"name":"Shades McKenzie","steam_id":76561198007051107,"connected_time":840000000000,"state":"active","ping":61},{"user_id":633,"name":"Makina","steam_id":76561198057475567,"connected_time":817000000000,"state":"active","ping":76},{"user_id":621,"name":"The Abysswalker","steam_id":76561198131301343,"connected_time":1375000000000,"state":"active","ping":66},{"user_id":616,"name":"Orangecrust26","steam_id":76561199232443221,"connected_time":1660000000000,"state":"active","ping":85},{"user_id":634,"name":"Pizza","steam_id":76561198118748364,"connected_time":815000000000,"state":"active","ping":76},{"user_id":627,"name":"pastel","steam_id":76561198055993834,"connected_time":1001000000000,"state":"active","ping":74},{"user_id":636,"name":"scooterre","steam_id":76561198055068182,"connected_time":780000000000,"state":"active","ping":56},{"user_id":638,"name":"CPUnit","steam_id":76561198162881878,"connected_time":738000000000,"state":"active","ping":71},{"user_id":553,"name":"WatchWill","steam_id":76561198157237945,"connected_time":6414000000000,"state":"active","ping":71},{"user_id":645,"name":"The Juice","steam_id":76561198065307144,"connected_time":331000000000,"state":"active","ping":71},{"user_id":639,"name":"mcjuice","steam_id":76561198087730829,"connected_time":732000000000,"state":"active","ping":69},{"user_id":622,"name":"looloopaa","steam_id":76561198048179242,"connected_time":1334000000000,"state":"active","ping":58},{"user_id":641,"name":"Persona404","steam_id":76561198109635077,"connected_time":700000000000,"state":"active","ping":73},{"user_id":642,"name":"KingShoop","steam_id":76561198060077597,"connected_time":698000000000,"state":"active","ping":60},{"user_id":604,"name":"Whorse","steam_id":76561198114141445,"connected_time":2504000000000,"state":"active","ping":73},{"user_id":612,"name":"PageBoiSkull","steam_id":76561198237353578,"connected_time":1909000000000,"state":"active","ping":108},{"user_id":646,"name":"WAKEUP!","steam_id":76561198254479725,"connected_time":329000000000,"state":"active","ping":44},{"user_id":643,"name":"CaptainMokey","steam_id":76561198823211553,"connected_time":682000000000,"state":"active","ping":71},{"user_id":619,"name":"cow","steam_id":76561198117331762,"connected_time":1450000000000,"state":"active","ping":45},{"user_id":623,"name":"shweet","steam_id":76561198240046822,"connected_time":1315000000000,"state":"active","ping":61},{"user_id":613,"name":"tanavast","steam_id":76561198152297274,"connected_time":1880000000000,"state":"active","ping":50}]},{"server_id":403,"name":"Uncletopia | Chicago | 4 | All Maps","name_short":"chi-4","host":"chi-1.us.uncletopia.com","port":27045,"enabled":true,"region":"us-central","cc":"us","latitude":41.881832,"longitude":-87.62318,"reserved":0,"last_update":"0001-01-01T00:00:00Z","name_a2s":"Uncletopia | Chicago | 4 | All Maps","protocol":17,"map":"pl_badwater","folder":"tf","game":"Team Fortress","app_id":440,"player_count":19,"max_players":24,"Bots":0,"server_type":"Dedicated","server_os":"Linux","password":true,"vac":true,"version":"7757534","steam_id":85568392924515193,"keywords":["nocrits","nodmgspread","payload","uncletopia"],"game_id":440,"stv_port":27046,"stv_name":"Uncletopia | Chicago | 4 | All Maps | STV","players":[{"user_id":980,"name":"Lane","steam_id":76561197965828506,"connected_time":5523000000000,"state":"spawning","ping":42},{"user_id":1022,"name":"Intro","steam_id":76561198028471074,"connected_time":3107000000000,"state":"connecting","ping":81},{"user_id":1059,"name":"Esmo","steam_id":76561198014928825,"connected_time":306000000000,"state":"connecting","ping":88},{"user_id":1023,"name":"prestige worldwide (wide)","steam_id":76561198045655893,"connected_time":3096000000000,"state":"spawning","ping":77},{"user_id":997,"name":"Tenori","steam_id":76561198046773795,"connected_time":4912000000000,"state":"connecting","ping":66},{"user_id":1047,"name":"I deepfried my penis","steam_id":76561198848858223,"connected_time":1633000000000,"state":"spawning","ping":118},{"user_id":1051,"name":"hud_saytext_time 0","steam_id":76561198010327228,"connected_time":1023000000000,"state":"connecting","ping":177},{"user_id":964,"name":"the real babytron","steam_id":76561197989627918,"connected_time":6968000000000,"state":"connecting","ping":94},{"user_id":1058,"name":"craxyt","steam_id":76561198050192689,"connected_time":637000000000,"state":"spawning","ping":132},{"user_id":1038,"name":"Rukks","steam_id":76561197993918954,"connected_time":2410000000000,"state":"connecting","ping":109},{"user_id":1060,"name":"RainAxe","steam_id":76561198287677637,"connected_time":30000000000,"state":"spawning","ping":104},{"user_id":1054,"name":"TaterMan","steam_id":76561198036902762,"connected_time":819000000000,"state":"connecting","ping":93},{"user_id":1007,"name":"Poyo Boyo","steam_id":76561198010201227,"connected_time":4511000000000,"state":"spawning","ping":82},{"user_id":944,"name":"Kickbakk","steam_id":76561198042335947,"connected_time":8310000000000,"state":"spawning","ping":81},{"user_id":1050,"name":"N8","steam_id":76561198077788860,"connected_time":1164000000000,"state":"connecting","ping":71},{"user_id":1036,"name":"illious","steam_id":76561198169925494,"connected_time":2694000000000,"state":"spawning","ping":91},{"user_id":1042,"name":"a crystal lizard","steam_id":76561197997661928,"connected_time":2198000000000,"state":"spawning","ping":69},{"user_id":1041,"name":"deskmedic","steam_id":76561198295640486,"connected_time":2328000000000,"state":"spawning","ping":129},{"user_id":1055,"name":"Rami #SaveTF2","steam_id":76561198371359190,"connected_time":814000000000,"state":"connecting","ping":103}]},{"server_id":36,"name":"Uncletopia | Chicago | 5 | All Maps","name_short":"chi-5","host":"chi-2.us.uncletopia.com","port":27015,"enabled":true,"region":"us-central","cc":"us","latitude":41.881832,"longitude":-87.62318,"reserved":0,"last_update":"0001-01-01T00:00:00Z","name_a2s":"Uncletopia | Chicago | 5 | All Maps","protocol":17,"map":"cp_altitude","folder":"tf","game":"Team Fortress","app_id":440,"player_count":14,"max_players":24,"Bots":0,"server_type":"Dedicated","server_os":"Linux","password":true,"vac":true,"version":"7757534","steam_id":85568392924866362,"keywords":["cp","nocrits","nodmgspread","uncletopia"],"game_id":440,"stv_port":27016,"stv_name":"Uncletopia | Chicago | 5 | All Maps | STV","players":[{"user_id":546,"name":"booger","steam_id":76561198333832807,"connected_time":176000000000,"state":"active","ping":114},{"user_id":526,"name":"motherfucker 2.0","steam_id":76561198141189209,"connected_time":2408000000000,"state":"active","ping":59},{"user_id":521,"name":"Queen Frau the Round","steam_id":76561197999942134,"connected_time":2526000000000,"state":"active","ping":42},{"user_id":548,"name":"Tick","steam_id":76561198184161214,"connected_time":144000000000,"state":"active","ping":36},{"user_id":549,"name":"macky","steam_id":76561198187945523,"connected_time":85000000000,"state":"active","ping":107},{"user_id":541,"name":"earthbound393","steam_id":76561199444276547,"connected_time":1185000000000,"state":"active","ping":103},{"user_id":525,"name":"boy from the rafters","steam_id":76561198042926224,"connected_time":2454000000000,"state":"active","ping":92},{"user_id":509,"name":"n8thegr83008","steam_id":76561198214814260,"connected_time":3462000000000,"state":"active","ping":75},{"user_id":542,"name":"evilstuntman","steam_id":76561198056911537,"connected_time":517000000000,"state":"active","ping":51},{"user_id":529,"name":"dan from hr","steam_id":76561198053164901,"connected_time":2371000000000,"state":"active","ping":59},{"user_id":531,"name":"Bocchi the Cock","steam_id":76561198152455316,"connected_time":2340000000000,"state":"active","ping":136},{"user_id":535,"name":"aqua","steam_id":76561199407709552,"connected_time":2128000000000,"state":"active","ping":47},{"user_id":384,"name":"Spinch","steam_id":76561198296224166,"connected_time":13117000000000,"state":"active","ping":86},{"user_id":386,"name":"Publo","steam_id":76561198161777140,"connected_time":13108000000000,"state":"active","ping":79}]},{"server_id":37,"name":"Uncletopia | Chicago | 6 | All Maps","name_short":"chi-6","host":"chi-2.us.uncletopia.com","port":27025,"enabled":true,"region":"us-central","cc":"us","latitude":41.881832,"longitude":-87.62318,"reserved":0,"last_update":"0001-01-01T00:00:00Z","name_a2s":"Uncletopia | Chicago | 6 | All Maps","protocol":17,"map":"cp_dustbowl","folder":"tf","game":"Team Fortress","app_id":440,"player_count":23,"max_players":24,"Bots":0,"server_type":"Dedicated","server_os":"Linux","password":true,"vac":true,"version":"7757534","steam_id":85568392924866363,"keywords":["cp","nocrits","nodmgspread","uncletopia"],"game_id":440,"stv_port":27026,"stv_name":"Uncletopia | Chicago | 6 | All Maps | STV","players":[{"user_id":590,"name":"hashmap","steam_id":76561198043794014,"connected_time":5564000000000,"state":"active","ping":51},{"user_id":644,"name":"PirateJet","steam_id":76561198050858744,"connected_time":381000000000,"state":"active","ping":107},{"user_id":645,"name":"Cocksneed Fartin","steam_id":76561198126675787,"connected_time":317000000000,"state":"active","ping":75},{"user_id":591,"name":"Xtar","steam_id":76561198301774048,"connected_time":5507000000000,"state":"active","ping":118},{"user_id":647,"name":"‚Ä∫ snow","steam_id":76561198109783729,"connected_time":22000000000,"state":"active","ping":60},{"user_id":632,"name":"dahperson","steam_id":76561198067207467,"connected_time":1546000000000,"state":"active","ping":57},{"user_id":641,"name":"Belmore","steam_id":76561198009355231,"connected_time":1362000000000,"state":"active","ping":111},{"user_id":592,"name":"cbagels","steam_id":76561198453866972,"connected_time":5501000000000,"state":"active","ping":119},{"user_id":610,"name":"I Eat Trains","steam_id":76561198054791624,"connected_time":3642000000000,"state":"active","ping":59},{"user_id":611,"name":"Gorgon Freeman","steam_id":76561198000367036,"connected_time":3621000000000,"state":"active","ping":57},{"user_id":468,"name":"Bearegard","steam_id":76561198061926542,"connected_time":13438000000000,"state":"active","ping":59},{"user_id":642,"name":"Rat_king","steam_id":76561199465689129,"connected_time":615000000000,"state":"active","ping":76},{"user_id":622,"name":"glog","steam_id":76561198174346247,"connected_time":2899000000000,"state":"active","ping":84},{"user_id":594,"name":"Hot Chip/Lie Enjoyer","steam_id":76561198860607530,"connected_time":5491000000000,"state":"active","ping":105},{"user_id":635,"name":"‡ºò ‚ãÜÀöüéßCaffeine‚òï*Àñ¬∞","steam_id":76561199259309294,"connected_time":1522000000000,"state":"active","ping":69},{"user_id":613,"name":"Rick Beato","steam_id":76561199080451611,"connected_time":3577000000000,"state":"active","ping":92},{"user_id":640,"name":"Hot Pink Millie","steam_id":76561198006259725,"connected_time":1484000000000,"state":"active","ping":76},{"user_id":614,"name":"sqwyrm","steam_id":76561198171032997,"connected_time":3568000000000,"state":"active","ping":108},{"user_id":636,"name":"opal","steam_id":76561198070050042,"connected_time":1522000000000,"state":"active","ping":90},{"user_id":616,"name":"Just a little bit blu?","steam_id":76561199113013688,"connected_time":3561000000000,"state":"active","ping":89},{"user_id":637,"name":"Girox","steam_id":76561198009921751,"connected_time":1504000000000,"state":"active","ping":72},{"user_id":646,"name":"Everlasting Dogstopper","steam_id":76561198042583744,"connected_time":305000000000,"state":"active","ping":96},{"user_id":638,"name":"Whoops!","steam_id":76561198151315898,"connected_time":1501000000000,"state":"active","ping":122}]},{"server_id":38,"name":"Uncletopia | Chicago | 7 | Stopwatch Beta","name_short":"chi-7","host":"chi-2.us.uncletopia.com","port":27035,"enabled":true,"region":"us-central","cc":"us","latitude":41.881832,"longitude":-87.62318,"reserved":0,"last_update":"0001-01-01T00:00:00Z","name_a2s":"Uncletopia | Chicago | 7 | Stopwatch Beta","protocol":17,"map":"workshop/pl_barnblitz_pro7.ugc582280235","folder":"tf","game":"Team Fortress","app_id":440,"player_count":0,"max_players":24,"Bots":0,"server_type":"Dedicated","server_os":"Linux","password":true,"vac":true,"version":"7757534","steam_id":85568392924866364,"keywords":["nocrits","nodmgspread","payload","uncletopia"],"game_id":440,"stv_port":27036,"stv_name":"Uncletopia | Chicago | 7 | Stopwatch Beta | STV","players":null},{"server_id":39,"name":"Uncletopia | Chicago | 8 | Community","name_short":"chi-8","host":"chi-2.us.uncletopia.com","port":27045,"enabled":true,"region":"us-central","cc":"us","latitude":41.881832,"longitude":-87.62318,"reserved":0,"last_update":"0001-01-01T00:00:00Z","name_a2s":"Uncletopia | Chicago | 8 | Community","protocol":17,"map":"workshop/pl_barnblitz_pro7.ugc582280235","folder":"tf","game":"Team Fortress","app_id":440,"player_count":14,"max_players":24,"Bots":0,"server_type":"Dedicated","server_os":"Linux","password":true,"vac":true,"version":"7757534","steam_id":85568392924866365,"keywords":["nocrits","nodmgspread","payload","uncletopia"],"game_id":440,"stv_port":27046,"stv_name":"Uncletopia | Chicago | 8 | Community | STV","players":[{"user_id":263,"name":"[Mar] Green","steam_id":76561198002192142,"connected_time":656000000000,"state":"active","ping":47},{"user_id":230,"name":"goonmonster","steam_id":76561198040741271,"connected_time":3278000000000,"state":"active","ping":45},{"user_id":267,"name":"duneblaster0","steam_id":76561198040364680,"connected_time":155000000000,"state":"active","ping":45},{"user_id":265,"name":"catrinaisahuman","steam_id":76561198281355729,"connected_time":580000000000,"state":"active","ping":75},{"user_id":242,"name":"skele10","steam_id":76561198198460711,"connected_time":2233000000000,"state":"active","ping":49},{"user_id":266,"name":"kivee","steam_id":76561198838223023,"connected_time":356000000000,"state":"active","ping":59},{"user_id":258,"name":"Luka","steam_id":76561198311452494,"connected_time":1162000000000,"state":"active","ping":84},{"user_id":259,"name":"DJ Taj Mahal","steam_id":76561198024504491,"connected_time":1131000000000,"state":"active","ping":47},{"user_id":261,"name":"Jpayne","steam_id":76561198011913455,"connected_time":1060000000000,"state":"active","ping":82},{"user_id":262,"name":"haha","steam_id":76561198357671974,"connected_time":950000000000,"state":"active","ping":85},{"user_id":249,"name":"[DEEP] Danmar33","steam_id":76561198056453091,"connected_time":1812000000000,"state":"active","ping":47},{"user_id":268,"name":"Hentai Lord","steam_id":76561199030449654,"connected_time":124000000000,"state":"active","ping":76},{"user_id":247,"name":"Tom Cr√∫aich","steam_id":76561197999439911,"connected_time":1952000000000,"state":"active","ping":68},{"user_id":145,"name":"54","steam_id":76561198099591549,"connected_time":8728000000000,"state":"active","ping":63}]},{"server_id":8,"name":"Uncletopia | Dallas | 1 | All Maps","name_short":"dal-1","host":"dal-1.us.uncletopia.com","port":27015,"enabled":true,"region":"us-central","cc":"us","latitude":32.779167,"longitude":-96.80889,"reserved":0,"last_update":"0001-01-01T00:00:00Z","name_a2s":"Uncletopia | Dallas | 1 | All Maps","protocol":17,"map":"pl_badwater","folder":"tf","game":"Team Fortress","app_id":440,"player_count":24,"max_players":24,"Bots":0,"server_type":"Dedicated","server_os":"Linux","password":true,"vac":true,"version":"7757534","steam_id":85568392924469986,"keywords":["nocrits","nodmgspread","payload","uncletopia"],"game_id":440,"stv_port":27016,"stv_name":"Uncletopia | Dallas | 1 | All Maps | STV","players":[{"user_id":765,"name":"mEch114","steam_id":76561198236936060,"connected_time":951000000000,"state":"active","ping":54},{"user_id":766,"name":"alioth","steam_id":76561198851143450,"connected_time":546000000000,"state":"active","ping":158},{"user_id":753,"name":"trapaholic","steam_id":76561198145784505,"connected_time":2167000000000,"state":"active","ping":75},{"user_id":744,"name":"owen","steam_id":76561198121517871,"connected_time":2903000000000,"state":"active","ping":55},{"user_id":755,"name":"Shamrock Shake Oct.10.2020 @8pm","steam_id":76561198833313201,"connected_time":1643000000000,"state":"active","ping":86},{"user_id":769,"name":"Roland_Actual","steam_id":76561198103212376,"connected_time":520000000000,"state":"active","ping":86},{"user_id":762,"name":"ULTRACOCK","steam_id":76561198022967929,"connected_time":1123000000000,"state":"active","ping":67},{"user_id":746,"name":"Project_Counter","steam_id":76561198152786076,"connected_time":2825000000000,"state":"active","ping":55},{"user_id":686,"name":"LordZahe","steam_id":76561198241749034,"connected_time":6991000000000,"state":"active","ping":86},{"user_id":733,"name":"aidan long","steam_id":76561198073022833,"connected_time":4043000000000,"state":"active","ping":43},{"user_id":738,"name":"HeisenBurger","steam_id":76561198040632080,"connected_time":3248000000000,"state":"active","ping":74},{"user_id":730,"name":"fish lover woman fearer","steam_id":76561198241061928,"connected_time":4219000000000,"state":"active","ping":65},{"user_id":757,"name":"bRAX","steam_id":76561198123030809,"connected_time":1547000000000,"state":"active","ping":72},{"user_id":735,"name":"roleycoley","steam_id":76561198069574107,"connected_time":3448000000000,"state":"active","ping":45},{"user_id":688,"name":"Awesome incarnate","steam_id":76561198049804640,"connected_time":6963000000000,"state":"active","ping":83},{"user_id":768,"name":"xX_hot emo girl_Xx","steam_id":76561198010017828,"connected_time":526000000000,"state":"active","ping":71},{"user_id":767,"name":"trouble man","steam_id":76561198045354890,"connected_time":543000000000,"state":"active","ping":69},{"user_id":657,"name":"Danger McHazard","steam_id":76561198059451274,"connected_time":9541000000000,"state":"active","ping":84},{"user_id":770,"name":"MeMyBongusAndTheGreatOutdoors","steam_id":76561198097708978,"connected_time":507000000000,"state":"active","ping":70},{"user_id":654,"name":"Jack Celliers","steam_id":76561198060983357,"connected_time":9906000000000,"state":"active","ping":55},{"user_id":756,"name":"iluvtoust","steam_id":76561198869269207,"connected_time":1589000000000,"state":"active","ping":48},{"user_id":771,"name":"D-MROMA","steam_id":76561198837664861,"connected_time":498000000000,"state":"active","ping":99},{"user_id":563,"name":"Mr. Metro","steam_id":76561198351521199,"connected_time":18678000000000,"state":"active","ping":106},{"user_id":761,"name":"bird doctor","steam_id":76561199144340440,"connected_time":1258000000000,"state":"active","ping":60}]},{"server_id":108,"name":"Uncletopia | Dallas | 2 | All Maps","name_short":"dal-2","host":"dal-1.us.uncletopia.com","port":27025,"enabled":true,"region":"us-central","cc":"us","latitude":32.779167,"longitude":-96.80889,"reserved":0,"last_update":"0001-01-01T00:00:00Z","name_a2s":"Uncletopia | Dallas | 2 | All Maps","protocol":17,"map":"pl_borneo","folder":"tf","game":"Team Fortress","app_id":440,"player_count":24,"max_players":24,"Bots":0,"server_type":"Dedicated","server_os":"Linux","password":true,"vac":true,"version":"7757534","steam_id":85568392924469988,"keywords":["nocrits","nodmgspread","payload","uncletopia"],"game_id":440,"stv_port":27026,"stv_name":"Uncletopia | Dallas | 2 | All Maps | STV","players":[{"user_id":610,"name":"Rusted Cake","steam_id":76561198209755931,"connected_time":1452000000000,"state":"active","ping":88},{"user_id":620,"name":"Nukeboy","steam_id":76561198147058560,"connected_time":1221000000000,"state":"active","ping":81},{"user_id":585,"name":"noellehound","steam_id":76561198108844158,"connected_time":3995000000000,"state":"active","ping":72},{"user_id":595,"name":"Voltaire!","steam_id":76561198047528141,"connected_time":2868000000000,"state":"active","ping":87},{"user_id":627,"name":"TTV/ArcticFlesh","steam_id":76561198099678868,"connected_time":102000000000,"state":"active","ping":75},{"user_id":621,"name":"Pyro","steam_id":76561198312228050,"connected_time":1155000000000,"state":"active","ping":71},{"user_id":625,"name":"Orange","steam_id":76561198284737450,"connected_time":152000000000,"state":"active","ping":37},{"user_id":611,"name":"TallBoy","steam_id":76561198149549808,"connected_time":1452000000000,"state":"active","ping":111},{"user_id":626,"name":"Shipmunk","steam_id":76561198063062670,"connected_time":149000000000,"state":"active","ping":82},{"user_id":562,"name":"Hamster Flusher","steam_id":76561198072396659,"connected_time":6029000000000,"state":"active","ping":87},{"user_id":572,"name":"Yune","steam_id":76561198039324447,"connected_time":4913000000000,"state":"active","ping":91},{"user_id":622,"name":"SpinnerSpecial","steam_id":76561198065661869,"connected_time":1038000000000,"state":"active","ping":104},{"user_id":548,"name":"(¬¥-Œπ_-ÔΩÄ)","steam_id":76561198007464245,"connected_time":7766000000000,"state":"active","ping":78},{"user_id":598,"name":"Skyrim killable children mod","steam_id":76561198862836173,"connected_time":2806000000000,"state":"active","ping":119},{"user_id":587,"name":"Chubby Monarch","steam_id":76561198027487285,"connected_time":3948000000000,"state":"active","ping":91},{"user_id":533,"name":"Niykin","steam_id":76561198044779043,"connected_time":9212000000000,"state":"active","ping":79},{"user_id":623,"name":"Mongee","steam_id":76561198161610684,"connected_time":781000000000,"state":"active","ping":46},{"user_id":624,"name":"bolainassr0","steam_id":76561199079078845,"connected_time":185000000000,"state":"active","ping":101},{"user_id":628,"name":"kazoo2","steam_id":76561198260473504,"connected_time":100000000000,"state":"active","ping":61},{"user_id":629,"name":"dunky donut","steam_id":76561198070574618,"connected_time":86000000000,"state":"active","ping":60},{"user_id":604,"name":"Aeris","steam_id":76561198287271028,"connected_time":2399000000000,"state":"active","ping":82},{"user_id":618,"name":"STEVE","steam_id":76561198063475894,"connected_time":1359000000000,"state":"active","ping":71},{"user_id":630,"name":"wiffel biffel","steam_id":76561198041670957,"connected_time":75000000000,"state":"active","ping":88},{"user_id":609,"name":"MK","steam_id":76561198044764469,"connected_time":1478000000000,"state":"active","ping":76}]},{"server_id":5,"name":"Uncletopia | Frankfurt | 1 | All Maps","name_short":"frk-1","host":"frk-1.de.uncletopia.com","port":27015,"enabled":true,"region":"eu","cc":"de","latitude":50.110924,"longitude":8.682127,"reserved":0,"last_update":"0001-01-01T00:00:00Z","name_a2s":"Uncletopia | Frankfurt | 1 | All Maps","protocol":17,"map":"pl_snowycoast","folder":"tf","game":"Team Fortress","app_id":440,"player_count":0,"max_players":24,"Bots":0,"server_type":"Dedicated","server_os":"Linux","password":true,"vac":true,"version":"7757534","steam_id":85568392924469989,"keywords":["nocrits","nodmgspread","payload","uncletopia"],"game_id":440,"stv_port":27016,"stv_name":"Uncletopia | Frankfurt | 1 | All Maps | STV","players":null},{"server_id":110,"name":"Uncletopia | Frankfurt | 2 | All Maps","name_short":"frk-2","host":"frk-1.de.uncletopia.com","port":27025,"enabled":true,"region":"eu","cc":"de","latitude":50.110924,"longitude":8.682127,"reserved":0,"last_update":"0001-01-01T00:00:00Z","name_a2s":"Uncletopia | Frankfurt | 2 | All Maps","protocol":17,"map":"cp_snakewater_final1","folder":"tf","game":"Team Fortress","app_id":440,"player_count":0,"max_players":24,"Bots":0,"server_type":"Dedicated","server_os":"Linux","password":true,"vac":true,"version":"7757534","steam_id":85568392924469990,"keywords":["cp","nocrits","nodmgspread","uncletopia"],"game_id":440,"stv_port":27026,"stv_name":"Uncletopia | Frankfurt | 2 | All Maps | STV","players":null},{"server_id":308,"name":"Uncletopia | Frankfurt | 3 | All Maps","name_short":"frk-3","host":"frk-1.de.uncletopia.com","port":27035,"enabled":true,"region":"eu","cc":"de","latitude":50.110924,"longitude":8.682127,"reserved":0,"last_update":"0001-01-01T00:00:00Z","name_a2s":"Uncletopia | Frankfurt | 3 | All Maps","protocol":17,"map":"pl_swiftwater_final1","folder":"tf","game":"Team Fortress","app_id":440,"player_count":0,"max_players":24,"Bots":0,"server_type":"Dedicated","server_os":"Linux","password":true,"vac":true,"version":"7757534","steam_id":85568392924504274,"keywords":["nocrits","nodmgspread","payload","uncletopia"],"game_id":440,"stv_port":27036,"stv_name":"Uncletopia | Frankfurt | 3 | All Maps | STV","players":null},{"server_id":309,"name":"Uncletopia | Frankfurt | 4 | All Maps","name_short":"frk-4","host":"frk-1.de.uncletopia.com","port":27045,"enabled":true,"region":"eu","cc":"de","latitude":50.110924,"longitude":8.682127,"reserved":0,"last_update":"0001-01-01T00:00:00Z","name_a2s":"Uncletopia | Frankfurt | 4 | All Maps","protocol":17,"map":"koth_viaduct","folder":"tf","game":"Team Fortress","app_id":440,"player_count":0,"max_players":24,"Bots":0,"server_type":"Dedicated","server_os":"Linux","password":true,"vac":true,"version":"7757534","steam_id":85568392924504275,"keywords":["cp","nocrits","nodmgspread","uncletopia"],"game_id":440,"stv_port":27046,"stv_name":"Uncletopia | Frankfurt | 4 | All Maps | STV","players":null},{"server_id":310,"name":"Uncletopia | Frankfurt | 5 | All Maps","name_short":"frk-5","host":"frk-1.de.uncletopia.com","port":27055,"enabled":true,"region":"eu","cc":"de","latitude":50.110924,"longitude":8.682127,"reserved":0,"last_update":"0001-01-01T00:00:00Z","name_a2s":"Uncletopia | Frankfurt | 5 | All Maps","protocol":17,"map":"koth_lakeside_final","folder":"tf","game":"Team Fortress","app_id":440,"player_count":0,"max_players":24,"Bots":0,"server_type":"Dedicated","server_os":"Linux","password":true,"vac":true,"version":"7757534","steam_id":85568392924504277,"keywords":["cp","nocrits","nodmgspread","uncletopia"],"game_id":440,"stv_port":27056,"stv_name":"Uncletopia | Frankfurt | 5 | All Maps | STV","players":null},{"server_id":311,"name":"Uncletopia | Frankfurt | 6 | All Maps","name_short":"frk-6","host":"frk-1.de.uncletopia.com","port":27065,"enabled":true,"region":"eu","cc":"de","latitude":50.110924,"longitude":8.682127,"reserved":0,"last_update":"0001-01-01T00:00:00Z","name_a2s":"Uncletopia | Frankfurt | 6 | All Maps","protocol":17,"map":"pl_frontier_final","folder":"tf","game":"Team Fortress","app_id":440,"player_count":0,"max_players":24,"Bots":0,"server_type":"Dedicated","server_os":"Linux","password":true,"vac":true,"version":"7757534","steam_id":85568392924504278,"keywords":["nocrits","nodmgspread","payload","uncletopia"],"game_id":440,"stv_port":27066,"stv_name":"Uncletopia | Frankfurt | 6 | All Maps | STV","players":null},{"server_id":23,"name":"Uncletopia | Frankfurt | 7 | Stopwatch Beta","name_short":"frk-7","host":"frk-1.de.uncletopia.com","port":27075,"enabled":true,"region":"eu","cc":"de","latitude":50.110924,"longitude":8.682127,"reserved":0,"last_update":"0001-01-01T00:00:00Z","name_a2s":"Uncletopia | Frankfurt | 7 | Stopwatch Beta","protocol":17,"map":"cp_sunshine","folder":"tf","game":"Team Fortress","app_id":440,"player_count":0,"max_players":24,"Bots":0,"server_type":"Dedicated","server_os":"Linux","password":true,"vac":true,"version":"7757534","steam_id":85568392924742827,"keywords":["cp","nocrits","nodmgspread","uncletopia"],"game_id":440,"stv_port":27076,"stv_name":"Uncletopia | Frankfurt | 7 | Stopwatch Beta | STV","players":null},{"server_id":24,"name":"Uncletopia | Frankfurt | 8 | Community","name_short":"frk-8","host":"frk-1.de.uncletopia.com","port":27085,"enabled":true,"region":"eu","cc":"de","latitude":50.110924,"longitude":8.682127,"reserved":0,"last_update":"0001-01-01T00:00:00Z","name_a2s":"Uncletopia | Frankfurt | 8 | Community","protocol":17,"map":"koth_lakeside_final","folder":"tf","game":"Team Fortress","app_id":440,"player_count":0,"max_players":24,"Bots":0,"server_type":"Dedicated","server_os":"Linux","password":true,"vac":true,"version":"7757534","steam_id":85568392924742828,"keywords":["cp","nocrits","nodmgspread","uncletopia"],"game_id":440,"stv_port":27086,"stv_name":"Uncletopia | Frankfurt | 8 | Community | STV","players":null},{"server_id":202,"name":"Uncletopia | Hong Kong | 1 | All Maps","name_short":"hgk-1","host":"hgk-1.hk.uncletopia.com","port":27015,"enabled":true,"region":"asia","cc":"hk","latitude":22.302711,"longitude":114.177216,"reserved":0,"last_update":"0001-01-01T00:00:00Z","name_a2s":"Uncletopia | Hong Kong | 1 | All Maps","protocol":17,"map":"pl_pier","folder":"tf","game":"Team Fortress","app_id":440,"player_count":20,"max_players":24,"Bots":0,"server_type":"Dedicated","server_os":"Linux","password":true,"vac":true,"version":"7757534","steam_id":85568392924494504,"keywords":["nocrits","nodmgspread","payload","uncletopia"],"game_id":440,"stv_port":27016,"stv_name":"Uncletopia | Hong Kong | 1 | All Maps | STV","players":[{"user_id":5,"name":"Newbie.(cant chat)","steam_id":76561199131526926,"connected_time":7179000000000,"state":"active","ping":73},{"user_id":69,"name":"MsD IV","steam_id":76561198059707655,"connected_time":141000000000,"state":"active","ping":74},{"user_id":67,"name":"Ivy","steam_id":76561199020222424,"connected_time":480000000000,"state":"active","ping":109},{"user_id":36,"name":"subasuba","steam_id":76561199474092971,"connected_time":3183000000000,"state":"active","ping":94},{"user_id":49,"name":"e","steam_id":76561199120787394,"connected_time":1711000000000,"state":"active","ping":120},{"user_id":70,"name":"Victor Charlie","steam_id":76561198255287958,"connected_time":140000000000,"state":"active","ping":109},{"user_id":71,"name":"nish","steam_id":76561198245922350,"connected_time":1000000000,"state":"spawning","ping":66},{"user_id":24,"name":"Is that a Subaru?","steam_id":76561198420018387,"connected_time":4735000000000,"state":"active","ping":35},{"user_id":45,"name":"LORD KIMCHI","steam_id":76561198024666371,"connected_time":2206000000000,"state":"active","ping":84},{"user_id":48,"name":"ÁÖôÊµ∑ | Enkai","steam_id":76561198050460825,"connected_time":1881000000000,"state":"active","ping":72},{"user_id":39,"name":"Telekhine","steam_id":76561198387120618,"connected_time":2619000000000,"state":"active","ping":58},{"user_id":42,"name":"iamthenoname","steam_id":76561198982785447,"connected_time":2512000000000,"state":"active","ping":64},{"user_id":44,"name":"she's in school but it's cool","steam_id":76561199406575369,"connected_time":2333000000000,"state":"active","ping":76},{"user_id":54,"name":"killman47","steam_id":76561198348487408,"connected_time":1371000000000,"state":"active","ping":40},{"user_id":57,"name":"ZeniaPY (Playing on Wacom)","steam_id":76561198404352831,"connected_time":1325000000000,"state":"active","ping":60},{"user_id":60,"name":"redmond","steam_id":76561198056390902,"connected_time":1172000000000,"state":"active","ping":67},{"user_id":63,"name":"RP birdzz","steam_id":76561198318077734,"connected_time":1016000000000,"state":"active","ping":63},{"user_id":64,"name":"Momoxhien","steam_id":76561198414997429,"connected_time":697000000000,"state":"active","ping":63},{"user_id":65,"name":"üß°486üß°","steam_id":76561198954326760,"connected_time":695000000000,"state":"active","ping":104},{"user_id":66,"name":"monkeyman536","steam_id":76561197997717737,"connected_time":685000000000,"state":"active","ping":128}]},{"server_id":1,"name":"Uncletopia | Los Angeles | 1 | All Maps","name_short":"lax-1","host":"lax-1.us.uncletopia.com","port":27015,"enabled":true,"region":"us-west","cc":"us","latitude":33.94279,"longitude":-118.41004,"reserved":0,"last_update":"0001-01-01T00:00:00Z","name_a2s":"Uncletopia | Los Angeles | 1 | All Maps","protocol":17,"map":"pl_badwater","folder":"tf","game":"Team Fortress","app_id":440,"player_count":23,"max_players":24,"Bots":0,"server_type":"Dedicated","server_os":"Linux","password":true,"vac":true,"version":"7757534","steam_id":85568392924469991,"keywords":["nocrits","nodmgspread","payload","uncletopia"],"game_id":440,"stv_port":27016,"stv_name":"Uncletopia | Los Angeles | 1 | All Maps | STV","players":[{"user_id":229,"name":"Mute.03","steam_id":76561199229281804,"connected_time":3266000000000,"state":"active","ping":84},{"user_id":273,"name":"billy boy -gt","steam_id":76561198145949369,"connected_time":6000000000,"state":"spawning","ping":91},{"user_id":222,"name":"Dr. B Busta","steam_id":76561198206387303,"connected_time":4274000000000,"state":"active","ping":32},{"user_id":248,"name":"Glorious Leader Kim Jim the III","steam_id":76561198149714906,"connected_time":2186000000000,"state":"active","ping":88},{"user_id":267,"name":"Jovi Boy","steam_id":76561198046605691,"connected_time":821000000000,"state":"active","ping":62},{"user_id":260,"name":"Jonatello","steam_id":76561198045699189,"connected_time":1331000000000,"state":"active","ping":105},{"user_id":237,"name":"Nez","steam_id":76561197963109059,"connected_time":2899000000000,"state":"active","ping":64},{"user_id":264,"name":"Jambi","steam_id":76561198846091685,"connected_time":994000000000,"state":"active","ping":67},{"user_id":254,"name":"Halfgrain","steam_id":76561199382565628,"connected_time":1999000000000,"state":"active","ping":64},{"user_id":238,"name":"SOLDIER TF2","steam_id":76561198203170652,"connected_time":2792000000000,"state":"active","ping":92},{"user_id":262,"name":"Laxoloni","steam_id":76561199197045700,"connected_time":1047000000000,"state":"active","ping":78},{"user_id":269,"name":"Castleson","steam_id":76561198054330537,"connected_time":89000000000,"state":"active","ping":101},{"user_id":271,"name":"FrWs | Cowplant","steam_id":76561197976951308,"connected_time":41000000000,"state":"active","ping":85},{"user_id":272,"name":"Praxis","steam_id":76561197960794303,"connected_time":36000000000,"state":"active","ping":123},{"user_id":256,"name":"Bomb Squirtle‚Ñ¢","steam_id":76561197998931145,"connected_time":1923000000000,"state":"active","ping":125},{"user_id":217,"name":"YoungKnight","steam_id":76561198958772904,"connected_time":5326000000000,"state":"active","ping":80},{"user_id":257,"name":"neonblack","steam_id":76561198060316801,"connected_time":1793000000000,"state":"active","ping":82},{"user_id":268,"name":"SIGMA [BS]","steam_id":76561197962604879,"connected_time":490000000000,"state":"active","ping":114},{"user_id":251,"name":"LesserAce","steam_id":76561198153258132,"connected_time":2055000000000,"state":"active","ping":93},{"user_id":274,"name":"Furious George","steam_id":76561198405111646,"connected_time":6000000000,"state":"spawning","ping":80},{"user_id":266,"name":"Zippy","steam_id":76561198279229422,"connected_time":867000000000,"state":"active","ping":108},{"user_id":235,"name":"taishang","steam_id":76561198065328284,"connected_time":3110000000000,"state":"active","ping":43},{"user_id":241,"name":"kab789","steam_id":76561198069842202,"connected_time":2588000000000,"state":"active","ping":106}]},{"server_id":112,"name":"Uncletopia | Los Angeles | 2 | All Maps","name_short":"lax-2","host":"lax-1.us.uncletopia.com","port":27025,"enabled":true,"region":"us-west","cc":"us","latitude":33.94279,"longitude":-118.41004,"reserved":0,"last_update":"0001-01-01T00:00:00Z","name_a2s":"Uncletopia | Los Angeles | 2 | All Maps","protocol":17,"map":"pl_swiftwater_final1","folder":"tf","game":"Team Fortress","app_id":440,"player_count":24,"max_players":24,"Bots":0,"server_type":"Dedicated","server_os":"Linux","password":true,"vac":true,"version":"7757534","steam_id":85568392924469992,"keywords":["nocrits","nodmgspread","payload","uncletopia"],"game_id":440,"stv_port":27026,"stv_name":"Uncletopia | Los Angeles | 2 | All Maps | STV","players":[{"user_id":584,"name":"vioxynteris","steam_id":76561198161428666,"connected_time":780000000000,"state":"active","ping":42},{"user_id":575,"name":"Scoliosis King","steam_id":76561199143329892,"connected_time":1820000000000,"state":"active","ping":78},{"user_id":557,"name":"Batso","steam_id":76561198106589452,"connected_time":3699000000000,"state":"active","ping":45},{"user_id":537,"name":"markie","steam_id":76561198170206590,"connected_time":4364000000000,"state":"active","ping":155},{"user_id":417,"name":"wrist game dumbin","steam_id":76561198247984828,"connected_time":6339000000000,"state":"active","ping":50},{"user_id":418,"name":"goon refinery","steam_id":76561198166781089,"connected_time":6337000000000,"state":"active","ping":86},{"user_id":576,"name":"cs_assault fan","steam_id":76561198013595716,"connected_time":1813000000000,"state":"active","ping":67},{"user_id":565,"name":"Cetus","steam_id":76561198070315471,"connected_time":2841000000000,"state":"active","ping":129},{"user_id":558,"name":"666420666","steam_id":76561197977974644,"connected_time":3674000000000,"state":"active","ping":84},{"user_id":572,"name":"avesarchive","steam_id":76561199476779708,"connected_time":2346000000000,"state":"active","ping":57},{"user_id":585,"name":"Mickmissi√≥n","steam_id":76561199133527421,"connected_time":733000000000,"state":"active","ping":58},{"user_id":560,"name":"mentos14","steam_id":76561198097993629,"connected_time":3666000000000,"state":"active","ping":55},{"user_id":573,"name":"LogicalFurret","steam_id":76561198350604657,"connected_time":1934000000000,"state":"active","ping":46},{"user_id":533,"name":"Sus Face","steam_id":76561198303160527,"connected_time":4456000000000,"state":"active","ping":71},{"user_id":564,"name":"Pasta Enjoyer","steam_id":76561198189910235,"connected_time":3346000000000,"state":"active","ping":65},{"user_id":587,"name":"Cancerous Pineapple","steam_id":76561198097307656,"connected_time":416000000000,"state":"active","ping":70},{"user_id":543,"name":"PunishedCrab","steam_id":76561198079650017,"connected_time":4213000000000,"state":"active","ping":58},{"user_id":570,"name":"O_x","steam_id":76561198289696924,"connected_time":2593000000000,"state":"active","ping":52},{"user_id":562,"name":"Burton","steam_id":76561198120798402,"connected_time":3656000000000,"state":"active","ping":47},{"user_id":517,"name":"Just a Tree","steam_id":76561198231561020,"connected_time":4671000000000,"state":"active","ping":59},{"user_id":586,"name":"Fish Lambert","steam_id":76561198098279668,"connected_time":647000000000,"state":"active","ping":59},{"user_id":581,"name":"wlfgng","steam_id":76561198316639499,"connected_time":1000000000000,"state":"active","ping":47},{"user_id":578,"name":"[_Dr.Scythe_]","steam_id":76561198845245858,"connected_time":1788000000000,"state":"active","ping":95},{"user_id":563,"name":"will","steam_id":76561198134923092,"connected_time":3651000000000,"state":"active","ping":48}]},{"server_id":324,"name":"Uncletopia | Los Angeles | 3 | All Maps","name_short":"lax-3","host":"lax-1.us.uncletopia.com","port":27035,"enabled":true,"region":"us-west","cc":"us","latitude":33.94279,"longitude":-118.41004,"reserved":0,"last_update":"0001-01-01T00:00:00Z","name_a2s":"Uncletopia | Los Angeles | 3 | All Maps","protocol":17,"map":"cp_dustbowl","folder":"tf","game":"Team Fortress","app_id":440,"player_count":24,"max_players":24,"Bots":0,"server_type":"Dedicated","server_os":"Linux","password":true,"vac":true,"version":"7757534","steam_id":85568392924510198,"keywords":["cp","nocrits","nodmgspread","uncletopia"],"game_id":440,"stv_port":27036,"stv_name":"Uncletopia | Los Angeles | 3 | All Maps | STV","players":[{"user_id":207,"name":"spiderslash","steam_id":76561198043787070,"connected_time":608000000000,"state":"active","ping":116},{"user_id":160,"name":"bigman1","steam_id":76561198050225055,"connected_time":4650000000000,"state":"active","ping":50},{"user_id":211,"name":"the gamer","steam_id":76561198334059206,"connected_time":405000000000,"state":"active","ping":58},{"user_id":195,"name":"Johno","steam_id":76561199231993886,"connected_time":1504000000000,"state":"active","ping":48},{"user_id":176,"name":"Toasty","steam_id":76561198019270104,"connected_time":3357000000000,"state":"active","ping":76},{"user_id":208,"name":"PainInTheRuss","steam_id":76561197977960543,"connected_time":445000000000,"state":"active","ping":51},{"user_id":215,"name":"strawberry breeze","steam_id":76561198288482730,"connected_time":182000000000,"state":"active","ping":46},{"user_id":171,"name":"HideOnTate","steam_id":76561198209880837,"connected_time":4211000000000,"state":"active","ping":77},{"user_id":210,"name":"( ) !","steam_id":76561198132192461,"connected_time":413000000000,"state":"active","ping":97},{"user_id":197,"name":"YASAI JUICE","steam_id":76561198131971992,"connected_time":1482000000000,"state":"active","ping":90},{"user_id":175,"name":"kevin shields #1 fan","steam_id":76561197995200743,"connected_time":3371000000000,"state":"active","ping":36},{"user_id":183,"name":"ronald","steam_id":76561197960691622,"connected_time":2367000000000,"state":"active","ping":71},{"user_id":159,"name":"MinusSoup918","steam_id":76561198060902773,"connected_time":4689000000000,"state":"active","ping":67},{"user_id":206,"name":"Robloxdude4443","steam_id":76561198399370940,"connected_time":776000000000,"state":"active","ping":66},{"user_id":199,"name":"Su1tCas3","steam_id":76561198035989471,"connected_time":1418000000000,"state":"active","ping":86},{"user_id":205,"name":"BucketofIce","steam_id":76561199108563726,"connected_time":1021000000000,"state":"active","ping":60},{"user_id":216,"name":"The Arm","steam_id":76561197983066285,"connected_time":74000000000,"state":"active","ping":88},{"user_id":212,"name":"Jam Jams","steam_id":76561198128811267,"connected_time":397000000000,"state":"active","ping":99},{"user_id":177,"name":"Interrobang","steam_id":76561198385044529,"connected_time":3064000000000,"state":"active","ping":98},{"user_id":202,"name":"Stale Bread","steam_id":76561198085618127,"connected_time":1297000000000,"state":"active","ping":68},{"user_id":186,"name":"Natalie","steam_id":76561198048848289,"connected_time":1588000000000,"state":"active","ping":57},{"user_id":213,"name":"PrinterLights","steam_id":76561198145909722,"connected_time":359000000000,"state":"active","ping":49},{"user_id":100,"name":"ohton","steam_id":76561199033233448,"connected_time":10502000000000,"state":"active","ping":45},{"user_id":203,"name":"Misterwipeout","steam_id":76561198068900320,"connected_time":1273000000000,"state":"active","ping":91}]},{"server_id":25,"name":"Uncletopia | Los Angeles | 4 | Stopwatch Beta","name_short":"lax-4","host":"lax-1.us.uncletopia.com","port":27045,"enabled":true,"region":"us-west","cc":"us","latitude":33.94279,"longitude":-118.41004,"reserved":0,"last_update":"0001-01-01T00:00:00Z","name_a2s":"Uncletopia | Los Angeles | 4 | Stopwatch Beta","protocol":17,"map":"workshop/pl_badwater_pro_v12.ugc2142942074","folder":"tf","game":"Team Fortress","app_id":440,"player_count":2,"max_players":24,"Bots":0,"server_type":"Dedicated","server_os":"Linux","password":true,"vac":true,"version":"7757534","steam_id":85568392924510199,"keywords":["nocrits","nodmgspread","payload","uncletopia"],"game_id":440,"stv_port":27046,"stv_name":"Uncletopia | Los Angeles | 4 | Stopwatch Beta | STV","players":[{"user_id":10,"name":"Npenplz","steam_id":76561197999605423,"connected_time":168000000000,"state":"active","ping":48},{"user_id":12,"name":"JamesSetRadio","steam_id":76561198444320809,"connected_time":93000000000,"state":"active","ping":165}]},{"server_id":11,"name":"Uncletopia | London | 1 | All Maps","name_short":"lon-1","host":"lon-1.uk.uncletopia.com","port":27015,"enabled":true,"region":"eu","cc":"gb","latitude":51.509865,"longitude":-0.118092,"reserved":0,"last_update":"0001-01-01T00:00:00Z","name_a2s":"Uncletopia | London | 1 | All Maps","protocol":17,"map":"pl_swiftwater_final1","folder":"tf","game":"Team Fortress","app_id":440,"player_count":0,"max_players":24,"Bots":0,"server_type":"Dedicated","server_os":"Linux","password":true,"vac":true,"version":"7757534","steam_id":85568392924367362,"keywords":["nocrits","nodmgspread","payload","uncletopia"],"game_id":440,"stv_port":27016,"stv_name":"Uncletopia | London | 1 | All Maps | STV","players":null},{"server_id":114,"name":"Uncletopia | London | 2 | All Maps","name_short":"lon-2","host":"lon-1.uk.uncletopia.com","port":27025,"enabled":true,"region":"eu","cc":"gb","latitude":51.509865,"longitude":-0.118092,"reserved":0,"last_update":"0001-01-01T00:00:00Z","name_a2s":"Uncletopia | London | 2 | All Maps","protocol":17,"map":"koth_highpass","folder":"tf","game":"Team Fortress","app_id":440,"player_count":0,"max_players":24,"Bots":0,"server_type":"Dedicated","server_os":"Linux","password":true,"vac":true,"version":"7757534","steam_id":85568392924470941,"keywords":["cp","nocrits","nodmgspread","uncletopia"],"game_id":440,"stv_port":27026,"stv_name":"Uncletopia | London | 2 | All Maps | STV","players":null},{"server_id":320,"name":"Uncletopia | London | 3 | All Maps","name_short":"lon-3","host":"lon-1.uk.uncletopia.com","port":27035,"enabled":true,"region":"eu","cc":"gb","latitude":51.509865,"longitude":-0.118092,"reserved":0,"last_update":"0001-01-01T00:00:00Z","name_a2s":"Uncletopia | London | 3 | All Maps","protocol":17,"map":"cp_dustbowl","folder":"tf","game":"Team Fortress","app_id":440,"player_count":0,"max_players":24,"Bots":0,"server_type":"Dedicated","server_os":"Linux","password":true,"vac":true,"version":"7757534","steam_id":85568392924510192,"keywords":["cp","nocrits","nodmgspread","uncletopia"],"game_id":440,"stv_port":27036,"stv_name":"Uncletopia | London | 3 | All Maps | STV","players":null},{"server_id":321,"name":"Uncletopia | London | 4 | All Maps","name_short":"lon-4","host":"lon-1.uk.uncletopia.com","port":27045,"enabled":true,"region":"eu","cc":"gb","latitude":51.509865,"longitude":-0.118092,"reserved":0,"last_update":"0001-01-01T00:00:00Z","name_a2s":"Uncletopia | London | 4 | All Maps","protocol":17,"map":"koth_lakeside_final","folder":"tf","game":"Team Fortress","app_id":440,"player_count":0,"max_players":24,"Bots":0,"server_type":"Dedicated","server_os":"Linux","password":true,"vac":true,"version":"7757534","steam_id":85568392924510193,"keywords":["cp","nocrits","nodmgspread","uncletopia"],"game_id":440,"stv_port":27046,"stv_name":"Uncletopia | London | 4 | All Maps | STV","players":null},{"server_id":21,"name":"Uncletopia | London | 5 | All Maps","name_short":"lon-5","host":"lon-1.uk.uncletopia.com","port":27055,"enabled":true,"region":"eu","cc":"gb","latitude":51.509865,"longitude":-0.118092,"reserved":0,"last_update":"0001-01-01T00:00:00Z","name_a2s":"Uncletopia | London | 5 | All Maps","protocol":17,"map":"koth_viaduct","folder":"tf","game":"Team Fortress","app_id":440,"player_count":0,"max_players":24,"Bots":0,"server_type":"Dedicated","server_os":"Linux","password":true,"vac":true,"version":"7757534","steam_id":85568392924742829,"keywords":["cp","nocrits","nodmgspread","uncletopia"],"game_id":440,"stv_port":27056,"stv_name":"Uncletopia | London | 5 | All Maps | STV","players":null},{"server_id":22,"name":"Uncletopia | London | 6 | All Maps","name_short":"lon-6","host":"lon-1.uk.uncletopia.com","port":27065,"enabled":true,"region":"eu","cc":"gb","latitude":51.509865,"longitude":-0.118092,"reserved":0,"last_update":"0001-01-01T00:00:00Z","name_a2s":"Uncletopia | London | 6 | All Maps","protocol":17,"map":"koth_highpass","folder":"tf","game":"Team Fortress","app_id":440,"player_count":0,"max_players":24,"Bots":0,"server_type":"Dedicated","server_os":"Linux","password":true,"vac":true,"version":"7757534","steam_id":85568392924742830,"keywords":["cp","nocrits","nodmgspread","uncletopia"],"game_id":440,"stv_port":27066,"stv_name":"Uncletopia | London | 6 | All Maps | STV","players":null},{"server_id":40,"name":"Uncletopia | London | 7 | No Payload","name_short":"lon-7","host":"lon-1.uk.uncletopia.com","port":27075,"enabled":true,"region":"eu","cc":"gb","latitude":51.509865,"longitude":-0.118092,"reserved":0,"last_update":"0001-01-01T00:00:00Z","name_a2s":"Uncletopia | London | 7 | No Payload","protocol":17,"map":"plr_nightfall_final","folder":"tf","game":"Team Fortress","app_id":440,"player_count":0,"max_players":24,"Bots":0,"server_type":"Dedicated","server_os":"Linux","password":true,"vac":true,"version":"7757534","steam_id":85568392924964314,"keywords":["nocrits","nodmgspread","payload","uncletopia"],"game_id":440,"stv_port":27076,"stv_name":"Uncletopia | London | 7 | No Payload | STV","players":null},{"server_id":41,"name":"Uncletopia | London | 8 | Community","name_short":"lon-8","host":"lon-1.uk.uncletopia.com","port":27085,"enabled":true,"region":"eu","cc":"gb","latitude":51.509865,"longitude":-0.118092,"reserved":0,"last_update":"0001-01-01T00:00:00Z","name_a2s":"Uncletopia | London | 8 | Community","protocol":17,"map":"workshop/koth_ramjam_rc1.ugc459778887","folder":"tf","game":"Team Fortress","app_id":440,"player_count":0,"max_players":24,"Bots":0,"server_type":"Dedicated","server_os":"Linux","password":true,"vac":true,"version":"7757534","steam_id":85568392924964315,"keywords":["cp","nocrits","nodmgspread","uncletopia"],"game_id":440,"stv_port":27086,"stv_name":"Uncletopia | London | 8 | Community | STV","players":null},{"server_id":300,"name":"Uncletopia | Montr√©al | 1 | All Maps","name_short":"mtl-1","host":"mtl-1.ca.uncletopia.com","port":27015,"enabled":true,"region":"us-east","cc":"ca","latitude":45.50889,"longitude":-73.56167,"reserved":0,"last_update":"0001-01-01T00:00:00Z","name_a2s":"Uncletopia | Montr√©al | 1 | All Maps","protocol":17,"map":"koth_cascade","folder":"tf","game":"Team Fortress","app_id":440,"player_count":0,"max_players":24,"Bots":0,"server_type":"Dedicated","server_os":"Linux","password":true,"vac":true,"version":"7757534","steam_id":85568392924500087,"keywords":["cp","nocrits","nodmgspread","uncletopia"],"game_id":440,"stv_port":27016,"stv_name":"Uncletopia | Montr√©al | 1 | All Maps | STV","players":null},{"server_id":301,"name":"Uncletopia | Montr√©al | 2 | All Maps","name_short":"mtl-2","host":"mtl-1.ca.uncletopia.com","port":27025,"enabled":true,"region":"us-east","cc":"ca","latitude":45.50889,"longitude":-73.56167,"reserved":0,"last_update":"0001-01-01T00:00:00Z","name_a2s":"Uncletopia | Montr√©al | 2 | All Maps","protocol":17,"map":"pl_snowycoast","folder":"tf","game":"Team Fortress","app_id":440,"player_count":0,"max_players":24,"Bots":0,"server_type":"Dedicated","server_os":"Linux","password":true,"vac":true,"version":"7757534","steam_id":85568392924500088,"keywords":["nocrits","nodmgspread","payload","uncletopia"],"game_id":440,"stv_port":27026,"stv_name":"Uncletopia | Montr√©al | 2 | All Maps | STV","players":null},{"server_id":302,"name":"Uncletopia | Montr√©al | 3 | All Maps","name_short":"mtl-3","host":"mtl-1.ca.uncletopia.com","port":27035,"enabled":true,"region":"us-east","cc":"ca","latitude":45.50889,"longitude":-73.56167,"reserved":0,"last_update":"0001-01-01T00:00:00Z","name_a2s":"Uncletopia | Montr√©al | 3 | All Maps","protocol":17,"map":"pl_swiftwater_final1","folder":"tf","game":"Team Fortress","app_id":440,"player_count":0,"max_players":24,"Bots":0,"server_type":"Dedicated","server_os":"Linux","password":true,"vac":true,"version":"7757534","steam_id":85568392924500089,"keywords":["nocrits","nodmgspread","payload","uncletopia"],"game_id":440,"stv_port":27036,"stv_name":"Uncletopia | Montr√©al | 3 | All Maps | STV","players":null},{"server_id":303,"name":"Uncletopia | Montr√©al | 4 | No Payload","name_short":"mtl-4","host":"mtl-1.ca.uncletopia.com","port":27045,"enabled":true,"region":"us-east","cc":"ca","latitude":45.50889,"longitude":-73.56167,"reserved":0,"last_update":"0001-01-01T00:00:00Z","name_a2s":"Uncletopia | Montr√©al | 4 | No Payload","protocol":17,"map":"plr_hightower","folder":"tf","game":"Team Fortress","app_id":440,"player_count":0,"max_players":24,"Bots":0,"server_type":"Dedicated","server_os":"Linux","password":true,"vac":true,"version":"7757534","steam_id":85568392924500090,"keywords":["nocrits","nodmgspread","payload","uncletopia"],"game_id":440,"stv_port":27046,"stv_name":"Uncletopia | Montr√©al | 4 | No Payload | STV","players":null},{"server_id":13,"name":"Uncletopia | New York City | 1 | All Maps","name_short":"nyc-1","host":"nyc-1.us.uncletopia.com","port":27015,"enabled":true,"region":"us-east","cc":"us","latitude":40.73061,"longitude":-73.93524,"reserved":0,"last_update":"0001-01-01T00:00:00Z","name_a2s":"Uncletopia | New York City | 1 | All Maps","protocol":17,"map":"pl_borneo","folder":"tf","game":"Team Fortress","app_id":440,"player_count":9,"max_players":24,"Bots":0,"server_type":"Dedicated","server_os":"Linux","password":true,"vac":true,"version":"7757534","steam_id":85568392924469993,"keywords":["nocrits","nodmgspread","payload","uncletopia"],"game_id":440,"stv_port":27016,"stv_name":"Uncletopia | New York City | 1 | All Maps | STV","players":[{"user_id":749,"name":"Piccadilly Willy","steam_id":76561198000312126,"connected_time":305000000000,"state":"active","ping":72},{"user_id":750,"name":"Horrizan","steam_id":76561197965028480,"connected_time":71000000000,"state":"active","ping":84},{"user_id":741,"name":"Ramadan Steve","steam_id":76561198138568488,"connected_time":1319000000000,"state":"active","ping":52},{"user_id":693,"name":"Mogori","steam_id":76561198074060650,"connected_time":4389000000000,"state":"active","ping":69},{"user_id":725,"name":"M.L.JEW","steam_id":76561198997375055,"connected_time":2596000000000,"state":"active","ping":71},{"user_id":715,"name":"Aesthetic Shrine","steam_id":76561198116072862,"connected_time":2926000000000,"state":"active","ping":134},{"user_id":737,"name":"O Dog","steam_id":76561198133498912,"connected_time":1625000000000,"state":"active","ping":106},{"user_id":742,"name":"„Äê‚äö ”© ‚äö„Äë","steam_id":76561198263895597,"connected_time":1209000000000,"state":"active","ping":57},{"user_id":615,"name":"bash -lc ./asshat.sh","steam_id":76561198004584315,"connected_time":9448000000000,"state":"active","ping":90}]},{"server_id":14,"name":"Uncletopia | New York City | 2 | All Maps","name_short":"nyc-2","host":"nyc-1.us.uncletopia.com","port":27025,"enabled":true,"region":"us-east","cc":"us","latitude":40.73061,"longitude":-73.93524,"reserved":0,"last_update":"0001-01-01T00:00:00Z","name_a2s":"Uncletopia | New York City | 2 | All Maps","protocol":17,"map":"pl_badwater","folder":"tf","game":"Team Fortress","app_id":440,"player_count":22,"max_players":24,"Bots":0,"server_type":"Dedicated","server_os":"Linux","password":true,"vac":true,"version":"7757534","steam_id":85568392924469994,"keywords":["nocrits","nodmgspread","payload","uncletopia"],"game_id":440,"stv_port":27026,"stv_name":"Uncletopia | New York City | 2 | All Maps | STV","players":[{"user_id":765,"name":"--_Cook_--","steam_id":76561198080855748,"connected_time":3418000000000,"state":"active","ping":51},{"user_id":805,"name":"L√¶ffy","steam_id":76561198046136731,"connected_time":285000000000,"state":"active","ping":129},{"user_id":806,"name":"Post nut clarity","steam_id":76561198060246831,"connected_time":277000000000,"state":"active","ping":77},{"user_id":766,"name":"trappy (soggy)","steam_id":76561198402801140,"connected_time":3403000000000,"state":"active","ping":85},{"user_id":752,"name":"daemon","steam_id":76561198001541433,"connected_time":4633000000000,"state":"active","ping":70},{"user_id":801,"name":"IceBeatle","steam_id":76561198833132781,"connected_time":514000000000,"state":"active","ping":51},{"user_id":767,"name":"Vladikr1","steam_id":76561198401495362,"connected_time":3383000000000,"state":"active","ping":74},{"user_id":784,"name":"Lore","steam_id":76561198098407538,"connected_time":2557000000000,"state":"active","ping":74},{"user_id":762,"name":"apathy","steam_id":76561198277163301,"connected_time":3999000000000,"state":"active","ping":78},{"user_id":770,"name":"Shadow master michael","steam_id":76561198070770369,"connected_time":3161000000000,"state":"active","ping":52},{"user_id":772,"name":"bauhaus blast","steam_id":76561198057561955,"connected_time":3136000000000,"state":"active","ping":58},{"user_id":808,"name":"Reed.Dook","steam_id":76561198046625664,"connected_time":213000000000,"state":"active","ping":70},{"user_id":796,"name":"Carbonated Cocaine","steam_id":76561198110678966,"connected_time":1221000000000,"state":"active","ping":87},{"user_id":802,"name":"Squiliam","steam_id":76561198025278006,"connected_time":456000000000,"state":"active","ping":72},{"user_id":815,"name":"Leviathan","steam_id":76561197997528907,"connected_time":108000000000,"state":"active","ping":45},{"user_id":810,"name":"Tuchpi","steam_id":76561197967581205,"connected_time":196000000000,"state":"active","ping":77},{"user_id":811,"name":"Wumps","steam_id":76561198207226825,"connected_time":195000000000,"state":"active","ping":60},{"user_id":803,"name":"u","steam_id":76561197994492154,"connected_time":447000000000,"state":"active","ping":142},{"user_id":812,"name":"sand","steam_id":76561198086193212,"connected_time":186000000000,"state":"active","ping":44},{"user_id":788,"name":"Xx-CostcoShopper-xX","steam_id":76561198066429444,"connected_time":2035000000000,"state":"active","ping":45},{"user_id":786,"name":"Bread Makes you Fat","steam_id":76561198985126532,"connected_time":2482000000000,"state":"active","ping":61},{"user_id":814,"name":"Kaluka","steam_id":76561198036861445,"connected_time":156000000000,"state":"active","ping":59}]},{"server_id":15,"name":"Uncletopia | New York City | 3 | Stopwatch Beta","name_short":"nyc-3","host":"nyc-1.us.uncletopia.com","port":27035,"enabled":true,"region":"us-east","cc":"us","latitude":40.73061,"longitude":-73.93524,"reserved":0,"last_update":"0001-01-01T00:00:00Z","name_a2s":"Uncletopia | New York City | 3 | Stopwatch Beta","protocol":17,"map":"workshop/pl_summercoast_rc8e.ugc1761528829","folder":"tf","game":"Team Fortress","app_id":440,"player_count":0,"max_players":24,"Bots":0,"server_type":"Dedicated","server_os":"Linux","password":true,"vac":true,"version":"7757534","steam_id":85568392924742820,"keywords":["nocrits","nodmgspread","payload","uncletopia"],"game_id":440,"stv_port":27036,"stv_name":"Uncletopia | New York City | 3 | Stopwatch Beta | STV","players":null},{"server_id":16,"name":"Uncletopia | New York City | 4 | Community","name_short":"nyc-4","host":"nyc-1.us.uncletopia.com","port":27045,"enabled":true,"region":"us-east","cc":"us","latitude":40.73061,"longitude":-73.93524,"reserved":0,"last_update":"0001-01-01T00:00:00Z","name_a2s":"Uncletopia | New York City | 4 | Community","protocol":17,"map":"workshop/pl_barnblitz_pro7.ugc582280235","folder":"tf","game":"Team Fortress","app_id":440,"player_count":0,"max_players":24,"Bots":0,"server_type":"Dedicated","server_os":"Linux","password":true,"vac":true,"version":"7757534","steam_id":85568392924742821,"keywords":["nocrits","nodmgspread","payload","uncletopia"],"game_id":440,"stv_port":27046,"stv_name":"Uncletopia | New York City | 4 | Community | STV","players":null},{"server_id":142,"name":"Uncletopia | S√£o Paulo | 1 | All Maps","name_short":"sao-1","host":"sao-1.br.uncletopia.com","port":27015,"enabled":true,"region":"sa","cc":"br","latitude":-23.533773,"longitude":-46.62529,"reserved":0,"last_update":"0001-01-01T00:00:00Z","name_a2s":"Uncletopia | S√£o Paulo | 1 | All Maps","protocol":17,"map":"koth_viaduct","folder":"tf","game":"Team Fortress","app_id":440,"player_count":0,"max_players":24,"Bots":0,"server_type":"Dedicated","server_os":"Linux","password":true,"vac":true,"version":"7757534","steam_id":85568392924469996,"keywords":["cp","nocrits","nodmgspread","uncletopia"],"game_id":440,"stv_port":27016,"stv_name":"Uncletopia | S√£o Paulo | 1 | All Maps | STV","players":null},{"server_id":143,"name":"Uncletopia | S√£o Paulo | 2 | All Maps","name_short":"sao-2","host":"sao-2.br.uncletopia.com","port":27015,"enabled":true,"region":"sa","cc":"br","latitude":-23.533773,"longitude":-46.62529,"reserved":0,"last_update":"0001-01-01T00:00:00Z","name_a2s":"Uncletopia | S√£o Paulo | 2 | All Maps","protocol":17,"map":"pl_swiftwater_final1","folder":"tf","game":"Team Fortress","app_id":440,"player_count":0,"max_players":24,"Bots":0,"server_type":"Dedicated","server_os":"Linux","password":true,"vac":true,"version":"7757534","steam_id":85568392924485349,"keywords":["nocrits","nodmgspread","payload","uncletopia"],"game_id":440,"stv_port":27016,"stv_name":"Uncletopia | S√£o Paulo | 2 | All Maps | STV","players":null},{"server_id":7,"name":"Uncletopia | Seattle | 1 | All Maps","name_short":"sea-1","host":"sea-1.us.uncletopia.com","port":27015,"enabled":true,"region":"us-west","cc":"us","latitude":47.608013,"longitude":-122.33517,"reserved":0,"last_update":"0001-01-01T00:00:00Z","name_a2s":"Uncletopia | Seattle | 1 | All Maps","protocol":17,"map":"pl_pier","folder":"tf","game":"Team Fortress","app_id":440,"player_count":24,"max_players":24,"Bots":0,"server_type":"Dedicated","server_os":"Linux","password":true,"vac":true,"version":"7757534","steam_id":85568392924469997,"keywords":["nocrits","nodmgspread","payload","uncletopia"],"game_id":440,"stv_port":27016,"stv_name":"Uncletopia | Seattle | 1 | All Maps | STV","players":[{"user_id":747,"name":"jole","steam_id":76561198037292232,"connected_time":2592000000000,"state":"active","ping":130},{"user_id":752,"name":"Dirt Mammal","steam_id":76561198040781653,"connected_time":2128000000000,"state":"active","ping":66},{"user_id":703,"name":"dust | she/it","steam_id":76561198045218909,"connected_time":5794000000000,"state":"active","ping":37},{"user_id":767,"name":"Boxxy","steam_id":76561198137230635,"connected_time":1472000000000,"state":"active","ping":68},{"user_id":773,"name":"mac_cheese","steam_id":76561198071334162,"connected_time":521000000000,"state":"active","ping":46},{"user_id":768,"name":"Clump","steam_id":76561198049690860,"connected_time":1441000000000,"state":"active","ping":56},{"user_id":777,"name":"lyraaaaaaaaaaa","steam_id":76561198259331758,"connected_time":62000000000,"state":"active","ping":87},{"user_id":728,"name":"Hassium","steam_id":76561198162541373,"connected_time":3919000000000,"state":"active","ping":58},{"user_id":778,"name":"AzumaKur","steam_id":76561199323531429,"connected_time":40000000000,"state":"active","ping":53},{"user_id":762,"name":"Username","steam_id":76561198855586261,"connected_time":1697000000000,"state":"active","ping":64},{"user_id":755,"name":"big booty birtha","steam_id":76561198996674933,"connected_time":1994000000000,"state":"active","ping":55},{"user_id":749,"name":"soup","steam_id":76561198043209046,"connected_time":2403000000000,"state":"active","ping":78},{"user_id":774,"name":"A loaf of bread","steam_id":76561198152372219,"connected_time":450000000000,"state":"active","ping":96},{"user_id":779,"name":"SwoopShoot","steam_id":76561199024079388,"connected_time":38000000000,"state":"active","ping":49},{"user_id":771,"name":"Callahan","steam_id":76561197976928457,"connected_time":543000000000,"state":"active","ping":55},{"user_id":739,"name":"Jovo","steam_id":76561197993265970,"connected_time":3419000000000,"state":"active","ping":33},{"user_id":763,"name":"der","steam_id":76561198060762287,"connected_time":1697000000000,"state":"active","ping":45},{"user_id":776,"name":"Dob Bole","steam_id":76561198056367220,"connected_time":145000000000,"state":"active","ping":60},{"user_id":764,"name":"Luca","steam_id":76561198125087140,"connected_time":1696000000000,"state":"active","ping":46},{"user_id":751,"name":"kindred enjoyer","steam_id":76561198256732090,"connected_time":2202000000000,"state":"active","ping":44},{"user_id":760,"name":"TheBudderMan","steam_id":76561198282348324,"connected_time":1714000000000,"state":"active","ping":36},{"user_id":780,"name":"Gilbert","steam_id":76561198124545020,"connected_time":27000000000,"state":"spawning","ping":51},{"user_id":772,"name":"5392vin","steam_id":76561198880493511,"connected_time":543000000000,"state":"active","ping":61},{"user_id":754,"name":"joe rippa","steam_id":76561198170402666,"connected_time":2127000000000,"state":"active","ping":67}]},{"server_id":119,"name":"Uncletopia | Seattle | 2 | All Maps","name_short":"sea-2","host":"sea-1.us.uncletopia.com","port":27025,"enabled":true,"region":"us-west","cc":"us","latitude":47.608013,"longitude":-122.33517,"reserved":0,"last_update":"0001-01-01T00:00:00Z","name_a2s":"Uncletopia | Seattle | 2 | All Maps","protocol":17,"map":"pl_pier","folder":"tf","game":"Team Fortress","app_id":440,"player_count":24,"max_players":24,"Bots":0,"server_type":"Dedicated","server_os":"Linux","password":true,"vac":true,"version":"7757534","steam_id":85568392924469998,"keywords":["nocrits","nodmgspread","payload","uncletopia"],"game_id":440,"stv_port":27026,"stv_name":"Uncletopia | Seattle | 2 | All Maps | STV","players":[{"user_id":462,"name":"DoctorHa","steam_id":76561198044026008,"connected_time":13239000000000,"state":"active","ping":95},{"user_id":723,"name":"Idontknow","steam_id":76561199207044048,"connected_time":572000000000,"state":"active","ping":40},{"user_id":710,"name":"mudunit","steam_id":76561198811544015,"connected_time":2217000000000,"state":"active","ping":58},{"user_id":724,"name":"Quarter Cheese","steam_id":76561198115814588,"connected_time":567000000000,"state":"active","ping":42},{"user_id":726,"name":"ceawse","steam_id":76561199012126174,"connected_time":528000000000,"state":"active","ping":88},{"user_id":702,"name":"chrome 2008 (she/they)","steam_id":76561198321277216,"connected_time":3233000000000,"state":"active","ping":69},{"user_id":733,"name":"dominants = asserted","steam_id":76561198029396836,"connected_time":438000000000,"state":"active","ping":40},{"user_id":693,"name":"green cupcake","steam_id":76561198114030795,"connected_time":4312000000000,"state":"active","ping":53},{"user_id":716,"name":"The Super Mario Bros. Movie","steam_id":76561198871692156,"connected_time":2136000000000,"state":"active","ping":56},{"user_id":721,"name":"oo","steam_id":76561198119626492,"connected_time":621000000000,"state":"active","ping":80},{"user_id":718,"name":"Scut","steam_id":76561198973734291,"connected_time":1882000000000,"state":"active","ping":65},{"user_id":714,"name":"Boyaredeen","steam_id":76561198880492636,"connected_time":2190000000000,"state":"active","ping":63},{"user_id":683,"name":"Rafl","steam_id":76561198055222756,"connected_time":4763000000000,"state":"active","ping":99},{"user_id":684,"name":"Korbi.","steam_id":76561198355711373,"connected_time":4717000000000,"state":"active","ping":71},{"user_id":720,"name":"MisterManne","steam_id":76561198106598600,"connected_time":879000000000,"state":"active","ping":55},{"user_id":686,"name":"Please_insert_id","steam_id":76561198058140301,"connected_time":4700000000000,"state":"active","ping":134},{"user_id":705,"name":"mega","steam_id":76561198089520959,"connected_time":2982000000000,"state":"active","ping":97},{"user_id":675,"name":"Trogdor","steam_id":76561198121353181,"connected_time":5045000000000,"state":"active","ping":70},{"user_id":665,"name":"[GUT] RiDiK¬Æ","steam_id":76561197969756446,"connected_time":5957000000000,"state":"active","ping":85},{"user_id":728,"name":"cyclops","steam_id":76561197970370198,"connected_time":475000000000,"state":"active","ping":101},{"user_id":692,"name":"Tibetan Pop Star","steam_id":76561198844903984,"connected_time":4357000000000,"state":"active","ping":92},{"user_id":730,"name":"General Fisticuffs","steam_id":76561198255721392,"connected_time":469000000000,"state":"active","ping":108},{"user_id":731,"name":"mango cafe","steam_id":76561198142328193,"connected_time":452000000000,"state":"active","ping":69},{"user_id":732,"name":"dodecadron","steam_id":76561198027397222,"connected_time":449000000000,"state":"active","ping":67}]},{"server_id":406,"name":"Uncletopia | Seattle | 3 | Stopwatch Beta","name_short":"sea-3","host":"sea-1.us.uncletopia.com","port":27035,"enabled":true,"region":"us-west","cc":"us","latitude":47.608013,"longitude":-122.33517,"reserved":0,"last_update":"0001-01-01T00:00:00Z","name_a2s":"Uncletopia | Seattle | 3 | Stopwatch Beta","protocol":17,"map":"workshop/pl_vigil_rc9.ugc1266210012","folder":"tf","game":"Team Fortress","app_id":440,"player_count":0,"max_players":24,"Bots":0,"server_type":"Dedicated","server_os":"Linux","password":true,"vac":true,"version":"7757534","steam_id":85568392924515217,"keywords":["nocrits","nodmgspread","payload","uncletopia"],"game_id":440,"stv_port":27036,"stv_name":"Uncletopia | Seattle | 3 | Stopwatch Beta | STV","players":null},{"server_id":17,"name":"Uncletopia | San Francisco | 1 | All Maps","name_short":"sfo-1","host":"sfo-1.us.uncletopia.com","port":27015,"enabled":true,"region":"us-west","cc":"us","latitude":37.77397,"longitude":-122.4313,"reserved":0,"last_update":"0001-01-01T00:00:00Z","name_a2s":"Uncletopia | San Francisco | 1 | All Maps","protocol":17,"map":"pl_pier","folder":"tf","game":"Team Fortress","app_id":440,"player_count":24,"max_players":24,"Bots":0,"server_type":"Dedicated","server_os":"Linux","password":true,"vac":true,"version":"7757534","steam_id":85568392924469999,"keywords":["nocrits","nodmgspread","payload","uncletopia"],"game_id":440,"stv_port":27016,"stv_name":"Uncletopia | San Francisco | 1 | All Maps | STV","players":[{"user_id":754,"name":"funky town","steam_id":76561198068105712,"connected_time":778000000000,"state":"active","ping":67},{"user_id":756,"name":"fish","steam_id":76561199047144019,"connected_time":598000000000,"state":"active","ping":57},{"user_id":737,"name":"poetryhole","steam_id":76561198896916997,"connected_time":2523000000000,"state":"active","ping":76},{"user_id":746,"name":"squashbone","steam_id":76561197999466442,"connected_time":1786000000000,"state":"active","ping":61},{"user_id":752,"name":"Hibiscus","steam_id":76561198102897937,"connected_time":1314000000000,"state":"active","ping":45},{"user_id":763,"name":"Harmonee","steam_id":76561198441994267,"connected_time":137000000000,"state":"spawning","ping":69},{"user_id":730,"name":"HE‚ÄôS IN THE GODDAMN WALLS","steam_id":76561198363267009,"connected_time":3195000000000,"state":"active","ping":76},{"user_id":719,"name":"[VP]PurplePaladin","steam_id":76561198017011129,"connected_time":3791000000000,"state":"active","ping":110},{"user_id":751,"name":"superwarm07","steam_id":76561199196313157,"connected_time":1331000000000,"state":"active","ping":134},{"user_id":760,"name":"SparkyMUR","steam_id":76561199051730068,"connected_time":463000000000,"state":"active","ping":77},{"user_id":758,"name":"Ellis","steam_id":76561198993634489,"connected_time":563000000000,"state":"active","ping":61},{"user_id":755,"name":"Gary P","steam_id":76561198149108488,"connected_time":688000000000,"state":"active","ping":83},{"user_id":739,"name":"Ryshy02","steam_id":76561198055425447,"connected_time":2145000000000,"state":"active","ping":75},{"user_id":666,"name":"Gocel","steam_id":76561198071467515,"connected_time":8702000000000,"state":"active","ping":115},{"user_id":761,"name":"rat eater","steam_id":76561198955453886,"connected_time":299000000000,"state":"active","ping":118},{"user_id":728,"name":"[Bandit]","steam_id":76561197986919852,"connected_time":3212000000000,"state":"active","ping":71},{"user_id":742,"name":"Calypso","steam_id":76561198082939544,"connected_time":2113000000000,"state":"active","ping":99},{"user_id":753,"name":"Sunny","steam_id":76561198261667312,"connected_time":1028000000000,"state":"active","ping":72},{"user_id":731,"name":"RileyBlack2344","steam_id":76561199120958526,"connected_time":3152000000000,"state":"active","ping":86},{"user_id":750,"name":"bog","steam_id":76561198086008437,"connected_time":1595000000000,"state":"active","ping":90},{"user_id":675,"name":"peee pee man","steam_id":76561198044979205,"connected_time":7688000000000,"state":"active","ping":124},{"user_id":759,"name":"Magnus","steam_id":76561198061634483,"connected_time":536000000000,"state":"active","ping":77},{"user_id":733,"name":"Eremital","steam_id":76561198069557669,"connected_time":3076000000000,"state":"active","ping":62},{"user_id":764,"name":"Mike Bean Burritos","steam_id":76561198173430607,"connected_time":123000000000,"state":"active","ping":75}]},{"server_id":18,"name":"Uncletopia | San Francisco | 2 | All Maps","name_short":"sfo-2","host":"sfo-1.us.uncletopia.com","port":27025,"enabled":true,"region":"us-west","cc":"us","latitude":37.77397,"longitude":-122.4313,"reserved":0,"last_update":"0001-01-01T00:00:00Z","name_a2s":"Uncletopia | San Francisco | 2 | All Maps","protocol":17,"map":"pl_swiftwater_final1","folder":"tf","game":"Team Fortress","app_id":440,"player_count":24,"max_players":24,"Bots":0,"server_type":"Dedicated","server_os":"Linux","password":true,"vac":true,"version":"7757534","steam_id":85568392924470000,"keywords":["nocrits","nodmgspread","payload","uncletopia"],"game_id":440,"stv_port":27026,"stv_name":"Uncletopia | San Francisco | 2 | All Maps | STV","players":[{"user_id":448,"name":"Rusty","steam_id":76561198055585129,"connected_time":2445000000000,"state":"active","ping":70},{"user_id":482,"name":"mug","steam_id":76561198098905708,"connected_time":285000000000,"state":"active","ping":78},{"user_id":459,"name":"Dongus","steam_id":76561197979056451,"connected_time":1855000000000,"state":"active","ping":61},{"user_id":468,"name":"Buster","steam_id":76561198152473506,"connected_time":823000000000,"state":"active","ping":125},{"user_id":480,"name":"Yosh","steam_id":76561198027078899,"connected_time":385000000000,"state":"active","ping":89},{"user_id":462,"name":"goblino","steam_id":76561198068260422,"connected_time":1272000000000,"state":"active","ping":116},{"user_id":485,"name":"A Fruit","steam_id":76561198951830050,"connected_time":69000000000,"state":"active","ping":76},{"user_id":483,"name":"Aequalis747","steam_id":76561199456589841,"connected_time":267000000000,"state":"active","ping":73},{"user_id":431,"name":"Purple","steam_id":76561198412639010,"connected_time":3851000000000,"state":"active","ping":56},{"user_id":465,"name":"george piston","steam_id":76561198120396039,"connected_time":879000000000,"state":"active","ping":77},{"user_id":389,"name":"The Moon","steam_id":76561198082926682,"connected_time":6566000000000,"state":"active","ping":45},{"user_id":473,"name":"Soozy420","steam_id":76561198809074422,"connected_time":715000000000,"state":"active","ping":70},{"user_id":486,"name":"John Smith","steam_id":76561198185776555,"connected_time":52000000000,"state":"active","ping":59},{"user_id":479,"name":"Chicken Soup","steam_id":76561197989268948,"connected_time":411000000000,"state":"active","ping":101},{"user_id":475,"name":"mewtek","steam_id":76561198138599995,"connected_time":638000000000,"state":"active","ping":71},{"user_id":456,"name":"Walmus","steam_id":76561198111416393,"connected_time":2189000000000,"state":"active","ping":65},{"user_id":381,"name":"Agent Q","steam_id":76561198830829003,"connected_time":7329000000000,"state":"active","ping":77},{"user_id":457,"name":"Maid 'n' China","steam_id":76561198423392976,"connected_time":1905000000000,"state":"active","ping":50},{"user_id":476,"name":"BBL Sponsor","steam_id":76561199093733603,"connected_time":595000000000,"state":"active","ping":59},{"user_id":481,"name":"Livin' Like Larry","steam_id":76561198313360974,"connected_time":385000000000,"state":"active","ping":45},{"user_id":437,"name":"HOG RIDER","steam_id":76561198298589502,"connected_time":3782000000000,"state":"active","ping":52},{"user_id":487,"name":"Bodach J","steam_id":76561197970562873,"connected_time":32000000000,"state":"active","ping":55},{"user_id":488,"name":"ro","steam_id":76561198935253634,"connected_time":27000000000,"state":"active","ping":69},{"user_id":477,"name":"Tom Foolery","steam_id":76561198142772896,"connected_time":572000000000,"state":"active","ping":121}]},{"server_id":19,"name":"Uncletopia | San Francisco | 3 | Stopwatch Beta","name_short":"sfo-3","host":"sfo-1.us.uncletopia.com","port":27035,"enabled":true,"region":"us-west","cc":"us","latitude":37.77397,"longitude":-122.4313,"reserved":0,"last_update":"0001-01-01T00:00:00Z","name_a2s":"Uncletopia | San Francisco | 3 | Stopwatch Beta","protocol":17,"map":"workshop/pl_summercoast_rc8e.ugc1761528829","folder":"tf","game":"Team Fortress","app_id":440,"player_count":0,"max_players":24,"Bots":0,"server_type":"Dedicated","server_os":"Linux","password":true,"vac":true,"version":"7757534","steam_id":85568392924742824,"keywords":["nocrits","nodmgspread","payload","uncletopia"],"game_id":440,"stv_port":27036,"stv_name":"Uncletopia | San Francisco | 3 | Stopwatch Beta | STV","players":null},{"server_id":20,"name":"Uncletopia | San Francisco | 4 | Community","name_short":"sfo-4","host":"sfo-1.us.uncletopia.com","port":27045,"enabled":true,"region":"us-west","cc":"us","latitude":37.77397,"longitude":-122.4313,"reserved":0,"last_update":"0001-01-01T00:00:00Z","name_a2s":"Uncletopia | San Francisco | 4 | Community","protocol":17,"map":"workshop/koth_slaughter_rc1.ugc1712845210","folder":"tf","game":"Team Fortress","app_id":440,"player_count":0,"max_players":24,"Bots":0,"server_type":"Dedicated","server_os":"Linux","password":true,"vac":true,"version":"7757534","steam_id":85568392924742826,"keywords":["cp","nocrits","nodmgspread","uncletopia"],"game_id":440,"stv_port":27046,"stv_name":"Uncletopia | San Francisco | 4 | Community | STV","players":null},{"server_id":141,"name":"Uncletopia | Sydney | 1 | All Maps","name_short":"syd-1","host":"syd-1.au.uncletopia.com","port":27015,"enabled":true,"region":"au","cc":"au","latitude":-33.865143,"longitude":151.2099,"reserved":0,"last_update":"0001-01-01T00:00:00Z","name_a2s":"Uncletopia | Sydney | 1 | All Maps","protocol":17,"map":"pl_barnblitz","folder":"tf","game":"Team Fortress","app_id":440,"player_count":24,"max_players":24,"Bots":0,"server_type":"Dedicated","server_os":"Linux","password":true,"vac":true,"version":"7757534","steam_id":85568392924470001,"keywords":["nocrits","nodmgspread","payload","uncletopia"],"game_id":440,"stv_port":27016,"stv_name":"Uncletopia | Sydney | 1 | All Maps | STV","players":[{"user_id":279,"name":"Warren","steam_id":76561198120350917,"connected_time":5133000000000,"state":"active","ping":38},{"user_id":337,"name":"whiteshaq","steam_id":76561198131988811,"connected_time":1319000000000,"state":"active","ping":82},{"user_id":281,"name":"Mr Mahal","steam_id":76561198123234137,"connected_time":5020000000000,"state":"active","ping":60},{"user_id":346,"name":"horrid creature ·òõ‚ÅêÃ§·ïê·ê∑","steam_id":76561198061998379,"connected_time":181000000000,"state":"active","ping":47},{"user_id":330,"name":"Cup","steam_id":76561198038485845,"connected_time":1915000000000,"state":"active","ping":30},{"user_id":307,"name":"DeathEagle „Ç∑","steam_id":76561197997644542,"connected_time":3164000000000,"state":"active","ping":45},{"user_id":292,"name":"EpicGuy4227","steam_id":76561198094132328,"connected_time":4351000000000,"state":"active","ping":57},{"user_id":342,"name":"BeanFlikka420","steam_id":76561198009665987,"connected_time":1163000000000,"state":"active","ping":100},{"user_id":347,"name":"justaordinarygamer","steam_id":76561199132864695,"connected_time":173000000000,"state":"active","ping":99},{"user_id":338,"name":"Bob Ross","steam_id":76561198081686896,"connected_time":1313000000000,"state":"active","ping":53},{"user_id":327,"name":"calculusfish","steam_id":76561198067205959,"connected_time":1998000000000,"state":"active","ping":64},{"user_id":229,"name":"modus","steam_id":76561198025099660,"connected_time":6747000000000,"state":"active","ping":35},{"user_id":345,"name":"zore","steam_id":76561198016233021,"connected_time":186000000000,"state":"active","ping":55},{"user_id":275,"name":"Tees","steam_id":76561199174602317,"connected_time":5220000000000,"state":"active","ping":47},{"user_id":333,"name":"Tantei Rotana","steam_id":76561198041204323,"connected_time":1783000000000,"state":"active","ping":64},{"user_id":304,"name":"xander","steam_id":76561198063481761,"connected_time":3277000000000,"state":"active","ping":36},{"user_id":344,"name":"No Scrubs","steam_id":76561197969619053,"connected_time":524000000000,"state":"active","ping":72},{"user_id":335,"name":"[GG] Cryo","steam_id":76561198062014383,"connected_time":1425000000000,"state":"active","ping":59},{"user_id":283,"name":"AzureFox","steam_id":76561198108179408,"connected_time":4977000000000,"state":"active","ping":83},{"user_id":266,"name":"Invidia","steam_id":76561198096251579,"connected_time":5464000000000,"state":"active","ping":45},{"user_id":302,"name":"i Ken smell u","steam_id":76561198301282416,"connected_time":3301000000000,"state":"active","ping":54},{"user_id":341,"name":"Captain Canadia","steam_id":76561198167967735,"connected_time":1206000000000,"state":"active","ping":53},{"user_id":278,"name":"Marzell","steam_id":76561198151276153,"connected_time":5181000000000,"state":"active","ping":89},{"user_id":319,"name":"thrax","steam_id":76561197992385270,"connected_time":2287000000000,"state":"active","ping":52}]},{"server_id":123,"name":"Uncletopia | Sydney | 2 | All Maps","name_short":"syd-2","host":"syd-1.au.uncletopia.com","port":27025,"enabled":true,"region":"au","cc":"au","latitude":-33.865143,"longitude":151.2099,"reserved":0,"last_update":"0001-01-01T00:00:00Z","name_a2s":"Uncletopia | Sydney | 2 | All Maps","protocol":17,"map":"pl_barnblitz","folder":"tf","game":"Team Fortress","app_id":440,"player_count":2,"max_players":24,"Bots":0,"server_type":"Dedicated","server_os":"Linux","password":true,"vac":true,"version":"7757534","steam_id":85568392924470002,"keywords":["nocrits","nodmgspread","payload","uncletopia"],"game_id":440,"stv_port":27026,"stv_name":"Uncletopia | Sydney | 2 | All Maps | STV","players":[{"user_id":27,"name":"frostproto","steam_id":76561198911697195,"connected_time":38000000000,"state":"spawning","ping":87},{"user_id":28,"name":"Shadow Puppeteer","steam_id":76561198151121997,"connected_time":13000000000,"state":"spawning","ping":60}]},{"server_id":395,"name":"Uncletopia | Sydney | 3 | All Maps","name_short":"syd-3","host":"syd-1.au.uncletopia.com","port":27035,"enabled":true,"region":"au","cc":"au","latitude":-33.865143,"longitude":151.2099,"reserved":0,"last_update":"0001-01-01T00:00:00Z","name_a2s":"Uncletopia | Sydney | 3 | All Maps","protocol":17,"map":"cp_mountainlab","folder":"tf","game":"Team Fortress","app_id":440,"player_count":0,"max_players":24,"Bots":0,"server_type":"Dedicated","server_os":"Linux","password":true,"vac":true,"version":"7757534","steam_id":85568392925194467,"keywords":["cp","nocrits","nodmgspread","uncletopia"],"game_id":440,"stv_port":27036,"stv_name":"Uncletopia | Sydney | 3 | All Maps | STV","players":null},{"server_id":396,"name":"Uncletopia | Sydney | 4 | All Maps","name_short":"syd-4","host":"syd-1.au.uncletopia.com","port":27045,"enabled":true,"region":"au","cc":"au","latitude":-33.865143,"longitude":151.2099,"reserved":0,"last_update":"0001-01-01T00:00:00Z","name_a2s":"Uncletopia | Sydney | 4 | All Maps","protocol":17,"map":"koth_highpass","folder":"tf","game":"Team Fortress","app_id":440,"player_count":0,"max_players":24,"Bots":0,"server_type":"Dedicated","server_os":"Linux","password":true,"vac":true,"version":"7757534","steam_id":85568392925397958,"keywords":["cp","nocrits","nodmgspread","uncletopia"],"game_id":440,"stv_port":27046,"stv_name":"Uncletopia | Sydney | 4 | All Maps | STV","players":null},{"server_id":58,"name":"Uncletopia | Sydney | 5 | Stopwatch Beta","name_short":"syd-5","host":"syd-1.au.uncletopia.com","port":27055,"enabled":true,"region":"au","cc":"au","latitude":-33.865143,"longitude":151.2099,"reserved":0,"last_update":"0001-01-01T00:00:00Z","name_a2s":"Uncletopia | Sydney | 5 | Stopwatch Beta","protocol":17,"map":"workshop/pl_summercoast_rc8e.ugc1761528829","folder":"tf","game":"Team Fortress","app_id":440,"player_count":0,"max_players":24,"Bots":0,"server_type":"Dedicated","server_os":"Linux","password":true,"vac":true,"version":"7757534","steam_id":85568392925397959,"keywords":["nocrits","nodmgspread","payload","uncletopia"],"game_id":440,"stv_port":27056,"stv_name":"Uncletopia | Sydney | 5 | Stopwatch Beta | STV","players":null},{"server_id":59,"name":"Uncletopia | Sydney | 6 | Community","name_short":"syd-6","host":"syd-1.au.uncletopia.com","port":27065,"enabled":true,"region":"au","cc":"au","latitude":-33.865143,"longitude":151.2099,"reserved":0,"last_update":"0001-01-01T00:00:00Z","name_a2s":"Uncletopia | Sydney | 6 | Community","protocol":17,"map":"workshop/cp_overgrown_rc7b.ugc503939302","folder":"tf","game":"Team Fortress","app_id":440,"player_count":0,"max_players":24,"Bots":0,"server_type":"Dedicated","server_os":"Linux","password":true,"vac":true,"version":"7757534","steam_id":85568392925397960,"keywords":["cp","nocrits","nodmgspread","uncletopia"],"game_id":440,"stv_port":27066,"stv_name":"Uncletopia | Sydney | 6 | Community | STV","players":null},{"server_id":49,"name":"Uncletopia | Warsaw | 1 | All Maps","name_short":"waw-1","host":"waw-1.pl.uncletopia.com","port":27015,"enabled":true,"region":"eu","cc":"pl","latitude":52.2297,"longitude":21.017532,"reserved":0,"last_update":"0001-01-01T00:00:00Z","name_a2s":"","protocol":0,"map":"","folder":"","game":"","app_id":0,"player_count":0,"max_players":0,"Bots":0,"server_type":"","server_os":"","password":false,"vac":false,"version":"","steam_id":0,"keywords":null,"game_id":0,"stv_port":0,"stv_name":"","players":null},{"server_id":50,"name":"Uncletopia | Warsaw | 2 | All Maps","name_short":"waw-2","host":"waw-1.pl.uncletopia.com","port":27025,"enabled":true,"region":"eu","cc":"pl","latitude":52.2297,"longitude":21.017532,"reserved":0,"last_update":"0001-01-01T00:00:00Z","name_a2s":"Uncletopia | Warsaw | 2 | All Maps","protocol":17,"map":"koth_viaduct","folder":"tf","game":"Team Fortress","app_id":440,"player_count":0,"max_players":24,"Bots":0,"server_type":"Dedicated","server_os":"Linux","password":true,"vac":true,"version":"7757534","steam_id":85568392925397851,"keywords":["cp","nocrits","nodmgspread","uncletopia"],"game_id":440,"stv_port":27026,"stv_name":"Uncletopia | Warsaw | 2 | All Maps | STV","players":null},{"server_id":51,"name":"Uncletopia | Warsaw | 3 | All Maps","name_short":"waw-3","host":"waw-1.pl.uncletopia.com","port":27035,"enabled":true,"region":"eu","cc":"pl","latitude":52.2297,"longitude":21.017532,"reserved":0,"last_update":"0001-01-01T00:00:00Z","name_a2s":"Uncletopia | Warsaw | 3 | All Maps","protocol":17,"map":"pl_badwater","folder":"tf","game":"Team Fortress","app_id":440,"player_count":0,"max_players":24,"Bots":0,"server_type":"Dedicated","server_os":"Linux","password":true,"vac":true,"version":"7757534","steam_id":85568392925397852,"keywords":["nocrits","nodmgspread","payload","uncletopia"],"game_id":440,"stv_port":27036,"stv_name":"Uncletopia | Warsaw | 3 | All Maps | STV","players":null},{"server_id":52,"name":"Uncletopia | Warsaw | 4 | All Maps","name_short":"waw-4","host":"waw-1.pl.uncletopia.com","port":27045,"enabled":true,"region":"eu","cc":"pl","latitude":52.2297,"longitude":21.017532,"reserved":0,"last_update":"0001-01-01T00:00:00Z","name_a2s":"Uncletopia | Warsaw | 4 | All Maps","protocol":17,"map":"koth_lakeside_final","folder":"tf","game":"Team Fortress","app_id":440,"player_count":0,"max_players":24,"Bots":0,"server_type":"Dedicated","server_os":"Linux","password":true,"vac":true,"version":"7757534","steam_id":85568392925397853,"keywords":["cp","nocrits","nodmgspread","uncletopia"],"game_id":440,"stv_port":27046,"stv_name":"Uncletopia | Warsaw | 4 | All Maps | STV","players":null},{"server_id":53,"name":"Uncletopia | Warsaw | 5 | Stopwatch Beta","name_short":"waw-5","host":"waw-1.pl.uncletopia.com","port":27055,"enabled":true,"region":"eu","cc":"pl","latitude":52.2297,"longitude":21.017532,"reserved":0,"last_update":"0001-01-01T00:00:00Z","name_a2s":"Uncletopia | Warsaw | 5 | Stopwatch Beta","protocol":17,"map":"pl_borneo","folder":"tf","game":"Team Fortress","app_id":440,"player_count":0,"max_players":24,"Bots":0,"server_type":"Dedicated","server_os":"Linux","password":true,"vac":true,"version":"7757534","steam_id":85568392925397854,"keywords":["nocrits","nodmgspread","payload","uncletopia"],"game_id":440,"stv_port":27056,"stv_name":"Uncletopia | Warsaw | 5 | Stopwatch Beta | STV","players":null},{"server_id":54,"name":"Uncletopia | Warsaw | 6 | Community","name_short":"waw-6","host":"waw-1.pl.uncletopia.com","port":27065,"enabled":true,"region":"eu","cc":"pl","latitude":52.2297,"longitude":21.017532,"reserved":0,"last_update":"0001-01-01T00:00:00Z","name_a2s":"Uncletopia | Warsaw | 6 | Community","protocol":17,"map":"koth_lakeside_final","folder":"tf","game":"Team Fortress","app_id":440,"player_count":0,"max_players":24,"Bots":0,"server_type":"Dedicated","server_os":"Linux","password":true,"vac":true,"version":"7757534","steam_id":85568392925397856,"keywords":["cp","nocrits","nodmgspread","uncletopia"],"game_id":440,"stv_port":27066,"stv_name":"Uncletopia | Warsaw | 6 | Community | STV","players":null}]}