{"status":true,"message":"","result":[{"server_id":9,"name":"Uncletopia | Atlanta | 1 | All Maps","name_short":"atl-1","host":"atl-1.us.uncletopia.com","port":27015,"enabled":true,"region":"us-east","cc":"us","latitude":33.753746,"longitude":-84.38633,"reserved":0,"last_update":"0001-01-01T00:00:00Z","name_a2s":"Uncletopia | Atlanta | 1 | All Maps","protocol":17,"map":"koth_viaduct","folder":"tf","game":"Team Fortress","app_id":440,"player_count":23,"max_players":24,"Bots":0,"server_type":"Dedicated","server_os":"Linux","password":true,"vac":true,"version":"7757534","steam_id":85568392924469982,"keywords":["cp","nocrits","nodmgspread","uncletopia"],"game_id":440,"stv_port":27016,"stv_name":"Uncletopia | Atlanta | 1 | All Maps | STV","players":[{"user_id":1294,"name":"SDL","steam_id":76561198859719985,"connected_time":570000000000,"state":"active","ping":90},{"user_id":1207,"name":"Swoletard","steam_id":76561198074212758,"connected_time":5001000000000,"state":"active","ping":44},{"user_id":1287,"name":"sosu","steam_id":76561198012675381,"connected_time":835000000000,"state":"active","ping":53},{"user_id":1288,"name":"kurai","steam_id":76561198077902438,"connected_time":796000000000,"state":"active","ping":53},{"user_id":1208,"name":"2006Microsoft Intellisense Mous","steam_id":76561198085401931,"connected_time":4995000000000,"state":"active","ping":34},{"user_id":1276,"name":"Brisk","steam_id":76561198129769783,"connected_time":1169000000000,"state":"active","ping":75},{"user_id":1277,"name":"iceman","steam_id":76561198135397441,"connected_time":1155000000000,"state":"active","ping":75},{"user_id":1295,"name":"lil hog","steam_id":76561199230929836,"connected_time":491000000000,"state":"active","ping":77},{"user_id":1297,"name":"JiggleCakes","steam_id":76561199005649151,"connected_time":306000000000,"state":"active","ping":100},{"user_id":1290,"name":"Nauraushaun","steam_id":76561199050174626,"connected_time":781000000000,"state":"active","ping":76},{"user_id":1300,"name":"roman","steam_id":76561198170066797,"connected_time":241000000000,"state":"active","ping":57},{"user_id":1246,"name":"Ashes!","steam_id":76561197998475441,"connected_time":2949000000000,"state":"active","ping":77},{"user_id":1291,"name":"stfu im vibin rn","steam_id":76561198069407799,"connected_time":754000000000,"state":"active","ping":57},{"user_id":1309,"name":"TTV/ArcticFlesh","steam_id":76561198099678868,"connected_time":5000000000,"state":"spawning","ping":55},{"user_id":1293,"name":"floofy","steam_id":76561198389769098,"connected_time":620000000000,"state":"active","ping":80},{"user_id":1284,"name":"Rise for the National Spamton","steam_id":76561198138468982,"connected_time":1010000000000,"state":"active","ping":117},{"user_id":1281,"name":"Towns","steam_id":76561198984662863,"connected_time":1093000000000,"state":"active","ping":57},{"user_id":1292,"name":"eish","steam_id":76561198089463603,"connected_time":700000000000,"state":"active","ping":120},{"user_id":1301,"name":"professional respawner","steam_id":76561198000757362,"connected_time":237000000000,"state":"active","ping":81},{"user_id":1305,"name":"gamers aren't real","steam_id":76561198113748347,"connected_time":121000000000,"state":"active","ping":92},{"user_id":1306,"name":"THEDINKY","steam_id":76561198190077399,"connected_time":88000000000,"state":"active","ping":75},{"user_id":1307,"name":"369","steam_id":76561198228182780,"connected_time":79000000000,"state":"active","ping":105},{"user_id":1308,"name":"I ate those food","steam_id":76561198084614149,"connected_time":53000000000,"state":"active","ping":62}]},{"server_id":400,"name":"Uncletopia | Atlanta | 3 | Community","name_short":"atl-3","host":"atl-1.us.uncletopia.com","port":27035,"enabled":true,"region":"us-east","cc":"us","latitude":33.753746,"longitude":-84.38633,"reserved":0,"last_update":"0001-01-01T00:00:00Z","name_a2s":"Uncletopia | Atlanta | 3 | Community","protocol":17,"map":"workshop/cp_croissant_final.ugc458840209","folder":"tf","game":"Team Fortress","app_id":440,"player_count":5,"max_players":24,"Bots":0,"server_type":"Dedicated","server_os":"Linux","password":true,"vac":true,"version":"7757534","steam_id":85568392924515187,"keywords":["cp","nocrits","nodmgspread","uncletopia"],"game_id":440,"stv_port":27036,"stv_name":"Uncletopia | Atlanta | 3 | Community | STV","players":[{"user_id":216,"name":"Bob Margarine","steam_id":76561197974107198,"connected_time":351000000000,"state":"active","ping":102},{"user_id":217,"name":"papyrus","steam_id":76561199184942128,"connected_time":13000000000,"state":"spawning","ping":307},{"user_id":213,"name":"frutiger aero enthusiast","steam_id":76561198038864014,"connected_time":468000000000,"state":"active","ping":70},{"user_id":214,"name":"AFaTDrAgOn00","steam_id":76561198059691783,"connected_time":452000000000,"state":"active","ping":78},{"user_id":215,"name":"Dr.Booty","steam_id":76561198048492480,"connected_time":447000000000,"state":"active","ping":91}]},{"server_id":401,"name":"Uncletopia | Atlanta | 4 | No Payload","name_short":"atl-4","host":"atl-1.us.uncletopia.com","port":27045,"enabled":true,"region":"us-east","cc":"us","latitude":33.753746,"longitude":-84.38633,"reserved":0,"last_update":"0001-01-01T00:00:00Z","name_a2s":"","protocol":0,"map":"","folder":"","game":"","app_id":0,"player_count":0,"max_players":0,"Bots":0,"server_type":"","server_os":"","password":false,"vac":false,"version":"","steam_id":0,"keywords":null,"game_id":0,"stv_port":0,"stv_name":"","players":null},{"server_id":2,"name":"Uncletopia | Chicago | 1 | All Maps","name_short":"chi-1","host":"chi-1.us.uncletopia.com","port":27015,"enabled":true,"region":"us-central","cc":"us","latitude":41.881832,"longitude":-87.62318,"reserved":0,"last_update":"0001-01-01T00:00:00Z","name_a2s":"Uncletopia | Chicago | 1 | All Maps","protocol":17,"map":"cp_dustbowl","folder":"tf","game":"Team Fortress","app_id":440,"player_count":1,"max_players":24,"Bots":0,"server_type":"Dedicated","server_os":"Linux","password":true,"vac":true,"version":"7757534","steam_id":85568392924469984,"keywords":["cp","nocrits","nodmgspread","uncletopia"],"game_id":440,"stv_port":27016,"stv_name":"Uncletopia | Chicago | 1 | All Maps | STV","players":[{"user_id":634,"name":"Bird watcher #savetf2","steam_id":76561199201098634,"connected_time":5911000000000,"state":"active","ping":53}]},{"server_id":106,"name":"Uncletopia | Chicago | 2 | All Maps","name_short":"chi-2","host":"chi-1.us.uncletopia.com","port":27025,"enabled":true,"region":"us-central","cc":"us","latitude":41.881832,"longitude":-87.62318,"reserved":0,"last_update":"0001-01-01T00:00:00Z","name_a2s":"Uncletopia | Chicago | 2 | All Maps","protocol":17,"map":"koth_lakeside_final","folder":"tf","game":"Team Fortress","app_id":440,"player_count":0,"max_players":24,"Bots":0,"server_type":"Dedicated","server_os":"Linux","password":true,"vac":true,"version":"7757534","steam_id":85568392924469985,"keywords":["cp","nocrits","nodmgspread","uncletopia"],"game_id":440,"stv_port":27026,"stv_name":"Uncletopia | Chicago | 2 | All Maps | STV","players":null},{"server_id":402,"name":"Uncletopia | Chicago | 3 | All Maps","name_short":"chi-3","host":"chi-1.us.uncletopia.com","port":27035,"enabled":true,"region":"us-central","cc":"us","latitude":41.881832,"longitude":-87.62318,"reserved":0,"last_update":"0001-01-01T00:00:00Z","name_a2s":"Uncletopia | Chicago | 3 | All Maps","protocol":17,"map":"pl_pier","folder":"tf","game":"Team Fortress","app_id":440,"player_count":0,"max_players":24,"Bots":0,"server_type":"Dedicated","server_os":"Linux","password":true,"vac":true,"version":"7757534","steam_id":85568392924515191,"keywords":["nocrits","nodmgspread","payload","uncletopia"],"game_id":440,"stv_port":27036,"stv_name":"Uncletopia | Chicago | 3 | All Maps | STV","players":null},{"server_id":403,"name":"Uncletopia | Chicago | 4 | All Maps","name_short":"chi-4","host":"chi-1.us.uncletopia.com","port":27045,"enabled":true,"region":"us-central","cc":"us","latitude":41.881832,"longitude":-87.62318,"reserved":0,"last_update":"0001-01-01T00:00:00Z","name_a2s":"Uncletopia | Chicago | 4 | All Maps","protocol":17,"map":"pl_swiftwater_final1","folder":"tf","game":"Team Fortress","app_id":440,"player_count":24,"max_players":24,"Bots":0,"server_type":"Dedicated","server_os":"Linux","password":true,"vac":true,"version":"7757534","steam_id":85568392924515193,"keywords":["nocrits","nodmgspread","payload","uncletopia"],"game_id":440,"stv_port":27046,"stv_name":"Uncletopia | Chicago | 4 | All Maps | STV","players":[{"user_id":299,"name":"C Papi","steam_id":76561198027779564,"connected_time":7237000000000,"state":"active","ping":54},{"user_id":379,"name":"bo scrungulus","steam_id":76561198038036122,"connected_time":2050000000000,"state":"active","ping":73},{"user_id":399,"name":"roo the observer","steam_id":76561198120684348,"connected_time":617000000000,"state":"active","ping":56},{"user_id":366,"name":"The Pizza King","steam_id":76561198024287176,"connected_time":2537000000000,"state":"active","ping":61},{"user_id":314,"name":"Bliztank | RGL.gg","steam_id":76561198019252798,"connected_time":5479000000000,"state":"active","ping":59},{"user_id":385,"name":"rad","steam_id":76561198413125750,"connected_time":1155000000000,"state":"active","ping":60},{"user_id":367,"name":"Iron","steam_id":76561198247918478,"connected_time":2514000000000,"state":"active","ping":65},{"user_id":383,"name":"j0rd4n","steam_id":76561197962960547,"connected_time":1352000000000,"state":"active","ping":82},{"user_id":392,"name":"marlow","steam_id":76561198094408360,"connected_time":921000000000,"state":"active","ping":75},{"user_id":358,"name":"CHARLIE","steam_id":76561199061380038,"connected_time":3015000000000,"state":"active","ping":161},{"user_id":393,"name":"邪恶的巫师","steam_id":76561198165212575,"connected_time":900000000000,"state":"active","ping":70},{"user_id":347,"name":"barnacle boy","steam_id":76561198003219831,"connected_time":3877000000000,"state":"active","ping":75},{"user_id":362,"name":"Yamagishi","steam_id":76561198209644868,"connected_time":2599000000000,"state":"active","ping":77},{"user_id":394,"name":"reis","steam_id":76561199232952016,"connected_time":873000000000,"state":"active","ping":192},{"user_id":398,"name":"Born to shit, Forced to wipe","steam_id":76561198137880777,"connected_time":656000000000,"state":"active","ping":84},{"user_id":349,"name":"Resistance","steam_id":76561198146782074,"connected_time":3840000000000,"state":"active","ping":54},{"user_id":402,"name":"|Inspector|","steam_id":76561198283518525,"connected_time":442000000000,"state":"active","ping":162},{"user_id":346,"name":"ARE WE HAVING FUN YET","steam_id":76561198028572994,"connected_time":4124000000000,"state":"active","ping":47},{"user_id":387,"name":"Salixiola","steam_id":76561198042177809,"connected_time":1136000000000,"state":"active","ping":69},{"user_id":388,"name":"[DEEP] Danmar33","steam_id":76561198056453091,"connected_time":1120000000000,"state":"active","ping":50},{"user_id":352,"name":"Empyrean","steam_id":76561198116398716,"connected_time":3596000000000,"state":"active","ping":115},{"user_id":401,"name":"nohatbeyond","steam_id":76561198055211132,"connected_time":588000000000,"state":"active","ping":71},{"user_id":377,"name":"Saggy","steam_id":76561198166706479,"connected_time":2130000000000,"state":"active","ping":73},{"user_id":350,"name":"TheMaskedChris","steam_id":76561198271980205,"connected_time":3835000000000,"state":"active","ping":77}]},{"server_id":36,"name":"Uncletopia | Chicago | 5 | All Maps","name_short":"chi-5","host":"chi-2.us.uncletopia.com","port":27015,"enabled":true,"region":"us-central","cc":"us","latitude":41.881832,"longitude":-87.62318,"reserved":0,"last_update":"0001-01-01T00:00:00Z","name_a2s":"Uncletopia | Chicago | 5 | All Maps","protocol":17,"map":"pl_borneo","folder":"tf","game":"Team Fortress","app_id":440,"player_count":24,"max_players":24,"Bots":0,"server_type":"Dedicated","server_os":"Linux","password":true,"vac":true,"version":"7757534","steam_id":85568392924866362,"keywords":["nocrits","nodmgspread","payload","uncletopia"],"game_id":440,"stv_port":27016,"stv_name":"Uncletopia | Chicago | 5 | All Maps | STV","players":[{"user_id":378,"name":"poijm","steam_id":76561198012945016,"connected_time":1464000000000,"state":"active","ping":45},{"user_id":385,"name":"Deacon","steam_id":76561197998532724,"connected_time":346000000000,"state":"active","ping":106},{"user_id":379,"name":"Rudy","steam_id":76561198013456828,"connected_time":1314000000000,"state":"active","ping":72},{"user_id":356,"name":"Punished Shitster","steam_id":76561198150452857,"connected_time":3434000000000,"state":"active","ping":71},{"user_id":361,"name":"ham bone","steam_id":76561198351143785,"connected_time":3161000000000,"state":"active","ping":69},{"user_id":348,"name":"GOD EMPEROR","steam_id":76561198089852954,"connected_time":4210000000000,"state":"active","ping":82},{"user_id":381,"name":"CARCiN","steam_id":76561198042271448,"connected_time":634000000000,"state":"active","ping":69},{"user_id":364,"name":"prestige worldwide (wide)","steam_id":76561198045655893,"connected_time":2886000000000,"state":"active","ping":60},{"user_id":352,"name":"superx","steam_id":76561198044976613,"connected_time":4017000000000,"state":"active","ping":77},{"user_id":331,"name":"gristle","steam_id":76561198046815360,"connected_time":5781000000000,"state":"active","ping":93},{"user_id":335,"name":"groond","steam_id":76561198309426720,"connected_time":5038000000000,"state":"active","ping":59},{"user_id":377,"name":"Vodka","steam_id":76561198062027586,"connected_time":1782000000000,"state":"active","ping":161},{"user_id":322,"name":"social distance warrior","steam_id":76561198128992994,"connected_time":6630000000000,"state":"active","ping":92},{"user_id":383,"name":"pigswill","steam_id":76561197999081865,"connected_time":583000000000,"state":"active","ping":92},{"user_id":344,"name":"domky","steam_id":76561198066114874,"connected_time":4416000000000,"state":"active","ping":103},{"user_id":345,"name":"noh","steam_id":76561198149443710,"connected_time":4362000000000,"state":"active","ping":119},{"user_id":380,"name":"miner","steam_id":76561198073035221,"connected_time":1250000000000,"state":"active","ping":65},{"user_id":366,"name":"Titan Tezwa","steam_id":76561198030320618,"connected_time":2867000000000,"state":"active","ping":70},{"user_id":318,"name":"gerg","steam_id":76561197997127387,"connected_time":6783000000000,"state":"active","ping":99},{"user_id":330,"name":"A Shiny Meat Bicycle","steam_id":76561198358757709,"connected_time":5836000000000,"state":"active","ping":101},{"user_id":373,"name":"lamadre07","steam_id":76561198067337453,"connected_time":2107000000000,"state":"active","ping":106},{"user_id":357,"name":"HE’S IN THE GODDAMN WALLS","steam_id":76561198363267009,"connected_time":3385000000000,"state":"active","ping":70},{"user_id":321,"name":"Mahiru Koizumi","steam_id":76561198164782653,"connected_time":6711000000000,"state":"active","ping":86},{"user_id":347,"name":"Sussus Amogus","steam_id":76561198344691394,"connected_time":4299000000000,"state":"active","ping":64}]},{"server_id":37,"name":"Uncletopia | Chicago | 6 | All Maps","name_short":"chi-6","host":"chi-2.us.uncletopia.com","port":27025,"enabled":true,"region":"us-central","cc":"us","latitude":41.881832,"longitude":-87.62318,"reserved":0,"last_update":"0001-01-01T00:00:00Z","name_a2s":"Uncletopia | Chicago | 6 | All Maps","protocol":17,"map":"pl_pier","folder":"tf","game":"Team Fortress","app_id":440,"player_count":4,"max_players":24,"Bots":0,"server_type":"Dedicated","server_os":"Linux","password":true,"vac":true,"version":"7757534","steam_id":85568392924866363,"keywords":["nocrits","nodmgspread","payload","uncletopia"],"game_id":440,"stv_port":27026,"stv_name":"Uncletopia | Chicago | 6 | All Maps | STV","players":[{"user_id":538,"name":"Mr.Mrausky","steam_id":76561199120622265,"connected_time":1176000000000,"state":"active","ping":72},{"user_id":539,"name":"i rember","steam_id":76561198405060986,"connected_time":1131000000000,"state":"active","ping":92},{"user_id":540,"name":"Truegr","steam_id":76561198811912339,"connected_time":482000000000,"state":"active","ping":134},{"user_id":541,"name":"i forgor","steam_id":76561197975567546,"connected_time":394000000000,"state":"active","ping":104}]},{"server_id":38,"name":"Uncletopia | Chicago | 7 | Stopwatch Beta","name_short":"chi-7","host":"chi-2.us.uncletopia.com","port":27035,"enabled":true,"region":"us-central","cc":"us","latitude":41.881832,"longitude":-87.62318,"reserved":0,"last_update":"0001-01-01T00:00:00Z","name_a2s":"Uncletopia | Chicago | 7 | Stopwatch Beta","protocol":17,"map":"pl_upward","folder":"tf","game":"Team Fortress","app_id":440,"player_count":0,"max_players":24,"Bots":0,"server_type":"Dedicated","server_os":"Linux","password":true,"vac":true,"version":"7757534","steam_id":85568392924866364,"keywords":["nocrits","nodmgspread","payload","uncletopia"],"game_id":440,"stv_port":27036,"stv_name":"Uncletopia | Chicago | 7 | Stopwatch Beta | STV","players":null},{"server_id":39,"name":"Uncletopia | Chicago | 8 | Community","name_short":"chi-8","host":"chi-2.us.uncletopia.com","port":27045,"enabled":true,"region":"us-central","cc":"us","latitude":41.881832,"longitude":-87.62318,"reserved":0,"last_update":"0001-01-01T00:00:00Z","name_a2s":"Uncletopia | Chicago | 8 | Community","protocol":17,"map":"workshop/rd_asteroid_redux_b1.ugc2154902912","folder":"tf","game":"Team Fortress","app_id":440,"player_count":0,"max_players":24,"Bots":0,"server_type":"Dedicated","server_os":"Linux","password":true,"vac":true,"version":"7757534","steam_id":85568392924866365,"keywords":["beta","nocrits","nodmgspread","rd","uncletopia"],"game_id":440,"stv_port":27046,"stv_name":"Uncletopia | Chicago | 8 | Community | STV","players":null},{"server_id":8,"name":"Uncletopia | Dallas | 1 | All Maps","name_short":"dal-1","host":"dal-1.us.uncletopia.com","port":27015,"enabled":true,"region":"us-central","cc":"us","latitude":32.779167,"longitude":-96.80889,"reserved":0,"last_update":"0001-01-01T00:00:00Z","name_a2s":"Uncletopia | Dallas | 1 | All Maps","protocol":17,"map":"cp_dustbowl","folder":"tf","game":"Team Fortress","app_id":440,"player_count":24,"max_players":24,"Bots":0,"server_type":"Dedicated","server_os":"Linux","password":true,"vac":true,"version":"7757534","steam_id":85568392924469986,"keywords":["cp","nocrits","nodmgspread","uncletopia"],"game_id":440,"stv_port":27016,"stv_name":"Uncletopia | Dallas | 1 | All Maps | STV","players":[{"user_id":793,"name":"Pink Tooth Bob","steam_id":76561198142122915,"connected_time":1850000000000,"state":"active","ping":103},{"user_id":819,"name":"snondof","steam_id":76561198150982973,"connected_time":1171000000000,"state":"active","ping":86},{"user_id":812,"name":"Papa Smurf","steam_id":76561198412786186,"connected_time":1372000000000,"state":"active","ping":62},{"user_id":833,"name":"obliviated Gamer ||-iwnl-||","steam_id":76561198044006334,"connected_time":314000000000,"state":"active","ping":104},{"user_id":742,"name":"Saulen","steam_id":76561198150726407,"connected_time":6263000000000,"state":"active","ping":60},{"user_id":828,"name":"HellaCopter","steam_id":76561198062313698,"connected_time":748000000000,"state":"active","ping":101},{"user_id":831,"name":"Shamrock Shake Oct.10.2020 @8pm","steam_id":76561198833313201,"connected_time":372000000000,"state":"active","ping":86},{"user_id":810,"name":"bobbyreinman2009","steam_id":76561198804763186,"connected_time":1435000000000,"state":"active","ping":88},{"user_id":834,"name":"defcon","steam_id":76561198100656328,"connected_time":225000000000,"state":"active","ping":86},{"user_id":832,"name":"it's all gravy baby","steam_id":76561198084832587,"connected_time":327000000000,"state":"active","ping":59},{"user_id":835,"name":"Xylemon","steam_id":76561197965297420,"connected_time":167000000000,"state":"active","ping":105},{"user_id":808,"name":"a_person","steam_id":76561199038072811,"connected_time":1527000000000,"state":"active","ping":75},{"user_id":811,"name":"BeerDrinker49000000000","steam_id":76561198846515168,"connected_time":1427000000000,"state":"active","ping":99},{"user_id":823,"name":"Soda","steam_id":76561198219209367,"connected_time":1096000000000,"state":"active","ping":66},{"user_id":785,"name":"OddSlaush","steam_id":76561198043898488,"connected_time":2198000000000,"state":"active","ping":90},{"user_id":765,"name":"kidspartan1111","steam_id":76561198881635850,"connected_time":4766000000000,"state":"active","ping":87},{"user_id":754,"name":"penzfan","steam_id":76561198230422640,"connected_time":5232000000000,"state":"active","ping":63},{"user_id":813,"name":"Keeby Moment","steam_id":76561198172792271,"connected_time":1365000000000,"state":"active","ping":90},{"user_id":814,"name":"Trube, dube!™","steam_id":76561198965187780,"connected_time":1359000000000,"state":"active","ping":77},{"user_id":815,"name":"Bird of Paradise","steam_id":76561198891152046,"connected_time":1353000000000,"state":"active","ping":100},{"user_id":816,"name":"Ancient Ayys","steam_id":76561198098941655,"connected_time":1350000000000,"state":"active","ping":91},{"user_id":781,"name":"FluttyPutty","steam_id":76561198218446556,"connected_time":2502000000000,"state":"active","ping":69},{"user_id":825,"name":"Even Tide","steam_id":76561199057226703,"connected_time":1071000000000,"state":"active","ping":87},{"user_id":724,"name":"[ØWQJØ]chubacaalatake","steam_id":76561198136201697,"connected_time":7473000000000,"state":"active","ping":121}]},{"server_id":108,"name":"Uncletopia | Dallas | 2 | All Maps","name_short":"dal-2","host":"dal-1.us.uncletopia.com","port":27025,"enabled":true,"region":"us-central","cc":"us","latitude":32.779167,"longitude":-96.80889,"reserved":0,"last_update":"0001-01-01T00:00:00Z","name_a2s":"Uncletopia | Dallas | 2 | All Maps","protocol":17,"map":"cp_snakewater_final1","folder":"tf","game":"Team Fortress","app_id":440,"player_count":15,"max_players":24,"Bots":0,"server_type":"Dedicated","server_os":"Linux","password":true,"vac":true,"version":"7757534","steam_id":85568392924469988,"keywords":["cp","nocrits","nodmgspread","uncletopia"],"game_id":440,"stv_port":27026,"stv_name":"Uncletopia | Dallas | 2 | All Maps | STV","players":[{"user_id":426,"name":"★Kaputt","steam_id":76561198118037894,"connected_time":1914000000000,"state":"active","ping":85},{"user_id":436,"name":"Rinzler","steam_id":76561198380155582,"connected_time":1700000000000,"state":"active","ping":139},{"user_id":449,"name":"Nik's Horny Gay Bird \u003c3","steam_id":76561198349247367,"connected_time":318000000000,"state":"active","ping":95},{"user_id":452,"name":"greg","steam_id":76561198051075489,"connected_time":32000000000,"state":"spawning","ping":64},{"user_id":451,"name":"trashed","steam_id":76561199223514262,"connected_time":182000000000,"state":"active","ping":76},{"user_id":440,"name":"Treatz","steam_id":76561198064634697,"connected_time":1593000000000,"state":"active","ping":76},{"user_id":430,"name":"Local Babyfur Unicorn","steam_id":76561198155526516,"connected_time":1840000000000,"state":"active","ping":43},{"user_id":429,"name":"Western_dragon","steam_id":76561198130456105,"connected_time":1849000000000,"state":"active","ping":75},{"user_id":446,"name":"Speedwaifu ʕ•́ᴥ•̀ʔっ","steam_id":76561198103360445,"connected_time":1052000000000,"state":"active","ping":132},{"user_id":431,"name":"Cat I Win","steam_id":76561198261886976,"connected_time":1838000000000,"state":"active","ping":78},{"user_id":180,"name":"momiji fumo","steam_id":76561198066698922,"connected_time":17553000000000,"state":"active","ping":75},{"user_id":434,"name":"hazardspacewolf","steam_id":76561198447443314,"connected_time":1769000000000,"state":"active","ping":81},{"user_id":435,"name":"KeiSan91","steam_id":76561198141201396,"connected_time":1755000000000,"state":"active","ping":149},{"user_id":443,"name":"WannaSeeA","steam_id":76561198097701042,"connected_time":1547000000000,"state":"active","ping":47},{"user_id":416,"name":"Lucy","steam_id":76561198032590343,"connected_time":2739000000000,"state":"active","ping":85}]},{"server_id":5,"name":"Uncletopia | Frankfurt | 1 | All Maps","name_short":"frk-1","host":"frk-1.de.uncletopia.com","port":27015,"enabled":true,"region":"eu","cc":"de","latitude":50.110924,"longitude":8.682127,"reserved":0,"last_update":"0001-01-01T00:00:00Z","name_a2s":"Uncletopia | Frankfurt | 1 | All Maps","protocol":17,"map":"pl_badwater","folder":"tf","game":"Team Fortress","app_id":440,"player_count":0,"max_players":24,"Bots":0,"server_type":"Dedicated","server_os":"Linux","password":true,"vac":true,"version":"7757534","steam_id":85568392924469989,"keywords":["nocrits","nodmgspread","payload","uncletopia"],"game_id":440,"stv_port":27016,"stv_name":"Uncletopia | Frankfurt | 1 | All Maps | STV","players":null},{"server_id":110,"name":"Uncletopia | Frankfurt | 2 | All Maps","name_short":"frk-2","host":"frk-1.de.uncletopia.com","port":27025,"enabled":true,"region":"eu","cc":"de","latitude":50.110924,"longitude":8.682127,"reserved":0,"last_update":"0001-01-01T00:00:00Z","name_a2s":"Uncletopia | Frankfurt | 2 | All Maps","protocol":17,"map":"cp_altitude","folder":"tf","game":"Team Fortress","app_id":440,"player_count":0,"max_players":24,"Bots":0,"server_type":"Dedicated","server_os":"Linux","password":true,"vac":true,"version":"7757534","steam_id":85568392924469990,"keywords":["cp","nocrits","nodmgspread","uncletopia"],"game_id":440,"stv_port":27026,"stv_name":"Uncletopia | Frankfurt | 2 | All Maps | STV","players":null},{"server_id":308,"name":"Uncletopia | Frankfurt | 3 | All Maps","name_short":"frk-3","host":"frk-1.de.uncletopia.com","port":27035,"enabled":true,"region":"eu","cc":"de","latitude":50.110924,"longitude":8.682127,"reserved":0,"last_update":"0001-01-01T00:00:00Z","name_a2s":"Uncletopia | Frankfurt | 3 | All Maps","protocol":17,"map":"pl_borneo","folder":"tf","game":"Team Fortress","app_id":440,"player_count":0,"max_players":24,"Bots":0,"server_type":"Dedicated","server_os":"Linux","password":true,"vac":true,"version":"7757534","steam_id":85568392924504274,"keywords":["nocrits","nodmgspread","payload","uncletopia"],"game_id":440,"stv_port":27036,"stv_name":"Uncletopia | Frankfurt | 3 | All Maps | STV","players":null},{"server_id":309,"name":"Uncletopia | Frankfurt | 4 | All Maps","name_short":"frk-4","host":"frk-1.de.uncletopia.com","port":27045,"enabled":true,"region":"eu","cc":"de","latitude":50.110924,"longitude":8.682127,"reserved":0,"last_update":"0001-01-01T00:00:00Z","name_a2s":"Uncletopia | Frankfurt | 4 | All Maps","protocol":17,"map":"pl_pier","folder":"tf","game":"Team Fortress","app_id":440,"player_count":0,"max_players":24,"Bots":0,"server_type":"Dedicated","server_os":"Linux","password":true,"vac":true,"version":"7757534","steam_id":85568392924504275,"keywords":["nocrits","nodmgspread","payload","uncletopia"],"game_id":440,"stv_port":27046,"stv_name":"Uncletopia | Frankfurt | 4 | All Maps | STV","players":null},{"server_id":310,"name":"Uncletopia | Frankfurt | 5 | All Maps","name_short":"frk-5","host":"frk-1.de.uncletopia.com","port":27055,"enabled":true,"region":"eu","cc":"de","latitude":50.110924,"longitude":8.682127,"reserved":0,"last_update":"0001-01-01T00:00:00Z","name_a2s":"Uncletopia | Frankfurt | 5 | All Maps","protocol":17,"map":"cp_altitude","folder":"tf","game":"Team Fortress","app_id":440,"player_count":0,"max_players":24,"Bots":0,"server_type":"Dedicated","server_os":"Linux","password":true,"vac":true,"version":"7757534","steam_id":85568392924504277,"keywords":["cp","nocrits","nodmgspread","uncletopia"],"game_id":440,"stv_port":27056,"stv_name":"Uncletopia | Frankfurt | 5 | All Maps | STV","players":null},{"server_id":311,"name":"Uncletopia | Frankfurt | 6 | All Maps","name_short":"frk-6","host":"frk-1.de.uncletopia.com","port":27065,"enabled":true,"region":"eu","cc":"de","latitude":50.110924,"longitude":8.682127,"reserved":0,"last_update":"0001-01-01T00:00:00Z","name_a2s":"Uncletopia | Frankfurt | 6 | All Maps","protocol":17,"map":"pl_barnblitz","folder":"tf","game":"Team Fortress","app_id":440,"player_count":0,"max_players":24,"Bots":0,"server_type":"Dedicated","server_os":"Linux","password":true,"vac":true,"version":"7757534","steam_id":85568392924504278,"keywords":["nocrits","nodmgspread","payload","uncletopia"],"game_id":440,"stv_port":27066,"stv_name":"Uncletopia | Frankfurt | 6 | All Maps | STV","players":null},{"server_id":23,"name":"Uncletopia | Frankfurt | 7 | Stopwatch Beta","name_short":"frk-7","host":"frk-1.de.uncletopia.com","port":27075,"enabled":true,"region":"eu","cc":"de","latitude":50.110924,"longitude":8.682127,"reserved":0,"last_update":"0001-01-01T00:00:00Z","name_a2s":"Uncletopia | Frankfurt | 7 | Stopwatch Beta","protocol":17,"map":"pl_borneo","folder":"tf","game":"Team Fortress","app_id":440,"player_count":0,"max_players":24,"Bots":0,"server_type":"Dedicated","server_os":"Linux","password":true,"vac":true,"version":"7757534","steam_id":85568392924742827,"keywords":["nocrits","nodmgspread","payload","uncletopia"],"game_id":440,"stv_port":27076,"stv_name":"Uncletopia | Frankfurt | 7 | Stopwatch Beta | STV","players":null},{"server_id":24,"name":"Uncletopia | Frankfurt | 8 | Community","name_short":"frk-8","host":"frk-1.de.uncletopia.com","port":27085,"enabled":true,"region":"eu","cc":"de","latitude":50.110924,"longitude":8.682127,"reserved":0,"last_update":"0001-01-01T00:00:00Z","name_a2s":"Uncletopia | Frankfurt | 8 | Community","protocol":17,"map":"workshop/pl_divulgence_b4b.ugc2884808746","folder":"tf","game":"Team Fortress","app_id":440,"player_count":1,"max_players":24,"Bots":0,"server_type":"Dedicated","server_os":"Linux","password":true,"vac":true,"version":"7757534","steam_id":85568392924742828,"keywords":["nocrits","nodmgspread","payload","uncletopia"],"game_id":440,"stv_port":27086,"stv_name":"Uncletopia | Frankfurt | 8 | Community | STV","players":[{"user_id":14,"name":"Kendo-6","steam_id":76561198318748304,"connected_time":2062000000000,"state":"active","ping":111}]},{"server_id":202,"name":"Uncletopia | Hong Kong | 1 | All Maps","name_short":"hgk-1","host":"hgk-1.hk.uncletopia.com","port":27015,"enabled":true,"region":"asia","cc":"hk","latitude":22.302711,"longitude":114.177216,"reserved":0,"last_update":"0001-01-01T00:00:00Z","name_a2s":"Uncletopia | Hong Kong | 1 | All Maps","protocol":17,"map":"koth_lakeside_final","folder":"tf","game":"Team Fortress","app_id":440,"player_count":0,"max_players":24,"Bots":0,"server_type":"Dedicated","server_os":"Linux","password":true,"vac":true,"version":"7757534","steam_id":85568392924494504,"keywords":["cp","nocrits","nodmgspread","uncletopia"],"game_id":440,"stv_port":27016,"stv_name":"Uncletopia | Hong Kong | 1 | All Maps | STV","players":null},{"server_id":1,"name":"Uncletopia | Los Angeles | 1 | All Maps","name_short":"lax-1","host":"lax-1.us.uncletopia.com","port":27015,"enabled":true,"region":"us-west","cc":"us","latitude":33.94279,"longitude":-118.41004,"reserved":0,"last_update":"0001-01-01T00:00:00Z","name_a2s":"Uncletopia | Los Angeles | 1 | All Maps","protocol":17,"map":"koth_cascade","folder":"tf","game":"Team Fortress","app_id":440,"player_count":0,"max_players":24,"Bots":0,"server_type":"Dedicated","server_os":"Linux","password":true,"vac":true,"version":"7757534","steam_id":85568392924469991,"keywords":["cp","nocrits","nodmgspread","uncletopia"],"game_id":440,"stv_port":27016,"stv_name":"Uncletopia | Los Angeles | 1 | All Maps | STV","players":null},{"server_id":112,"name":"Uncletopia | Los Angeles | 2 | All Maps","name_short":"lax-2","host":"lax-1.us.uncletopia.com","port":27025,"enabled":true,"region":"us-west","cc":"us","latitude":33.94279,"longitude":-118.41004,"reserved":0,"last_update":"0001-01-01T00:00:00Z","name_a2s":"Uncletopia | Los Angeles | 2 | All Maps","protocol":17,"map":"koth_viaduct","folder":"tf","game":"Team Fortress","app_id":440,"player_count":0,"max_players":24,"Bots":0,"server_type":"Dedicated","server_os":"Linux","password":true,"vac":true,"version":"7757534","steam_id":85568392924469992,"keywords":["cp","nocrits","nodmgspread","uncletopia"],"game_id":440,"stv_port":27026,"stv_name":"Uncletopia | Los Angeles | 2 | All Maps | STV","players":null},{"server_id":324,"name":"Uncletopia | Los Angeles | 3 | All Maps","name_short":"lax-3","host":"lax-1.us.uncletopia.com","port":27035,"enabled":true,"region":"us-west","cc":"us","latitude":33.94279,"longitude":-118.41004,"reserved":0,"last_update":"0001-01-01T00:00:00Z","name_a2s":"Uncletopia | Los Angeles | 3 | All Maps","protocol":17,"map":"koth_lakeside_final","folder":"tf","game":"Team Fortress","app_id":440,"player_count":24,"max_players":24,"Bots":0,"server_type":"Dedicated","server_os":"Linux","password":true,"vac":true,"version":"7757534","steam_id":85568392924510198,"keywords":["cp","nocrits","nodmgspread","uncletopia"],"game_id":440,"stv_port":27036,"stv_name":"Uncletopia | Los Angeles | 3 | All Maps | STV","players":[{"user_id":357,"name":"Buswolley","steam_id":76561197995205571,"connected_time":3750000000000,"state":"active","ping":57},{"user_id":383,"name":"nella","steam_id":76561198079349621,"connected_time":691000000000,"state":"active","ping":52},{"user_id":307,"name":"Drewski","steam_id":76561198334969647,"connected_time":6573000000000,"state":"active","ping":56},{"user_id":379,"name":"Snaggletooth","steam_id":76561198043784995,"connected_time":1216000000000,"state":"active","ping":69},{"user_id":378,"name":"Ignition","steam_id":76561198857365735,"connected_time":1454000000000,"state":"active","ping":57},{"user_id":371,"name":"EAT SPIT!","steam_id":76561198096836451,"connected_time":2125000000000,"state":"active","ping":55},{"user_id":352,"name":"RightBackAtChu","steam_id":76561199104849434,"connected_time":3879000000000,"state":"active","ping":71},{"user_id":386,"name":"Grecki","steam_id":76561198396610691,"connected_time":504000000000,"state":"active","ping":103},{"user_id":380,"name":"aqua","steam_id":76561199407709552,"connected_time":1130000000000,"state":"active","ping":97},{"user_id":325,"name":"doozy","steam_id":76561198033106776,"connected_time":5983000000000,"state":"active","ping":119},{"user_id":375,"name":"Bubbamanme","steam_id":76561198119778504,"connected_time":1669000000000,"state":"active","ping":83},{"user_id":373,"name":"Fish Lambert","steam_id":76561198098279668,"connected_time":1862000000000,"state":"active","ping":54},{"user_id":391,"name":"DukeofWutang","steam_id":76561198010246343,"connected_time":303000000000,"state":"active","ping":47},{"user_id":387,"name":"Joey Wheeler","steam_id":76561198073792437,"connected_time":502000000000,"state":"active","ping":62},{"user_id":377,"name":"Naffers","steam_id":76561198195957335,"connected_time":1609000000000,"state":"active","ping":75},{"user_id":335,"name":"herbletea","steam_id":76561199079523149,"connected_time":4840000000000,"state":"active","ping":51},{"user_id":370,"name":"Assassin","steam_id":76561198321410235,"connected_time":2126000000000,"state":"active","ping":39},{"user_id":384,"name":"vantiss","steam_id":76561197961105061,"connected_time":532000000000,"state":"active","ping":45},{"user_id":382,"name":"Schnitz","steam_id":76561198265484253,"connected_time":941000000000,"state":"active","ping":53},{"user_id":367,"name":"Amogous Supreme","steam_id":76561198025476774,"connected_time":2847000000000,"state":"active","ping":70},{"user_id":385,"name":"\u003e:3 Muiramme εїз","steam_id":76561197994458543,"connected_time":512000000000,"state":"active","ping":74},{"user_id":309,"name":"Truffles","steam_id":76561198095868800,"connected_time":6572000000000,"state":"active","ping":92},{"user_id":318,"name":"Skullgirls enjoyer","steam_id":76561198077811162,"connected_time":6359000000000,"state":"active","ping":52},{"user_id":376,"name":"chanoc","steam_id":76561198026734746,"connected_time":1668000000000,"state":"active","ping":59}]},{"server_id":25,"name":"Uncletopia | Los Angeles | 4 | Stopwatch Beta","name_short":"lax-4","host":"lax-1.us.uncletopia.com","port":27045,"enabled":true,"region":"us-west","cc":"us","latitude":33.94279,"longitude":-118.41004,"reserved":0,"last_update":"0001-01-01T00:00:00Z","name_a2s":"Uncletopia | Los Angeles | 4 | Stopwatch Beta","protocol":17,"map":"cp_dustbowl","folder":"tf","game":"Team Fortress","app_id":440,"player_count":0,"max_players":24,"Bots":0,"server_type":"Dedicated","server_os":"Linux","password":true,"vac":true,"version":"7757534","steam_id":85568392924510199,"keywords":["cp","nocrits","nodmgspread","uncletopia"],"game_id":440,"stv_port":27046,"stv_name":"Uncletopia | Los Angeles | 4 | Stopwatch Beta | STV","players":null},{"server_id":11,"name":"Uncletopia | London | 1 | All Maps","name_short":"lon-1","host":"lon-1.uk.uncletopia.com","port":27015,"enabled":true,"region":"eu","cc":"gb","latitude":51.509865,"longitude":-0.118092,"reserved":0,"last_update":"0001-01-01T00:00:00Z","name_a2s":"Uncletopia | London | 1 | All Maps","protocol":17,"map":"koth_lakeside_final","folder":"tf","game":"Team Fortress","app_id":440,"player_count":0,"max_players":24,"Bots":0,"server_type":"Dedicated","server_os":"Linux","password":true,"vac":true,"version":"7757534","steam_id":85568392924367362,"keywords":["cp","nocrits","nodmgspread","uncletopia"],"game_id":440,"stv_port":27016,"stv_name":"Uncletopia | London | 1 | All Maps | STV","players":null},{"server_id":114,"name":"Uncletopia | London | 2 | All Maps","name_short":"lon-2","host":"lon-1.uk.uncletopia.com","port":27025,"enabled":true,"region":"eu","cc":"gb","latitude":51.509865,"longitude":-0.118092,"reserved":0,"last_update":"0001-01-01T00:00:00Z","name_a2s":"Uncletopia | London | 2 | All Maps","protocol":17,"map":"pl_pier","folder":"tf","game":"Team Fortress","app_id":440,"player_count":0,"max_players":24,"Bots":0,"server_type":"Dedicated","server_os":"Linux","password":true,"vac":true,"version":"7757534","steam_id":85568392924470941,"keywords":["nocrits","nodmgspread","payload","uncletopia"],"game_id":440,"stv_port":27026,"stv_name":"Uncletopia | London | 2 | All Maps | STV","players":null},{"server_id":320,"name":"Uncletopia | London | 3 | All Maps","name_short":"lon-3","host":"lon-1.uk.uncletopia.com","port":27035,"enabled":true,"region":"eu","cc":"gb","latitude":51.509865,"longitude":-0.118092,"reserved":0,"last_update":"0001-01-01T00:00:00Z","name_a2s":"Uncletopia | London | 3 | All Maps","protocol":17,"map":"pl_badwater","folder":"tf","game":"Team Fortress","app_id":440,"player_count":20,"max_players":24,"Bots":0,"server_type":"Dedicated","server_os":"Linux","password":true,"vac":true,"version":"7757534","steam_id":85568392924510192,"keywords":["nocrits","nodmgspread","payload","uncletopia"],"game_id":440,"stv_port":27036,"stv_name":"Uncletopia | London | 3 | All Maps | STV","players":[{"user_id":101,"name":"gjhkgfkjfh","steam_id":76561198031181349,"connected_time":72000000000,"state":"active","ping":92},{"user_id":4,"name":"marsel","steam_id":76561198116168271,"connected_time":6050000000000,"state":"active","ping":78},{"user_id":27,"name":"Hong Kong Larry","steam_id":76561198071829617,"connected_time":5411000000000,"state":"active","ping":45},{"user_id":99,"name":"gneeda","steam_id":76561198147249160,"connected_time":141000000000,"state":"active","ping":105},{"user_id":97,"name":"Kedy","steam_id":76561198308990457,"connected_time":307000000000,"state":"active","ping":97},{"user_id":47,"name":"mio bomba","steam_id":76561198217364720,"connected_time":4054000000000,"state":"active","ping":59},{"user_id":94,"name":"Flex","steam_id":76561197970482191,"connected_time":1093000000000,"state":"active","ping":55},{"user_id":102,"name":"incel little fucker","steam_id":76561198133341026,"connected_time":9000000000,"state":"spawning","ping":90},{"user_id":36,"name":"Ghost Leviathan","steam_id":76561199198815439,"connected_time":4860000000000,"state":"active","ping":70},{"user_id":96,"name":"neta GAMING GAMING","steam_id":76561198262910410,"connected_time":464000000000,"state":"active","ping":115},{"user_id":95,"name":"Myra Valkyr","steam_id":76561198047233788,"connected_time":475000000000,"state":"active","ping":58},{"user_id":89,"name":"Elusive","steam_id":76561198170323910,"connected_time":1645000000000,"state":"active","ping":46},{"user_id":40,"name":"Maun0","steam_id":76561198191103446,"connected_time":4775000000000,"state":"active","ping":91},{"user_id":100,"name":"Bricky Bob","steam_id":76561198048712030,"connected_time":139000000000,"state":"active","ping":73},{"user_id":78,"name":"Entomono","steam_id":76561198189172213,"connected_time":2928000000000,"state":"active","ping":41},{"user_id":98,"name":"Arti","steam_id":76561197983352845,"connected_time":275000000000,"state":"active","ping":58},{"user_id":29,"name":"CHEEKI BREEKI","steam_id":76561198023120431,"connected_time":5390000000000,"state":"active","ping":66},{"user_id":83,"name":"m","steam_id":76561198883590923,"connected_time":2510000000000,"state":"active","ping":98},{"user_id":39,"name":"qd12","steam_id":76561198396114370,"connected_time":4809000000000,"state":"active","ping":100},{"user_id":88,"name":"trans werewolf","steam_id":76561198107235989,"connected_time":1652000000000,"state":"active","ping":70}]},{"server_id":321,"name":"Uncletopia | London | 4 | All Maps","name_short":"lon-4","host":"lon-1.uk.uncletopia.com","port":27045,"enabled":true,"region":"eu","cc":"gb","latitude":51.509865,"longitude":-0.118092,"reserved":0,"last_update":"0001-01-01T00:00:00Z","name_a2s":"Uncletopia | London | 4 | All Maps","protocol":17,"map":"pl_barnblitz","folder":"tf","game":"Team Fortress","app_id":440,"player_count":0,"max_players":24,"Bots":0,"server_type":"Dedicated","server_os":"Linux","password":true,"vac":true,"version":"7757534","steam_id":85568392924510193,"keywords":["nocrits","nodmgspread","payload","uncletopia"],"game_id":440,"stv_port":27046,"stv_name":"Uncletopia | London | 4 | All Maps | STV","players":null},{"server_id":21,"name":"Uncletopia | London | 5 | All Maps","name_short":"lon-5","host":"lon-1.uk.uncletopia.com","port":27055,"enabled":true,"region":"eu","cc":"gb","latitude":51.509865,"longitude":-0.118092,"reserved":0,"last_update":"0001-01-01T00:00:00Z","name_a2s":"Uncletopia | London | 5 | All Maps","protocol":17,"map":"pl_pier","folder":"tf","game":"Team Fortress","app_id":440,"player_count":0,"max_players":24,"Bots":0,"server_type":"Dedicated","server_os":"Linux","password":true,"vac":true,"version":"7757534","steam_id":85568392924742829,"keywords":["nocrits","nodmgspread","payload","uncletopia"],"game_id":440,"stv_port":27056,"stv_name":"Uncletopia | London | 5 | All Maps | STV","players":null},{"server_id":22,"name":"Uncletopia | London | 6 | All Maps","name_short":"lon-6","host":"lon-1.uk.uncletopia.com","port":27065,"enabled":true,"region":"eu","cc":"gb","latitude":51.509865,"longitude":-0.118092,"reserved":0,"last_update":"0001-01-01T00:00:00Z","name_a2s":"Uncletopia | London | 6 | All Maps","protocol":17,"map":"koth_highpass","folder":"tf","game":"Team Fortress","app_id":440,"player_count":0,"max_players":24,"Bots":0,"server_type":"Dedicated","server_os":"Linux","password":true,"vac":true,"version":"7757534","steam_id":85568392924742830,"keywords":["cp","nocrits","nodmgspread","uncletopia"],"game_id":440,"stv_port":27066,"stv_name":"Uncletopia | London | 6 | All Maps | STV","players":null},{"server_id":40,"name":"Uncletopia | London | 7 | No Payload","name_short":"lon-7","host":"lon-1.uk.uncletopia.com","port":27075,"enabled":true,"region":"eu","cc":"gb","latitude":51.509865,"longitude":-0.118092,"reserved":0,"last_update":"0001-01-01T00:00:00Z","name_a2s":"Uncletopia | London | 7 | No Payload","protocol":17,"map":"koth_highpass","folder":"tf","game":"Team Fortress","app_id":440,"player_count":0,"max_players":24,"Bots":0,"server_type":"Dedicated","server_os":"Linux","password":true,"vac":true,"version":"7757534","steam_id":85568392924964314,"keywords":["cp","nocrits","nodmgspread","uncletopia"],"game_id":440,"stv_port":27076,"stv_name":"Uncletopia | London | 7 | No Payload | STV","players":null},{"server_id":41,"name":"Uncletopia | London | 8 | Community","name_short":"lon-8","host":"lon-1.uk.uncletopia.com","port":27085,"enabled":true,"region":"eu","cc":"gb","latitude":51.509865,"longitude":-0.118092,"reserved":0,"last_update":"0001-01-01T00:00:00Z","name_a2s":"Uncletopia | London | 8 | Community","protocol":17,"map":"cp_altitude","folder":"tf","game":"Team Fortress","app_id":440,"player_count":0,"max_players":24,"Bots":0,"server_type":"Dedicated","server_os":"Linux","password":true,"vac":true,"version":"7757534","steam_id":85568392924964315,"keywords":["cp","nocrits","nodmgspread","uncletopia"],"game_id":440,"stv_port":27086,"stv_name":"Uncletopia | London | 8 | Community | STV","players":null},{"server_id":300,"name":"Uncletopia | Montréal | 1 | All Maps","name_short":"mtl-1","host":"mtl-1.ca.uncletopia.com","port":27015,"enabled":true,"region":"us-east","cc":"ca","latitude":45.50889,"longitude":-73.56167,"reserved":0,"last_update":"0001-01-01T00:00:00Z","name_a2s":"Uncletopia | Montréal | 1 | All Maps","protocol":17,"map":"cp_mountainlab","folder":"tf","game":"Team Fortress","app_id":440,"player_count":0,"max_players":24,"Bots":0,"server_type":"Dedicated","server_os":"Linux","password":true,"vac":true,"version":"7757534","steam_id":85568392924500087,"keywords":["cp","nocrits","nodmgspread","uncletopia"],"game_id":440,"stv_port":27016,"stv_name":"Uncletopia | Montréal | 1 | All Maps | STV","players":null},{"server_id":301,"name":"Uncletopia | Montréal | 2 | All Maps","name_short":"mtl-2","host":"mtl-1.ca.uncletopia.com","port":27025,"enabled":true,"region":"us-east","cc":"ca","latitude":45.50889,"longitude":-73.56167,"reserved":0,"last_update":"0001-01-01T00:00:00Z","name_a2s":"Uncletopia | Montréal | 2 | All Maps","protocol":17,"map":"cp_snakewater_final1","folder":"tf","game":"Team Fortress","app_id":440,"player_count":0,"max_players":24,"Bots":0,"server_type":"Dedicated","server_os":"Linux","password":true,"vac":true,"version":"7757534","steam_id":85568392924500088,"keywords":["cp","nocrits","nodmgspread","uncletopia"],"game_id":440,"stv_port":27026,"stv_name":"Uncletopia | Montréal | 2 | All Maps | STV","players":null},{"server_id":302,"name":"Uncletopia | Montréal | 3 | All Maps","name_short":"mtl-3","host":"mtl-1.ca.uncletopia.com","port":27035,"enabled":true,"region":"us-east","cc":"ca","latitude":45.50889,"longitude":-73.56167,"reserved":0,"last_update":"0001-01-01T00:00:00Z","name_a2s":"Uncletopia | Montréal | 3 | All Maps","protocol":17,"map":"pl_frontier_final","folder":"tf","game":"Team Fortress","app_id":440,"player_count":0,"max_players":24,"Bots":0,"server_type":"Dedicated","server_os":"Linux","password":true,"vac":true,"version":"7757534","steam_id":85568392924500089,"keywords":["nocrits","nodmgspread","payload","uncletopia"],"game_id":440,"stv_port":27036,"stv_name":"Uncletopia | Montréal | 3 | All Maps | STV","players":null},{"server_id":303,"name":"Uncletopia | Montréal | 4 | No Payload","name_short":"mtl-4","host":"mtl-1.ca.uncletopia.com","port":27045,"enabled":true,"region":"us-east","cc":"ca","latitude":45.50889,"longitude":-73.56167,"reserved":0,"last_update":"0001-01-01T00:00:00Z","name_a2s":"Uncletopia | Montréal | 4 | No Payload","protocol":17,"map":"cp_coldfront","folder":"tf","game":"Team Fortress","app_id":440,"player_count":0,"max_players":24,"Bots":0,"server_type":"Dedicated","server_os":"Linux","password":true,"vac":true,"version":"7757534","steam_id":85568392924500090,"keywords":["cp","nocrits","nodmgspread","uncletopia"],"game_id":440,"stv_port":27046,"stv_name":"Uncletopia | Montréal | 4 | No Payload | STV","players":null},{"server_id":13,"name":"Uncletopia | New York City | 1 | All Maps","name_short":"nyc-1","host":"nyc-1.us.uncletopia.com","port":27015,"enabled":true,"region":"us-east","cc":"us","latitude":40.73061,"longitude":-73.93524,"reserved":0,"last_update":"0001-01-01T00:00:00Z","name_a2s":"Uncletopia | New York City | 1 | All Maps","protocol":17,"map":"cp_altitude","folder":"tf","game":"Team Fortress","app_id":440,"player_count":0,"max_players":24,"Bots":0,"server_type":"Dedicated","server_os":"Linux","password":true,"vac":true,"version":"7757534","steam_id":85568392924469993,"keywords":["cp","nocrits","nodmgspread","uncletopia"],"game_id":440,"stv_port":27016,"stv_name":"Uncletopia | New York City | 1 | All Maps | STV","players":null},{"server_id":14,"name":"Uncletopia | New York City | 2 | All Maps","name_short":"nyc-2","host":"nyc-1.us.uncletopia.com","port":27025,"enabled":true,"region":"us-east","cc":"us","latitude":40.73061,"longitude":-73.93524,"reserved":0,"last_update":"0001-01-01T00:00:00Z","name_a2s":"Uncletopia | New York City | 2 | All Maps","protocol":17,"map":"cp_dustbowl","folder":"tf","game":"Team Fortress","app_id":440,"player_count":0,"max_players":24,"Bots":0,"server_type":"Dedicated","server_os":"Linux","password":true,"vac":true,"version":"7757534","steam_id":85568392924469994,"keywords":["cp","nocrits","nodmgspread","uncletopia"],"game_id":440,"stv_port":27026,"stv_name":"Uncletopia | New York City | 2 | All Maps | STV","players":null},{"server_id":15,"name":"Uncletopia | New York City | 3 | Stopwatch Beta","name_short":"nyc-3","host":"nyc-1.us.uncletopia.com","port":27035,"enabled":true,"region":"us-east","cc":"us","latitude":40.73061,"longitude":-73.93524,"reserved":0,"last_update":"0001-01-01T00:00:00Z","name_a2s":"Uncletopia | New York City | 3 | Stopwatch Beta","protocol":17,"map":"workshop/koth_ramjam_rc1.ugc459778887","folder":"tf","game":"Team Fortress","app_id":440,"player_count":0,"max_players":24,"Bots":0,"server_type":"Dedicated","server_os":"Linux","password":true,"vac":true,"version":"7757534","steam_id":85568392924742820,"keywords":["cp","nocrits","nodmgspread","uncletopia"],"game_id":440,"stv_port":27036,"stv_name":"Uncletopia | New York City | 3 | Stopwatch Beta | STV","players":null},{"server_id":16,"name":"Uncletopia | New York City | 4 | Community","name_short":"nyc-4","host":"nyc-1.us.uncletopia.com","port":27045,"enabled":true,"region":"us-east","cc":"us","latitude":40.73061,"longitude":-73.93524,"reserved":0,"last_update":"0001-01-01T00:00:00Z","name_a2s":"Uncletopia | New York City | 4 | Community","protocol":17,"map":"workshop/rd_asteroid_redux_b1.ugc2154902912","folder":"tf","game":"Team Fortress","app_id":440,"player_count":0,"max_players":24,"Bots":0,"server_type":"Dedicated","server_os":"Linux","password":true,"vac":true,"version":"7757534","steam_id":85568392924742821,"keywords":["beta","nocrits","nodmgspread","rd","uncletopia"],"game_id":440,"stv_port":27046,"stv_name":"Uncletopia | New York City | 4 | Community | STV","players":null},{"server_id":142,"name":"Uncletopia | São Paulo | 1 | All Maps","name_short":"sao-1","host":"sao-1.br.uncletopia.com","port":27015,"enabled":true,"region":"sa","cc":"br","latitude":-23.533773,"longitude":-46.62529,"reserved":0,"last_update":"0001-01-01T00:00:00Z","name_a2s":"Uncletopia | São Paulo | 1 | All Maps","protocol":17,"map":"pl_badwater","folder":"tf","game":"Team Fortress","app_id":440,"player_count":0,"max_players":24,"Bots":0,"server_type":"Dedicated","server_os":"Linux","password":true,"vac":true,"version":"7757534","steam_id":85568392924469996,"keywords":["nocrits","nodmgspread","payload","uncletopia"],"game_id":440,"stv_port":27016,"stv_name":"Uncletopia | São Paulo | 1 | All Maps | STV","players":null},{"server_id":143,"name":"Uncletopia | São Paulo | 2 | All Maps","name_short":"sao-2","host":"sao-2.br.uncletopia.com","port":27015,"enabled":true,"region":"sa","cc":"br","latitude":-23.533773,"longitude":-46.62529,"reserved":0,"last_update":"0001-01-01T00:00:00Z","name_a2s":"Uncletopia | São Paulo | 2 | All Maps","protocol":17,"map":"koth_cascade","folder":"tf","game":"Team Fortress","app_id":440,"player_count":0,"max_players":24,"Bots":0,"server_type":"Dedicated","server_os":"Linux","password":true,"vac":true,"version":"7757534","steam_id":85568392924485349,"keywords":["cp","nocrits","nodmgspread","uncletopia"],"game_id":440,"stv_port":27016,"stv_name":"Uncletopia | São Paulo | 2 | All Maps | STV","players":null},{"server_id":7,"name":"Uncletopia | Seattle | 1 | All Maps","name_short":"sea-1","host":"sea-1.us.uncletopia.com","port":27015,"enabled":true,"region":"us-west","cc":"us","latitude":47.608013,"longitude":-122.33517,"reserved":0,"last_update":"0001-01-01T00:00:00Z","name_a2s":"Uncletopia | Seattle | 1 | All Maps","protocol":17,"map":"pl_badwater","folder":"tf","game":"Team Fortress","app_id":440,"player_count":24,"max_players":24,"Bots":0,"server_type":"Dedicated","server_os":"Linux","password":true,"vac":true,"version":"7757534","steam_id":85568392924469997,"keywords":["nocrits","nodmgspread","payload","uncletopia"],"game_id":440,"stv_port":27016,"stv_name":"Uncletopia | Seattle | 1 | All Maps | STV","players":[{"user_id":869,"name":"Ayayahuasca","steam_id":76561199002906056,"connected_time":1988000000000,"state":"active","ping":48},{"user_id":863,"name":"[TrC] Nosy","steam_id":76561197978859310,"connected_time":3255000000000,"state":"active","ping":56},{"user_id":894,"name":"B0baF3tt","steam_id":76561198065339248,"connected_time":158000000000,"state":"active","ping":66},{"user_id":797,"name":"rat gets the cheese","steam_id":76561198031234032,"connected_time":8181000000000,"state":"active","ping":99},{"user_id":851,"name":"Eated Bees","steam_id":76561198352732164,"connected_time":4249000000000,"state":"active","ping":67},{"user_id":892,"name":"harrison.avenue","steam_id":76561198037288988,"connected_time":507000000000,"state":"active","ping":141},{"user_id":891,"name":"Cunny Warrior 77","steam_id":76561198811760680,"connected_time":558000000000,"state":"active","ping":93},{"user_id":873,"name":"Herr Müller","steam_id":76561198064876829,"connected_time":1923000000000,"state":"active","ping":144},{"user_id":850,"name":"PerKnuckleChuckle","steam_id":76561198023221596,"connected_time":4448000000000,"state":"active","ping":85},{"user_id":858,"name":"eau:","steam_id":76561198110020262,"connected_time":3712000000000,"state":"active","ping":74},{"user_id":889,"name":"Moose","steam_id":76561198113839089,"connected_time":794000000000,"state":"active","ping":94},{"user_id":883,"name":"TGGHaze gaming","steam_id":76561199134730784,"connected_time":1606000000000,"state":"active","ping":139},{"user_id":877,"name":"loppy","steam_id":76561198081870327,"connected_time":1867000000000,"state":"active","ping":83},{"user_id":866,"name":"Creature","steam_id":76561198194585781,"connected_time":2781000000000,"state":"active","ping":82},{"user_id":816,"name":"Aribari","steam_id":76561198117327938,"connected_time":6518000000000,"state":"active","ping":122},{"user_id":895,"name":"façade","steam_id":76561199157009256,"connected_time":88000000000,"state":"active","ping":63},{"user_id":860,"name":"Clagger","steam_id":76561198066701092,"connected_time":3388000000000,"state":"active","ping":43},{"user_id":880,"name":"Arsonist Goose","steam_id":76561198147441830,"connected_time":1750000000000,"state":"active","ping":75},{"user_id":846,"name":"ROGUE-PLANET","steam_id":76561198116023052,"connected_time":4686000000000,"state":"active","ping":75},{"user_id":885,"name":"Google","steam_id":76561198857237473,"connected_time":1344000000000,"state":"active","ping":51},{"user_id":893,"name":"CandorDanceFloor","steam_id":76561198062980511,"connected_time":500000000000,"state":"active","ping":127},{"user_id":862,"name":"[TrC] Dackstrus","steam_id":76561197973518509,"connected_time":3278000000000,"state":"active","ping":60},{"user_id":794,"name":"soup","steam_id":76561198043209046,"connected_time":8865000000000,"state":"active","ping":86},{"user_id":882,"name":"Peppy","steam_id":76561198866629645,"connected_time":1701000000000,"state":"active","ping":63}]},{"server_id":119,"name":"Uncletopia | Seattle | 2 | All Maps","name_short":"sea-2","host":"sea-1.us.uncletopia.com","port":27025,"enabled":true,"region":"us-west","cc":"us","latitude":47.608013,"longitude":-122.33517,"reserved":0,"last_update":"0001-01-01T00:00:00Z","name_a2s":"Uncletopia | Seattle | 2 | All Maps","protocol":17,"map":"pl_pier","folder":"tf","game":"Team Fortress","app_id":440,"player_count":24,"max_players":24,"Bots":0,"server_type":"Dedicated","server_os":"Linux","password":true,"vac":true,"version":"7757534","steam_id":85568392924469998,"keywords":["nocrits","nodmgspread","payload","uncletopia"],"game_id":440,"stv_port":27026,"stv_name":"Uncletopia | Seattle | 2 | All Maps | STV","players":[{"user_id":937,"name":"goop","steam_id":76561198204169516,"connected_time":1356000000000,"state":"active","ping":72},{"user_id":938,"name":"moopmop","steam_id":76561198065224965,"connected_time":1356000000000,"state":"active","ping":64},{"user_id":936,"name":"Flembrane","steam_id":76561197995328898,"connected_time":1369000000000,"state":"active","ping":75},{"user_id":883,"name":"cracky","steam_id":76561197971365444,"connected_time":5879000000000,"state":"active","ping":47},{"user_id":931,"name":"jimme mr breast","steam_id":76561198881144114,"connected_time":1656000000000,"state":"active","ping":49},{"user_id":884,"name":"Oomitch","steam_id":76561198071702759,"connected_time":5866000000000,"state":"active","ping":55},{"user_id":942,"name":"Ranger","steam_id":76561199048628904,"connected_time":1219000000000,"state":"active","ping":57},{"user_id":918,"name":"lettuce","steam_id":76561198133969522,"connected_time":2500000000000,"state":"active","ping":74},{"user_id":934,"name":"served","steam_id":76561199438267625,"connected_time":1420000000000,"state":"active","ping":104},{"user_id":940,"name":"Junior_198X","steam_id":76561198158596794,"connected_time":1338000000000,"state":"active","ping":96},{"user_id":944,"name":"Gary, 40, soul sucking 9-5","steam_id":76561198073812888,"connected_time":165000000000,"state":"active","ping":45},{"user_id":941,"name":"Artic_Ryuu","steam_id":76561198182194918,"connected_time":1322000000000,"state":"active","ping":74},{"user_id":922,"name":"Coolshroomish","steam_id":76561199109440924,"connected_time":2458000000000,"state":"active","ping":46},{"user_id":905,"name":"Gay Cake","steam_id":76561198004388831,"connected_time":3762000000000,"state":"active","ping":117},{"user_id":906,"name":"Lt. Dan's Legs","steam_id":76561198043851584,"connected_time":3760000000000,"state":"active","ping":155},{"user_id":928,"name":"IzzyHoP","steam_id":76561197995927883,"connected_time":2253000000000,"state":"active","ping":58},{"user_id":927,"name":"Antzen","steam_id":76561198041343470,"connected_time":2292000000000,"state":"active","ping":64},{"user_id":916,"name":"health station","steam_id":76561198035698704,"connected_time":2506000000000,"state":"active","ping":73},{"user_id":923,"name":"Neo Kojiro","steam_id":76561198000967076,"connected_time":2456000000000,"state":"active","ping":144},{"user_id":908,"name":"BlixyDragon","steam_id":76561198295422834,"connected_time":3709000000000,"state":"active","ping":157},{"user_id":924,"name":"Daddy","steam_id":76561199247095754,"connected_time":2438000000000,"state":"active","ping":69},{"user_id":909,"name":"Nekomata","steam_id":76561198191536489,"connected_time":3706000000000,"state":"active","ping":87},{"user_id":933,"name":"Tyzombiecrusher","steam_id":76561198175855278,"connected_time":1615000000000,"state":"active","ping":93},{"user_id":913,"name":"Strength!!","steam_id":76561198001241984,"connected_time":2580000000000,"state":"active","ping":46}]},{"server_id":406,"name":"Uncletopia | Seattle | 3 | Stopwatch Beta","name_short":"sea-3","host":"sea-1.us.uncletopia.com","port":27035,"enabled":true,"region":"us-west","cc":"us","latitude":47.608013,"longitude":-122.33517,"reserved":0,"last_update":"0001-01-01T00:00:00Z","name_a2s":"Uncletopia | Seattle | 3 | Stopwatch Beta","protocol":17,"map":"workshop/pl_barnblitz_pro7.ugc582280235","folder":"tf","game":"Team Fortress","app_id":440,"player_count":0,"max_players":24,"Bots":0,"server_type":"Dedicated","server_os":"Linux","password":true,"vac":true,"version":"7757534","steam_id":85568392924515217,"keywords":["nocrits","nodmgspread","payload","uncletopia"],"game_id":440,"stv_port":27036,"stv_name":"Uncletopia | Seattle | 3 | Stopwatch Beta | STV","players":null},{"server_id":17,"name":"Uncletopia | San Francisco | 1 | All Maps","name_short":"sfo-1","host":"sfo-1.us.uncletopia.com","port":27015,"enabled":true,"region":"us-west","cc":"us","latitude":37.77397,"longitude":-122.4313,"reserved":0,"last_update":"0001-01-01T00:00:00Z","name_a2s":"Uncletopia | San Francisco | 1 | All Maps","protocol":17,"map":"cp_mountainlab","folder":"tf","game":"Team Fortress","app_id":440,"player_count":2,"max_players":24,"Bots":0,"server_type":"Dedicated","server_os":"Linux","password":true,"vac":true,"version":"7757534","steam_id":85568392924469999,"keywords":["cp","nocrits","nodmgspread","uncletopia"],"game_id":440,"stv_port":27016,"stv_name":"Uncletopia | San Francisco | 1 | All Maps | STV","players":[{"user_id":21,"name":"PheebsyDeebsy","steam_id":76561198101509436,"connected_time":1340000000000,"state":"active","ping":45},{"user_id":22,"name":"GalaxySheep","steam_id":76561198066484754,"connected_time":1290000000000,"state":"active","ping":110}]},{"server_id":18,"name":"Uncletopia | San Francisco | 2 | All Maps","name_short":"sfo-2","host":"sfo-1.us.uncletopia.com","port":27025,"enabled":true,"region":"us-west","cc":"us","latitude":37.77397,"longitude":-122.4313,"reserved":0,"last_update":"0001-01-01T00:00:00Z","name_a2s":"Uncletopia | San Francisco | 2 | All Maps","protocol":17,"map":"pl_pier","folder":"tf","game":"Team Fortress","app_id":440,"player_count":23,"max_players":24,"Bots":0,"server_type":"Dedicated","server_os":"Linux","password":true,"vac":true,"version":"7757534","steam_id":85568392924470000,"keywords":["nocrits","nodmgspread","payload","uncletopia"],"game_id":440,"stv_port":27026,"stv_name":"Uncletopia | San Francisco | 2 | All Maps | STV","players":[{"user_id":602,"name":"Chicken","steam_id":76561198065890499,"connected_time":748000000000,"state":"active","ping":76},{"user_id":620,"name":"Lucki","steam_id":76561198101382602,"connected_time":129000000000,"state":"active","ping":134},{"user_id":581,"name":"Jack from Jack in The Box","steam_id":76561199083594971,"connected_time":1626000000000,"state":"active","ping":64},{"user_id":592,"name":"LtK","steam_id":76561197993180943,"connected_time":1025000000000,"state":"active","ping":74},{"user_id":590,"name":"pro-PAIN","steam_id":76561198104544593,"connected_time":1036000000000,"state":"active","ping":61},{"user_id":593,"name":"deo","steam_id":76561198046650995,"connected_time":1019000000000,"state":"active","ping":103},{"user_id":609,"name":"化け猫","steam_id":76561198095122809,"connected_time":595000000000,"state":"active","ping":59},{"user_id":621,"name":"Kaluka","steam_id":76561198036861445,"connected_time":72000000000,"state":"active","ping":116},{"user_id":618,"name":"AudaCD","steam_id":76561198202775853,"connected_time":215000000000,"state":"active","ping":82},{"user_id":553,"name":"TheDogeIsReal","steam_id":76561199331300024,"connected_time":3242000000000,"state":"active","ping":77},{"user_id":619,"name":"IronHeaver","steam_id":76561198044557973,"connected_time":177000000000,"state":"active","ping":85},{"user_id":622,"name":"achoo","steam_id":76561198009091066,"connected_time":22000000000,"state":"active","ping":87},{"user_id":515,"name":"Fierce Unggoy","steam_id":76561198262565372,"connected_time":6629000000000,"state":"active","ping":71},{"user_id":572,"name":"Sonicega","steam_id":76561198044362988,"connected_time":2003000000000,"state":"active","ping":101},{"user_id":623,"name":"nOT happy Valen tone day","steam_id":76561199217063673,"connected_time":11000000000,"state":"spawning","ping":104},{"user_id":597,"name":"🅜🅔🅔🅚🅢🅣🅔\ufffd\ufffd\ufffd","steam_id":76561197999748343,"connected_time":892000000000,"state":"active","ping":76},{"user_id":604,"name":"Shoot Shooot Good Gud","steam_id":76561198880471961,"connected_time":723000000000,"state":"active","ping":165},{"user_id":610,"name":"Viol3tOni","steam_id":76561198079208738,"connected_time":589000000000,"state":"active","ping":73},{"user_id":606,"name":"L a v e n b a k a","steam_id":76561198171261101,"connected_time":684000000000,"state":"active","ping":89},{"user_id":588,"name":"gravy","steam_id":76561198089644778,"connected_time":1132000000000,"state":"active","ping":74},{"user_id":611,"name":"michard","steam_id":76561198292362552,"connected_time":564000000000,"state":"active","ping":55},{"user_id":586,"name":"soldier (tea for two)","steam_id":76561198072318772,"connected_time":1307000000000,"state":"active","ping":65},{"user_id":613,"name":"tf2 gaming","steam_id":76561199155179026,"connected_time":537000000000,"state":"active","ping":102}]},{"server_id":19,"name":"Uncletopia | San Francisco | 3 | Stopwatch Beta","name_short":"sfo-3","host":"sfo-1.us.uncletopia.com","port":27035,"enabled":true,"region":"us-west","cc":"us","latitude":37.77397,"longitude":-122.4313,"reserved":0,"last_update":"0001-01-01T00:00:00Z","name_a2s":"Uncletopia | San Francisco | 3 | Stopwatch Beta","protocol":17,"map":"cp_snakewater_final1","folder":"tf","game":"Team Fortress","app_id":440,"player_count":0,"max_players":24,"Bots":0,"server_type":"Dedicated","server_os":"Linux","password":true,"vac":true,"version":"7757534","steam_id":85568392924742824,"keywords":["cp","nocrits","nodmgspread","uncletopia"],"game_id":440,"stv_port":27036,"stv_name":"Uncletopia | San Francisco | 3 | Stopwatch Beta | STV","players":null},{"server_id":20,"name":"Uncletopia | San Francisco | 4 | Community","name_short":"sfo-4","host":"sfo-1.us.uncletopia.com","port":27045,"enabled":true,"region":"us-west","cc":"us","latitude":37.77397,"longitude":-122.4313,"reserved":0,"last_update":"0001-01-01T00:00:00Z","name_a2s":"Uncletopia | San Francisco | 4 | Community","protocol":17,"map":"workshop/koth_synthetic_rc6a.ugc1549817316","folder":"tf","game":"Team Fortress","app_id":440,"player_count":0,"max_players":24,"Bots":0,"server_type":"Dedicated","server_os":"Linux","password":true,"vac":true,"version":"7757534","steam_id":85568392924742826,"keywords":["cp","nocrits","nodmgspread","uncletopia"],"game_id":440,"stv_port":27046,"stv_name":"Uncletopia | San Francisco | 4 | Community | STV","players":null},{"server_id":141,"name":"Uncletopia | Sydney | 1 | All Maps","name_short":"syd-1","host":"syd-1.au.uncletopia.com","port":27015,"enabled":true,"region":"au","cc":"au","latitude":-33.865143,"longitude":151.2099,"reserved":0,"last_update":"0001-01-01T00:00:00Z","name_a2s":"Uncletopia | Sydney | 1 | All Maps","protocol":17,"map":"koth_viaduct","folder":"tf","game":"Team Fortress","app_id":440,"player_count":11,"max_players":24,"Bots":0,"server_type":"Dedicated","server_os":"Linux","password":true,"vac":true,"version":"7757534","steam_id":85568392924470001,"keywords":["cp","nocrits","nodmgspread","uncletopia"],"game_id":440,"stv_port":27016,"stv_name":"Uncletopia | Sydney | 1 | All Maps | STV","players":[{"user_id":34,"name":"HollowNaught","steam_id":76561198197382111,"connected_time":1781000000000,"state":"active","ping":45},{"user_id":35,"name":"Janbric OwO","steam_id":76561199161207802,"connected_time":1681000000000,"state":"active","ping":99},{"user_id":36,"name":"Gregory","steam_id":76561199028542666,"connected_time":1259000000000,"state":"active","ping":41},{"user_id":42,"name":"Jetfire","steam_id":76561198047370036,"connected_time":670000000000,"state":"active","ping":68},{"user_id":46,"name":"gato","steam_id":76561198066726621,"connected_time":321000000000,"state":"active","ping":49},{"user_id":45,"name":"cade is sleepy","steam_id":76561198126719182,"connected_time":506000000000,"state":"active","ping":53},{"user_id":43,"name":"Mister Heavy 2012","steam_id":76561198911542330,"connected_time":620000000000,"state":"active","ping":76},{"user_id":47,"name":"xX_Pr0G4mER_xX_2015","steam_id":76561199475233981,"connected_time":217000000000,"state":"active","ping":66},{"user_id":48,"name":"ElectGibbon","steam_id":76561198379243449,"connected_time":105000000000,"state":"active","ping":63},{"user_id":50,"name":"RobloxWarrior_2016","steam_id":76561199474855164,"connected_time":99000000000,"state":"active","ping":60},{"user_id":51,"name":"KiwiJiwi","steam_id":76561198262081410,"connected_time":79000000000,"state":"active","ping":71}]},{"server_id":123,"name":"Uncletopia | Sydney | 2 | All Maps","name_short":"syd-2","host":"syd-1.au.uncletopia.com","port":27025,"enabled":true,"region":"au","cc":"au","latitude":-33.865143,"longitude":151.2099,"reserved":0,"last_update":"0001-01-01T00:00:00Z","name_a2s":"Uncletopia | Sydney | 2 | All Maps","protocol":17,"map":"cp_process_final","folder":"tf","game":"Team Fortress","app_id":440,"player_count":24,"max_players":24,"Bots":0,"server_type":"Dedicated","server_os":"Linux","password":true,"vac":true,"version":"7757534","steam_id":85568392924470002,"keywords":["cp","nocrits","nodmgspread","uncletopia"],"game_id":440,"stv_port":27026,"stv_name":"Uncletopia | Sydney | 2 | All Maps | STV","players":[{"user_id":266,"name":"no vc no c","steam_id":76561197989503095,"connected_time":377000000000,"state":"active","ping":179},{"user_id":264,"name":"andthatsFALSE","steam_id":76561197996932788,"connected_time":419000000000,"state":"active","ping":84},{"user_id":246,"name":"Gwarp","steam_id":76561198061960926,"connected_time":2592000000000,"state":"active","ping":108},{"user_id":271,"name":"the normoaner","steam_id":76561198082423230,"connected_time":96000000000,"state":"active","ping":74},{"user_id":200,"name":"SIRROM12 (SIRR)","steam_id":76561198116738329,"connected_time":5090000000000,"state":"active","ping":68},{"user_id":209,"name":"Toody","steam_id":76561198212656752,"connected_time":4219000000000,"state":"active","ping":48},{"user_id":262,"name":"seiran","steam_id":76561198880907232,"connected_time":606000000000,"state":"active","ping":98},{"user_id":268,"name":"Lukey","steam_id":76561197999887960,"connected_time":369000000000,"state":"active","ping":60},{"user_id":216,"name":"Q","steam_id":76561198055600105,"connected_time":4052000000000,"state":"active","ping":74},{"user_id":243,"name":"JmayTheUnknown","steam_id":76561198217463552,"connected_time":2812000000000,"state":"active","ping":74},{"user_id":239,"name":"zore","steam_id":76561198016233021,"connected_time":3127000000000,"state":"active","ping":61},{"user_id":250,"name":"Fleetfoot","steam_id":76561198072845816,"connected_time":2048000000000,"state":"active","ping":52},{"user_id":211,"name":"saudi ambassador messi","steam_id":76561198031293430,"connected_time":4191000000000,"state":"active","ping":88},{"user_id":267,"name":"Oysenberry","steam_id":76561198125443335,"connected_time":371000000000,"state":"active","ping":44},{"user_id":247,"name":"Tiger_Tan","steam_id":76561198221733844,"connected_time":2592000000000,"state":"active","ping":65},{"user_id":215,"name":"TimTam","steam_id":76561198158862578,"connected_time":4101000000000,"state":"active","ping":68},{"user_id":241,"name":"wackel","steam_id":76561198091003826,"connected_time":2987000000000,"state":"active","ping":64},{"user_id":249,"name":"Enchanted Cat","steam_id":76561198866538028,"connected_time":2098000000000,"state":"active","ping":79},{"user_id":269,"name":"stamm","steam_id":76561198041993019,"connected_time":360000000000,"state":"active","ping":61},{"user_id":270,"name":"FyreFeat","steam_id":76561198068428930,"connected_time":314000000000,"state":"active","ping":50},{"user_id":223,"name":"BLORZINGUS","steam_id":76561198063481761,"connected_time":3732000000000,"state":"active","ping":40},{"user_id":259,"name":"quasi","steam_id":76561198282589938,"connected_time":766000000000,"state":"active","ping":90},{"user_id":236,"name":"Chooka","steam_id":76561197992307814,"connected_time":3262000000000,"state":"active","ping":71},{"user_id":242,"name":"FreeBeers","steam_id":76561198095448607,"connected_time":2898000000000,"state":"active","ping":68}]},{"server_id":395,"name":"Uncletopia | Sydney | 3 | All Maps","name_short":"syd-3","host":"syd-1.au.uncletopia.com","port":27035,"enabled":true,"region":"au","cc":"au","latitude":-33.865143,"longitude":151.2099,"reserved":0,"last_update":"0001-01-01T00:00:00Z","name_a2s":"Uncletopia | Sydney | 3 | All Maps","protocol":17,"map":"pl_badwater","folder":"tf","game":"Team Fortress","app_id":440,"player_count":0,"max_players":24,"Bots":0,"server_type":"Dedicated","server_os":"Linux","password":true,"vac":true,"version":"7757534","steam_id":85568392925194467,"keywords":["nocrits","nodmgspread","payload","uncletopia"],"game_id":440,"stv_port":27036,"stv_name":"Uncletopia | Sydney | 3 | All Maps | STV","players":null},{"server_id":396,"name":"Uncletopia | Sydney | 4 | All Maps","name_short":"syd-4","host":"syd-1.au.uncletopia.com","port":27045,"enabled":true,"region":"au","cc":"au","latitude":-33.865143,"longitude":151.2099,"reserved":0,"last_update":"0001-01-01T00:00:00Z","name_a2s":"Uncletopia | Sydney | 4 | All Maps","protocol":17,"map":"cp_dustbowl","folder":"tf","game":"Team Fortress","app_id":440,"player_count":0,"max_players":24,"Bots":0,"server_type":"Dedicated","server_os":"Linux","password":true,"vac":true,"version":"7757534","steam_id":85568392925397958,"keywords":["cp","nocrits","nodmgspread","uncletopia"],"game_id":440,"stv_port":27046,"stv_name":"Uncletopia | Sydney | 4 | All Maps | STV","players":null},{"server_id":58,"name":"Uncletopia | Sydney | 5 | Stopwatch Beta","name_short":"syd-5","host":"syd-1.au.uncletopia.com","port":27055,"enabled":true,"region":"au","cc":"au","latitude":-33.865143,"longitude":151.2099,"reserved":0,"last_update":"0001-01-01T00:00:00Z","name_a2s":"Uncletopia | Sydney | 5 | Stopwatch Beta","protocol":17,"map":"workshop/koth_clearcut_b15.ugc2107050255","folder":"tf","game":"Team Fortress","app_id":440,"player_count":0,"max_players":24,"Bots":0,"server_type":"Dedicated","server_os":"Linux","password":true,"vac":true,"version":"7757534","steam_id":85568392925397959,"keywords":["cp","nocrits","nodmgspread","uncletopia"],"game_id":440,"stv_port":27056,"stv_name":"Uncletopia | Sydney | 5 | Stopwatch Beta | STV","players":null},{"server_id":59,"name":"Uncletopia | Sydney | 6 | Community","name_short":"syd-6","host":"syd-1.au.uncletopia.com","port":27065,"enabled":true,"region":"au","cc":"au","latitude":-33.865143,"longitude":151.2099,"reserved":0,"last_update":"0001-01-01T00:00:00Z","name_a2s":"Uncletopia | Sydney | 6 | Community","protocol":17,"map":"workshop/pl_emerge_rc2.ugc888027758","folder":"tf","game":"Team Fortress","app_id":440,"player_count":0,"max_players":24,"Bots":0,"server_type":"Dedicated","server_os":"Linux","password":true,"vac":true,"version":"7757534","steam_id":85568392925397960,"keywords":["nocrits","nodmgspread","payload","uncletopia"],"game_id":440,"stv_port":27066,"stv_name":"Uncletopia | Sydney | 6 | Community | STV","players":null},{"server_id":49,"name":"Uncletopia | Warsaw | 1 | All Maps","name_short":"waw-1","host":"waw-1.pl.uncletopia.com","port":27015,"enabled":true,"region":"eu","cc":"pl","latitude":52.2297,"longitude":21.017532,"reserved":0,"last_update":"0001-01-01T00:00:00Z","name_a2s":"","protocol":0,"map":"","folder":"","game":"","app_id":0,"player_count":0,"max_players":0,"Bots":0,"server_type":"","server_os":"","password":false,"vac":false,"version":"","steam_id":0,"keywords":null,"game_id":0,"stv_port":0,"stv_name":"","players":null},{"server_id":50,"name":"Uncletopia | Warsaw | 2 | All Maps","name_short":"waw-2","host":"waw-1.pl.uncletopia.com","port":27025,"enabled":true,"region":"eu","cc":"pl","latitude":52.2297,"longitude":21.017532,"reserved":0,"last_update":"0001-01-01T00:00:00Z","name_a2s":"Uncletopia | Warsaw | 2 | All Maps","protocol":17,"map":"pl_upward","folder":"tf","game":"Team Fortress","app_id":440,"player_count":2,"max_players":24,"Bots":0,"server_type":"Dedicated","server_os":"Linux","password":true,"vac":true,"version":"7757534","steam_id":85568392925397851,"keywords":["nocrits","nodmgspread","payload","uncletopia"],"game_id":440,"stv_port":27026,"stv_name":"Uncletopia | Warsaw | 2 | All Maps | STV","players":[{"user_id":3,"name":"Elongated Muskrat","steam_id":76561198314501346,"connected_time":132000000000,"state":"active","ping":203},{"user_id":4,"name":"Careful Demon (she/they)","steam_id":76561198354263156,"connected_time":46000000000,"state":"active","ping":234}]},{"server_id":51,"name":"Uncletopia | Warsaw | 3 | All Maps","name_short":"waw-3","host":"waw-1.pl.uncletopia.com","port":27035,"enabled":true,"region":"eu","cc":"pl","latitude":52.2297,"longitude":21.017532,"reserved":0,"last_update":"0001-01-01T00:00:00Z","name_a2s":"Uncletopia | Warsaw | 3 | All Maps","protocol":17,"map":"pl_barnblitz","folder":"tf","game":"Team Fortress","app_id":440,"player_count":0,"max_players":24,"Bots":0,"server_type":"Dedicated","server_os":"Linux","password":true,"vac":true,"version":"7757534","steam_id":85568392925397852,"keywords":["nocrits","nodmgspread","payload","uncletopia"],"game_id":440,"stv_port":27036,"stv_name":"Uncletopia | Warsaw | 3 | All Maps | STV","players":null},{"server_id":52,"name":"Uncletopia | Warsaw | 4 | All Maps","name_short":"waw-4","host":"waw-1.pl.uncletopia.com","port":27045,"enabled":true,"region":"eu","cc":"pl","latitude":52.2297,"longitude":21.017532,"reserved":0,"last_update":"0001-01-01T00:00:00Z","name_a2s":"Uncletopia | Warsaw | 4 | All Maps","protocol":17,"map":"cp_altitude","folder":"tf","game":"Team Fortress","app_id":440,"player_count":0,"max_players":24,"Bots":0,"server_type":"Dedicated","server_os":"Linux","password":true,"vac":true,"version":"7757534","steam_id":85568392925397853,"keywords":["cp","nocrits","nodmgspread","uncletopia"],"game_id":440,"stv_port":27046,"stv_name":"Uncletopia | Warsaw | 4 | All Maps | STV","players":null},{"server_id":53,"name":"Uncletopia | Warsaw | 5 | Stopwatch Beta","name_short":"waw-5","host":"waw-1.pl.uncletopia.com","port":27055,"enabled":true,"region":"eu","cc":"pl","latitude":52.2297,"longitude":21.017532,"reserved":0,"last_update":"0001-01-01T00:00:00Z","name_a2s":"Uncletopia | Warsaw | 5 | Stopwatch Beta","protocol":17,"map":"pl_pier","folder":"tf","game":"Team Fortress","app_id":440,"player_count":0,"max_players":24,"Bots":0,"server_type":"Dedicated","server_os":"Linux","password":true,"vac":true,"version":"7757534","steam_id":85568392925397854,"keywords":["nocrits","nodmgspread","payload","uncletopia"],"game_id":440,"stv_port":27056,"stv_name":"Uncletopia | Warsaw | 5 | Stopwatch Beta | STV","players":null},{"server_id":54,"name":"Uncletopia | Warsaw | 6 | Community","name_short":"waw-6","host":"waw-1.pl.uncletopia.com","port":27065,"enabled":true,"region":"eu","cc":"pl","latitude":52.2297,"longitude":21.017532,"reserved":0,"last_update":"0001-01-01T00:00:00Z","name_a2s":"Uncletopia | Warsaw | 6 | Community","protocol":17,"map":"koth_highpass","folder":"tf","game":"Team Fortress","app_id":440,"player_count":0,"max_players":24,"Bots":0,"server_type":"Dedicated","server_os":"Linux","password":true,"vac":true,"version":"7757534","steam_id":85568392925397856,"keywords":["cp","nocrits","nodmgspread","uncletopia"],"game_id":440,"stv_port":27066,"stv_name":"Uncletopia | Warsaw | 6 | Community | STV","players":null}]}