{"status":true,"message":"","result":[{"server_id":9,"name":"Uncletopia | Atlanta | 1 | All Maps","name_short":"atl-1","host":"atl-1.us.uncletopia.com","port":27015,"enabled":true,"region":"us-east","cc":"us","latitude":33.753746,"longitude":-84.38633,"reserved":0,"last_update":"0001-01-01T00:00:00Z","name_a2s":"Uncletopia | Atlanta | 1 | All Maps","protocol":17,"map":"cp_dustbowl","folder":"tf","game":"Team Fortress","app_id":440,"player_count":24,"max_players":24,"Bots":0,"server_type":"Dedicated","server_os":"Linux","password":true,"vac":true,"version":"7882260","steam_id":85568392924469982,"keywords":["cp","nocrits","nodmgspread","uncletopia"],"game_id":440,"stv_port":27016,"stv_name":"Uncletopia | Atlanta | 1 | All Maps | STV","players":[{"user_id":314,"name":"Big Manny","steam_id":76561198999284997,"connected_time":320000000000,"state":"active","ping":116},{"user_id":313,"name":"bottl","steam_id":76561198119873148,"connected_time":430000000000,"state":"active","ping":76},{"user_id":297,"name":"Sableye","steam_id":76561198061247147,"connected_time":1944000000000,"state":"active","ping":71},{"user_id":315,"name":"Ice Teea","steam_id":76561198195673201,"connected_time":282000000000,"state":"active","ping":91},{"user_id":294,"name":"kite","steam_id":76561198346516392,"connected_time":1974000000000,"state":"active","ping":85},{"user_id":311,"name":"TurnupDig75","steam_id":76561198852375121,"connected_time":515000000000,"state":"active","ping":76},{"user_id":239,"name":"SirScarfy","steam_id":76561198194550097,"connected_time":6393000000000,"state":"active","ping":58},{"user_id":287,"name":"HarryjusttHarry","steam_id":76561198982810452,"connected_time":2515000000000,"state":"active","ping":68},{"user_id":316,"name":"chexo4","steam_id":76561198150532531,"connected_time":277000000000,"state":"active","ping":50},{"user_id":317,"name":"lofile","steam_id":76561198083798918,"connected_time":205000000000,"state":"active","ping":55},{"user_id":318,"name":"Fstev âœ˜","steam_id":76561198358766202,"connected_time":140000000000,"state":"active","ping":129},{"user_id":277,"name":"Rin \"Hindwing\" Redtail","steam_id":76561199074865638,"connected_time":3687000000000,"state":"active","ping":60},{"user_id":307,"name":"Moody","steam_id":76561199013442105,"connected_time":993000000000,"state":"active","ping":63},{"user_id":282,"name":"Zo","steam_id":76561198105223387,"connected_time":3277000000000,"state":"active","ping":68},{"user_id":319,"name":"(1)lucky","steam_id":76561198323426623,"connected_time":136000000000,"state":"active","ping":84},{"user_id":304,"name":"TL gaming","steam_id":76561198276735535,"connected_time":1008000000000,"state":"active","ping":162},{"user_id":251,"name":"walrus","steam_id":76561198057853319,"connected_time":5936000000000,"state":"active","ping":63},{"user_id":256,"name":"Karma","steam_id":76561198030565234,"connected_time":4985000000000,"state":"active","ping":70},{"user_id":305,"name":"Scotty","steam_id":76561198268006443,"connected_time":1008000000000,"state":"active","ping":72},{"user_id":320,"name":"Chimpanzee","steam_id":76561198850387282,"connected_time":101000000000,"state":"active","ping":62},{"user_id":321,"name":"twizted","steam_id":76561197960407274,"connected_time":86000000000,"state":"active","ping":93},{"user_id":299,"name":"Gorf","steam_id":76561199060557282,"connected_time":1914000000000,"state":"active","ping":72},{"user_id":249,"name":"dubious little creature","steam_id":76561198113251746,"connected_time":6049000000000,"state":"active","ping":104},{"user_id":291,"name":"Lucky","steam_id":76561198418262145,"connected_time":2248000000000,"state":"active","ping":110}]},{"server_id":104,"name":"Uncletopia | Atlanta | 2 | All Maps","name_short":"atl-2","host":"atl-1.us.uncletopia.com","port":27025,"enabled":true,"region":"us-east","cc":"us","latitude":33.753746,"longitude":-84.38633,"reserved":0,"last_update":"0001-01-01T00:00:00Z","name_a2s":"Uncletopia | Atlanta | 2 | All Maps","protocol":17,"map":"pl_upward","folder":"tf","game":"Team Fortress","app_id":440,"player_count":19,"max_players":24,"Bots":0,"server_type":"Dedicated","server_os":"Linux","password":true,"vac":true,"version":"7882260","steam_id":85568392924469983,"keywords":["nocrits","nodmgspread","payload","uncletopia"],"game_id":440,"stv_port":27026,"stv_name":"Uncletopia | Atlanta | 2 | All Maps | STV","players":[{"user_id":234,"name":"Just_Bad","steam_id":76561198145153093,"connected_time":13000000000,"state":"active","ping":85},{"user_id":229,"name":"SeaBass","steam_id":76561198278914206,"connected_time":790000000000,"state":"active","ping":63},{"user_id":231,"name":"ARussianTrashCan","steam_id":76561199051074672,"connected_time":656000000000,"state":"active","ping":71},{"user_id":168,"name":"ckiller","steam_id":76561198029265697,"connected_time":4568000000000,"state":"active","ping":62},{"user_id":232,"name":"vareh","steam_id":76561197993190926,"connected_time":251000000000,"state":"active","ping":116},{"user_id":216,"name":"Draco6257","steam_id":76561199147322448,"connected_time":1898000000000,"state":"active","ping":51},{"user_id":193,"name":"Soju","steam_id":76561198044130442,"connected_time":2757000000000,"state":"active","ping":86},{"user_id":217,"name":"jstn","steam_id":76561198845283665,"connected_time":1755000000000,"state":"active","ping":57},{"user_id":220,"name":"lactose father","steam_id":76561199408853457,"connected_time":1433000000000,"state":"active","ping":187},{"user_id":228,"name":"the private","steam_id":76561198232500756,"connected_time":1050000000000,"state":"active","ping":83},{"user_id":208,"name":"dirty30","steam_id":76561198021226566,"connected_time":2231000000000,"state":"active","ping":98},{"user_id":226,"name":"sunny","steam_id":76561198069380992,"connected_time":1232000000000,"state":"active","ping":62},{"user_id":202,"name":"carp","steam_id":76561198042865147,"connected_time":2407000000000,"state":"active","ping":88},{"user_id":95,"name":"Shush","steam_id":76561198123902813,"connected_time":9655000000000,"state":"active","ping":75},{"user_id":218,"name":"â™¥Bunnyâ™¥Slutâ™¥","steam_id":76561198206376851,"connected_time":1752000000000,"state":"active","ping":166},{"user_id":224,"name":"Abaddon","steam_id":76561198030992243,"connected_time":1282000000000,"state":"active","ping":70},{"user_id":230,"name":"B.","steam_id":76561198040445907,"connected_time":749000000000,"state":"active","ping":60},{"user_id":227,"name":"Dev","steam_id":76561198388276870,"connected_time":1172000000000,"state":"active","ping":86},{"user_id":203,"name":"Bvare","steam_id":76561198043335113,"connected_time":2404000000000,"state":"active","ping":48}]},{"server_id":400,"name":"Uncletopia | Atlanta | 3 | Community","name_short":"atl-3","host":"atl-1.us.uncletopia.com","port":27035,"enabled":true,"region":"us-east","cc":"us","latitude":33.753746,"longitude":-84.38633,"reserved":0,"last_update":"0001-01-01T00:00:00Z","name_a2s":"Uncletopia | Atlanta | 3 | Community","protocol":17,"map":"workshop/cp_caldera_rc2.ugc2834196889","folder":"tf","game":"Team Fortress","app_id":440,"player_count":21,"max_players":24,"Bots":0,"server_type":"Dedicated","server_os":"Linux","password":true,"vac":true,"version":"7882260","steam_id":85568392924515187,"keywords":["cp","nocrits","nodmgspread","uncletopia"],"game_id":440,"stv_port":27036,"stv_name":"Uncletopia | Atlanta | 3 | Community | STV","players":[{"user_id":192,"name":"redzach","steam_id":76561198444094359,"connected_time":314000000000,"state":"active","ping":58},{"user_id":82,"name":"Infineable","steam_id":76561198358100698,"connected_time":4611000000000,"state":"active","ping":101},{"user_id":131,"name":"KennytheHedgehog","steam_id":76561198094607721,"connected_time":2293000000000,"state":"active","ping":64},{"user_id":154,"name":"veemo","steam_id":76561198321393225,"connected_time":1070000000000,"state":"active","ping":122},{"user_id":180,"name":"Cyberknight","steam_id":76561199384165711,"connected_time":746000000000,"state":"active","ping":64},{"user_id":130,"name":"Cubert","steam_id":76561198045494151,"connected_time":2298000000000,"state":"active","ping":99},{"user_id":194,"name":"Heathcliff","steam_id":76561198044288534,"connected_time":290000000000,"state":"active","ping":74},{"user_id":188,"name":"Keroro","steam_id":76561198075106705,"connected_time":526000000000,"state":"active","ping":77},{"user_id":184,"name":"Dr. Tropen","steam_id":76561198405271669,"connected_time":602000000000,"state":"active","ping":75},{"user_id":182,"name":"Kyle H. McCloud","steam_id":76561198025050432,"connected_time":633000000000,"state":"active","ping":101},{"user_id":151,"name":"dansci","steam_id":76561198269530717,"connected_time":1344000000000,"state":"active","ping":49},{"user_id":189,"name":"orgasmo","steam_id":76561198047355245,"connected_time":499000000000,"state":"active","ping":70},{"user_id":181,"name":"èŒ¶ Tea","steam_id":76561198083053923,"connected_time":745000000000,"state":"active","ping":79},{"user_id":195,"name":"Ink","steam_id":76561198389914633,"connected_time":274000000000,"state":"active","ping":134},{"user_id":196,"name":"Baker","steam_id":76561198055196430,"connected_time":272000000000,"state":"active","ping":75},{"user_id":197,"name":"Kirgamex","steam_id":76561199070311167,"connected_time":239000000000,"state":"active","ping":121},{"user_id":190,"name":"123","steam_id":76561198106308056,"connected_time":416000000000,"state":"active","ping":107},{"user_id":157,"name":"Redninka","steam_id":76561198426721366,"connected_time":1011000000000,"state":"active","ping":62},{"user_id":145,"name":"mvn","steam_id":76561198294258002,"connected_time":1907000000000,"state":"active","ping":58},{"user_id":199,"name":"fatherless_Child","steam_id":76561199245566648,"connected_time":114000000000,"state":"active","ping":129},{"user_id":198,"name":"Windamyre","steam_id":76561198183493927,"connected_time":238000000000,"state":"active","ping":56}]},{"server_id":401,"name":"Uncletopia | Atlanta | 4 | No Payload","name_short":"atl-4","host":"atl-1.us.uncletopia.com","port":27045,"enabled":true,"region":"us-east","cc":"us","latitude":33.753746,"longitude":-84.38633,"reserved":0,"last_update":"0001-01-01T00:00:00Z","name_a2s":"","protocol":0,"map":"","folder":"","game":"","app_id":0,"player_count":0,"max_players":0,"Bots":0,"server_type":"","server_os":"","password":false,"vac":false,"version":"","steam_id":0,"keywords":null,"game_id":0,"stv_port":0,"stv_name":"","players":null},{"server_id":2,"name":"Uncletopia | Chicago | 1 | All Maps","name_short":"chi-1","host":"chi-1.us.uncletopia.com","port":27015,"enabled":true,"region":"us-central","cc":"us","latitude":41.881832,"longitude":-87.62318,"reserved":0,"last_update":"0001-01-01T00:00:00Z","name_a2s":"Uncletopia | Chicago | 1 | All Maps","protocol":17,"map":"pl_borneo","folder":"tf","game":"Team Fortress","app_id":440,"player_count":24,"max_players":24,"Bots":0,"server_type":"Dedicated","server_os":"Linux","password":true,"vac":true,"version":"7882260","steam_id":85568392924469984,"keywords":["nocrits","nodmgspread","payload","uncletopia"],"game_id":440,"stv_port":27016,"stv_name":"Uncletopia | Chicago | 1 | All Maps | STV","players":[{"user_id":408,"name":"jammy nutrient boy genius","steam_id":76561198165086917,"connected_time":709000000000,"state":"active","ping":74},{"user_id":411,"name":"Fudge_Cake","steam_id":76561198059218167,"connected_time":450000000000,"state":"active","ping":62},{"user_id":407,"name":"goose","steam_id":76561198367551668,"connected_time":1010000000000,"state":"active","ping":60},{"user_id":369,"name":"INVEST IN SKYNET::Ï„RU Ï„AO","steam_id":76561198144436132,"connected_time":4822000000000,"state":"active","ping":83},{"user_id":391,"name":"Amari","steam_id":76561198272446730,"connected_time":2407000000000,"state":"active","ping":59},{"user_id":381,"name":"Proudaazz","steam_id":76561199015525980,"connected_time":3171000000000,"state":"active","ping":75},{"user_id":378,"name":"kermitcreeper(ZAZA)","steam_id":76561199222829972,"connected_time":3319000000000,"state":"active","ping":53},{"user_id":377,"name":"Null","steam_id":76561198062791227,"connected_time":3732000000000,"state":"active","ping":73},{"user_id":393,"name":"blob","steam_id":76561198122375328,"connected_time":2156000000000,"state":"active","ping":60},{"user_id":376,"name":"jpuzza","steam_id":76561198035535731,"connected_time":3841000000000,"state":"active","ping":75},{"user_id":355,"name":"Sean Bae","steam_id":76561198036909521,"connected_time":6414000000000,"state":"active","ping":75},{"user_id":383,"name":"Gamma","steam_id":76561198162485719,"connected_time":3149000000000,"state":"active","ping":111},{"user_id":403,"name":"CyberZayne","steam_id":76561198002351356,"connected_time":1264000000000,"state":"active","ping":85},{"user_id":395,"name":"Thundermonkey (SMOKE)","steam_id":76561198017631728,"connected_time":2036000000000,"state":"active","ping":64},{"user_id":404,"name":"Kattnesta","steam_id":76561198210927551,"connected_time":1235000000000,"state":"active","ping":54},{"user_id":412,"name":"evolutionary sleeper","steam_id":76561198125328737,"connected_time":362000000000,"state":"active","ping":61},{"user_id":398,"name":"gravid baby","steam_id":76561198318646867,"connected_time":1368000000000,"state":"active","ping":65},{"user_id":390,"name":"Lemon Drop","steam_id":76561198023684559,"connected_time":2832000000000,"state":"active","ping":62},{"user_id":413,"name":"zac n cheese","steam_id":76561198047702596,"connected_time":151000000000,"state":"active","ping":57},{"user_id":409,"name":"JelloMotion","steam_id":76561198045892038,"connected_time":667000000000,"state":"active","ping":60},{"user_id":410,"name":"Ras","steam_id":76561198123546775,"connected_time":568000000000,"state":"active","ping":75},{"user_id":341,"name":"Straight-Faced Orgasm","steam_id":76561198170007261,"connected_time":8308000000000,"state":"active","ping":92},{"user_id":387,"name":"Saigon Squidward","steam_id":76561198079525758,"connected_time":3020000000000,"state":"active","ping":74},{"user_id":389,"name":"ganchy","steam_id":76561198088384838,"connected_time":2863000000000,"state":"active","ping":106}]},{"server_id":106,"name":"Uncletopia | Chicago | 2 | All Maps","name_short":"chi-2","host":"chi-1.us.uncletopia.com","port":27025,"enabled":true,"region":"us-central","cc":"us","latitude":41.881832,"longitude":-87.62318,"reserved":0,"last_update":"0001-01-01T00:00:00Z","name_a2s":"Uncletopia | Chicago | 2 | All Maps","protocol":17,"map":"pl_badwater","folder":"tf","game":"Team Fortress","app_id":440,"player_count":24,"max_players":24,"Bots":0,"server_type":"Dedicated","server_os":"Linux","password":true,"vac":true,"version":"7882260","steam_id":85568392924469985,"keywords":["nocrits","nodmgspread","payload","uncletopia"],"game_id":440,"stv_port":27026,"stv_name":"Uncletopia | Chicago | 2 | All Maps | STV","players":[{"user_id":287,"name":"Goober","steam_id":76561198988863807,"connected_time":37000000000,"state":"active","ping":70},{"user_id":256,"name":"PoisonIvy","steam_id":76561198072384574,"connected_time":1372000000000,"state":"active","ping":55},{"user_id":285,"name":"StonedGiant","steam_id":76561197984386932,"connected_time":97000000000,"state":"active","ping":59},{"user_id":286,"name":"the","steam_id":76561198003226288,"connected_time":97000000000,"state":"active","ping":55},{"user_id":257,"name":"Cy4nideCutie","steam_id":76561198126686695,"connected_time":1367000000000,"state":"active","ping":74},{"user_id":216,"name":"AreYouMyMummy?","steam_id":76561197995101745,"connected_time":4235000000000,"state":"active","ping":58},{"user_id":258,"name":"AlcoholicKitty","steam_id":76561198084763130,"connected_time":1364000000000,"state":"active","ping":74},{"user_id":280,"name":"gundog","steam_id":76561198063240044,"connected_time":236000000000,"state":"active","ping":60},{"user_id":277,"name":"LerN","steam_id":76561198083463877,"connected_time":487000000000,"state":"active","ping":46},{"user_id":262,"name":"footoftheday","steam_id":76561198052712449,"connected_time":1246000000000,"state":"active","ping":74},{"user_id":251,"name":"Fraglin","steam_id":76561198124964000,"connected_time":1751000000000,"state":"active","ping":78},{"user_id":278,"name":"Zhenaj","steam_id":76561199209016136,"connected_time":467000000000,"state":"active","ping":60},{"user_id":281,"name":"CURSED_ROKIM","steam_id":76561199120016510,"connected_time":196000000000,"state":"active","ping":112},{"user_id":264,"name":"igotmail","steam_id":76561198070631899,"connected_time":1226000000000,"state":"active","ping":69},{"user_id":279,"name":"Za Zombie","steam_id":76561198055545262,"connected_time":429000000000,"state":"active","ping":69},{"user_id":273,"name":"Fantastibad","steam_id":76561199087329262,"connected_time":824000000000,"state":"active","ping":74},{"user_id":268,"name":"WhiteRabbit","steam_id":76561198027579538,"connected_time":1152000000000,"state":"active","ping":68},{"user_id":198,"name":"DeadErebus","steam_id":76561198286117045,"connected_time":6935000000000,"state":"active","ping":41},{"user_id":237,"name":"slonked","steam_id":76561198124191084,"connected_time":2541000000000,"state":"active","ping":78},{"user_id":247,"name":"erm....","steam_id":76561198143132686,"connected_time":2097000000000,"state":"active","ping":88},{"user_id":269,"name":"moe","steam_id":76561198119667244,"connected_time":1136000000000,"state":"active","ping":62},{"user_id":276,"name":"Jeremopolis","steam_id":76561198079467492,"connected_time":723000000000,"state":"active","ping":70},{"user_id":283,"name":"Dr.Canton","steam_id":76561198865885114,"connected_time":142000000000,"state":"active","ping":57},{"user_id":284,"name":"â˜¹","steam_id":76561198804763186,"connected_time":141000000000,"state":"active","ping":60}]},{"server_id":402,"name":"Uncletopia | Chicago | 3 | All Maps","name_short":"chi-3","host":"chi-1.us.uncletopia.com","port":27035,"enabled":true,"region":"us-central","cc":"us","latitude":41.881832,"longitude":-87.62318,"reserved":0,"last_update":"0001-01-01T00:00:00Z","name_a2s":"Uncletopia | Chicago | 3 | All Maps","protocol":17,"map":"pl_borneo","folder":"tf","game":"Team Fortress","app_id":440,"player_count":24,"max_players":24,"Bots":0,"server_type":"Dedicated","server_os":"Linux","password":true,"vac":true,"version":"7882260","steam_id":85568392924515191,"keywords":["nocrits","nodmgspread","payload","uncletopia"],"game_id":440,"stv_port":27036,"stv_name":"Uncletopia | Chicago | 3 | All Maps | STV","players":[{"user_id":387,"name":"Sprinklingmydoughnut","steam_id":76561198168009092,"connected_time":514000000000,"state":"active","ping":92},{"user_id":310,"name":"Wire  Bash","steam_id":76561198033268371,"connected_time":5658000000000,"state":"active","ping":150},{"user_id":379,"name":"fuckwit","steam_id":76561198342160837,"connected_time":1314000000000,"state":"active","ping":70},{"user_id":380,"name":"Apetometrist","steam_id":76561198045391635,"connected_time":1210000000000,"state":"active","ping":59},{"user_id":339,"name":"Kidjays","steam_id":76561198124941901,"connected_time":3990000000000,"state":"active","ping":98},{"user_id":340,"name":"Crunchy","steam_id":76561199065412274,"connected_time":3677000000000,"state":"active","ping":69},{"user_id":361,"name":"Cdi","steam_id":76561198056223909,"connected_time":2742000000000,"state":"active","ping":60},{"user_id":369,"name":"Alan","steam_id":76561198977083959,"connected_time":2552000000000,"state":"active","ping":98},{"user_id":390,"name":"Meat Mans Meat","steam_id":76561198062149455,"connected_time":427000000000,"state":"active","ping":60},{"user_id":392,"name":"Cedric","steam_id":76561198072090580,"connected_time":342000000000,"state":"active","ping":91},{"user_id":389,"name":"MILKY","steam_id":76561198073114061,"connected_time":447000000000,"state":"active","ping":70},{"user_id":391,"name":"Asura","steam_id":76561198197227615,"connected_time":401000000000,"state":"active","ping":68},{"user_id":388,"name":"Mehman","steam_id":76561199020244051,"connected_time":459000000000,"state":"active","ping":98},{"user_id":312,"name":"Mephistopheles","steam_id":76561198253731826,"connected_time":5335000000000,"state":"active","ping":60},{"user_id":384,"name":"SwampMonkeyJR","steam_id":76561198218862723,"connected_time":1153000000000,"state":"active","ping":97},{"user_id":363,"name":"Joey Diaz","steam_id":76561198194796010,"connected_time":2705000000000,"state":"active","ping":82},{"user_id":329,"name":"Lost","steam_id":76561198025933206,"connected_time":4678000000000,"state":"active","ping":59},{"user_id":374,"name":"Lichy","steam_id":76561198310682841,"connected_time":2048000000000,"state":"active","ping":60},{"user_id":393,"name":"blobb","steam_id":76561198950448488,"connected_time":334000000000,"state":"active","ping":50},{"user_id":355,"name":"ShadowDragon0125","steam_id":76561198343849022,"connected_time":2818000000000,"state":"active","ping":69},{"user_id":319,"name":"Gummy","steam_id":76561198298890887,"connected_time":5147000000000,"state":"active","ping":86},{"user_id":341,"name":"Mindstrain","steam_id":76561199274044215,"connected_time":3656000000000,"state":"active","ping":105},{"user_id":330,"name":"Galaxy","steam_id":76561198035134466,"connected_time":4658000000000,"state":"active","ping":69},{"user_id":385,"name":"Cuttle's Fish","steam_id":76561198280483257,"connected_time":1146000000000,"state":"active","ping":60}]},{"server_id":403,"name":"Uncletopia | Chicago | 4 | All Maps","name_short":"chi-4","host":"chi-1.us.uncletopia.com","port":27045,"enabled":true,"region":"us-central","cc":"us","latitude":41.881832,"longitude":-87.62318,"reserved":0,"last_update":"0001-01-01T00:00:00Z","name_a2s":"Uncletopia | Chicago | 4 | All Maps","protocol":17,"map":"plr_hightower","folder":"tf","game":"Team Fortress","app_id":440,"player_count":4,"max_players":24,"Bots":0,"server_type":"Dedicated","server_os":"Linux","password":true,"vac":true,"version":"7882260","steam_id":85568392924515193,"keywords":["nocrits","nodmgspread","payload","uncletopia"],"game_id":440,"stv_port":27046,"stv_name":"Uncletopia | Chicago | 4 | All Maps | STV","players":[{"user_id":22,"name":"yellow spy","steam_id":76561199128050459,"connected_time":4865000000000,"state":"active","ping":58},{"user_id":23,"name":"Snipekid","steam_id":76561199385495976,"connected_time":4851000000000,"state":"active","ping":105},{"user_id":24,"name":"Avg aba player","steam_id":76561199212784204,"connected_time":4819000000000,"state":"active","ping":65},{"user_id":25,"name":"greekgoat","steam_id":76561199076897356,"connected_time":4695000000000,"state":"active","ping":59}]},{"server_id":36,"name":"Uncletopia | Chicago | 5 | All Maps","name_short":"chi-5","host":"chi-2.us.uncletopia.com","port":27015,"enabled":true,"region":"us-central","cc":"us","latitude":41.881832,"longitude":-87.62318,"reserved":0,"last_update":"0001-01-01T00:00:00Z","name_a2s":"Uncletopia | Chicago | 5 | All Maps","protocol":17,"map":"pl_swiftwater_final1","folder":"tf","game":"Team Fortress","app_id":440,"player_count":24,"max_players":24,"Bots":0,"server_type":"Dedicated","server_os":"Linux","password":true,"vac":true,"version":"7882260","steam_id":85568392924866362,"keywords":["nocrits","nodmgspread","payload","uncletopia"],"game_id":440,"stv_port":27016,"stv_name":"Uncletopia | Chicago | 5 | All Maps | STV","players":[{"user_id":144,"name":"Sabaman55","steam_id":76561198212267979,"connected_time":142000000000,"state":"active","ping":50},{"user_id":131,"name":"Brigade","steam_id":76561198044656610,"connected_time":983000000000,"state":"active","ping":67},{"user_id":137,"name":"chetan.nanda.nelluri","steam_id":76561199323410857,"connected_time":370000000000,"state":"active","ping":60},{"user_id":138,"name":"com lag","steam_id":76561198019019392,"connected_time":284000000000,"state":"active","ping":48},{"user_id":139,"name":"gendermutt","steam_id":76561198152857317,"connected_time":265000000000,"state":"active","ping":42},{"user_id":85,"name":"strangejune","steam_id":76561198272400016,"connected_time":2966000000000,"state":"active","ping":88},{"user_id":58,"name":"Calypso","steam_id":76561199015827567,"connected_time":5487000000000,"state":"active","ping":83},{"user_id":140,"name":"ive lobotomized myself","steam_id":76561198099829717,"connected_time":257000000000,"state":"active","ping":52},{"user_id":141,"name":"Kaptain","steam_id":76561199085057380,"connected_time":199000000000,"state":"active","ping":97},{"user_id":134,"name":"mio","steam_id":76561198239286750,"connected_time":549000000000,"state":"active","ping":69},{"user_id":84,"name":"Billosky Time Lord","steam_id":76561199159626560,"connected_time":2989000000000,"state":"active","ping":154},{"user_id":26,"name":"that dick can piss","steam_id":76561198971285292,"connected_time":7217000000000,"state":"active","ping":63},{"user_id":129,"name":"Icaras","steam_id":76561198416724843,"connected_time":1188000000000,"state":"active","ping":131},{"user_id":142,"name":"Rhutebeer","steam_id":76561198018302761,"connected_time":185000000000,"state":"active","ping":107},{"user_id":132,"name":"CherriKat (she/her)","steam_id":76561198821297512,"connected_time":981000000000,"state":"active","ping":105},{"user_id":93,"name":"teafalopi","steam_id":76561198406252824,"connected_time":2736000000000,"state":"active","ping":112},{"user_id":97,"name":"dr peppah chug!","steam_id":76561198068835693,"connected_time":2385000000000,"state":"active","ping":87},{"user_id":136,"name":"August West","steam_id":76561197995068347,"connected_time":483000000000,"state":"active","ping":76},{"user_id":55,"name":"MenacingMekhet","steam_id":76561198053165462,"connected_time":5984000000000,"state":"active","ping":60},{"user_id":133,"name":"Carson","steam_id":76561198076771071,"connected_time":896000000000,"state":"active","ping":46},{"user_id":143,"name":"mintongryphon - Warm Warrior","steam_id":76561199427146067,"connected_time":178000000000,"state":"active","ping":100},{"user_id":145,"name":"breathe air","steam_id":76561198375192558,"connected_time":115000000000,"state":"active","ping":77},{"user_id":128,"name":"dak","steam_id":76561198076596506,"connected_time":1413000000000,"state":"active","ping":63},{"user_id":130,"name":"shitting","steam_id":76561198098781227,"connected_time":1162000000000,"state":"active","ping":98}]},{"server_id":37,"name":"Uncletopia | Chicago | 6 | All Maps","name_short":"chi-6","host":"chi-2.us.uncletopia.com","port":27025,"enabled":true,"region":"us-central","cc":"us","latitude":41.881832,"longitude":-87.62318,"reserved":0,"last_update":"0001-01-01T00:00:00Z","name_a2s":"Uncletopia | Chicago | 6 | All Maps","protocol":17,"map":"pl_frontier_final","folder":"tf","game":"Team Fortress","app_id":440,"player_count":0,"max_players":24,"Bots":0,"server_type":"Dedicated","server_os":"Linux","password":true,"vac":true,"version":"7882260","steam_id":85568392924866363,"keywords":["nocrits","nodmgspread","payload","uncletopia"],"game_id":440,"stv_port":27026,"stv_name":"Uncletopia | Chicago | 6 | All Maps | STV","players":null},{"server_id":38,"name":"Uncletopia | Chicago | 7 | Stopwatch Beta","name_short":"chi-7","host":"chi-2.us.uncletopia.com","port":27035,"enabled":true,"region":"us-central","cc":"us","latitude":41.881832,"longitude":-87.62318,"reserved":0,"last_update":"0001-01-01T00:00:00Z","name_a2s":"Uncletopia | Chicago | 7 | Stopwatch Beta","protocol":17,"map":"koth_lakeside_final","folder":"tf","game":"Team Fortress","app_id":440,"player_count":0,"max_players":24,"Bots":0,"server_type":"Dedicated","server_os":"Linux","password":true,"vac":true,"version":"7882260","steam_id":85568392924866364,"keywords":["cp","nocrits","nodmgspread","uncletopia"],"game_id":440,"stv_port":27036,"stv_name":"Uncletopia | Chicago | 7 | Stopwatch Beta | STV","players":null},{"server_id":39,"name":"Uncletopia | Chicago | 8 | Community","name_short":"chi-8","host":"chi-2.us.uncletopia.com","port":27045,"enabled":true,"region":"us-central","cc":"us","latitude":41.881832,"longitude":-87.62318,"reserved":0,"last_update":"0001-01-01T00:00:00Z","name_a2s":"Uncletopia | Chicago | 8 | Community","protocol":17,"map":"workshop/koth_product_final.ugc454272353","folder":"tf","game":"Team Fortress","app_id":440,"player_count":0,"max_players":24,"Bots":0,"server_type":"Dedicated","server_os":"Linux","password":true,"vac":true,"version":"7882260","steam_id":85568392924866365,"keywords":["cp","nocrits","nodmgspread","uncletopia"],"game_id":440,"stv_port":27046,"stv_name":"Uncletopia | Chicago | 8 | Community | STV","players":null},{"server_id":8,"name":"Uncletopia | Dallas | 1 | All Maps","name_short":"dal-1","host":"dal-1.us.uncletopia.com","port":27015,"enabled":true,"region":"us-central","cc":"us","latitude":32.779167,"longitude":-96.80889,"reserved":0,"last_update":"0001-01-01T00:00:00Z","name_a2s":"Uncletopia | Dallas | 1 | All Maps","protocol":17,"map":"pl_swiftwater_final1","folder":"tf","game":"Team Fortress","app_id":440,"player_count":24,"max_players":24,"Bots":0,"server_type":"Dedicated","server_os":"Linux","password":true,"vac":true,"version":"7882260","steam_id":85568392924469986,"keywords":["nocrits","nodmgspread","payload","uncletopia"],"game_id":440,"stv_port":27016,"stv_name":"Uncletopia | Dallas | 1 | All Maps | STV","players":[{"user_id":314,"name":"Greg Boberton 2012","steam_id":76561198983566026,"connected_time":169000000000,"state":"active","ping":81},{"user_id":296,"name":"Tuvok Shakur","steam_id":76561198018875334,"connected_time":2540000000000,"state":"active","ping":75},{"user_id":248,"name":"errant","steam_id":76561197961758410,"connected_time":5908000000000,"state":"active","ping":35},{"user_id":294,"name":"J.G. Klaus","steam_id":76561198001111196,"connected_time":2578000000000,"state":"active","ping":46},{"user_id":301,"name":"M","steam_id":76561198286792807,"connected_time":2366000000000,"state":"active","ping":89},{"user_id":305,"name":"Fishstall","steam_id":76561198038126034,"connected_time":2217000000000,"state":"active","ping":69},{"user_id":308,"name":"Contender","steam_id":76561198074607715,"connected_time":2050000000000,"state":"active","ping":84},{"user_id":295,"name":"The Spanked Monkey","steam_id":76561198128293111,"connected_time":2570000000000,"state":"active","ping":86},{"user_id":254,"name":"damiankiller1243","steam_id":76561198868885090,"connected_time":5549000000000,"state":"active","ping":69},{"user_id":315,"name":"Hunta","steam_id":76561198091900798,"connected_time":113000000000,"state":"active","ping":103},{"user_id":311,"name":"Atlas (Skylar)","steam_id":76561198041531774,"connected_time":944000000000,"state":"active","ping":76},{"user_id":304,"name":"The Cool Man","steam_id":76561198096420556,"connected_time":2255000000000,"state":"active","ping":77},{"user_id":223,"name":"Flint","steam_id":76561198148412420,"connected_time":8836000000000,"state":"active","ping":72},{"user_id":275,"name":"Necron Cell","steam_id":76561198071744324,"connected_time":3821000000000,"state":"active","ping":61},{"user_id":312,"name":"SLOPMASTER_69","steam_id":76561198080130096,"connected_time":929000000000,"state":"active","ping":90},{"user_id":306,"name":"OmniMoto","steam_id":76561198091298557,"connected_time":2195000000000,"state":"active","ping":74},{"user_id":274,"name":"Chunk Stuffer","steam_id":76561198856508573,"connected_time":3861000000000,"state":"active","ping":47},{"user_id":302,"name":"DrD","steam_id":76561198067266383,"connected_time":2358000000000,"state":"active","ping":84},{"user_id":288,"name":"TurkeyJuice","steam_id":76561198193109422,"connected_time":2976000000000,"state":"active","ping":62},{"user_id":260,"name":"Frank n Furter","steam_id":76561198308883028,"connected_time":5346000000000,"state":"active","ping":86},{"user_id":283,"name":"poleth","steam_id":76561198328618417,"connected_time":3603000000000,"state":"active","ping":81},{"user_id":303,"name":"judesro","steam_id":76561198352244888,"connected_time":2316000000000,"state":"active","ping":100},{"user_id":268,"name":"Jammer","steam_id":76561197971322055,"connected_time":4778000000000,"state":"active","ping":102},{"user_id":310,"name":"A Straw","steam_id":76561199367935846,"connected_time":1014000000000,"state":"active","ping":76}]},{"server_id":108,"name":"Uncletopia | Dallas | 2 | All Maps","name_short":"dal-2","host":"dal-1.us.uncletopia.com","port":27025,"enabled":true,"region":"us-central","cc":"us","latitude":32.779167,"longitude":-96.80889,"reserved":0,"last_update":"0001-01-01T00:00:00Z","name_a2s":"Uncletopia | Dallas | 2 | All Maps","protocol":17,"map":"pl_badwater","folder":"tf","game":"Team Fortress","app_id":440,"player_count":23,"max_players":24,"Bots":0,"server_type":"Dedicated","server_os":"Linux","password":true,"vac":true,"version":"7882260","steam_id":85568392924469988,"keywords":["nocrits","nodmgspread","payload","uncletopia"],"game_id":440,"stv_port":27026,"stv_name":"Uncletopia | Dallas | 2 | All Maps | STV","players":[{"user_id":211,"name":"King Baldski","steam_id":76561198359568400,"connected_time":3363000000000,"state":"active","ping":131},{"user_id":232,"name":"2spooky","steam_id":76561198094747637,"connected_time":1276000000000,"state":"active","ping":96},{"user_id":249,"name":"Cassini","steam_id":76561198318526294,"connected_time":192000000000,"state":"active","ping":60},{"user_id":198,"name":"floofy","steam_id":76561198389769098,"connected_time":3871000000000,"state":"active","ping":74},{"user_id":233,"name":"dweaver","steam_id":76561198119610135,"connected_time":1064000000000,"state":"active","ping":66},{"user_id":248,"name":"Model of a Modern Major General","steam_id":76561198237304364,"connected_time":283000000000,"state":"active","ping":136},{"user_id":206,"name":"DeadMeme","steam_id":76561198269707793,"connected_time":3617000000000,"state":"active","ping":64},{"user_id":227,"name":"Woozy","steam_id":76561198008220735,"connected_time":1338000000000,"state":"active","ping":89},{"user_id":250,"name":"Grumpy","steam_id":76561198039465859,"connected_time":187000000000,"state":"active","ping":90},{"user_id":252,"name":"shampoo","steam_id":76561198069600113,"connected_time":82000000000,"state":"active","ping":75},{"user_id":247,"name":"mr_angry_guy","steam_id":76561199365643094,"connected_time":300000000000,"state":"active","ping":73},{"user_id":251,"name":"Malex","steam_id":76561198012216805,"connected_time":179000000000,"state":"active","ping":79},{"user_id":244,"name":"My best friend Eddie :D","steam_id":76561198068654532,"connected_time":582000000000,"state":"active","ping":100},{"user_id":253,"name":"Pagman2","steam_id":76561199152655859,"connected_time":65000000000,"state":"active","ping":82},{"user_id":158,"name":"Lolxdloldx","steam_id":76561198136887125,"connected_time":7398000000000,"state":"active","ping":100},{"user_id":203,"name":"Minlit","steam_id":76561198205832799,"connected_time":3750000000000,"state":"active","ping":51},{"user_id":139,"name":"Proud Swift City Resident","steam_id":76561198036283992,"connected_time":8690000000000,"state":"active","ping":84},{"user_id":218,"name":"qawzse543","steam_id":76561198049425694,"connected_time":2049000000000,"state":"active","ping":109},{"user_id":245,"name":"ChottoAMinute","steam_id":76561198873157775,"connected_time":575000000000,"state":"active","ping":41},{"user_id":154,"name":"Spazz","steam_id":76561198036167494,"connected_time":7433000000000,"state":"active","ping":48},{"user_id":207,"name":"IlTrashPanda","steam_id":76561198447864095,"connected_time":3612000000000,"state":"active","ping":62},{"user_id":236,"name":"SchmitySchmit","steam_id":76561198127024448,"connected_time":1025000000000,"state":"active","ping":80},{"user_id":193,"name":"pipes","steam_id":76561198067262024,"connected_time":4179000000000,"state":"active","ping":84}]},{"server_id":5,"name":"Uncletopia | Frankfurt | 1 | All Maps","name_short":"frk-1","host":"frk-1.de.uncletopia.com","port":27015,"enabled":true,"region":"eu","cc":"de","latitude":50.110924,"longitude":8.682127,"reserved":0,"last_update":"0001-01-01T00:00:00Z","name_a2s":"Uncletopia | Frankfurt | 1 | All Maps","protocol":17,"map":"koth_cascade","folder":"tf","game":"Team Fortress","app_id":440,"player_count":24,"max_players":24,"Bots":0,"server_type":"Dedicated","server_os":"Linux","password":true,"vac":true,"version":"7882260","steam_id":85568392924469989,"keywords":["cp","nocrits","nodmgspread","uncletopia"],"game_id":440,"stv_port":27016,"stv_name":"Uncletopia | Frankfurt | 1 | All Maps | STV","players":[{"user_id":722,"name":"Renolox","steam_id":76561198036590182,"connected_time":727000000000,"state":"active","ping":72},{"user_id":708,"name":"weed fairy","steam_id":76561197998843096,"connected_time":1314000000000,"state":"active","ping":70},{"user_id":687,"name":"domek brexit geezerðŸ‡¬ðŸ‡§","steam_id":76561198048447632,"connected_time":2289000000000,"state":"active","ping":68},{"user_id":694,"name":"Sevek","steam_id":76561198086388963,"connected_time":1815000000000,"state":"active","ping":86},{"user_id":689,"name":"Lordware","steam_id":76561198022011299,"connected_time":2122000000000,"state":"active","ping":81},{"user_id":726,"name":"Chen","steam_id":76561198440363619,"connected_time":533000000000,"state":"active","ping":52},{"user_id":736,"name":"sjmcw489","steam_id":76561199487429242,"connected_time":103000000000,"state":"active","ping":70},{"user_id":695,"name":"BONA FIDE PISS","steam_id":76561198130020929,"connected_time":1788000000000,"state":"active","ping":52},{"user_id":728,"name":"rickeeey","steam_id":76561199069460375,"connected_time":480000000000,"state":"active","ping":59},{"user_id":731,"name":"KooK","steam_id":76561198805501766,"connected_time":303000000000,"state":"active","ping":80},{"user_id":714,"name":"Plow cheese","steam_id":76561198142478067,"connected_time":995000000000,"state":"active","ping":90},{"user_id":712,"name":"woop","steam_id":76561198985105074,"connected_time":1152000000000,"state":"active","ping":79},{"user_id":715,"name":"Smart Chimp","steam_id":76561198243603442,"connected_time":950000000000,"state":"active","ping":75},{"user_id":737,"name":"ethan","steam_id":76561198119495513,"connected_time":42000000000,"state":"active","ping":161},{"user_id":701,"name":"tax evasion gaming","steam_id":76561199212653573,"connected_time":1650000000000,"state":"active","ping":80},{"user_id":716,"name":"Alpha","steam_id":76561198133229149,"connected_time":933000000000,"state":"active","ping":91},{"user_id":703,"name":"Reomk","steam_id":76561198309314129,"connected_time":1475000000000,"state":"active","ping":68},{"user_id":723,"name":"rets","steam_id":76561198061551392,"connected_time":692000000000,"state":"active","ping":49},{"user_id":705,"name":"heel me medik","steam_id":76561198033695429,"connected_time":1420000000000,"state":"active","ping":47},{"user_id":718,"name":"Vollys","steam_id":76561198018077773,"connected_time":893000000000,"state":"active","ping":59},{"user_id":724,"name":"Laxslow","steam_id":76561198065361846,"connected_time":686000000000,"state":"active","ping":73},{"user_id":729,"name":"The Greatest Plan","steam_id":76561199325579119,"connected_time":476000000000,"state":"active","ping":76},{"user_id":720,"name":"Remyie","steam_id":76561198131031404,"connected_time":867000000000,"state":"active","ping":103},{"user_id":735,"name":"Monsrox","steam_id":76561198253732619,"connected_time":216000000000,"state":"active","ping":163}]},{"server_id":110,"name":"Uncletopia | Frankfurt | 2 | All Maps","name_short":"frk-2","host":"frk-1.de.uncletopia.com","port":27025,"enabled":true,"region":"eu","cc":"de","latitude":50.110924,"longitude":8.682127,"reserved":0,"last_update":"0001-01-01T00:00:00Z","name_a2s":"Uncletopia | Frankfurt | 2 | All Maps","protocol":17,"map":"pl_pier","folder":"tf","game":"Team Fortress","app_id":440,"player_count":23,"max_players":24,"Bots":0,"server_type":"Dedicated","server_os":"Linux","password":true,"vac":true,"version":"7882260","steam_id":85568392924469990,"keywords":["nocrits","nodmgspread","payload","uncletopia"],"game_id":440,"stv_port":27026,"stv_name":"Uncletopia | Frankfurt | 2 | All Maps | STV","players":[{"user_id":317,"name":"lukethepumpkin","steam_id":76561198204158335,"connected_time":593000000000,"state":"active","ping":145},{"user_id":276,"name":"Warpig","steam_id":76561199095184327,"connected_time":3350000000000,"state":"active","ping":64},{"user_id":222,"name":"Walter Hartwell White Gaming","steam_id":76561198061996646,"connected_time":7045000000000,"state":"active","ping":70},{"user_id":316,"name":"Piteras","steam_id":76561198858532207,"connected_time":614000000000,"state":"active","ping":73},{"user_id":289,"name":"klubicek123","steam_id":76561199224731235,"connected_time":2056000000000,"state":"active","ping":61},{"user_id":280,"name":"Master Of Noob","steam_id":76561198217926783,"connected_time":2933000000000,"state":"active","ping":65},{"user_id":303,"name":"OMG IS THAT SPY FROM TF2?","steam_id":76561199291684647,"connected_time":1350000000000,"state":"active","ping":61},{"user_id":288,"name":"No | S | uS","steam_id":76561199195727551,"connected_time":2074000000000,"state":"active","ping":63},{"user_id":290,"name":"denimchicken","steam_id":76561197989061982,"connected_time":2040000000000,"state":"active","ping":80},{"user_id":305,"name":"SlwoFÃ¸","steam_id":76561198049663931,"connected_time":1319000000000,"state":"active","ping":59},{"user_id":318,"name":"49belowzero","steam_id":76561198108177252,"connected_time":564000000000,"state":"active","ping":173},{"user_id":313,"name":"Hey, IÂ´m Andy!","steam_id":76561198060337777,"connected_time":869000000000,"state":"active","ping":69},{"user_id":320,"name":"I Don't Know","steam_id":76561198841011430,"connected_time":367000000000,"state":"active","ping":66},{"user_id":319,"name":"dunduu","steam_id":76561198875240717,"connected_time":467000000000,"state":"active","ping":61},{"user_id":312,"name":"Not A Fake Uncletopia Server","steam_id":76561198152871288,"connected_time":898000000000,"state":"active","ping":58},{"user_id":315,"name":"tired","steam_id":76561198046838168,"connected_time":794000000000,"state":"active","ping":46},{"user_id":306,"name":"Cum slave","steam_id":76561199035732179,"connected_time":1289000000000,"state":"active","ping":103},{"user_id":240,"name":"FirePenguin","steam_id":76561198151468340,"connected_time":5574000000000,"state":"active","ping":47},{"user_id":321,"name":"astigmatic","steam_id":76561199103959197,"connected_time":284000000000,"state":"active","ping":86},{"user_id":322,"name":"Mangal_","steam_id":76561198076089589,"connected_time":244000000000,"state":"active","ping":107},{"user_id":300,"name":"yard man","steam_id":76561198019477093,"connected_time":1565000000000,"state":"active","ping":75},{"user_id":245,"name":"TazerMonkey55","steam_id":76561198151547551,"connected_time":5498000000000,"state":"active","ping":68},{"user_id":301,"name":"Magirby","steam_id":76561198818777390,"connected_time":1563000000000,"state":"active","ping":110}]},{"server_id":308,"name":"Uncletopia | Frankfurt | 3 | All Maps","name_short":"frk-3","host":"frk-1.de.uncletopia.com","port":27035,"enabled":true,"region":"eu","cc":"de","latitude":50.110924,"longitude":8.682127,"reserved":0,"last_update":"0001-01-01T00:00:00Z","name_a2s":"Uncletopia | Frankfurt | 3 | All Maps","protocol":17,"map":"cp_snakewater_final1","folder":"tf","game":"Team Fortress","app_id":440,"player_count":24,"max_players":24,"Bots":0,"server_type":"Dedicated","server_os":"Linux","password":true,"vac":true,"version":"7882260","steam_id":85568392924504274,"keywords":["cp","nocrits","nodmgspread","uncletopia"],"game_id":440,"stv_port":27036,"stv_name":"Uncletopia | Frankfurt | 3 | All Maps | STV","players":[{"user_id":424,"name":"DÃ¥vid","steam_id":76561198184135755,"connected_time":303000000000,"state":"active","ping":61},{"user_id":389,"name":"Toasty5050","steam_id":76561198073540881,"connected_time":2693000000000,"state":"active","ping":45},{"user_id":414,"name":"Foreskin Gamer","steam_id":76561198283106341,"connected_time":791000000000,"state":"active","ping":46},{"user_id":419,"name":"Smaug [Ger]","steam_id":76561198853461583,"connected_time":417000000000,"state":"active","ping":70},{"user_id":395,"name":"Blubberbernd","steam_id":76561198974943006,"connected_time":2511000000000,"state":"active","ping":58},{"user_id":370,"name":"Rarky","steam_id":76561198054398642,"connected_time":3456000000000,"state":"active","ping":117},{"user_id":411,"name":"Mi Manchi","steam_id":76561198171573129,"connected_time":935000000000,"state":"active","ping":57},{"user_id":420,"name":"zak","steam_id":76561197998895428,"connected_time":393000000000,"state":"active","ping":51},{"user_id":398,"name":"Rimx","steam_id":76561198053034840,"connected_time":2153000000000,"state":"active","ping":96},{"user_id":421,"name":"Vershal Smershal","steam_id":76561198116223995,"connected_time":380000000000,"state":"active","ping":60},{"user_id":425,"name":"nvmHastee","steam_id":76561199371458295,"connected_time":229000000000,"state":"active","ping":76},{"user_id":422,"name":"MK-Ultra Violence","steam_id":76561198081328238,"connected_time":373000000000,"state":"active","ping":67},{"user_id":423,"name":"thomas3003","steam_id":76561198209860039,"connected_time":322000000000,"state":"active","ping":50},{"user_id":324,"name":"Yahram Qiehpah","steam_id":76561198049533385,"connected_time":6922000000000,"state":"active","ping":112},{"user_id":403,"name":"Sky Tree","steam_id":76561198027103242,"connected_time":2095000000000,"state":"active","ping":132},{"user_id":415,"name":"Battle_Pass90","steam_id":76561199367142516,"connected_time":739000000000,"state":"active","ping":82},{"user_id":416,"name":"Juan F. Kennedy","steam_id":76561198084228819,"connected_time":550000000000,"state":"active","ping":66},{"user_id":378,"name":"xavier","steam_id":76561198076494034,"connected_time":3227000000000,"state":"active","ping":55},{"user_id":404,"name":"zek","steam_id":76561198862763731,"connected_time":2081000000000,"state":"active","ping":57},{"user_id":408,"name":"rob","steam_id":76561198122211848,"connected_time":1377000000000,"state":"active","ping":96},{"user_id":405,"name":"eva.","steam_id":76561198054474684,"connected_time":2031000000000,"state":"active","ping":74},{"user_id":327,"name":"Muppburg","steam_id":76561198031070682,"connected_time":6849000000000,"state":"active","ping":67},{"user_id":377,"name":"Finnish Farmer","steam_id":76561198205366043,"connected_time":3297000000000,"state":"active","ping":88},{"user_id":381,"name":"sareena","steam_id":76561198810194062,"connected_time":3088000000000,"state":"active","ping":79}]},{"server_id":309,"name":"Uncletopia | Frankfurt | 4 | All Maps","name_short":"frk-4","host":"frk-1.de.uncletopia.com","port":27045,"enabled":true,"region":"eu","cc":"de","latitude":50.110924,"longitude":8.682127,"reserved":0,"last_update":"0001-01-01T00:00:00Z","name_a2s":"Uncletopia | Frankfurt | 4 | All Maps","protocol":17,"map":"pl_snowycoast","folder":"tf","game":"Team Fortress","app_id":440,"player_count":21,"max_players":24,"Bots":0,"server_type":"Dedicated","server_os":"Linux","password":true,"vac":true,"version":"7882260","steam_id":85568392924504275,"keywords":["nocrits","nodmgspread","payload","uncletopia"],"game_id":440,"stv_port":27046,"stv_name":"Uncletopia | Frankfurt | 4 | All Maps | STV","players":[{"user_id":439,"name":"Skell","steam_id":76561198320291567,"connected_time":393000000000,"state":"active","ping":106},{"user_id":440,"name":"Brian","steam_id":76561198077756206,"connected_time":289000000000,"state":"active","ping":50},{"user_id":438,"name":"Peat","steam_id":76561197992168067,"connected_time":434000000000,"state":"active","ping":75},{"user_id":400,"name":"dotdotdot","steam_id":76561198057628751,"connected_time":2838000000000,"state":"active","ping":60},{"user_id":442,"name":"Amayuri","steam_id":76561198068666784,"connected_time":181000000000,"state":"active","ping":69},{"user_id":401,"name":"aslloc((sizeof(U64) \u003c\u003c 0xff));","steam_id":76561198365870439,"connected_time":2796000000000,"state":"active","ping":104},{"user_id":411,"name":"Mr.TEA","steam_id":76561198014381591,"connected_time":2380000000000,"state":"active","ping":64},{"user_id":397,"name":"Bob Ishly","steam_id":76561198051841698,"connected_time":3327000000000,"state":"active","ping":92},{"user_id":422,"name":"RiSlava","steam_id":76561198084071930,"connected_time":1859000000000,"state":"active","ping":79},{"user_id":443,"name":"Kyatlu Xann","steam_id":76561198069685009,"connected_time":158000000000,"state":"active","ping":96},{"user_id":447,"name":"christoph","steam_id":76561198862617811,"connected_time":37000000000,"state":"active","ping":69},{"user_id":389,"name":"Astyloblatta","steam_id":76561199222909666,"connected_time":4063000000000,"state":"active","ping":62},{"user_id":448,"name":"Have A Blessed Day","steam_id":76561198030956814,"connected_time":12000000000,"state":"active","ping":129},{"user_id":445,"name":"AmssoBador Spacelot","steam_id":76561197993444617,"connected_time":143000000000,"state":"active","ping":74},{"user_id":414,"name":"Dewotter","steam_id":76561198007653168,"connected_time":2361000000000,"state":"active","ping":70},{"user_id":323,"name":"Anadest","steam_id":76561198992528373,"connected_time":9507000000000,"state":"active","ping":79},{"user_id":446,"name":"Jered","steam_id":76561198834692136,"connected_time":140000000000,"state":"spawning","ping":73},{"user_id":432,"name":"Isuurn","steam_id":76561198150201094,"connected_time":947000000000,"state":"active","ping":78},{"user_id":435,"name":"bad farter","steam_id":76561198261853441,"connected_time":576000000000,"state":"active","ping":60},{"user_id":436,"name":"Deacon Dracul","steam_id":76561198046880663,"connected_time":511000000000,"state":"active","ping":101},{"user_id":420,"name":"Wolframen","steam_id":76561198074103958,"connected_time":2202000000000,"state":"active","ping":74}]},{"server_id":310,"name":"Uncletopia | Frankfurt | 5 | All Maps","name_short":"frk-5","host":"frk-1.de.uncletopia.com","port":27055,"enabled":true,"region":"eu","cc":"de","latitude":50.110924,"longitude":8.682127,"reserved":0,"last_update":"0001-01-01T00:00:00Z","name_a2s":"Uncletopia | Frankfurt | 5 | All Maps","protocol":17,"map":"cp_gullywash_final1","folder":"tf","game":"Team Fortress","app_id":440,"player_count":24,"max_players":24,"Bots":0,"server_type":"Dedicated","server_os":"Linux","password":true,"vac":true,"version":"7882260","steam_id":85568392924504277,"keywords":["cp","nocrits","nodmgspread","uncletopia"],"game_id":440,"stv_port":27056,"stv_name":"Uncletopia | Frankfurt | 5 | All Maps | STV","players":[{"user_id":483,"name":"wtabs","steam_id":76561198831766743,"connected_time":2444000000000,"state":"active","ping":66},{"user_id":302,"name":"Hexagon","steam_id":76561198151205758,"connected_time":13030000000000,"state":"active","ping":54},{"user_id":489,"name":"Melford","steam_id":76561198319650677,"connected_time":1176000000000,"state":"active","ping":150},{"user_id":499,"name":"B0rÐµÐ°l","steam_id":76561198268369013,"connected_time":881000000000,"state":"active","ping":119},{"user_id":486,"name":"Lyncurion","steam_id":76561199260022725,"connected_time":1527000000000,"state":"active","ping":75},{"user_id":494,"name":"Rock..","steam_id":76561198004641963,"connected_time":1085000000000,"state":"active","ping":80},{"user_id":491,"name":"DelT","steam_id":76561198204007537,"connected_time":1147000000000,"state":"active","ping":46},{"user_id":509,"name":"QR-M5TR","steam_id":76561198197626135,"connected_time":512000000000,"state":"active","ping":60},{"user_id":440,"name":"| Lt.Slayer |","steam_id":76561198170010814,"connected_time":4183000000000,"state":"active","ping":83},{"user_id":493,"name":"GMsU | AuxiliusM","steam_id":76561198071903356,"connected_time":1136000000000,"state":"active","ping":42},{"user_id":495,"name":"Brother Roga","steam_id":76561198029613515,"connected_time":1022000000000,"state":"active","ping":61},{"user_id":485,"name":"Pastill","steam_id":76561198067484436,"connected_time":1924000000000,"state":"active","ping":98},{"user_id":450,"name":"jones","steam_id":76561198044434971,"connected_time":3578000000000,"state":"active","ping":60},{"user_id":496,"name":"Formuoli","steam_id":76561198305640068,"connected_time":995000000000,"state":"active","ping":189},{"user_id":502,"name":"Jokerâ‘¦â‘¦â‘¦Â³","steam_id":76561197992353350,"connected_time":826000000000,"state":"active","ping":74},{"user_id":452,"name":"sugartits","steam_id":76561198025603699,"connected_time":3577000000000,"state":"active","ping":45},{"user_id":497,"name":"PsychoÐŸÐÐ¢","steam_id":76561198074777220,"connected_time":954000000000,"state":"active","ping":89},{"user_id":503,"name":"boy toy wrangler","steam_id":76561198208740557,"connected_time":670000000000,"state":"active","ping":47},{"user_id":504,"name":"Pyrolander","steam_id":76561198050785450,"connected_time":636000000000,"state":"active","ping":59},{"user_id":513,"name":"bhalazs","steam_id":76561198248831634,"connected_time":170000000000,"state":"active","ping":96},{"user_id":507,"name":"i shit, therefore i smell","steam_id":76561198050214002,"connected_time":618000000000,"state":"active","ping":60},{"user_id":508,"name":"Beni ðŸ¦§ðŸŒ","steam_id":76561198011340227,"connected_time":601000000000,"state":"active","ping":60},{"user_id":512,"name":"stefyi","steam_id":76561199260986476,"connected_time":298000000000,"state":"active","ping":64},{"user_id":511,"name":"Doktor Drip","steam_id":76561198843329045,"connected_time":464000000000,"state":"active","ping":93}]},{"server_id":311,"name":"Uncletopia | Frankfurt | 6 | All Maps","name_short":"frk-6","host":"frk-1.de.uncletopia.com","port":27065,"enabled":true,"region":"eu","cc":"de","latitude":50.110924,"longitude":8.682127,"reserved":0,"last_update":"0001-01-01T00:00:00Z","name_a2s":"Uncletopia | Frankfurt | 6 | All Maps","protocol":17,"map":"pl_borneo","folder":"tf","game":"Team Fortress","app_id":440,"player_count":8,"max_players":24,"Bots":0,"server_type":"Dedicated","server_os":"Linux","password":true,"vac":true,"version":"7882260","steam_id":85568392924504278,"keywords":["nocrits","nodmgspread","payload","uncletopia"],"game_id":440,"stv_port":27066,"stv_name":"Uncletopia | Frankfurt | 6 | All Maps | STV","players":[{"user_id":669,"name":"F","steam_id":76561199149462792,"connected_time":139000000000,"state":"active","ping":59},{"user_id":629,"name":"Seeker","steam_id":76561198873052772,"connected_time":3685000000000,"state":"active","ping":63},{"user_id":670,"name":"iniT","steam_id":76561198019883794,"connected_time":126000000000,"state":"active","ping":49},{"user_id":649,"name":"Drakehellstone","steam_id":76561199112627742,"connected_time":2232000000000,"state":"active","ping":71},{"user_id":666,"name":"Punker","steam_id":76561198255964089,"connected_time":1008000000000,"state":"active","ping":109},{"user_id":641,"name":"Driver's drunkest God","steam_id":76561198969373800,"connected_time":3029000000000,"state":"active","ping":65},{"user_id":617,"name":"Olfrad","steam_id":76561198161763817,"connected_time":4146000000000,"state":"active","ping":46},{"user_id":601,"name":"Conagher","steam_id":76561198217607996,"connected_time":6061000000000,"state":"active","ping":76}]},{"server_id":23,"name":"Uncletopia | Frankfurt | 7 | Stopwatch Beta","name_short":"frk-7","host":"frk-1.de.uncletopia.com","port":27075,"enabled":true,"region":"eu","cc":"de","latitude":50.110924,"longitude":8.682127,"reserved":0,"last_update":"0001-01-01T00:00:00Z","name_a2s":"Uncletopia | Frankfurt | 7 | Stopwatch Beta","protocol":17,"map":"pl_borneo","folder":"tf","game":"Team Fortress","app_id":440,"player_count":0,"max_players":24,"Bots":0,"server_type":"Dedicated","server_os":"Linux","password":true,"vac":true,"version":"7882260","steam_id":85568392924742827,"keywords":["nocrits","nodmgspread","payload","uncletopia"],"game_id":440,"stv_port":27076,"stv_name":"Uncletopia | Frankfurt | 7 | Stopwatch Beta | STV","players":null},{"server_id":24,"name":"Uncletopia | Frankfurt | 8 | Community","name_short":"frk-8","host":"frk-1.de.uncletopia.com","port":27085,"enabled":true,"region":"eu","cc":"de","latitude":50.110924,"longitude":8.682127,"reserved":0,"last_update":"0001-01-01T00:00:00Z","name_a2s":"Uncletopia | Frankfurt | 8 | Community","protocol":17,"map":"workshop/koth_product_final.ugc454272353","folder":"tf","game":"Team Fortress","app_id":440,"player_count":0,"max_players":24,"Bots":0,"server_type":"Dedicated","server_os":"Linux","password":true,"vac":true,"version":"7882260","steam_id":85568392924742828,"keywords":["cp","nocrits","nodmgspread","uncletopia"],"game_id":440,"stv_port":27086,"stv_name":"Uncletopia | Frankfurt | 8 | Community | STV","players":null},{"server_id":202,"name":"Uncletopia | Hong Kong | 1 | All Maps","name_short":"hgk-1","host":"hgk-1.hk.uncletopia.com","port":27015,"enabled":true,"region":"asia","cc":"hk","latitude":22.302711,"longitude":114.177216,"reserved":0,"last_update":"0001-01-01T00:00:00Z","name_a2s":"Uncletopia | Hong Kong | 1 | All Maps","protocol":17,"map":"koth_highpass","folder":"tf","game":"Team Fortress","app_id":440,"player_count":0,"max_players":24,"Bots":0,"server_type":"Dedicated","server_os":"Linux","password":true,"vac":true,"version":"7882260","steam_id":85568392924494504,"keywords":["cp","nocrits","nodmgspread","uncletopia"],"game_id":440,"stv_port":27016,"stv_name":"Uncletopia | Hong Kong | 1 | All Maps | STV","players":null},{"server_id":1,"name":"Uncletopia | Los Angeles | 1 | All Maps","name_short":"lax-1","host":"lax-1.us.uncletopia.com","port":27015,"enabled":true,"region":"us-west","cc":"us","latitude":33.94279,"longitude":-118.41004,"reserved":0,"last_update":"0001-01-01T00:00:00Z","name_a2s":"Uncletopia | Los Angeles | 1 | All Maps","protocol":17,"map":"pl_borneo","folder":"tf","game":"Team Fortress","app_id":440,"player_count":0,"max_players":24,"Bots":0,"server_type":"Dedicated","server_os":"Linux","password":true,"vac":true,"version":"7882260","steam_id":85568392924469991,"keywords":["nocrits","nodmgspread","payload","uncletopia"],"game_id":440,"stv_port":27016,"stv_name":"Uncletopia | Los Angeles | 1 | All Maps | STV","players":null},{"server_id":112,"name":"Uncletopia | Los Angeles | 2 | All Maps","name_short":"lax-2","host":"lax-1.us.uncletopia.com","port":27025,"enabled":true,"region":"us-west","cc":"us","latitude":33.94279,"longitude":-118.41004,"reserved":0,"last_update":"0001-01-01T00:00:00Z","name_a2s":"Uncletopia | Los Angeles | 2 | All Maps","protocol":17,"map":"pl_pier","folder":"tf","game":"Team Fortress","app_id":440,"player_count":24,"max_players":24,"Bots":0,"server_type":"Dedicated","server_os":"Linux","password":true,"vac":true,"version":"7882260","steam_id":85568392924469992,"keywords":["nocrits","nodmgspread","payload","uncletopia"],"game_id":440,"stv_port":27026,"stv_name":"Uncletopia | Los Angeles | 2 | All Maps | STV","players":[{"user_id":106,"name":"Piethon","steam_id":76561198880995645,"connected_time":795000000000,"state":"active","ping":86},{"user_id":105,"name":"bunceian","steam_id":76561198975662918,"connected_time":877000000000,"state":"active","ping":89},{"user_id":121,"name":"Lucky_Shot","steam_id":76561199208835578,"connected_time":362000000000,"state":"active","ping":84},{"user_id":126,"name":"Chin, Bruce Lee's Relative","steam_id":76561198240105522,"connected_time":193000000000,"state":"active","ping":106},{"user_id":109,"name":"Spectre1578","steam_id":76561198953243633,"connected_time":750000000000,"state":"active","ping":72},{"user_id":124,"name":"MrManlet","steam_id":76561198148597989,"connected_time":305000000000,"state":"active","ping":96},{"user_id":123,"name":"Lavernius41","steam_id":76561198807274102,"connected_time":333000000000,"state":"active","ping":81},{"user_id":116,"name":"lolgamer247","steam_id":76561198974645534,"connected_time":517000000000,"state":"active","ping":95},{"user_id":111,"name":"Average Detroit Citizen","steam_id":76561199091290729,"connected_time":720000000000,"state":"active","ping":95},{"user_id":120,"name":"Dr. Dolphin77","steam_id":76561199248780009,"connected_time":374000000000,"state":"active","ping":99},{"user_id":94,"name":"Patagonian Stache","steam_id":76561198068672882,"connected_time":1994000000000,"state":"active","ping":58},{"user_id":26,"name":"msay","steam_id":76561198170888029,"connected_time":7235000000000,"state":"active","ping":140},{"user_id":112,"name":"LocalShowerShitter","steam_id":76561198984737182,"connected_time":712000000000,"state":"active","ping":94},{"user_id":114,"name":"thelostrobotmusic","steam_id":76561199013230288,"connected_time":562000000000,"state":"active","ping":63},{"user_id":91,"name":"Patagonian Vest","steam_id":76561197979056451,"connected_time":2026000000000,"state":"active","ping":73},{"user_id":115,"name":"Wiggee","steam_id":76561197972792989,"connected_time":549000000000,"state":"active","ping":74},{"user_id":125,"name":"fallingtree123","steam_id":76561198937414442,"connected_time":269000000000,"state":"active","ping":98},{"user_id":95,"name":"Tmiracle","steam_id":76561198052375275,"connected_time":1890000000000,"state":"active","ping":47},{"user_id":99,"name":"Grim","steam_id":76561198016978310,"connected_time":1649000000000,"state":"active","ping":70},{"user_id":73,"name":"Roosevelt Chadwick","steam_id":76561198278169311,"connected_time":4331000000000,"state":"active","ping":76},{"user_id":118,"name":"Heatseeker","steam_id":76561198084093538,"connected_time":495000000000,"state":"active","ping":58},{"user_id":127,"name":"Captain Mystic","steam_id":76561198219169557,"connected_time":172000000000,"state":"active","ping":94},{"user_id":83,"name":"Edboi","steam_id":76561198117849098,"connected_time":2782000000000,"state":"active","ping":69},{"user_id":86,"name":"flo rida","steam_id":76561198226169704,"connected_time":2120000000000,"state":"active","ping":61}]},{"server_id":324,"name":"Uncletopia | Los Angeles | 3 | All Maps","name_short":"lax-3","host":"lax-1.us.uncletopia.com","port":27035,"enabled":true,"region":"us-west","cc":"us","latitude":33.94279,"longitude":-118.41004,"reserved":0,"last_update":"0001-01-01T00:00:00Z","name_a2s":"Uncletopia | Los Angeles | 3 | All Maps","protocol":17,"map":"pl_badwater","folder":"tf","game":"Team Fortress","app_id":440,"player_count":24,"max_players":24,"Bots":0,"server_type":"Dedicated","server_os":"Linux","password":true,"vac":true,"version":"7882260","steam_id":85568392924510198,"keywords":["nocrits","nodmgspread","payload","uncletopia"],"game_id":440,"stv_port":27036,"stv_name":"Uncletopia | Los Angeles | 3 | All Maps | STV","players":[{"user_id":205,"name":"Major Depression","steam_id":76561198018103878,"connected_time":122000000000,"state":"active","ping":106},{"user_id":200,"name":"Happy Meal","steam_id":76561198009027395,"connected_time":493000000000,"state":"active","ping":120},{"user_id":179,"name":"Ockulus","steam_id":76561199069638460,"connected_time":2158000000000,"state":"active","ping":55},{"user_id":147,"name":"trackin ops like NORAD","steam_id":76561198040675606,"connected_time":4882000000000,"state":"active","ping":75},{"user_id":198,"name":"Kai (Natascha Lover)","steam_id":76561198848930174,"connected_time":568000000000,"state":"active","ping":93},{"user_id":196,"name":"bim bardaway","steam_id":76561198325557240,"connected_time":631000000000,"state":"active","ping":39},{"user_id":189,"name":"noceof","steam_id":76561198043656816,"connected_time":1086000000000,"state":"active","ping":162},{"user_id":165,"name":"Mr.matt neon","steam_id":76561198207551757,"connected_time":3865000000000,"state":"active","ping":59},{"user_id":191,"name":"Gentle Opp 3","steam_id":76561198150406851,"connected_time":997000000000,"state":"active","ping":50},{"user_id":161,"name":"TwoScore","steam_id":76561198024412148,"connected_time":4260000000000,"state":"active","ping":78},{"user_id":195,"name":"Nivek7769","steam_id":76561199230317225,"connected_time":842000000000,"state":"active","ping":115},{"user_id":163,"name":"-L","steam_id":76561198046074220,"connected_time":3951000000000,"state":"active","ping":45},{"user_id":204,"name":"Kuchio","steam_id":76561198161218914,"connected_time":203000000000,"state":"active","ping":58},{"user_id":192,"name":"Bananodile","steam_id":76561197999021551,"connected_time":993000000000,"state":"active","ping":116},{"user_id":193,"name":"SneekiCheekiQbone","steam_id":76561198045077980,"connected_time":988000000000,"state":"active","ping":42},{"user_id":134,"name":"ThatGamingKiwi","steam_id":76561199170522237,"connected_time":5497000000000,"state":"active","ping":140},{"user_id":188,"name":"H _ N G M _ N","steam_id":76561198064662875,"connected_time":1321000000000,"state":"active","ping":54},{"user_id":183,"name":"Sheev Palpatine","steam_id":76561198252332430,"connected_time":1593000000000,"state":"active","ping":82},{"user_id":197,"name":"soltuno","steam_id":76561198074430565,"connected_time":577000000000,"state":"active","ping":61},{"user_id":94,"name":"Snoopy","steam_id":76561198273735974,"connected_time":8271000000000,"state":"active","ping":87},{"user_id":108,"name":"skial sucks WoW fucks pyro yuck","steam_id":76561198021308963,"connected_time":7249000000000,"state":"active","ping":76},{"user_id":202,"name":"moopmop","steam_id":76561198065224965,"connected_time":427000000000,"state":"active","ping":60},{"user_id":155,"name":"Why Me...","steam_id":76561199124019937,"connected_time":4501000000000,"state":"active","ping":68},{"user_id":157,"name":"(0.0)","steam_id":76561198217747041,"connected_time":4465000000000,"state":"active","ping":60}]},{"server_id":25,"name":"Uncletopia | Los Angeles | 4 | Stopwatch Beta","name_short":"lax-4","host":"lax-1.us.uncletopia.com","port":27045,"enabled":true,"region":"us-west","cc":"us","latitude":33.94279,"longitude":-118.41004,"reserved":0,"last_update":"0001-01-01T00:00:00Z","name_a2s":"Uncletopia | Los Angeles | 4 | Stopwatch Beta","protocol":17,"map":"koth_lakeside_final","folder":"tf","game":"Team Fortress","app_id":440,"player_count":0,"max_players":24,"Bots":0,"server_type":"Dedicated","server_os":"Linux","password":true,"vac":true,"version":"7882260","steam_id":85568392924510199,"keywords":["cp","nocrits","nodmgspread","uncletopia"],"game_id":440,"stv_port":27046,"stv_name":"Uncletopia | Los Angeles | 4 | Stopwatch Beta | STV","players":null},{"server_id":11,"name":"Uncletopia | London | 1 | All Maps","name_short":"lon-1","host":"lon-1.uk.uncletopia.com","port":27015,"enabled":true,"region":"eu","cc":"gb","latitude":51.509865,"longitude":-0.118092,"reserved":0,"last_update":"0001-01-01T00:00:00Z","name_a2s":"Uncletopia | London | 1 | All Maps","protocol":17,"map":"pl_borneo","folder":"tf","game":"Team Fortress","app_id":440,"player_count":24,"max_players":24,"Bots":0,"server_type":"Dedicated","server_os":"Linux","password":true,"vac":true,"version":"7882260","steam_id":85568392924367362,"keywords":["nocrits","nodmgspread","payload","uncletopia"],"game_id":440,"stv_port":27016,"stv_name":"Uncletopia | London | 1 | All Maps | STV","players":[{"user_id":690,"name":"okzq","steam_id":76561199105796083,"connected_time":793000000000,"state":"active","ping":79},{"user_id":701,"name":"solus control unit","steam_id":76561198131944941,"connected_time":72000000000,"state":"active","ping":67},{"user_id":685,"name":"something","steam_id":76561198198581615,"connected_time":1487000000000,"state":"active","ping":65},{"user_id":626,"name":"Watermelon","steam_id":76561198078349914,"connected_time":6570000000000,"state":"active","ping":51},{"user_id":679,"name":"Gubbly Bubbins","steam_id":76561198101451654,"connected_time":2189000000000,"state":"active","ping":45},{"user_id":621,"name":"d u k k i","steam_id":76561198071807437,"connected_time":7194000000000,"state":"active","ping":100},{"user_id":689,"name":"Secretti","steam_id":76561198151480179,"connected_time":902000000000,"state":"active","ping":101},{"user_id":681,"name":"Kahvi","steam_id":76561198723244199,"connected_time":2164000000000,"state":"active","ping":75},{"user_id":692,"name":"Vezage","steam_id":76561198064916164,"connected_time":742000000000,"state":"active","ping":73},{"user_id":683,"name":"Xx_EpicGaymer_xX","steam_id":76561198846784757,"connected_time":2110000000000,"state":"active","ping":61},{"user_id":700,"name":"Cabbch","steam_id":76561198045955679,"connected_time":196000000000,"state":"active","ping":55},{"user_id":696,"name":"TomNoSocks","steam_id":76561198114071046,"connected_time":592000000000,"state":"active","ping":60},{"user_id":646,"name":"Waltcha","steam_id":76561198007691468,"connected_time":4911000000000,"state":"active","ping":74},{"user_id":644,"name":"trite","steam_id":76561197983765323,"connected_time":4976000000000,"state":"active","ping":54},{"user_id":667,"name":"Mr_Pulse_","steam_id":76561198095001602,"connected_time":3146000000000,"state":"active","ping":100},{"user_id":609,"name":"Son Goku","steam_id":76561199383437138,"connected_time":8227000000000,"state":"active","ping":122},{"user_id":665,"name":"One Hop Dis Time *BWRAB*","steam_id":76561198146081601,"connected_time":3312000000000,"state":"active","ping":57},{"user_id":693,"name":"Der dicke Polizist","steam_id":76561197960302224,"connected_time":671000000000,"state":"active","ping":63},{"user_id":694,"name":"BEASTSLAYER","steam_id":76561197988085026,"connected_time":645000000000,"state":"active","ping":76},{"user_id":697,"name":"DobreStarachowickie","steam_id":76561198027126737,"connected_time":568000000000,"state":"active","ping":72},{"user_id":687,"name":"nappo","steam_id":76561198060105180,"connected_time":1023000000000,"state":"active","ping":71},{"user_id":652,"name":"KnugenIV","steam_id":76561198127091993,"connected_time":4054000000000,"state":"active","ping":63},{"user_id":675,"name":"robbie","steam_id":76561198798195287,"connected_time":2667000000000,"state":"active","ping":46},{"user_id":669,"name":"Lord Bogadoo","steam_id":76561198218613716,"connected_time":3079000000000,"state":"active","ping":91}]},{"server_id":114,"name":"Uncletopia | London | 2 | All Maps","name_short":"lon-2","host":"lon-1.uk.uncletopia.com","port":27025,"enabled":true,"region":"eu","cc":"gb","latitude":51.509865,"longitude":-0.118092,"reserved":0,"last_update":"0001-01-01T00:00:00Z","name_a2s":"Uncletopia | London | 2 | All Maps","protocol":17,"map":"cp_dustbowl","folder":"tf","game":"Team Fortress","app_id":440,"player_count":24,"max_players":24,"Bots":0,"server_type":"Dedicated","server_os":"Linux","password":true,"vac":true,"version":"7882260","steam_id":85568392924470941,"keywords":["cp","nocrits","nodmgspread","uncletopia"],"game_id":440,"stv_port":27026,"stv_name":"Uncletopia | London | 2 | All Maps | STV","players":[{"user_id":125,"name":"UnusedEngine","steam_id":76561199281868902,"connected_time":6434000000000,"state":"active","ping":46},{"user_id":198,"name":"Samwell","steam_id":76561198182340393,"connected_time":1163000000000,"state":"active","ping":46},{"user_id":205,"name":"Dirty Joe","steam_id":76561198142418870,"connected_time":1061000000000,"state":"active","ping":44},{"user_id":211,"name":"Weebot00","steam_id":76561199479204459,"connected_time":753000000000,"state":"active","ping":65},{"user_id":210,"name":"Joel!","steam_id":76561198155422742,"connected_time":891000000000,"state":"active","ping":61},{"user_id":145,"name":"LucyLime","steam_id":76561198262258698,"connected_time":4638000000000,"state":"active","ping":47},{"user_id":176,"name":"Chief Executive Officer of Sex","steam_id":76561198385989487,"connected_time":2264000000000,"state":"active","ping":99},{"user_id":209,"name":"Gregory","steam_id":76561198970302963,"connected_time":945000000000,"state":"active","ping":73},{"user_id":214,"name":"dragoon","steam_id":76561198241320498,"connected_time":501000000000,"state":"active","ping":56},{"user_id":36,"name":"Gravy","steam_id":76561198029548074,"connected_time":12339000000000,"state":"active","ping":58},{"user_id":200,"name":"twitch.tv/red_naxela","steam_id":76561197998803950,"connected_time":1122000000000,"state":"active","ping":63},{"user_id":201,"name":"UFeindschiff[CW]","steam_id":76561198026514712,"connected_time":1117000000000,"state":"active","ping":69},{"user_id":175,"name":"Salesman Doren","steam_id":76561198076098142,"connected_time":2286000000000,"state":"active","ping":45},{"user_id":219,"name":"Jack_26","steam_id":76561198034566531,"connected_time":90000000000,"state":"active","ping":98},{"user_id":215,"name":"Syd","steam_id":76561198020515027,"connected_time":469000000000,"state":"active","ping":81},{"user_id":202,"name":"ldshwt","steam_id":76561198090364357,"connected_time":1115000000000,"state":"active","ping":60},{"user_id":177,"name":"Oceanic | tuesday maybe","steam_id":76561197979741827,"connected_time":2246000000000,"state":"active","ping":74},{"user_id":189,"name":"Kenny McCormick","steam_id":76561197965446374,"connected_time":1642000000000,"state":"active","ping":70},{"user_id":203,"name":"DelaNo","steam_id":76561199125086655,"connected_time":1094000000000,"state":"active","ping":41},{"user_id":204,"name":"Yuzu","steam_id":76561198121694613,"connected_time":1085000000000,"state":"active","ping":50},{"user_id":207,"name":"Voks_","steam_id":76561198159687785,"connected_time":1032000000000,"state":"active","ping":76},{"user_id":208,"name":"JVLIVS","steam_id":76561198366167099,"connected_time":963000000000,"state":"active","ping":55},{"user_id":217,"name":"socaramel","steam_id":76561197984480336,"connected_time":126000000000,"state":"active","ping":75},{"user_id":194,"name":"mkwii","steam_id":76561198062507768,"connected_time":1584000000000,"state":"active","ping":63}]},{"server_id":320,"name":"Uncletopia | London | 3 | All Maps","name_short":"lon-3","host":"lon-1.uk.uncletopia.com","port":27035,"enabled":true,"region":"eu","cc":"gb","latitude":51.509865,"longitude":-0.118092,"reserved":0,"last_update":"0001-01-01T00:00:00Z","name_a2s":"Uncletopia | London | 3 | All Maps","protocol":17,"map":"pl_swiftwater_final1","folder":"tf","game":"Team Fortress","app_id":440,"player_count":24,"max_players":24,"Bots":0,"server_type":"Dedicated","server_os":"Linux","password":true,"vac":true,"version":"7882260","steam_id":85568392924510192,"keywords":["nocrits","nodmgspread","payload","uncletopia"],"game_id":440,"stv_port":27036,"stv_name":"Uncletopia | London | 3 | All Maps | STV","players":[{"user_id":565,"name":"remi, she wrote.","steam_id":76561198044045655,"connected_time":3030000000000,"state":"active","ping":71},{"user_id":609,"name":"Max Power","steam_id":76561198019269089,"connected_time":696000000000,"state":"active","ping":59},{"user_id":610,"name":"Gun Spy","steam_id":76561198112689672,"connected_time":638000000000,"state":"active","ping":42},{"user_id":567,"name":"Beri The Catthem","steam_id":76561198988363799,"connected_time":2995000000000,"state":"active","ping":71},{"user_id":603,"name":"femboy enjoyer","steam_id":76561199041737814,"connected_time":1574000000000,"state":"active","ping":46},{"user_id":605,"name":"TheH@cker","steam_id":76561198172701090,"connected_time":1279000000000,"state":"active","ping":83},{"user_id":619,"name":"scschillings","steam_id":76561199088842434,"connected_time":345000000000,"state":"active","ping":159},{"user_id":560,"name":"leonioni","steam_id":76561198833825968,"connected_time":4036000000000,"state":"active","ping":60},{"user_id":612,"name":"Oscar The Grouch (real)","steam_id":76561199174779667,"connected_time":569000000000,"state":"active","ping":154},{"user_id":613,"name":"Xriasp","steam_id":76561198104721321,"connected_time":518000000000,"state":"active","ping":83},{"user_id":570,"name":"KopKopl","steam_id":76561198118409280,"connected_time":2898000000000,"state":"active","ping":73},{"user_id":621,"name":"Doctor Marijuana","steam_id":76561198288289879,"connected_time":34000000000,"state":"active","ping":53},{"user_id":618,"name":"Star in a pond","steam_id":76561198205501279,"connected_time":469000000000,"state":"active","ping":98},{"user_id":571,"name":"ROX","steam_id":76561198272289320,"connected_time":2819000000000,"state":"active","ping":62},{"user_id":607,"name":"Don't Type Kappa Shift 7 7","steam_id":76561198104896547,"connected_time":1117000000000,"state":"active","ping":75},{"user_id":578,"name":"Ð´Ð¶ÐµÐ³ÐµÐ¼Ð¸ Ñ…ÑÐ¿ÐºÐ¸Ð½Ð³Ñ","steam_id":76561198131531394,"connected_time":2487000000000,"state":"active","ping":104},{"user_id":616,"name":"kallerannar","steam_id":76561199095701143,"connected_time":509000000000,"state":"active","ping":90},{"user_id":517,"name":"fence_","steam_id":76561198150386379,"connected_time":7668000000000,"state":"active","ping":45},{"user_id":597,"name":"Lux","steam_id":76561198060417740,"connected_time":1785000000000,"state":"active","ping":45},{"user_id":600,"name":"calum92","steam_id":76561197992188760,"connected_time":1767000000000,"state":"active","ping":58},{"user_id":601,"name":"Menty","steam_id":76561198036748212,"connected_time":1712000000000,"state":"active","ping":51},{"user_id":617,"name":"r1ghty","steam_id":76561198022349611,"connected_time":500000000000,"state":"active","ping":111},{"user_id":584,"name":"Traylie","steam_id":76561198050797796,"connected_time":2282000000000,"state":"active","ping":67},{"user_id":585,"name":"Lukey","steam_id":76561198052076168,"connected_time":2269000000000,"state":"active","ping":70}]},{"server_id":321,"name":"Uncletopia | London | 4 | All Maps","name_short":"lon-4","host":"lon-1.uk.uncletopia.com","port":27045,"enabled":true,"region":"eu","cc":"gb","latitude":51.509865,"longitude":-0.118092,"reserved":0,"last_update":"0001-01-01T00:00:00Z","name_a2s":"Uncletopia | London | 4 | All Maps","protocol":17,"map":"pl_badwater","folder":"tf","game":"Team Fortress","app_id":440,"player_count":21,"max_players":24,"Bots":0,"server_type":"Dedicated","server_os":"Linux","password":true,"vac":true,"version":"7882260","steam_id":85568392924510193,"keywords":["nocrits","nodmgspread","payload","uncletopia"],"game_id":440,"stv_port":27046,"stv_name":"Uncletopia | London | 4 | All Maps | STV","players":[{"user_id":463,"name":"Bajas","steam_id":76561198179339326,"connected_time":11000000000,"state":"active","ping":79},{"user_id":450,"name":"weedminion","steam_id":76561198061248329,"connected_time":1130000000000,"state":"active","ping":72},{"user_id":452,"name":"Jammy120","steam_id":76561198353380444,"connected_time":913000000000,"state":"active","ping":70},{"user_id":457,"name":"Ixsus\u003c3","steam_id":76561198094756869,"connected_time":308000000000,"state":"active","ping":61},{"user_id":458,"name":"fÃ©nix","steam_id":76561198083199151,"connected_time":268000000000,"state":"active","ping":54},{"user_id":464,"name":"Avitz","steam_id":76561197986150359,"connected_time":2000000000,"state":"spawning","ping":43},{"user_id":439,"name":"monkeyraper","steam_id":76561197996798464,"connected_time":1915000000000,"state":"active","ping":84},{"user_id":455,"name":"Jucatron","steam_id":76561198044259577,"connected_time":513000000000,"state":"active","ping":88},{"user_id":456,"name":"Mr. Luigi","steam_id":76561198167312951,"connected_time":406000000000,"state":"active","ping":37},{"user_id":460,"name":"Noob_with_source","steam_id":76561198870362103,"connected_time":177000000000,"state":"active","ping":55},{"user_id":449,"name":"Literally 1940","steam_id":76561198173218318,"connected_time":1251000000000,"state":"active","ping":47},{"user_id":461,"name":"kreeekz","steam_id":76561198014431602,"connected_time":163000000000,"state":"active","ping":70},{"user_id":465,"name":"DiamondArcade","steam_id":76561199367737652,"connected_time":2000000000,"state":"spawning","ping":51},{"user_id":445,"name":"Kestrel","steam_id":76561198144033005,"connected_time":1760000000000,"state":"active","ping":50},{"user_id":454,"name":"Anri Okita's Massive Milkers","steam_id":76561199186352720,"connected_time":821000000000,"state":"active","ping":51},{"user_id":447,"name":"Oki (Bon)","steam_id":76561199047748534,"connected_time":1522000000000,"state":"active","ping":54},{"user_id":444,"name":"Yuval","steam_id":76561198241802390,"connected_time":1811000000000,"state":"active","ping":108},{"user_id":412,"name":"poopoocum","steam_id":76561198180641206,"connected_time":3133000000000,"state":"active","ping":63},{"user_id":443,"name":"Retrowave","steam_id":76561198061921346,"connected_time":1859000000000,"state":"active","ping":138},{"user_id":415,"name":"DrunkFuck (cactus)","steam_id":76561198256328990,"connected_time":3080000000000,"state":"active","ping":75},{"user_id":417,"name":"gfloum","steam_id":76561198817585886,"connected_time":3028000000000,"state":"active","ping":108}]},{"server_id":21,"name":"Uncletopia | London | 5 | All Maps","name_short":"lon-5","host":"lon-1.uk.uncletopia.com","port":27055,"enabled":true,"region":"eu","cc":"gb","latitude":51.509865,"longitude":-0.118092,"reserved":0,"last_update":"0001-01-01T00:00:00Z","name_a2s":"Uncletopia | London | 5 | All Maps","protocol":17,"map":"koth_lakeside_final","folder":"tf","game":"Team Fortress","app_id":440,"player_count":3,"max_players":24,"Bots":0,"server_type":"Dedicated","server_os":"Linux","password":true,"vac":true,"version":"7882260","steam_id":85568392924742829,"keywords":["cp","nocrits","nodmgspread","uncletopia"],"game_id":440,"stv_port":27056,"stv_name":"Uncletopia | London | 5 | All Maps | STV","players":[{"user_id":70,"name":"QuackQuackCrack","steam_id":76561198087569947,"connected_time":1433000000000,"state":"active","ping":48},{"user_id":69,"name":"BlunDoom","steam_id":76561198116016798,"connected_time":1471000000000,"state":"active","ping":70},{"user_id":74,"name":"Urfangonultasadana","steam_id":76561199389286151,"connected_time":124000000000,"state":"active","ping":116}]},{"server_id":22,"name":"Uncletopia | London | 6 | All Maps","name_short":"lon-6","host":"lon-1.uk.uncletopia.com","port":27065,"enabled":true,"region":"eu","cc":"gb","latitude":51.509865,"longitude":-0.118092,"reserved":0,"last_update":"0001-01-01T00:00:00Z","name_a2s":"Uncletopia | London | 6 | All Maps","protocol":17,"map":"pl_frontier_final","folder":"tf","game":"Team Fortress","app_id":440,"player_count":12,"max_players":24,"Bots":0,"server_type":"Dedicated","server_os":"Linux","password":true,"vac":true,"version":"7882260","steam_id":85568392924742830,"keywords":["nocrits","nodmgspread","payload","uncletopia"],"game_id":440,"stv_port":27066,"stv_name":"Uncletopia | London | 6 | All Maps | STV","players":[{"user_id":514,"name":"Anonymous47007","steam_id":76561199005211417,"connected_time":276000000000,"state":"active","ping":81},{"user_id":515,"name":"i took the wock to obersalzberg","steam_id":76561198044189114,"connected_time":213000000000,"state":"active","ping":62},{"user_id":485,"name":"Endik (#SaveTF2)","steam_id":76561199114978709,"connected_time":1495000000000,"state":"active","ping":82},{"user_id":469,"name":"Crisps","steam_id":76561198088973774,"connected_time":2632000000000,"state":"active","ping":51},{"user_id":457,"name":"MEDiUM","steam_id":76561198112328561,"connected_time":3861000000000,"state":"active","ping":83},{"user_id":500,"name":"luivul","steam_id":76561197990672410,"connected_time":1241000000000,"state":"active","ping":72},{"user_id":403,"name":"Myrmodion","steam_id":76561198054746247,"connected_time":7879000000000,"state":"active","ping":71},{"user_id":489,"name":"the_Qcumber","steam_id":76561199152515819,"connected_time":1397000000000,"state":"active","ping":71},{"user_id":491,"name":"punchmypotatoes","steam_id":76561198091255731,"connected_time":1385000000000,"state":"active","ping":54},{"user_id":458,"name":"clunk","steam_id":76561198836460767,"connected_time":3688000000000,"state":"active","ping":84},{"user_id":502,"name":"Ardello","steam_id":76561198864484125,"connected_time":1159000000000,"state":"active","ping":86},{"user_id":504,"name":"BooceMaster","steam_id":76561198148520318,"connected_time":964000000000,"state":"active","ping":115}]},{"server_id":40,"name":"Uncletopia | London | 7 | No Payload","name_short":"lon-7","host":"lon-1.uk.uncletopia.com","port":27075,"enabled":true,"region":"eu","cc":"gb","latitude":51.509865,"longitude":-0.118092,"reserved":0,"last_update":"0001-01-01T00:00:00Z","name_a2s":"Uncletopia | London | 7 | No Payload","protocol":17,"map":"koth_badlands","folder":"tf","game":"Team Fortress","app_id":440,"player_count":10,"max_players":24,"Bots":0,"server_type":"Dedicated","server_os":"Linux","password":true,"vac":true,"version":"7882260","steam_id":85568392924964314,"keywords":["cp","nocrits","nodmgspread","uncletopia"],"game_id":440,"stv_port":27076,"stv_name":"Uncletopia | London | 7 | No Payload | STV","players":[{"user_id":320,"name":"simeon","steam_id":76561198336192558,"connected_time":383000000000,"state":"active","ping":70},{"user_id":324,"name":"Nonok","steam_id":76561199480685498,"connected_time":3000000000,"state":"spawning","ping":55},{"user_id":312,"name":"antnt","steam_id":76561198112546748,"connected_time":1503000000000,"state":"active","ping":48},{"user_id":274,"name":"Nyhde","steam_id":76561198012771416,"connected_time":3944000000000,"state":"active","ping":108},{"user_id":317,"name":"LS","steam_id":76561198146570384,"connected_time":1106000000000,"state":"active","ping":79},{"user_id":318,"name":"SpaceCokeCan","steam_id":76561199117730730,"connected_time":994000000000,"state":"active","ping":148},{"user_id":316,"name":"k3n8k1","steam_id":76561199185253785,"connected_time":1159000000000,"state":"active","ping":54},{"user_id":176,"name":"IndigoJones","steam_id":76561198050284262,"connected_time":9894000000000,"state":"active","ping":44},{"user_id":321,"name":"A BlÃ¥haj Fan","steam_id":76561199029212388,"connected_time":247000000000,"state":"active","ping":60},{"user_id":323,"name":"tydes44","steam_id":76561199478904214,"connected_time":121000000000,"state":"active","ping":57}]},{"server_id":41,"name":"Uncletopia | London | 8 | Community","name_short":"lon-8","host":"lon-1.uk.uncletopia.com","port":27085,"enabled":true,"region":"eu","cc":"gb","latitude":51.509865,"longitude":-0.118092,"reserved":0,"last_update":"0001-01-01T00:00:00Z","name_a2s":"Uncletopia | London | 8 | Community","protocol":17,"map":"workshop/koth_slaughter_rc1.ugc1712845210","folder":"tf","game":"Team Fortress","app_id":440,"player_count":3,"max_players":24,"Bots":0,"server_type":"Dedicated","server_os":"Linux","password":true,"vac":true,"version":"7882260","steam_id":85568392924964315,"keywords":["cp","nocrits","nodmgspread","uncletopia"],"game_id":440,"stv_port":27086,"stv_name":"Uncletopia | London | 8 | Community | STV","players":[{"user_id":269,"name":"ÑƒÑ… ÐÐ»ÐµÐºÑÐ°Ð½Ð´Ñ€","steam_id":76561198995476261,"connected_time":1524000000000,"state":"active","ping":103},{"user_id":270,"name":"Ð£Ñ… Ð¢Ð¸Ð¼ÑƒÑ€ÐºÐ°","steam_id":76561198203003862,"connected_time":1192000000000,"state":"active","ping":111},{"user_id":271,"name":"ÑƒÑ… ÐÐ¸ÐºÐ¸Ñ‚ÐºÐ°","steam_id":76561199227727933,"connected_time":1174000000000,"state":"active","ping":105}]},{"server_id":300,"name":"Uncletopia | MontrÃ©al | 1 | All Maps","name_short":"mtl-1","host":"mtl-1.ca.uncletopia.com","port":27015,"enabled":true,"region":"us-east","cc":"ca","latitude":45.50889,"longitude":-73.56167,"reserved":0,"last_update":"0001-01-01T00:00:00Z","name_a2s":"Uncletopia | MontrÃ©al | 1 | All Maps","protocol":17,"map":"pl_frontier_final","folder":"tf","game":"Team Fortress","app_id":440,"player_count":0,"max_players":24,"Bots":0,"server_type":"Dedicated","server_os":"Linux","password":true,"vac":true,"version":"7882260","steam_id":85568392924500087,"keywords":["nocrits","nodmgspread","payload","uncletopia"],"game_id":440,"stv_port":27016,"stv_name":"Uncletopia | MontrÃ©al | 1 | All Maps | STV","players":null},{"server_id":301,"name":"Uncletopia | MontrÃ©al | 2 | All Maps","name_short":"mtl-2","host":"mtl-1.ca.uncletopia.com","port":27025,"enabled":true,"region":"us-east","cc":"ca","latitude":45.50889,"longitude":-73.56167,"reserved":0,"last_update":"0001-01-01T00:00:00Z","name_a2s":"Uncletopia | MontrÃ©al | 2 | All Maps","protocol":17,"map":"pl_swiftwater_final1","folder":"tf","game":"Team Fortress","app_id":440,"player_count":0,"max_players":24,"Bots":0,"server_type":"Dedicated","server_os":"Linux","password":true,"vac":true,"version":"7882260","steam_id":85568392924500088,"keywords":["nocrits","nodmgspread","payload","uncletopia"],"game_id":440,"stv_port":27026,"stv_name":"Uncletopia | MontrÃ©al | 2 | All Maps | STV","players":null},{"server_id":302,"name":"Uncletopia | MontrÃ©al | 3 | All Maps","name_short":"mtl-3","host":"mtl-1.ca.uncletopia.com","port":27035,"enabled":true,"region":"us-east","cc":"ca","latitude":45.50889,"longitude":-73.56167,"reserved":0,"last_update":"0001-01-01T00:00:00Z","name_a2s":"Uncletopia | MontrÃ©al | 3 | All Maps","protocol":17,"map":"koth_harvest_final","folder":"tf","game":"Team Fortress","app_id":440,"player_count":0,"max_players":24,"Bots":0,"server_type":"Dedicated","server_os":"Linux","password":true,"vac":true,"version":"7882260","steam_id":85568392924500089,"keywords":["cp","nocrits","nodmgspread","uncletopia"],"game_id":440,"stv_port":27036,"stv_name":"Uncletopia | MontrÃ©al | 3 | All Maps | STV","players":null},{"server_id":303,"name":"Uncletopia | MontrÃ©al | 4 | No Payload","name_short":"mtl-4","host":"mtl-1.ca.uncletopia.com","port":27045,"enabled":true,"region":"us-east","cc":"ca","latitude":45.50889,"longitude":-73.56167,"reserved":0,"last_update":"0001-01-01T00:00:00Z","name_a2s":"Uncletopia | MontrÃ©al | 4 | No Payload","protocol":17,"map":"koth_highpass","folder":"tf","game":"Team Fortress","app_id":440,"player_count":0,"max_players":24,"Bots":0,"server_type":"Dedicated","server_os":"Linux","password":true,"vac":true,"version":"7882260","steam_id":85568392924500090,"keywords":["cp","nocrits","nodmgspread","uncletopia"],"game_id":440,"stv_port":27046,"stv_name":"Uncletopia | MontrÃ©al | 4 | No Payload | STV","players":null},{"server_id":13,"name":"Uncletopia | New York City | 1 | All Maps","name_short":"nyc-1","host":"nyc-1.us.uncletopia.com","port":27015,"enabled":true,"region":"us-east","cc":"us","latitude":40.73061,"longitude":-73.93524,"reserved":0,"last_update":"0001-01-01T00:00:00Z","name_a2s":"Uncletopia | New York City | 1 | All Maps","protocol":17,"map":"pl_swiftwater_final1","folder":"tf","game":"Team Fortress","app_id":440,"player_count":24,"max_players":24,"Bots":0,"server_type":"Dedicated","server_os":"Linux","password":true,"vac":true,"version":"7882260","steam_id":85568392924469993,"keywords":["nocrits","nodmgspread","payload","uncletopia"],"game_id":440,"stv_port":27016,"stv_name":"Uncletopia | New York City | 1 | All Maps | STV","players":[{"user_id":371,"name":"Tractor Trevor #farmville","steam_id":76561198138221795,"connected_time":21000000000,"state":"spawning","ping":86},{"user_id":372,"name":"Combine Carl #farmville","steam_id":76561198305740611,"connected_time":18000000000,"state":"spawning","ping":88},{"user_id":340,"name":"doritobean","steam_id":76561198091949303,"connected_time":2885000000000,"state":"active","ping":86},{"user_id":324,"name":"Zenith","steam_id":76561199052945987,"connected_time":3782000000000,"state":"active","ping":66},{"user_id":363,"name":"totally nuts","steam_id":76561198072856511,"connected_time":687000000000,"state":"active","ping":52},{"user_id":360,"name":"cfs._","steam_id":76561198052978969,"connected_time":1339000000000,"state":"active","ping":45},{"user_id":359,"name":"Furkle","steam_id":76561197967806038,"connected_time":1529000000000,"state":"active","ping":45},{"user_id":335,"name":"Bymo","steam_id":76561199037626505,"connected_time":3350000000000,"state":"spawning","ping":77},{"user_id":369,"name":"Menacing Pile of Frogs","steam_id":76561198360134800,"connected_time":262000000000,"state":"active","ping":57},{"user_id":350,"name":"TDOB","steam_id":76561198062701904,"connected_time":2562000000000,"state":"active","ping":79},{"user_id":358,"name":"you forgot the sauce","steam_id":76561198387016713,"connected_time":1721000000000,"state":"active","ping":59},{"user_id":367,"name":"Queso2469","steam_id":76561197993024580,"connected_time":389000000000,"state":"active","ping":45},{"user_id":364,"name":"Kaluka","steam_id":76561198036861445,"connected_time":630000000000,"state":"active","ping":56},{"user_id":275,"name":"Clean Lines","steam_id":76561197960691518,"connected_time":7059000000000,"state":"active","ping":46},{"user_id":365,"name":"Scooter MCscoots","steam_id":76561198208743000,"connected_time":611000000000,"state":"active","ping":66},{"user_id":370,"name":"Sensitive Shooter","steam_id":76561198041439581,"connected_time":86000000000,"state":"active","ping":45},{"user_id":352,"name":"Admiral Desto","steam_id":76561198301585815,"connected_time":2267000000000,"state":"active","ping":44},{"user_id":344,"name":"Fishandfish","steam_id":76561198298483804,"connected_time":2857000000000,"state":"active","ping":106},{"user_id":294,"name":"Pockets","steam_id":76561198001742296,"connected_time":5875000000000,"state":"active","ping":73},{"user_id":328,"name":"Get Beaned","steam_id":76561198391590820,"connected_time":3685000000000,"state":"active","ping":120},{"user_id":339,"name":"Thedarkdot","steam_id":76561199200787877,"connected_time":2960000000000,"state":"active","ping":54},{"user_id":366,"name":"bobdragon27","steam_id":76561198065833387,"connected_time":608000000000,"state":"active","ping":35},{"user_id":345,"name":"Anamm","steam_id":76561198328762510,"connected_time":2835000000000,"state":"active","ping":54},{"user_id":362,"name":"KatNip","steam_id":76561198075062554,"connected_time":848000000000,"state":"active","ping":72}]},{"server_id":14,"name":"Uncletopia | New York City | 2 | All Maps","name_short":"nyc-2","host":"nyc-1.us.uncletopia.com","port":27025,"enabled":true,"region":"us-east","cc":"us","latitude":40.73061,"longitude":-73.93524,"reserved":0,"last_update":"0001-01-01T00:00:00Z","name_a2s":"Uncletopia | New York City | 2 | All Maps","protocol":17,"map":"cp_steel","folder":"tf","game":"Team Fortress","app_id":440,"player_count":2,"max_players":24,"Bots":0,"server_type":"Dedicated","server_os":"Linux","password":true,"vac":true,"version":"7882260","steam_id":85568392924469994,"keywords":["cp","nocrits","nodmgspread","uncletopia"],"game_id":440,"stv_port":27026,"stv_name":"Uncletopia | New York City | 2 | All Maps | STV","players":[{"user_id":238,"name":"Auto_Correct","steam_id":76561198254988078,"connected_time":3320000000000,"state":"active","ping":54},{"user_id":269,"name":"sky","steam_id":76561198849263860,"connected_time":825000000000,"state":"active","ping":33}]},{"server_id":15,"name":"Uncletopia | New York City | 3 | Stopwatch Beta","name_short":"nyc-3","host":"nyc-1.us.uncletopia.com","port":27035,"enabled":true,"region":"us-east","cc":"us","latitude":40.73061,"longitude":-73.93524,"reserved":0,"last_update":"0001-01-01T00:00:00Z","name_a2s":"Uncletopia | New York City | 3 | Stopwatch Beta","protocol":17,"map":"cp_sunshine","folder":"tf","game":"Team Fortress","app_id":440,"player_count":12,"max_players":24,"Bots":0,"server_type":"Dedicated","server_os":"Linux","password":true,"vac":true,"version":"7882260","steam_id":85568392924742820,"keywords":["cp","nocrits","nodmgspread","uncletopia"],"game_id":440,"stv_port":27036,"stv_name":"Uncletopia | New York City | 3 | Stopwatch Beta | STV","players":[{"user_id":4,"name":"Weezer","steam_id":76561198983123535,"connected_time":2458000000000,"state":"active","ping":115},{"user_id":27,"name":"SEXGAMERR","steam_id":76561199097382372,"connected_time":254000000000,"state":"active","ping":120},{"user_id":7,"name":"DisastersGadget48","steam_id":76561199435046419,"connected_time":2280000000000,"state":"active","ping":89},{"user_id":12,"name":"cpg","steam_id":76561198853515541,"connected_time":1476000000000,"state":"active","ping":83},{"user_id":13,"name":"doamgeo468","steam_id":76561199485287045,"connected_time":1454000000000,"state":"active","ping":84},{"user_id":14,"name":"Paragon","steam_id":76561198274263793,"connected_time":1203000000000,"state":"active","ping":59},{"user_id":22,"name":"Bee_Pirate","steam_id":76561199000599111,"connected_time":387000000000,"state":"active","ping":65},{"user_id":18,"name":"inexperienced great horned owl","steam_id":76561198047077020,"connected_time":722000000000,"state":"active","ping":59},{"user_id":20,"name":"Alexthegreat","steam_id":76561197996796222,"connected_time":528000000000,"state":"active","ping":44},{"user_id":23,"name":"El Bondin","steam_id":76561198820792434,"connected_time":353000000000,"state":"active","ping":104},{"user_id":24,"name":"Pickle SANDWICH! With the FRIES","steam_id":76561198286957487,"connected_time":351000000000,"state":"active","ping":110},{"user_id":26,"name":"Lord Scrubling","steam_id":76561198263744445,"connected_time":315000000000,"state":"active","ping":75}]},{"server_id":16,"name":"Uncletopia | New York City | 4 | Community","name_short":"nyc-4","host":"nyc-1.us.uncletopia.com","port":27045,"enabled":true,"region":"us-east","cc":"us","latitude":40.73061,"longitude":-73.93524,"reserved":0,"last_update":"0001-01-01T00:00:00Z","name_a2s":"Uncletopia | New York City | 4 | Community","protocol":17,"map":"workshop/cp_snowbase_b18.ugc2081770490","folder":"tf","game":"Team Fortress","app_id":440,"player_count":0,"max_players":24,"Bots":0,"server_type":"Dedicated","server_os":"Linux","password":true,"vac":true,"version":"7882260","steam_id":85568392924742821,"keywords":["cp","nocrits","nodmgspread","uncletopia"],"game_id":440,"stv_port":27046,"stv_name":"Uncletopia | New York City | 4 | Community | STV","players":null},{"server_id":142,"name":"Uncletopia | SÃ£o Paulo | 1 | All Maps","name_short":"sao-1","host":"sao-1.br.uncletopia.com","port":27015,"enabled":true,"region":"sa","cc":"br","latitude":-23.533773,"longitude":-46.62529,"reserved":0,"last_update":"0001-01-01T00:00:00Z","name_a2s":"Uncletopia | SÃ£o Paulo | 1 | All Maps","protocol":17,"map":"koth_viaduct","folder":"tf","game":"Team Fortress","app_id":440,"player_count":0,"max_players":24,"Bots":0,"server_type":"Dedicated","server_os":"Linux","password":true,"vac":true,"version":"7882260","steam_id":85568392924469996,"keywords":["cp","nocrits","nodmgspread","uncletopia"],"game_id":440,"stv_port":27016,"stv_name":"Uncletopia | SÃ£o Paulo | 1 | All Maps | STV","players":null},{"server_id":143,"name":"Uncletopia | SÃ£o Paulo | 2 | All Maps","name_short":"sao-2","host":"sao-2.br.uncletopia.com","port":27015,"enabled":true,"region":"sa","cc":"br","latitude":-23.533773,"longitude":-46.62529,"reserved":0,"last_update":"0001-01-01T00:00:00Z","name_a2s":"Uncletopia | SÃ£o Paulo | 2 | All Maps","protocol":17,"map":"pl_swiftwater_final1","folder":"tf","game":"Team Fortress","app_id":440,"player_count":15,"max_players":24,"Bots":0,"server_type":"Dedicated","server_os":"Linux","password":true,"vac":true,"version":"7882260","steam_id":85568392924485349,"keywords":["nocrits","nodmgspread","payload","uncletopia"],"game_id":440,"stv_port":27016,"stv_name":"Uncletopia | SÃ£o Paulo | 2 | All Maps | STV","players":[{"user_id":242,"name":"Blue9Fairy","steam_id":76561198039942928,"connected_time":216000000000,"state":"active","ping":46},{"user_id":206,"name":"anaheisenberg","steam_id":76561198304847307,"connected_time":2902000000000,"state":"active","ping":55},{"user_id":216,"name":"isinho","steam_id":76561198836637592,"connected_time":2005000000000,"state":"active","ping":43},{"user_id":233,"name":"tecoletto","steam_id":76561199115657287,"connected_time":725000000000,"state":"active","ping":93},{"user_id":198,"name":"matheus_lanches","steam_id":76561199359501901,"connected_time":3561000000000,"state":"active","ping":42},{"user_id":193,"name":"vacaloca25","steam_id":76561198082683352,"connected_time":4003000000000,"state":"active","ping":60},{"user_id":213,"name":"Lab666","steam_id":76561199369469870,"connected_time":2305000000000,"state":"active","ping":102},{"user_id":215,"name":"Reaper â€ ","steam_id":76561198356412460,"connected_time":2090000000000,"state":"active","ping":50},{"user_id":205,"name":"Ricardo Ereto","steam_id":76561199022729585,"connected_time":2903000000000,"state":"active","ping":59},{"user_id":236,"name":"Gogoyle50","steam_id":76561198148524228,"connected_time":604000000000,"state":"active","ping":48},{"user_id":232,"name":"Ignacio.Fornite.2021","steam_id":76561198350042367,"connected_time":1081000000000,"state":"active","ping":118},{"user_id":230,"name":"PYROCANTE #SAVETF2","steam_id":76561199152529988,"connected_time":1142000000000,"state":"active","ping":67},{"user_id":240,"name":"chuck testa","steam_id":76561199136985273,"connected_time":478000000000,"state":"active","ping":113},{"user_id":228,"name":"jr_","steam_id":76561198313937899,"connected_time":1147000000000,"state":"active","ping":47},{"user_id":241,"name":"MatatosTF","steam_id":76561199235318074,"connected_time":451000000000,"state":"active","ping":41}]},{"server_id":7,"name":"Uncletopia | Seattle | 1 | All Maps","name_short":"sea-1","host":"sea-1.us.uncletopia.com","port":27015,"enabled":true,"region":"us-west","cc":"us","latitude":47.608013,"longitude":-122.33517,"reserved":0,"last_update":"0001-01-01T00:00:00Z","name_a2s":"Uncletopia | Seattle | 1 | All Maps","protocol":17,"map":"pl_frontier_final","folder":"tf","game":"Team Fortress","app_id":440,"player_count":24,"max_players":24,"Bots":0,"server_type":"Dedicated","server_os":"Linux","password":true,"vac":true,"version":"7882260","steam_id":85568392924469997,"keywords":["nocrits","nodmgspread","payload","uncletopia"],"game_id":440,"stv_port":27016,"stv_name":"Uncletopia | Seattle | 1 | All Maps | STV","players":[{"user_id":154,"name":"Soap","steam_id":76561197994893383,"connected_time":2170000000000,"state":"active","ping":81},{"user_id":116,"name":"MisterManne","steam_id":76561198106598600,"connected_time":6912000000000,"state":"active","ping":57},{"user_id":130,"name":"Keamy","steam_id":76561199471434875,"connected_time":5286000000000,"state":"active","ping":39},{"user_id":120,"name":"âœ¿ corecoreÂ² Matador","steam_id":76561198106938500,"connected_time":6608000000000,"state":"active","ping":78},{"user_id":169,"name":"Sithayo","steam_id":76561198027950572,"connected_time":712000000000,"state":"active","ping":83},{"user_id":117,"name":"a cat plushie","steam_id":76561198080046542,"connected_time":6679000000000,"state":"active","ping":46},{"user_id":168,"name":"primordialheath","steam_id":76561199386942638,"connected_time":793000000000,"state":"active","ping":98},{"user_id":92,"name":"dust | she/it","steam_id":76561198045218909,"connected_time":8432000000000,"state":"active","ping":43},{"user_id":146,"name":"walkspine","steam_id":76561198030343569,"connected_time":2889000000000,"state":"active","ping":61},{"user_id":155,"name":"Vincent Van Bro","steam_id":76561197966919802,"connected_time":1970000000000,"state":"active","ping":57},{"user_id":140,"name":"*â€§Ëškitsu Êšâ™¥Éž","steam_id":76561198091741658,"connected_time":3362000000000,"state":"active","ping":75},{"user_id":176,"name":"JumpnShootnMan","steam_id":76561198082064919,"connected_time":92000000000,"state":"active","ping":98},{"user_id":170,"name":"YahYeeterson","steam_id":76561198120480906,"connected_time":669000000000,"state":"active","ping":62},{"user_id":175,"name":"Quietsharp","steam_id":76561198277968438,"connected_time":402000000000,"state":"active","ping":85},{"user_id":151,"name":"Bobby Ray","steam_id":76561198044131188,"connected_time":2375000000000,"state":"active","ping":87},{"user_id":177,"name":"HTML","steam_id":76561198099061153,"connected_time":88000000000,"state":"active","ping":70},{"user_id":157,"name":"lol","steam_id":76561198026491738,"connected_time":1862000000000,"state":"active","ping":88},{"user_id":141,"name":"Alltrex","steam_id":76561198202254225,"connected_time":3360000000000,"state":"active","ping":46},{"user_id":173,"name":"sam1521","steam_id":76561198027264163,"connected_time":607000000000,"state":"active","ping":128},{"user_id":70,"name":"a firm hand","steam_id":76561198042913843,"connected_time":10343000000000,"state":"active","ping":60},{"user_id":171,"name":"Funky 3GG","steam_id":76561199181214507,"connected_time":659000000000,"state":"active","ping":82},{"user_id":174,"name":"|404|bh-OD","steam_id":76561198067464803,"connected_time":565000000000,"state":"active","ping":86},{"user_id":178,"name":"armpit fetishist","steam_id":76561199008452637,"connected_time":16000000000,"state":"active","ping":101},{"user_id":74,"name":"lili","steam_id":76561199391478575,"connected_time":10055000000000,"state":"active","ping":73}]},{"server_id":119,"name":"Uncletopia | Seattle | 2 | All Maps","name_short":"sea-2","host":"sea-1.us.uncletopia.com","port":27025,"enabled":true,"region":"us-west","cc":"us","latitude":47.608013,"longitude":-122.33517,"reserved":0,"last_update":"0001-01-01T00:00:00Z","name_a2s":"Uncletopia | Seattle | 2 | All Maps","protocol":17,"map":"pl_badwater","folder":"tf","game":"Team Fortress","app_id":440,"player_count":24,"max_players":24,"Bots":0,"server_type":"Dedicated","server_os":"Linux","password":true,"vac":true,"version":"7882260","steam_id":85568392924469998,"keywords":["nocrits","nodmgspread","payload","uncletopia"],"game_id":440,"stv_port":27026,"stv_name":"Uncletopia | Seattle | 2 | All Maps | STV","players":[{"user_id":76,"name":"Board","steam_id":76561198134326473,"connected_time":294000000000,"state":"active","ping":70},{"user_id":71,"name":"Rocky","steam_id":76561198048158539,"connected_time":985000000000,"state":"active","ping":86},{"user_id":45,"name":"Mini Sentry","steam_id":76561198151531499,"connected_time":1872000000000,"state":"active","ping":75},{"user_id":60,"name":"Bheem","steam_id":76561198170453459,"connected_time":1236000000000,"state":"active","ping":60},{"user_id":40,"name":"Natedatboi_20","steam_id":76561199468952442,"connected_time":1997000000000,"state":"active","ping":86},{"user_id":74,"name":"SHAZBOT","steam_id":76561198068536790,"connected_time":334000000000,"state":"active","ping":105},{"user_id":55,"name":"Teleport Bread","steam_id":76561198400534633,"connected_time":1449000000000,"state":"active","ping":65},{"user_id":52,"name":"Otterman Empire","steam_id":76561198047758442,"connected_time":1503000000000,"state":"active","ping":105},{"user_id":48,"name":"Hazi","steam_id":76561198066844855,"connected_time":1781000000000,"state":"active","ping":60},{"user_id":50,"name":"Owl Of Delos","steam_id":76561198437116566,"connected_time":1609000000000,"state":"active","ping":63},{"user_id":51,"name":"TryingAcrobat52","steam_id":76561199018802683,"connected_time":1574000000000,"state":"active","ping":70},{"user_id":53,"name":"DrakeFruit #savetf2","steam_id":76561198164411694,"connected_time":1490000000000,"state":"active","ping":35},{"user_id":54,"name":"Rave Blitz","steam_id":76561198019158476,"connected_time":1470000000000,"state":"active","ping":78},{"user_id":56,"name":"Wu Tang","steam_id":76561198051765332,"connected_time":1441000000000,"state":"active","ping":96},{"user_id":57,"name":"blorbule","steam_id":76561198872316133,"connected_time":1285000000000,"state":"active","ping":63},{"user_id":73,"name":"Agent86","steam_id":76561198046794593,"connected_time":379000000000,"state":"active","ping":104},{"user_id":61,"name":"SHADOW (he/him)","steam_id":76561198207768148,"connected_time":1233000000000,"state":"active","ping":77},{"user_id":77,"name":"GenericName","steam_id":76561198104074968,"connected_time":189000000000,"state":"active","ping":135},{"user_id":75,"name":"PURPLE","steam_id":76561199140133516,"connected_time":329000000000,"state":"active","ping":73},{"user_id":78,"name":"starryder2004","steam_id":76561199174929065,"connected_time":89000000000,"state":"active","ping":57},{"user_id":67,"name":"Hobo Joe","steam_id":76561197986838399,"connected_time":1135000000000,"state":"active","ping":75},{"user_id":66,"name":"bowling","steam_id":76561198854571744,"connected_time":1167000000000,"state":"active","ping":78},{"user_id":70,"name":"shotgun marriage with juana","steam_id":76561198380018244,"connected_time":1034000000000,"state":"active","ping":60},{"user_id":72,"name":"sora","steam_id":76561198094256973,"connected_time":985000000000,"state":"active","ping":120}]},{"server_id":406,"name":"Uncletopia | Seattle | 3 | Stopwatch Beta","name_short":"sea-3","host":"sea-1.us.uncletopia.com","port":27035,"enabled":true,"region":"us-west","cc":"us","latitude":47.608013,"longitude":-122.33517,"reserved":0,"last_update":"0001-01-01T00:00:00Z","name_a2s":"Uncletopia | Seattle | 3 | Stopwatch Beta","protocol":17,"map":"koth_viaduct","folder":"tf","game":"Team Fortress","app_id":440,"player_count":0,"max_players":24,"Bots":0,"server_type":"Dedicated","server_os":"Linux","password":true,"vac":true,"version":"7882260","steam_id":85568392924515217,"keywords":["cp","nocrits","nodmgspread","uncletopia"],"game_id":440,"stv_port":27036,"stv_name":"Uncletopia | Seattle | 3 | Stopwatch Beta | STV","players":null},{"server_id":17,"name":"Uncletopia | San Francisco | 1 | All Maps","name_short":"sfo-1","host":"sfo-1.us.uncletopia.com","port":27015,"enabled":true,"region":"us-west","cc":"us","latitude":37.77397,"longitude":-122.4313,"reserved":0,"last_update":"0001-01-01T00:00:00Z","name_a2s":"Uncletopia | San Francisco | 1 | All Maps","protocol":17,"map":"koth_viaduct","folder":"tf","game":"Team Fortress","app_id":440,"player_count":0,"max_players":24,"Bots":0,"server_type":"Dedicated","server_os":"Linux","password":true,"vac":true,"version":"7882260","steam_id":85568392924469999,"keywords":["cp","nocrits","nodmgspread","uncletopia"],"game_id":440,"stv_port":27016,"stv_name":"Uncletopia | San Francisco | 1 | All Maps | STV","players":null},{"server_id":18,"name":"Uncletopia | San Francisco | 2 | All Maps","name_short":"sfo-2","host":"sfo-1.us.uncletopia.com","port":27025,"enabled":true,"region":"us-west","cc":"us","latitude":37.77397,"longitude":-122.4313,"reserved":0,"last_update":"0001-01-01T00:00:00Z","name_a2s":"Uncletopia | San Francisco | 2 | All Maps","protocol":17,"map":"pl_badwater","folder":"tf","game":"Team Fortress","app_id":440,"player_count":23,"max_players":24,"Bots":0,"server_type":"Dedicated","server_os":"Linux","password":true,"vac":true,"version":"7882260","steam_id":85568392924470000,"keywords":["nocrits","nodmgspread","payload","uncletopia"],"game_id":440,"stv_port":27026,"stv_name":"Uncletopia | San Francisco | 2 | All Maps | STV","players":[{"user_id":437,"name":"Surfing Garchomp","steam_id":76561199107236884,"connected_time":679000000000,"state":"active","ping":65},{"user_id":447,"name":"Eggie","steam_id":76561199018655610,"connected_time":186000000000,"state":"active","ping":108},{"user_id":444,"name":"TheSquirrelofHuscurl","steam_id":76561198073379623,"connected_time":288000000000,"state":"active","ping":129},{"user_id":428,"name":"basket","steam_id":76561199486768009,"connected_time":1066000000000,"state":"active","ping":68},{"user_id":436,"name":"Noahthecrazy1","steam_id":76561199152995909,"connected_time":681000000000,"state":"active","ping":132},{"user_id":443,"name":"Dallas","steam_id":76561198066542919,"connected_time":299000000000,"state":"active","ping":82},{"user_id":430,"name":"Lalo Salamanca","steam_id":76561198319726270,"connected_time":886000000000,"state":"active","ping":140},{"user_id":427,"name":"ThisDOT","steam_id":76561199011823773,"connected_time":1090000000000,"state":"active","ping":60},{"user_id":431,"name":"SanitysEdge","steam_id":76561198130732813,"connected_time":873000000000,"state":"active","ping":51},{"user_id":414,"name":"Un Payaso","steam_id":76561198438876215,"connected_time":1756000000000,"state":"active","ping":123},{"user_id":445,"name":"chilis baby back ribs","steam_id":76561198813516435,"connected_time":273000000000,"state":"active","ping":50},{"user_id":446,"name":"(Past Tense)","steam_id":76561197996279335,"connected_time":216000000000,"state":"active","ping":106},{"user_id":419,"name":"Perrell Laquarius Brown","steam_id":76561198990902905,"connected_time":1541000000000,"state":"active","ping":55},{"user_id":433,"name":"Quagsire Acquired","steam_id":76561198417169465,"connected_time":831000000000,"state":"active","ping":94},{"user_id":370,"name":"you blow my mind","steam_id":76561198334044006,"connected_time":3899000000000,"state":"active","ping":52},{"user_id":438,"name":"hot burger","steam_id":76561198275554722,"connected_time":588000000000,"state":"active","ping":59},{"user_id":448,"name":"tres","steam_id":76561198361975035,"connected_time":177000000000,"state":"active","ping":56},{"user_id":388,"name":"SolarusD","steam_id":76561198029279861,"connected_time":3323000000000,"state":"active","ping":45},{"user_id":450,"name":"THinkBOX546","steam_id":76561198928550867,"connected_time":118000000000,"state":"active","ping":56},{"user_id":312,"name":"nori_420","steam_id":76561199117134203,"connected_time":7454000000000,"state":"active","ping":60},{"user_id":439,"name":"KnightOfGames","steam_id":76561198080460659,"connected_time":570000000000,"state":"active","ping":103},{"user_id":452,"name":"chanoc","steam_id":76561198026734746,"connected_time":83000000000,"state":"active","ping":50},{"user_id":453,"name":"helen keller","steam_id":76561197979870540,"connected_time":72000000000,"state":"active","ping":105}]},{"server_id":19,"name":"Uncletopia | San Francisco | 3 | Stopwatch Beta","name_short":"sfo-3","host":"sfo-1.us.uncletopia.com","port":27035,"enabled":true,"region":"us-west","cc":"us","latitude":37.77397,"longitude":-122.4313,"reserved":0,"last_update":"0001-01-01T00:00:00Z","name_a2s":"Uncletopia | San Francisco | 3 | Stopwatch Beta","protocol":17,"map":"pl_snowycoast","folder":"tf","game":"Team Fortress","app_id":440,"player_count":0,"max_players":24,"Bots":0,"server_type":"Dedicated","server_os":"Linux","password":true,"vac":true,"version":"7882260","steam_id":85568392924742824,"keywords":["nocrits","nodmgspread","payload","uncletopia"],"game_id":440,"stv_port":27036,"stv_name":"Uncletopia | San Francisco | 3 | Stopwatch Beta | STV","players":null},{"server_id":20,"name":"Uncletopia | San Francisco | 4 | Community","name_short":"sfo-4","host":"sfo-1.us.uncletopia.com","port":27045,"enabled":true,"region":"us-west","cc":"us","latitude":37.77397,"longitude":-122.4313,"reserved":0,"last_update":"0001-01-01T00:00:00Z","name_a2s":"Uncletopia | San Francisco | 4 | Community","protocol":17,"map":"workshop/cp_glacier_rc6.ugc2905735376","folder":"tf","game":"Team Fortress","app_id":440,"player_count":0,"max_players":24,"Bots":0,"server_type":"Dedicated","server_os":"Linux","password":true,"vac":true,"version":"7882260","steam_id":85568392924742826,"keywords":["cp","nocrits","nodmgspread","uncletopia"],"game_id":440,"stv_port":27046,"stv_name":"Uncletopia | San Francisco | 4 | Community | STV","players":null},{"server_id":141,"name":"Uncletopia | Sydney | 1 | All Maps","name_short":"syd-1","host":"syd-1.au.uncletopia.com","port":27015,"enabled":true,"region":"au","cc":"au","latitude":-33.865143,"longitude":151.2099,"reserved":0,"last_update":"0001-01-01T00:00:00Z","name_a2s":"Uncletopia | Sydney | 1 | All Maps","protocol":17,"map":"cp_altitude","folder":"tf","game":"Team Fortress","app_id":440,"player_count":0,"max_players":24,"Bots":0,"server_type":"Dedicated","server_os":"Linux","password":true,"vac":true,"version":"7882260","steam_id":85568392924470001,"keywords":["cp","nocrits","nodmgspread","uncletopia"],"game_id":440,"stv_port":27016,"stv_name":"Uncletopia | Sydney | 1 | All Maps | STV","players":null},{"server_id":123,"name":"Uncletopia | Sydney | 2 | All Maps","name_short":"syd-2","host":"syd-1.au.uncletopia.com","port":27025,"enabled":true,"region":"au","cc":"au","latitude":-33.865143,"longitude":151.2099,"reserved":0,"last_update":"0001-01-01T00:00:00Z","name_a2s":"Uncletopia | Sydney | 2 | All Maps","protocol":17,"map":"cp_snakewater_final1","folder":"tf","game":"Team Fortress","app_id":440,"player_count":0,"max_players":24,"Bots":0,"server_type":"Dedicated","server_os":"Linux","password":true,"vac":true,"version":"7882260","steam_id":85568392924470002,"keywords":["cp","nocrits","nodmgspread","uncletopia"],"game_id":440,"stv_port":27026,"stv_name":"Uncletopia | Sydney | 2 | All Maps | STV","players":null},{"server_id":395,"name":"Uncletopia | Sydney | 3 | All Maps","name_short":"syd-3","host":"syd-1.au.uncletopia.com","port":27035,"enabled":true,"region":"au","cc":"au","latitude":-33.865143,"longitude":151.2099,"reserved":0,"last_update":"0001-01-01T00:00:00Z","name_a2s":"Uncletopia | Sydney | 3 | All Maps","protocol":17,"map":"pl_badwater","folder":"tf","game":"Team Fortress","app_id":440,"player_count":0,"max_players":24,"Bots":0,"server_type":"Dedicated","server_os":"Linux","password":true,"vac":true,"version":"7882260","steam_id":85568392925194467,"keywords":["nocrits","nodmgspread","payload","uncletopia"],"game_id":440,"stv_port":27036,"stv_name":"Uncletopia | Sydney | 3 | All Maps | STV","players":null},{"server_id":396,"name":"Uncletopia | Sydney | 4 | All Maps","name_short":"syd-4","host":"syd-1.au.uncletopia.com","port":27045,"enabled":true,"region":"au","cc":"au","latitude":-33.865143,"longitude":151.2099,"reserved":0,"last_update":"0001-01-01T00:00:00Z","name_a2s":"Uncletopia | Sydney | 4 | All Maps","protocol":17,"map":"cp_altitude","folder":"tf","game":"Team Fortress","app_id":440,"player_count":0,"max_players":24,"Bots":0,"server_type":"Dedicated","server_os":"Linux","password":true,"vac":true,"version":"7882260","steam_id":85568392925397958,"keywords":["cp","nocrits","nodmgspread","uncletopia"],"game_id":440,"stv_port":27046,"stv_name":"Uncletopia | Sydney | 4 | All Maps | STV","players":null},{"server_id":58,"name":"Uncletopia | Sydney | 5 | Stopwatch Beta","name_short":"syd-5","host":"syd-1.au.uncletopia.com","port":27055,"enabled":true,"region":"au","cc":"au","latitude":-33.865143,"longitude":151.2099,"reserved":0,"last_update":"0001-01-01T00:00:00Z","name_a2s":"Uncletopia | Sydney | 5 | Stopwatch Beta","protocol":17,"map":"koth_viaduct","folder":"tf","game":"Team Fortress","app_id":440,"player_count":0,"max_players":24,"Bots":0,"server_type":"Dedicated","server_os":"Linux","password":true,"vac":true,"version":"7882260","steam_id":85568392925397959,"keywords":["cp","nocrits","nodmgspread","uncletopia"],"game_id":440,"stv_port":27056,"stv_name":"Uncletopia | Sydney | 5 | Stopwatch Beta | STV","players":null},{"server_id":59,"name":"Uncletopia | Sydney | 6 | Community","name_short":"syd-6","host":"syd-1.au.uncletopia.com","port":27065,"enabled":true,"region":"au","cc":"au","latitude":-33.865143,"longitude":151.2099,"reserved":0,"last_update":"0001-01-01T00:00:00Z","name_a2s":"Uncletopia | Sydney | 6 | Community","protocol":17,"map":"pl_upward","folder":"tf","game":"Team Fortress","app_id":440,"player_count":0,"max_players":24,"Bots":0,"server_type":"Dedicated","server_os":"Linux","password":true,"vac":true,"version":"7882260","steam_id":85568392925397960,"keywords":["nocrits","nodmgspread","payload","uncletopia"],"game_id":440,"stv_port":27066,"stv_name":"Uncletopia | Sydney | 6 | Community | STV","players":null},{"server_id":49,"name":"Uncletopia | Warsaw | 1 | All Maps","name_short":"waw-1","host":"waw-1.pl.uncletopia.com","port":27015,"enabled":true,"region":"eu","cc":"pl","latitude":52.2297,"longitude":21.017532,"reserved":0,"last_update":"0001-01-01T00:00:00Z","name_a2s":"","protocol":0,"map":"","folder":"","game":"","app_id":0,"player_count":0,"max_players":0,"Bots":0,"server_type":"","server_os":"","password":false,"vac":false,"version":"","steam_id":0,"keywords":null,"game_id":0,"stv_port":0,"stv_name":"","players":null},{"server_id":50,"name":"Uncletopia | Warsaw | 2 | All Maps","name_short":"waw-2","host":"waw-1.pl.uncletopia.com","port":27025,"enabled":true,"region":"eu","cc":"pl","latitude":52.2297,"longitude":21.017532,"reserved":0,"last_update":"0001-01-01T00:00:00Z","name_a2s":"Uncletopia | Warsaw | 2 | All Maps","protocol":17,"map":"koth_viaduct","folder":"tf","game":"Team Fortress","app_id":440,"player_count":0,"max_players":24,"Bots":0,"server_type":"Dedicated","server_os":"Linux","password":true,"vac":true,"version":"7882260","steam_id":85568392925397851,"keywords":["cp","nocrits","nodmgspread","uncletopia"],"game_id":440,"stv_port":27026,"stv_name":"Uncletopia | Warsaw | 2 | All Maps | STV","players":null},{"server_id":51,"name":"Uncletopia | Warsaw | 3 | All Maps","name_short":"waw-3","host":"waw-1.pl.uncletopia.com","port":27035,"enabled":true,"region":"eu","cc":"pl","latitude":52.2297,"longitude":21.017532,"reserved":0,"last_update":"0001-01-01T00:00:00Z","name_a2s":"Uncletopia | Warsaw | 3 | All Maps","protocol":17,"map":"pl_swiftwater_final1","folder":"tf","game":"Team Fortress","app_id":440,"player_count":0,"max_players":24,"Bots":0,"server_type":"Dedicated","server_os":"Linux","password":true,"vac":true,"version":"7882260","steam_id":85568392925397852,"keywords":["nocrits","nodmgspread","payload","uncletopia"],"game_id":440,"stv_port":27036,"stv_name":"Uncletopia | Warsaw | 3 | All Maps | STV","players":null},{"server_id":52,"name":"Uncletopia | Warsaw | 4 | All Maps","name_short":"waw-4","host":"waw-1.pl.uncletopia.com","port":27045,"enabled":true,"region":"eu","cc":"pl","latitude":52.2297,"longitude":21.017532,"reserved":0,"last_update":"0001-01-01T00:00:00Z","name_a2s":"Uncletopia | Warsaw | 4 | All Maps","protocol":17,"map":"koth_cascade","folder":"tf","game":"Team Fortress","app_id":440,"player_count":0,"max_players":24,"Bots":0,"server_type":"Dedicated","server_os":"Linux","password":true,"vac":true,"version":"7882260","steam_id":85568392925397853,"keywords":["cp","nocrits","nodmgspread","uncletopia"],"game_id":440,"stv_port":27046,"stv_name":"Uncletopia | Warsaw | 4 | All Maps | STV","players":null},{"server_id":53,"name":"Uncletopia | Warsaw | 5 | Stopwatch Beta","name_short":"waw-5","host":"waw-1.pl.uncletopia.com","port":27055,"enabled":true,"region":"eu","cc":"pl","latitude":52.2297,"longitude":21.017532,"reserved":0,"last_update":"0001-01-01T00:00:00Z","name_a2s":"Uncletopia | Warsaw | 5 | Stopwatch Beta","protocol":17,"map":"cp_granary","folder":"tf","game":"Team Fortress","app_id":440,"player_count":0,"max_players":24,"Bots":0,"server_type":"Dedicated","server_os":"Linux","password":true,"vac":true,"version":"7882260","steam_id":85568392925397854,"keywords":["cp","nocrits","nodmgspread","uncletopia"],"game_id":440,"stv_port":27056,"stv_name":"Uncletopia | Warsaw | 5 | Stopwatch Beta | STV","players":null},{"server_id":54,"name":"Uncletopia | Warsaw | 6 | Community","name_short":"waw-6","host":"waw-1.pl.uncletopia.com","port":27065,"enabled":true,"region":"eu","cc":"pl","latitude":52.2297,"longitude":21.017532,"reserved":0,"last_update":"0001-01-01T00:00:00Z","name_a2s":"Uncletopia | Warsaw | 6 | Community","protocol":17,"map":"workshop/koth_bagel_rc6.ugc2514036946","folder":"tf","game":"Team Fortress","app_id":440,"player_count":0,"max_players":24,"Bots":0,"server_type":"Dedicated","server_os":"Linux","password":true,"vac":true,"version":"7882260","steam_id":85568392925397856,"keywords":["cp","nocrits","nodmgspread","uncletopia"],"game_id":440,"stv_port":27066,"stv_name":"Uncletopia | Warsaw | 6 | Community | STV","players":null}]}