{"status":true,"message":"","result":[{"server_id":9,"name":"Uncletopia | Atlanta | 1 | All Maps","name_short":"atl-1","host":"atl-1.us.uncletopia.com","port":27015,"enabled":true,"region":"us-east","cc":"us","latitude":33.753746,"longitude":-84.38633,"reserved":0,"last_update":"0001-01-01T00:00:00Z","name_a2s":"Uncletopia | Atlanta | 1 | All Maps","protocol":17,"map":"pl_upward","folder":"tf","game":"Team Fortress","app_id":440,"player_count":24,"max_players":24,"Bots":0,"server_type":"Dedicated","server_os":"Linux","password":true,"vac":true,"version":"7882260","steam_id":85568392924469982,"keywords":["nocrits","nodmgspread","payload","uncletopia"],"game_id":440,"stv_port":27016,"stv_name":"Uncletopia | Atlanta | 1 | All Maps | STV","players":[{"user_id":551,"name":"cola","steam_id":76561198374390458,"connected_time":391000000000,"state":"active","ping":60},{"user_id":543,"name":"kite","steam_id":76561198346516392,"connected_time":1403000000000,"state":"active","ping":77},{"user_id":536,"name":"JOVA","steam_id":76561198090333536,"connected_time":2485000000000,"state":"active","ping":70},{"user_id":470,"name":"your local forecast","steam_id":76561198042243083,"connected_time":6591000000000,"state":"active","ping":60},{"user_id":537,"name":"Wheat Box","steam_id":76561198203443358,"connected_time":2337000000000,"state":"active","ping":81},{"user_id":545,"name":"Pango","steam_id":76561198069811545,"connected_time":1002000000000,"state":"active","ping":47},{"user_id":559,"name":"rat","steam_id":76561198146602622,"connected_time":134000000000,"state":"active","ping":45},{"user_id":512,"name":"xX_HimboSwallower_Xx","steam_id":76561198016029965,"connected_time":4409000000000,"state":"active","ping":54},{"user_id":552,"name":"∆ê’å—¥∆≥","steam_id":76561198099470277,"connected_time":391000000000,"state":"active","ping":78},{"user_id":544,"name":"TheRealMud","steam_id":76561198138312993,"connected_time":1009000000000,"state":"active","ping":85},{"user_id":535,"name":"Crystron","steam_id":76561198880437428,"connected_time":2614000000000,"state":"active","ping":80},{"user_id":514,"name":"rawrie","steam_id":76561198005371178,"connected_time":4330000000000,"state":"active","ping":65},{"user_id":496,"name":"Albino Jellyfish","steam_id":76561198208561097,"connected_time":4783000000000,"state":"active","ping":63},{"user_id":515,"name":"gnome","steam_id":76561198052978969,"connected_time":3757000000000,"state":"active","ping":61},{"user_id":546,"name":"Skinny Pete","steam_id":76561198801608576,"connected_time":998000000000,"state":"active","ping":74},{"user_id":526,"name":"Le4n!!!","steam_id":76561198045522596,"connected_time":3183000000000,"state":"active","ping":68},{"user_id":560,"name":"joe","steam_id":76561198045781320,"connected_time":134000000000,"state":"active","ping":72},{"user_id":462,"name":"Jabawakai","steam_id":76561198088881254,"connected_time":7090000000000,"state":"active","ping":73},{"user_id":348,"name":"eish","steam_id":76561198089463603,"connected_time":15818000000000,"state":"active","ping":124},{"user_id":548,"name":"Just PYE","steam_id":76561199439622967,"connected_time":412000000000,"state":"active","ping":78},{"user_id":542,"name":"SparkStorm","steam_id":76561198095817025,"connected_time":1900000000000,"state":"active","ping":42},{"user_id":549,"name":"chexo4","steam_id":76561198150532531,"connected_time":410000000000,"state":"active","ping":54},{"user_id":556,"name":"lil hog","steam_id":76561199230929836,"connected_time":313000000000,"state":"active","ping":81},{"user_id":532,"name":"bread made from scratch","steam_id":76561199305518744,"connected_time":2922000000000,"state":"active","ping":125}]},{"server_id":104,"name":"Uncletopia | Atlanta | 2 | All Maps","name_short":"atl-2","host":"atl-1.us.uncletopia.com","port":27025,"enabled":true,"region":"us-east","cc":"us","latitude":33.753746,"longitude":-84.38633,"reserved":0,"last_update":"0001-01-01T00:00:00Z","name_a2s":"Uncletopia | Atlanta | 2 | All Maps","protocol":17,"map":"koth_highpass","folder":"tf","game":"Team Fortress","app_id":440,"player_count":23,"max_players":24,"Bots":0,"server_type":"Dedicated","server_os":"Linux","password":true,"vac":true,"version":"7882260","steam_id":85568392924469983,"keywords":["cp","nocrits","nodmgspread","uncletopia"],"game_id":440,"stv_port":27026,"stv_name":"Uncletopia | Atlanta | 2 | All Maps | STV","players":[{"user_id":519,"name":"I \u003c3 Vore","steam_id":76561198980062131,"connected_time":728000000000,"state":"active","ping":71},{"user_id":529,"name":"Gustavo Fring","steam_id":76561198132807405,"connected_time":162000000000,"state":"active","ping":74},{"user_id":506,"name":"Suez","steam_id":76561198034642980,"connected_time":1767000000000,"state":"active","ping":76},{"user_id":505,"name":"Frajer","steam_id":76561198059129680,"connected_time":1987000000000,"state":"active","ping":75},{"user_id":520,"name":"Daperlin","steam_id":76561198091299113,"connected_time":707000000000,"state":"active","ping":104},{"user_id":526,"name":"mxgic","steam_id":76561198354656195,"connected_time":401000000000,"state":"active","ping":122},{"user_id":511,"name":"LORD CANCELLUS","steam_id":76561198254216920,"connected_time":1290000000000,"state":"active","ping":92},{"user_id":481,"name":"Ramin Jamin","steam_id":76561198086516541,"connected_time":3687000000000,"state":"active","ping":77},{"user_id":510,"name":"GuillerMak","steam_id":76561198100614936,"connected_time":1393000000000,"state":"active","ping":77},{"user_id":498,"name":"Constellar Nova","steam_id":76561198868215392,"connected_time":2396000000000,"state":"active","ping":81},{"user_id":512,"name":"[CTC] kooldan","steam_id":76561198136593625,"connected_time":1286000000000,"state":"active","ping":50},{"user_id":513,"name":"[CTC] karma","steam_id":76561198374769204,"connected_time":1278000000000,"state":"active","ping":110},{"user_id":508,"name":"blabman","steam_id":76561198426531445,"connected_time":1663000000000,"state":"active","ping":126},{"user_id":524,"name":"SevenKeleven","steam_id":76561198109757639,"connected_time":544000000000,"state":"active","ping":55},{"user_id":501,"name":"[Janitor] SuperFlexMan","steam_id":76561198075382445,"connected_time":2347000000000,"state":"active","ping":68},{"user_id":525,"name":"Stocking Anarchy","steam_id":76561199013422135,"connected_time":449000000000,"state":"active","ping":86},{"user_id":504,"name":"Skivo","steam_id":76561198083609920,"connected_time":2314000000000,"state":"active","ping":56},{"user_id":514,"name":"skogg weedbitch3000","steam_id":76561198337705174,"connected_time":1268000000000,"state":"active","ping":88},{"user_id":516,"name":"Luka Dalokohs","steam_id":76561198089691679,"connected_time":1235000000000,"state":"active","ping":60},{"user_id":527,"name":"TI-83 Plus","steam_id":76561198316134443,"connected_time":356000000000,"state":"active","ping":56},{"user_id":480,"name":"ae","steam_id":76561198185490827,"connected_time":3743000000000,"state":"active","ping":89},{"user_id":485,"name":"G_Bob","steam_id":76561198098133233,"connected_time":3642000000000,"state":"active","ping":56},{"user_id":523,"name":"joebot","steam_id":76561197975606100,"connected_time":660000000000,"state":"active","ping":73}]},{"server_id":400,"name":"Uncletopia | Atlanta | 3 | Community","name_short":"atl-3","host":"atl-1.us.uncletopia.com","port":27035,"enabled":true,"region":"us-east","cc":"us","latitude":33.753746,"longitude":-84.38633,"reserved":0,"last_update":"0001-01-01T00:00:00Z","name_a2s":"Uncletopia | Atlanta | 3 | Community","protocol":17,"map":"workshop/pl_highwood_b13.ugc1769496557","folder":"tf","game":"Team Fortress","app_id":440,"player_count":22,"max_players":24,"Bots":0,"server_type":"Dedicated","server_os":"Linux","password":true,"vac":true,"version":"7882260","steam_id":85568392924515187,"keywords":["nocrits","nodmgspread","payload","uncletopia"],"game_id":440,"stv_port":27036,"stv_name":"Uncletopia | Atlanta | 3 | Community | STV","players":[{"user_id":313,"name":"Doomeister","steam_id":76561198070277587,"connected_time":266000000000,"state":"active","ping":122},{"user_id":314,"name":"Detective Conner","steam_id":76561198272050414,"connected_time":228000000000,"state":"active","ping":98},{"user_id":316,"name":"intooblivion","steam_id":76561197964080250,"connected_time":103000000000,"state":"active","ping":57},{"user_id":254,"name":"Serene Salamander","steam_id":76561198001094770,"connected_time":5794000000000,"state":"active","ping":124},{"user_id":307,"name":"Kito","steam_id":76561198394383213,"connected_time":1639000000000,"state":"active","ping":83},{"user_id":317,"name":"Codo Sapien","steam_id":76561198014206810,"connected_time":87000000000,"state":"active","ping":59},{"user_id":318,"name":"n99k","steam_id":76561198203732449,"connected_time":78000000000,"state":"active","ping":60},{"user_id":310,"name":"Doctor Meth","steam_id":76561198044071443,"connected_time":491000000000,"state":"active","ping":77},{"user_id":319,"name":"Menacing Pile of Frogs","steam_id":76561198360134800,"connected_time":34000000000,"state":"active","ping":63},{"user_id":255,"name":"Yato","steam_id":76561198084100335,"connected_time":5779000000000,"state":"active","ping":79},{"user_id":320,"name":"Horizontally Spinning Rat(Real)","steam_id":76561199083035892,"connected_time":12000000000,"state":"active","ping":301},{"user_id":304,"name":"Noisgamer02","steam_id":76561198129665722,"connected_time":2015000000000,"state":"active","ping":79},{"user_id":299,"name":"Haveltherock27","steam_id":76561199219844391,"connected_time":2267000000000,"state":"active","ping":94},{"user_id":296,"name":"SCraig64","steam_id":76561198171251965,"connected_time":2386000000000,"state":"active","ping":72},{"user_id":311,"name":"hatchetax","steam_id":76561199013337543,"connected_time":483000000000,"state":"active","ping":112},{"user_id":293,"name":"Field Marshal Kermit Von Frog","steam_id":76561198098493337,"connected_time":2454000000000,"state":"active","ping":72},{"user_id":267,"name":"Big Dick Swinging","steam_id":76561198053819929,"connected_time":5173000000000,"state":"active","ping":94},{"user_id":281,"name":"Eggregis-Thumbs","steam_id":76561198310566277,"connected_time":3965000000000,"state":"active","ping":80},{"user_id":306,"name":"Ace Attorney","steam_id":76561198133011705,"connected_time":1855000000000,"state":"active","ping":61},{"user_id":302,"name":"‚ô•Bunny‚ô•Slut‚ô•","steam_id":76561198206376851,"connected_time":2196000000000,"state":"active","ping":106},{"user_id":312,"name":"Jerry Seinfeld","steam_id":76561199205226507,"connected_time":431000000000,"state":"active","ping":105},{"user_id":279,"name":"wifi warrior","steam_id":76561198058485742,"connected_time":4133000000000,"state":"active","ping":111}]},{"server_id":401,"name":"Uncletopia | Atlanta | 4 | No Payload","name_short":"atl-4","host":"atl-1.us.uncletopia.com","port":27045,"enabled":true,"region":"us-east","cc":"us","latitude":33.753746,"longitude":-84.38633,"reserved":0,"last_update":"0001-01-01T00:00:00Z","name_a2s":"","protocol":0,"map":"","folder":"","game":"","app_id":0,"player_count":0,"max_players":0,"Bots":0,"server_type":"","server_os":"","password":false,"vac":false,"version":"","steam_id":0,"keywords":null,"game_id":0,"stv_port":0,"stv_name":"","players":null},{"server_id":2,"name":"Uncletopia | Chicago | 1 | All Maps","name_short":"chi-1","host":"chi-1.us.uncletopia.com","port":27015,"enabled":true,"region":"us-central","cc":"us","latitude":41.881832,"longitude":-87.62318,"reserved":0,"last_update":"0001-01-01T00:00:00Z","name_a2s":"Uncletopia | Chicago | 1 | All Maps","protocol":17,"map":"cp_process_final","folder":"tf","game":"Team Fortress","app_id":440,"player_count":24,"max_players":24,"Bots":0,"server_type":"Dedicated","server_os":"Linux","password":true,"vac":true,"version":"7882260","steam_id":85568392924469984,"keywords":["cp","nocrits","nodmgspread","uncletopia"],"game_id":440,"stv_port":27016,"stv_name":"Uncletopia | Chicago | 1 | All Maps | STV","players":[{"user_id":642,"name":"cheetaz","steam_id":76561198224614084,"connected_time":449000000000,"state":"active","ping":68},{"user_id":644,"name":"Lynx","steam_id":76561198322363286,"connected_time":365000000000,"state":"active","ping":71},{"user_id":619,"name":"Zoot","steam_id":76561198121944243,"connected_time":2612000000000,"state":"active","ping":74},{"user_id":645,"name":"stall","steam_id":76561199152861652,"connected_time":173000000000,"state":"active","ping":50},{"user_id":630,"name":"(deaf) miirym","steam_id":76561199164635912,"connected_time":2041000000000,"state":"active","ping":66},{"user_id":621,"name":"JeffNotGeoff","steam_id":76561198088656972,"connected_time":2510000000000,"state":"active","ping":92},{"user_id":515,"name":"blob","steam_id":76561198122375328,"connected_time":13272000000000,"state":"active","ping":57},{"user_id":637,"name":"scrotal recall","steam_id":76561198135945598,"connected_time":1454000000000,"state":"active","ping":83},{"user_id":586,"name":"Oli B\u003eQS/BP/Bulk w/ 500+ keys","steam_id":76561198140316312,"connected_time":6687000000000,"state":"active","ping":46},{"user_id":608,"name":"mouse with pure wrist pain","steam_id":76561198088384838,"connected_time":4357000000000,"state":"active","ping":62},{"user_id":635,"name":"Thatoneguybunchanumbers","steam_id":76561198028039160,"connected_time":1496000000000,"state":"active","ping":79},{"user_id":620,"name":"Ras","steam_id":76561198123546775,"connected_time":2515000000000,"state":"active","ping":59},{"user_id":551,"name":"Undertime Slopper","steam_id":76561198396789061,"connected_time":9903000000000,"state":"active","ping":77},{"user_id":638,"name":"PKBEAST_7","steam_id":76561198177136537,"connected_time":1131000000000,"state":"active","ping":88},{"user_id":611,"name":"K.O. Stradivarius","steam_id":76561198974913245,"connected_time":4100000000000,"state":"active","ping":76},{"user_id":643,"name":"Zeodexic","steam_id":76561198055636655,"connected_time":371000000000,"state":"active","ping":89},{"user_id":592,"name":"fintasia dinkleton","steam_id":76561198144270213,"connected_time":6387000000000,"state":"active","ping":53},{"user_id":646,"name":"Ozirion","steam_id":76561198108901767,"connected_time":63000000000,"state":"active","ping":65},{"user_id":634,"name":"I C U P","steam_id":76561198349252490,"connected_time":1785000000000,"state":"active","ping":72},{"user_id":591,"name":"i ate a bee","steam_id":76561198138983695,"connected_time":6439000000000,"state":"active","ping":69},{"user_id":627,"name":"[S]Enema Stone","steam_id":76561197993980257,"connected_time":2372000000000,"state":"active","ping":97},{"user_id":640,"name":"wake up","steam_id":76561198072179483,"connected_time":1116000000000,"state":"active","ping":90},{"user_id":604,"name":"Astoriae!","steam_id":76561199090168858,"connected_time":5165000000000,"state":"active","ping":68},{"user_id":612,"name":"MayaBon","steam_id":76561198797968261,"connected_time":4076000000000,"state":"active","ping":99}]},{"server_id":106,"name":"Uncletopia | Chicago | 2 | All Maps","name_short":"chi-2","host":"chi-1.us.uncletopia.com","port":27025,"enabled":true,"region":"us-central","cc":"us","latitude":41.881832,"longitude":-87.62318,"reserved":0,"last_update":"0001-01-01T00:00:00Z","name_a2s":"Uncletopia | Chicago | 2 | All Maps","protocol":17,"map":"cp_dustbowl","folder":"tf","game":"Team Fortress","app_id":440,"player_count":24,"max_players":24,"Bots":0,"server_type":"Dedicated","server_os":"Linux","password":true,"vac":true,"version":"7882260","steam_id":85568392924469985,"keywords":["cp","nocrits","nodmgspread","uncletopia"],"game_id":440,"stv_port":27026,"stv_name":"Uncletopia | Chicago | 2 | All Maps | STV","players":[{"user_id":808,"name":"Speeply","steam_id":76561198429538809,"connected_time":1451000000000,"state":"active","ping":91},{"user_id":812,"name":"Restricted_Files","steam_id":76561199448121007,"connected_time":673000000000,"state":"active","ping":126},{"user_id":760,"name":"LilDreamer","steam_id":76561198804054102,"connected_time":4977000000000,"state":"active","ping":46},{"user_id":791,"name":"Logic is a Good Rapper","steam_id":76561198976821898,"connected_time":2707000000000,"state":"active","ping":110},{"user_id":803,"name":"superbatman102","steam_id":76561198399079225,"connected_time":1722000000000,"state":"active","ping":89},{"user_id":775,"name":"TommoSFMO","steam_id":76561198855070608,"connected_time":3817000000000,"state":"active","ping":85},{"user_id":793,"name":"sammie.tebo","steam_id":76561199212495985,"connected_time":2467000000000,"state":"active","ping":70},{"user_id":798,"name":"Isles","steam_id":76561198036162511,"connected_time":2276000000000,"state":"active","ping":47},{"user_id":754,"name":"Baby gaming","steam_id":76561198867319323,"connected_time":5841000000000,"state":"active","ping":68},{"user_id":678,"name":"JUST FUCKING CLIFF IT","steam_id":76561198168421685,"connected_time":10068000000000,"state":"active","ping":57},{"user_id":789,"name":"errant","steam_id":76561197961758410,"connected_time":2893000000000,"state":"active","ping":59},{"user_id":811,"name":"Bloop","steam_id":76561198253563271,"connected_time":1087000000000,"state":"active","ping":45},{"user_id":817,"name":"va l v's melee hit registration","steam_id":76561199039152146,"connected_time":331000000000,"state":"active","ping":68},{"user_id":795,"name":"Michaelpc1","steam_id":76561198088365519,"connected_time":2437000000000,"state":"active","ping":76},{"user_id":805,"name":"saul goodman (real)","steam_id":76561199177932095,"connected_time":1568000000000,"state":"active","ping":89},{"user_id":816,"name":"Toottoot","steam_id":76561197992404836,"connected_time":432000000000,"state":"active","ping":46},{"user_id":814,"name":"E The Wasp","steam_id":76561199208867417,"connected_time":558000000000,"state":"active","ping":112},{"user_id":818,"name":"Mexican pyro gaming","steam_id":76561199139660797,"connected_time":318000000000,"state":"active","ping":93},{"user_id":771,"name":"Katy","steam_id":76561198079395814,"connected_time":4125000000000,"state":"active","ping":67},{"user_id":774,"name":"Jeong Jeong","steam_id":76561198125063586,"connected_time":3959000000000,"state":"active","ping":46},{"user_id":819,"name":"S-pin","steam_id":76561198195599518,"connected_time":285000000000,"state":"active","ping":97},{"user_id":810,"name":"wolf_71","steam_id":76561198963570945,"connected_time":1144000000000,"state":"active","ping":67},{"user_id":779,"name":"clas1k (not a mf bot)","steam_id":76561198143386132,"connected_time":3533000000000,"state":"active","ping":52},{"user_id":821,"name":"LilJonny","steam_id":76561198185250439,"connected_time":85000000000,"state":"active","ping":220}]},{"server_id":402,"name":"Uncletopia | Chicago | 3 | All Maps","name_short":"chi-3","host":"chi-1.us.uncletopia.com","port":27035,"enabled":true,"region":"us-central","cc":"us","latitude":41.881832,"longitude":-87.62318,"reserved":0,"last_update":"0001-01-01T00:00:00Z","name_a2s":"Uncletopia | Chicago | 3 | All Maps","protocol":17,"map":"pl_frontier_final","folder":"tf","game":"Team Fortress","app_id":440,"player_count":24,"max_players":24,"Bots":0,"server_type":"Dedicated","server_os":"Linux","password":true,"vac":true,"version":"7882260","steam_id":85568392924515191,"keywords":["nocrits","nodmgspread","payload","uncletopia"],"game_id":440,"stv_port":27036,"stv_name":"Uncletopia | Chicago | 3 | All Maps | STV","players":[{"user_id":652,"name":"DanTheMan","steam_id":76561198003337360,"connected_time":257000000000,"state":"active","ping":75},{"user_id":625,"name":"Sumanari","steam_id":76561198112187350,"connected_time":2645000000000,"state":"active","ping":46},{"user_id":637,"name":"morsetime","steam_id":76561199116362348,"connected_time":1469000000000,"state":"active","ping":116},{"user_id":636,"name":"Shampiss","steam_id":76561198169462731,"connected_time":1507000000000,"state":"active","ping":122},{"user_id":645,"name":"{FITH}‚Ñ¢ SmittyWun {FM}","steam_id":76561198079531938,"connected_time":627000000000,"state":"active","ping":72},{"user_id":630,"name":"DinK","steam_id":76561198284445667,"connected_time":1557000000000,"state":"active","ping":70},{"user_id":651,"name":"Righteou5Dude","steam_id":76561198136291931,"connected_time":369000000000,"state":"active","ping":86},{"user_id":620,"name":"Kid named download","steam_id":76561199192074448,"connected_time":2981000000000,"state":"active","ping":83},{"user_id":609,"name":"postgres","steam_id":76561198011204750,"connected_time":4362000000000,"state":"active","ping":90},{"user_id":598,"name":"m yfrogs","steam_id":76561198371149432,"connected_time":4676000000000,"state":"active","ping":48},{"user_id":649,"name":"The Foolish Samurai","steam_id":76561198094494945,"connected_time":541000000000,"state":"active","ping":159},{"user_id":596,"name":"Robin","steam_id":76561198121165149,"connected_time":4687000000000,"state":"active","ping":41},{"user_id":619,"name":"Nigel","steam_id":76561198115574712,"connected_time":3046000000000,"state":"active","ping":53},{"user_id":614,"name":"GutzyEyebrows","steam_id":76561199101600403,"connected_time":3551000000000,"state":"active","ping":97},{"user_id":648,"name":"All 24 Pok√©mon movies at once","steam_id":76561198164738311,"connected_time":553000000000,"state":"active","ping":67},{"user_id":646,"name":"frog launcher","steam_id":76561198127149121,"connected_time":605000000000,"state":"active","ping":75},{"user_id":554,"name":"Walkiing","steam_id":76561198074473413,"connected_time":8253000000000,"state":"active","ping":43},{"user_id":653,"name":"Streetwise","steam_id":76561197971684268,"connected_time":127000000000,"state":"active","ping":92},{"user_id":623,"name":"aisu","steam_id":76561198043768507,"connected_time":2694000000000,"state":"active","ping":68},{"user_id":633,"name":"Thaddor","steam_id":76561198164564461,"connected_time":1543000000000,"state":"active","ping":89},{"user_id":622,"name":"JHLO","steam_id":76561198074359967,"connected_time":2906000000000,"state":"active","ping":138},{"user_id":634,"name":"fuel for the machine","steam_id":76561198328618417,"connected_time":1539000000000,"state":"active","ping":111},{"user_id":624,"name":"al-Kohol","steam_id":76561197998530400,"connected_time":2683000000000,"state":"active","ping":107},{"user_id":650,"name":"Muffin","steam_id":76561198050715053,"connected_time":536000000000,"state":"active","ping":76}]},{"server_id":403,"name":"Uncletopia | Chicago | 4 | All Maps","name_short":"chi-4","host":"chi-1.us.uncletopia.com","port":27045,"enabled":true,"region":"us-central","cc":"us","latitude":41.881832,"longitude":-87.62318,"reserved":0,"last_update":"0001-01-01T00:00:00Z","name_a2s":"Uncletopia | Chicago | 4 | All Maps","protocol":17,"map":"pl_frontier_final","folder":"tf","game":"Team Fortress","app_id":440,"player_count":24,"max_players":24,"Bots":0,"server_type":"Dedicated","server_os":"Linux","password":true,"vac":true,"version":"7882260","steam_id":85568392924515193,"keywords":["nocrits","nodmgspread","payload","uncletopia"],"game_id":440,"stv_port":27046,"stv_name":"Uncletopia | Chicago | 4 | All Maps | STV","players":[{"user_id":315,"name":"Rukh","steam_id":76561197999361315,"connected_time":3890000000000,"state":"active","ping":100},{"user_id":355,"name":"sasharudzik","steam_id":76561199126617781,"connected_time":465000000000,"state":"active","ping":65},{"user_id":343,"name":"Frank the Atomic Green Been","steam_id":76561198147300992,"connected_time":1510000000000,"state":"active","ping":82},{"user_id":345,"name":"023e20902o0239ee02390o239e","steam_id":76561198175741741,"connected_time":1441000000000,"state":"active","ping":73},{"user_id":342,"name":"[DATS‚û°] Sugar Meowth","steam_id":76561197995251793,"connected_time":1914000000000,"state":"active","ping":90},{"user_id":348,"name":"vr sloppy 300 fov","steam_id":76561198272634734,"connected_time":1390000000000,"state":"active","ping":55},{"user_id":333,"name":"Antifa Supersoldier","steam_id":76561198141816516,"connected_time":2730000000000,"state":"active","ping":70},{"user_id":346,"name":"BowlOfSoup","steam_id":76561198000849668,"connected_time":1436000000000,"state":"active","ping":97},{"user_id":356,"name":"all the frogs are turning gay","steam_id":76561199215798445,"connected_time":248000000000,"state":"active","ping":57},{"user_id":310,"name":"|WS| Don't_Taze_Me_Bro","steam_id":76561198043289495,"connected_time":4354000000000,"state":"active","ping":71},{"user_id":334,"name":"The Third Degree Enjoyer","steam_id":76561198929936926,"connected_time":2307000000000,"state":"active","ping":77},{"user_id":349,"name":"DuskDragon911","steam_id":76561198996036702,"connected_time":1381000000000,"state":"active","ping":76},{"user_id":326,"name":"segway cop","steam_id":76561198225609936,"connected_time":2861000000000,"state":"active","ping":59},{"user_id":335,"name":"One Shot and A Miss","steam_id":76561198124269698,"connected_time":2282000000000,"state":"active","ping":66},{"user_id":301,"name":"go touch keyboard","steam_id":76561198197388678,"connected_time":4824000000000,"state":"active","ping":92},{"user_id":350,"name":"Wiggity-Smiggity","steam_id":76561198442381727,"connected_time":1366000000000,"state":"active","ping":71},{"user_id":336,"name":"Goober","steam_id":76561198988863807,"connected_time":2206000000000,"state":"active","ping":79},{"user_id":353,"name":"C_hoffmanni","steam_id":76561198071417085,"connected_time":1307000000000,"state":"active","ping":94},{"user_id":351,"name":"Pen_name4256","steam_id":76561198844824169,"connected_time":1361000000000,"state":"active","ping":89},{"user_id":328,"name":"daviszombie","steam_id":76561199085146329,"connected_time":2845000000000,"state":"active","ping":103},{"user_id":354,"name":"„Äåiam3nigma„Äç","steam_id":76561198081580177,"connected_time":1034000000000,"state":"active","ping":61},{"user_id":313,"name":"Omega Move","steam_id":76561198031577205,"connected_time":3906000000000,"state":"active","ping":79},{"user_id":352,"name":"Scoron","steam_id":76561198062099305,"connected_time":1349000000000,"state":"active","ping":106},{"user_id":304,"name":"Cosmic sR","steam_id":76561198081738675,"connected_time":4692000000000,"state":"active","ping":85}]},{"server_id":36,"name":"Uncletopia | Chicago | 5 | All Maps","name_short":"chi-5","host":"chi-2.us.uncletopia.com","port":27015,"enabled":true,"region":"us-central","cc":"us","latitude":41.881832,"longitude":-87.62318,"reserved":0,"last_update":"0001-01-01T00:00:00Z","name_a2s":"Uncletopia | Chicago | 5 | All Maps","protocol":17,"map":"pl_frontier_final","folder":"tf","game":"Team Fortress","app_id":440,"player_count":24,"max_players":24,"Bots":0,"server_type":"Dedicated","server_os":"Linux","password":true,"vac":true,"version":"7882260","steam_id":85568392924866362,"keywords":["nocrits","nodmgspread","payload","uncletopia"],"game_id":440,"stv_port":27016,"stv_name":"Uncletopia | Chicago | 5 | All Maps | STV","players":[{"user_id":324,"name":"gup","steam_id":76561198027262959,"connected_time":693000000000,"state":"active","ping":66},{"user_id":299,"name":"LF listentogether?","steam_id":76561198044443985,"connected_time":2344000000000,"state":"active","ping":86},{"user_id":322,"name":"Capt.Swag","steam_id":76561198088340994,"connected_time":863000000000,"state":"active","ping":80},{"user_id":294,"name":"gingergerman","steam_id":76561198160254549,"connected_time":2849000000000,"state":"active","ping":70},{"user_id":326,"name":"hoodclips","steam_id":76561198253706796,"connected_time":414000000000,"state":"active","ping":108},{"user_id":328,"name":"TheGuysMan","steam_id":76561198163677812,"connected_time":299000000000,"state":"active","ping":84},{"user_id":314,"name":"NotThatGuyPal","steam_id":76561199127607812,"connected_time":1220000000000,"state":"active","ping":143},{"user_id":295,"name":"Krazykind","steam_id":76561198063136713,"connected_time":2810000000000,"state":"active","ping":75},{"user_id":337,"name":"a table","steam_id":76561198158461279,"connected_time":19000000000,"state":"spawning","ping":73},{"user_id":335,"name":"Twinzzlers bigdong.tf  blw.tf","steam_id":76561198124145682,"connected_time":247000000000,"state":"active","ping":63},{"user_id":311,"name":"SKForm","steam_id":76561198381500437,"connected_time":1378000000000,"state":"active","ping":55},{"user_id":330,"name":"LTG","steam_id":76561198186856187,"connected_time":281000000000,"state":"active","ping":85},{"user_id":309,"name":"kat","steam_id":76561198121070295,"connected_time":1683000000000,"state":"active","ping":85},{"user_id":331,"name":"Former President Barack Obama","steam_id":76561198875469297,"connected_time":280000000000,"state":"active","ping":59},{"user_id":332,"name":"ChaingunnerFails","steam_id":76561198963075967,"connected_time":278000000000,"state":"active","ping":107},{"user_id":296,"name":"Daforce","steam_id":76561198097845507,"connected_time":2639000000000,"state":"active","ping":131},{"user_id":323,"name":"Dapper Armadillo","steam_id":76561199089424811,"connected_time":804000000000,"state":"active","ping":58},{"user_id":310,"name":"Ramblin' Man","steam_id":76561198149106374,"connected_time":1678000000000,"state":"active","ping":75},{"user_id":336,"name":"Mug Moment Gaming","steam_id":76561198233098136,"connected_time":87000000000,"state":"active","ping":53},{"user_id":334,"name":"Drapph","steam_id":76561199384213314,"connected_time":264000000000,"state":"active","ping":66},{"user_id":319,"name":"Fredfredfood","steam_id":76561198072824802,"connected_time":944000000000,"state":"active","ping":55},{"user_id":291,"name":"dankman","steam_id":76561198977064186,"connected_time":3194000000000,"state":"active","ping":52},{"user_id":320,"name":"DonJam√≥n","steam_id":76561198319090131,"connected_time":933000000000,"state":"active","ping":75},{"user_id":325,"name":"stoner gaming","steam_id":76561198327390236,"connected_time":566000000000,"state":"active","ping":106}]},{"server_id":37,"name":"Uncletopia | Chicago | 6 | All Maps","name_short":"chi-6","host":"chi-2.us.uncletopia.com","port":27025,"enabled":true,"region":"us-central","cc":"us","latitude":41.881832,"longitude":-87.62318,"reserved":0,"last_update":"0001-01-01T00:00:00Z","name_a2s":"Uncletopia | Chicago | 6 | All Maps","protocol":17,"map":"pl_upward","folder":"tf","game":"Team Fortress","app_id":440,"player_count":24,"max_players":24,"Bots":0,"server_type":"Dedicated","server_os":"Linux","password":true,"vac":true,"version":"7882260","steam_id":85568392924866363,"keywords":["nocrits","nodmgspread","payload","uncletopia"],"game_id":440,"stv_port":27026,"stv_name":"Uncletopia | Chicago | 6 | All Maps | STV","players":[{"user_id":351,"name":"Famelegion","steam_id":76561198958341424,"connected_time":1792000000000,"state":"active","ping":95},{"user_id":358,"name":"Brumpo Tungus","steam_id":76561198054669779,"connected_time":623000000000,"state":"active","ping":55},{"user_id":368,"name":"Giggles‚Ñ¢","steam_id":76561198058708019,"connected_time":71000000000,"state":"active","ping":55},{"user_id":325,"name":"A Puppy","steam_id":76561198828184456,"connected_time":3035000000000,"state":"active","ping":60},{"user_id":300,"name":"Battery Acid Addict","steam_id":76561198439793697,"connected_time":5532000000000,"state":"active","ping":79},{"user_id":352,"name":"L√∏st","steam_id":76561198035677801,"connected_time":1725000000000,"state":"active","ping":68},{"user_id":309,"name":"\"General Lung Cancer\"","steam_id":76561199029964987,"connected_time":4468000000000,"state":"active","ping":83},{"user_id":357,"name":"caption cool","steam_id":76561197990612056,"connected_time":687000000000,"state":"active","ping":44},{"user_id":354,"name":"Person","steam_id":76561198093244204,"connected_time":1621000000000,"state":"active","ping":76},{"user_id":365,"name":"Capitalism 101","steam_id":76561198017214464,"connected_time":234000000000,"state":"active","ping":66},{"user_id":359,"name":"\u003eCirno.mp4","steam_id":76561198281900662,"connected_time":610000000000,"state":"active","ping":74},{"user_id":353,"name":"Adawnby","steam_id":76561198103057295,"connected_time":1667000000000,"state":"active","ping":78},{"user_id":356,"name":"TheTiredMario","steam_id":76561199062425739,"connected_time":1167000000000,"state":"active","ping":74},{"user_id":342,"name":"Metbol","steam_id":76561198001362410,"connected_time":1901000000000,"state":"active","ping":82},{"user_id":344,"name":"Potato Masher","steam_id":76561198056712845,"connected_time":1872000000000,"state":"active","ping":65},{"user_id":345,"name":"Butters495","steam_id":76561197998689042,"connected_time":1872000000000,"state":"active","ping":84},{"user_id":298,"name":"Edder","steam_id":76561198011088393,"connected_time":5608000000000,"state":"active","ping":84},{"user_id":367,"name":"Fastest Spycrab in The West","steam_id":76561198345326844,"connected_time":89000000000,"state":"active","ping":52},{"user_id":363,"name":"crosshair 3","steam_id":76561198207881077,"connected_time":457000000000,"state":"active","ping":84},{"user_id":346,"name":"Mr. Dr. PhD Expert","steam_id":76561198151253061,"connected_time":1867000000000,"state":"active","ping":74},{"user_id":332,"name":"epic engine gamer","steam_id":76561198075216115,"connected_time":2410000000000,"state":"active","ping":154},{"user_id":350,"name":"Triforce141","steam_id":76561198063896776,"connected_time":1804000000000,"state":"active","ping":64},{"user_id":369,"name":"DetectiveHorse","steam_id":76561198278726152,"connected_time":57000000000,"state":"active","ping":74},{"user_id":276,"name":"J.G. Klaus","steam_id":76561198001111196,"connected_time":7929000000000,"state":"active","ping":71}]},{"server_id":38,"name":"Uncletopia | Chicago | 7 | Stopwatch Beta","name_short":"chi-7","host":"chi-2.us.uncletopia.com","port":27035,"enabled":true,"region":"us-central","cc":"us","latitude":41.881832,"longitude":-87.62318,"reserved":0,"last_update":"0001-01-01T00:00:00Z","name_a2s":"Uncletopia | Chicago | 7 | Stopwatch Beta","protocol":17,"map":"cp_process_final","folder":"tf","game":"Team Fortress","app_id":440,"player_count":23,"max_players":24,"Bots":0,"server_type":"Dedicated","server_os":"Linux","password":true,"vac":true,"version":"7882260","steam_id":85568392924866364,"keywords":["cp","nocrits","nodmgspread","uncletopia"],"game_id":440,"stv_port":27036,"stv_name":"Uncletopia | Chicago | 7 | Stopwatch Beta | STV","players":[{"user_id":221,"name":"Snarles Darwin","steam_id":76561198013503949,"connected_time":214000000000,"state":"active","ping":99},{"user_id":200,"name":"Grilled Jizo","steam_id":76561199250875340,"connected_time":979000000000,"state":"active","ping":94},{"user_id":147,"name":"JC The Dumb","steam_id":76561199186185567,"connected_time":4980000000000,"state":"active","ping":112},{"user_id":189,"name":"ultralisk52","steam_id":76561198051666604,"connected_time":1793000000000,"state":"active","ping":68},{"user_id":186,"name":"JACOB","steam_id":76561198211874895,"connected_time":2399000000000,"state":"active","ping":74},{"user_id":202,"name":"The Lesser Hero","steam_id":76561199103340928,"connected_time":920000000000,"state":"active","ping":85},{"user_id":203,"name":"Kidjays","steam_id":76561198124941901,"connected_time":911000000000,"state":"active","ping":94},{"user_id":204,"name":"MR MODE","steam_id":76561198046775352,"connected_time":867000000000,"state":"active","ping":93},{"user_id":212,"name":"St. Michael","steam_id":76561198037611052,"connected_time":610000000000,"state":"active","ping":64},{"user_id":225,"name":"Chagalicious","steam_id":76561198044128240,"connected_time":127000000000,"state":"active","ping":77},{"user_id":206,"name":"bananalover5","steam_id":76561199143854578,"connected_time":781000000000,"state":"active","ping":72},{"user_id":157,"name":"997 N State Street, Orem, Utah","steam_id":76561198285931413,"connected_time":4239000000000,"state":"active","ping":63},{"user_id":223,"name":"Venk","steam_id":76561198251131422,"connected_time":152000000000,"state":"active","ping":73},{"user_id":208,"name":"SomeFuckingGuy #SAVETF2","steam_id":76561199239165015,"connected_time":720000000000,"state":"active","ping":84},{"user_id":209,"name":"Rock Kickass","steam_id":76561198450510841,"connected_time":719000000000,"state":"active","ping":117},{"user_id":195,"name":"blythe","steam_id":76561198254999149,"connected_time":1463000000000,"state":"active","ping":79},{"user_id":220,"name":"99RM","steam_id":76561198107382571,"connected_time":274000000000,"state":"active","ping":132},{"user_id":210,"name":"HawkBlaze","steam_id":76561199000152914,"connected_time":708000000000,"state":"active","ping":110},{"user_id":139,"name":"Delta","steam_id":76561198158985472,"connected_time":5591000000000,"state":"active","ping":133},{"user_id":214,"name":"griff928","steam_id":76561198149614679,"connected_time":602000000000,"state":"active","ping":52},{"user_id":224,"name":"2 for $3.50 McChickens","steam_id":76561198089908660,"connected_time":143000000000,"state":"active","ping":96},{"user_id":140,"name":"craven","steam_id":76561198088191503,"connected_time":5591000000000,"state":"active","ping":78},{"user_id":196,"name":"BackToSchoolAds","steam_id":76561198870281128,"connected_time":1366000000000,"state":"active","ping":69}]},{"server_id":39,"name":"Uncletopia | Chicago | 8 | Community","name_short":"chi-8","host":"chi-2.us.uncletopia.com","port":27045,"enabled":true,"region":"us-central","cc":"us","latitude":41.881832,"longitude":-87.62318,"reserved":0,"last_update":"0001-01-01T00:00:00Z","name_a2s":"Uncletopia | Chicago | 8 | Community","protocol":17,"map":"workshop/cp_villa_b19.ugc2113052569","folder":"tf","game":"Team Fortress","app_id":440,"player_count":24,"max_players":24,"Bots":0,"server_type":"Dedicated","server_os":"Linux","password":true,"vac":true,"version":"7882260","steam_id":85568392924866365,"keywords":["cp","nocrits","nodmgspread","uncletopia"],"game_id":440,"stv_port":27046,"stv_name":"Uncletopia | Chicago | 8 | Community | STV","players":[{"user_id":226,"name":"your mom calls me princess too","steam_id":76561198020400899,"connected_time":363000000000,"state":"active","ping":62},{"user_id":130,"name":"Reverie","steam_id":76561198987005784,"connected_time":6184000000000,"state":"active","ping":66},{"user_id":215,"name":"Spectre","steam_id":76561198025652246,"connected_time":901000000000,"state":"active","ping":54},{"user_id":192,"name":"Goog","steam_id":76561198212777924,"connected_time":1873000000000,"state":"active","ping":138},{"user_id":217,"name":"Ozzyrockin","steam_id":76561198094899868,"connected_time":826000000000,"state":"active","ping":72},{"user_id":174,"name":"ben","steam_id":76561198355118155,"connected_time":3665000000000,"state":"active","ping":110},{"user_id":175,"name":"BombWolf","steam_id":76561198289812368,"connected_time":3571000000000,"state":"active","ping":118},{"user_id":223,"name":"crashymicsplody","steam_id":76561198213916765,"connected_time":561000000000,"state":"active","ping":66},{"user_id":219,"name":"Mike Butters","steam_id":76561199115573774,"connected_time":768000000000,"state":"active","ping":108},{"user_id":220,"name":"Monkey Gaming","steam_id":76561198232461944,"connected_time":755000000000,"state":"active","ping":111},{"user_id":221,"name":"NUt","steam_id":76561198031007966,"connected_time":692000000000,"state":"active","ping":76},{"user_id":224,"name":"Neophyte","steam_id":76561198027183394,"connected_time":555000000000,"state":"active","ping":93},{"user_id":212,"name":"Architect","steam_id":76561198015242016,"connected_time":1062000000000,"state":"active","ping":43},{"user_id":234,"name":"Coffee","steam_id":76561198111043366,"connected_time":167000000000,"state":"active","ping":100},{"user_id":227,"name":"Poopie Babie","steam_id":76561198047500494,"connected_time":355000000000,"state":"active","ping":68},{"user_id":228,"name":"Riko","steam_id":76561198028097118,"connected_time":334000000000,"state":"active","ping":75},{"user_id":235,"name":"Bongle","steam_id":76561198170112811,"connected_time":158000000000,"state":"active","ping":100},{"user_id":229,"name":"The Milk Man","steam_id":76561198230666308,"connected_time":323000000000,"state":"active","ping":71},{"user_id":230,"name":"Momma Kota","steam_id":76561198332718541,"connected_time":321000000000,"state":"active","ping":61},{"user_id":231,"name":"TheSanvichMann","steam_id":76561198041331337,"connected_time":320000000000,"state":"active","ping":61},{"user_id":201,"name":"cube","steam_id":76561197991759721,"connected_time":1539000000000,"state":"active","ping":60},{"user_id":202,"name":"DigitalSquirrel","steam_id":76561198012615535,"connected_time":1532000000000,"state":"active","ping":75},{"user_id":237,"name":"seven","steam_id":76561198979319783,"connected_time":22000000000,"state":"spawning","ping":145},{"user_id":236,"name":"Whapper","steam_id":76561198044029606,"connected_time":130000000000,"state":"active","ping":102}]},{"server_id":8,"name":"Uncletopia | Dallas | 1 | All Maps","name_short":"dal-1","host":"dal-1.us.uncletopia.com","port":27015,"enabled":true,"region":"us-central","cc":"us","latitude":32.779167,"longitude":-96.80889,"reserved":0,"last_update":"0001-01-01T00:00:00Z","name_a2s":"Uncletopia | Dallas | 1 | All Maps","protocol":17,"map":"cp_sunshine","folder":"tf","game":"Team Fortress","app_id":440,"player_count":24,"max_players":24,"Bots":0,"server_type":"Dedicated","server_os":"Linux","password":true,"vac":true,"version":"7882260","steam_id":85568392924469986,"keywords":["cp","nocrits","nodmgspread","uncletopia"],"game_id":440,"stv_port":27016,"stv_name":"Uncletopia | Dallas | 1 | All Maps | STV","players":[{"user_id":624,"name":"Mythical Lag","steam_id":76561198347031281,"connected_time":2972000000000,"state":"active","ping":95},{"user_id":655,"name":"\u003c blank \u003e","steam_id":76561198012566503,"connected_time":181000000000,"state":"active","ping":107},{"user_id":646,"name":"Lunatic Kaguya H.","steam_id":76561198345276434,"connected_time":1023000000000,"state":"active","ping":61},{"user_id":639,"name":"Hedsik","steam_id":76561198045797773,"connected_time":1533000000000,"state":"active","ping":54},{"user_id":627,"name":"Just Tyrone","steam_id":76561198031912345,"connected_time":2446000000000,"state":"active","ping":66},{"user_id":603,"name":"G. Howard Dee","steam_id":76561198058382812,"connected_time":4585000000000,"state":"active","ping":73},{"user_id":593,"name":"IgnisGlasses","steam_id":76561198133064411,"connected_time":5008000000000,"state":"active","ping":75},{"user_id":659,"name":"ùïÆùñÜùñíùñäùñóùñîùñì \ufffd\ufffd","steam_id":76561198045826628,"connected_time":2000000000,"state":"spawning","ping":88},{"user_id":621,"name":"Iron","steam_id":76561198247918478,"connected_time":3020000000000,"state":"active","ping":70},{"user_id":591,"name":"charm","steam_id":76561198126751384,"connected_time":5160000000000,"state":"active","ping":67},{"user_id":643,"name":"Crispy","steam_id":76561198037481161,"connected_time":1264000000000,"state":"active","ping":69},{"user_id":622,"name":"Bill from L4D","steam_id":76561198821762699,"connected_time":3010000000000,"state":"active","ping":90},{"user_id":596,"name":"SleeplessCollin","steam_id":76561198968140914,"connected_time":4835000000000,"state":"active","ping":63},{"user_id":644,"name":"Ferguson","steam_id":76561198121349387,"connected_time":1186000000000,"state":"active","ping":63},{"user_id":640,"name":"JtsRes","steam_id":76561197994809241,"connected_time":1467000000000,"state":"active","ping":62},{"user_id":629,"name":"PhaserLazer","steam_id":76561198407341298,"connected_time":1898000000000,"state":"active","ping":54},{"user_id":628,"name":"Boingo","steam_id":76561199086931535,"connected_time":2042000000000,"state":"active","ping":58},{"user_id":648,"name":"christmas cheer","steam_id":76561198291542672,"connected_time":716000000000,"state":"active","ping":73},{"user_id":626,"name":"Cmoon2","steam_id":76561198119094636,"connected_time":2645000000000,"state":"active","ping":135},{"user_id":657,"name":"Dongus","steam_id":76561197979056451,"connected_time":147000000000,"state":"active","ping":98},{"user_id":656,"name":"macironi and chesse","steam_id":76561199098060805,"connected_time":159000000000,"state":"active","ping":86},{"user_id":658,"name":"Walmart Security","steam_id":76561198970357141,"connected_time":145000000000,"state":"active","ping":97},{"user_id":652,"name":"Communist Zobomafoo","steam_id":76561198068173978,"connected_time":651000000000,"state":"active","ping":61},{"user_id":651,"name":"Facehurt","steam_id":76561198028504034,"connected_time":667000000000,"state":"active","ping":106}]},{"server_id":108,"name":"Uncletopia | Dallas | 2 | All Maps","name_short":"dal-2","host":"dal-1.us.uncletopia.com","port":27025,"enabled":true,"region":"us-central","cc":"us","latitude":32.779167,"longitude":-96.80889,"reserved":0,"last_update":"0001-01-01T00:00:00Z","name_a2s":"Uncletopia | Dallas | 2 | All Maps","protocol":17,"map":"cp_sunshine","folder":"tf","game":"Team Fortress","app_id":440,"player_count":24,"max_players":24,"Bots":0,"server_type":"Dedicated","server_os":"Linux","password":true,"vac":true,"version":"7882260","steam_id":85568392924469988,"keywords":["cp","nocrits","nodmgspread","uncletopia"],"game_id":440,"stv_port":27026,"stv_name":"Uncletopia | Dallas | 2 | All Maps | STV","players":[{"user_id":662,"name":"hemper710","steam_id":76561198159477619,"connected_time":3795000000000,"state":"active","ping":61},{"user_id":668,"name":"Arcane Flame","steam_id":76561198360024422,"connected_time":3384000000000,"state":"active","ping":104},{"user_id":661,"name":"Sanic","steam_id":76561198083124962,"connected_time":3799000000000,"state":"active","ping":49},{"user_id":663,"name":"Psychosis","steam_id":76561198078659070,"connected_time":3792000000000,"state":"active","ping":75},{"user_id":681,"name":"Phantom_03","steam_id":76561198217929829,"connected_time":880000000000,"state":"active","ping":95},{"user_id":682,"name":"LeNoobe","steam_id":76561199092079229,"connected_time":872000000000,"state":"active","ping":107},{"user_id":598,"name":"Darling","steam_id":76561198127525888,"connected_time":10509000000000,"state":"active","ping":58},{"user_id":673,"name":"the 2fort sniffer","steam_id":76561198811225792,"connected_time":2131000000000,"state":"active","ping":56},{"user_id":680,"name":"SliceO'Fish","steam_id":76561198290695237,"connected_time":886000000000,"state":"active","ping":66},{"user_id":649,"name":"N00ne","steam_id":76561198135767749,"connected_time":5139000000000,"state":"active","ping":95},{"user_id":693,"name":"sauce","steam_id":76561198155481540,"connected_time":216000000000,"state":"active","ping":76},{"user_id":692,"name":"Grandpa","steam_id":76561199483710365,"connected_time":373000000000,"state":"active","ping":86},{"user_id":667,"name":"The Texan Inconvenience","steam_id":76561198958125792,"connected_time":3428000000000,"state":"active","ping":126},{"user_id":684,"name":"retro games","steam_id":76561198242179176,"connected_time":838000000000,"state":"active","ping":77},{"user_id":694,"name":"Rin \"Hindwing\" Redtail","steam_id":76561199074865638,"connected_time":184000000000,"state":"active","ping":50},{"user_id":670,"name":"EvilPigglet","steam_id":76561197987243470,"connected_time":2549000000000,"state":"active","ping":78},{"user_id":686,"name":"Bottom Ramen","steam_id":76561197970450546,"connected_time":784000000000,"state":"active","ping":112},{"user_id":679,"name":"BigPimpin","steam_id":76561198119549348,"connected_time":1083000000000,"state":"active","ping":53},{"user_id":674,"name":"Cofi","steam_id":76561199026721822,"connected_time":1741000000000,"state":"active","ping":103},{"user_id":687,"name":"soapboxracer360","steam_id":76561198316394688,"connected_time":782000000000,"state":"active","ping":101},{"user_id":691,"name":"SleepingBrim","steam_id":76561198067650229,"connected_time":498000000000,"state":"active","ping":127},{"user_id":677,"name":"Panda Loser","steam_id":76561198828745176,"connected_time":1278000000000,"state":"active","ping":90},{"user_id":614,"name":"DextrousMonk743","steam_id":76561199177141396,"connected_time":9248000000000,"state":"active","ping":56},{"user_id":690,"name":"SubZeroDestruction","steam_id":76561198145082209,"connected_time":701000000000,"state":"active","ping":76}]},{"server_id":5,"name":"Uncletopia | Frankfurt | 1 | All Maps","name_short":"frk-1","host":"frk-1.de.uncletopia.com","port":27015,"enabled":true,"region":"eu","cc":"de","latitude":50.110924,"longitude":8.682127,"reserved":0,"last_update":"0001-01-01T00:00:00Z","name_a2s":"Uncletopia | Frankfurt | 1 | All Maps","protocol":17,"map":"cp_mountainlab","folder":"tf","game":"Team Fortress","app_id":440,"player_count":0,"max_players":24,"Bots":0,"server_type":"Dedicated","server_os":"Linux","password":true,"vac":true,"version":"7882260","steam_id":85568392924469989,"keywords":["cp","nocrits","nodmgspread","uncletopia"],"game_id":440,"stv_port":27016,"stv_name":"Uncletopia | Frankfurt | 1 | All Maps | STV","players":null},{"server_id":110,"name":"Uncletopia | Frankfurt | 2 | All Maps","name_short":"frk-2","host":"frk-1.de.uncletopia.com","port":27025,"enabled":true,"region":"eu","cc":"de","latitude":50.110924,"longitude":8.682127,"reserved":0,"last_update":"0001-01-01T00:00:00Z","name_a2s":"Uncletopia | Frankfurt | 2 | All Maps","protocol":17,"map":"cp_snakewater_final1","folder":"tf","game":"Team Fortress","app_id":440,"player_count":0,"max_players":24,"Bots":0,"server_type":"Dedicated","server_os":"Linux","password":true,"vac":true,"version":"7882260","steam_id":85568392924469990,"keywords":["cp","nocrits","nodmgspread","uncletopia"],"game_id":440,"stv_port":27026,"stv_name":"Uncletopia | Frankfurt | 2 | All Maps | STV","players":null},{"server_id":308,"name":"Uncletopia | Frankfurt | 3 | All Maps","name_short":"frk-3","host":"frk-1.de.uncletopia.com","port":27035,"enabled":true,"region":"eu","cc":"de","latitude":50.110924,"longitude":8.682127,"reserved":0,"last_update":"0001-01-01T00:00:00Z","name_a2s":"Uncletopia | Frankfurt | 3 | All Maps","protocol":17,"map":"koth_lakeside_final","folder":"tf","game":"Team Fortress","app_id":440,"player_count":0,"max_players":24,"Bots":0,"server_type":"Dedicated","server_os":"Linux","password":true,"vac":true,"version":"7882260","steam_id":85568392924504274,"keywords":["cp","nocrits","nodmgspread","uncletopia"],"game_id":440,"stv_port":27036,"stv_name":"Uncletopia | Frankfurt | 3 | All Maps | STV","players":null},{"server_id":309,"name":"Uncletopia | Frankfurt | 4 | All Maps","name_short":"frk-4","host":"frk-1.de.uncletopia.com","port":27045,"enabled":true,"region":"eu","cc":"de","latitude":50.110924,"longitude":8.682127,"reserved":0,"last_update":"0001-01-01T00:00:00Z","name_a2s":"Uncletopia | Frankfurt | 4 | All Maps","protocol":17,"map":"pl_barnblitz","folder":"tf","game":"Team Fortress","app_id":440,"player_count":0,"max_players":24,"Bots":0,"server_type":"Dedicated","server_os":"Linux","password":true,"vac":true,"version":"7882260","steam_id":85568392924504275,"keywords":["nocrits","nodmgspread","payload","uncletopia"],"game_id":440,"stv_port":27046,"stv_name":"Uncletopia | Frankfurt | 4 | All Maps | STV","players":null},{"server_id":310,"name":"Uncletopia | Frankfurt | 5 | All Maps","name_short":"frk-5","host":"frk-1.de.uncletopia.com","port":27055,"enabled":true,"region":"eu","cc":"de","latitude":50.110924,"longitude":8.682127,"reserved":0,"last_update":"0001-01-01T00:00:00Z","name_a2s":"Uncletopia | Frankfurt | 5 | All Maps","protocol":17,"map":"koth_highpass","folder":"tf","game":"Team Fortress","app_id":440,"player_count":0,"max_players":24,"Bots":0,"server_type":"Dedicated","server_os":"Linux","password":true,"vac":true,"version":"7882260","steam_id":85568392924504277,"keywords":["cp","nocrits","nodmgspread","uncletopia"],"game_id":440,"stv_port":27056,"stv_name":"Uncletopia | Frankfurt | 5 | All Maps | STV","players":null},{"server_id":311,"name":"Uncletopia | Frankfurt | 6 | All Maps","name_short":"frk-6","host":"frk-1.de.uncletopia.com","port":27065,"enabled":true,"region":"eu","cc":"de","latitude":50.110924,"longitude":8.682127,"reserved":0,"last_update":"0001-01-01T00:00:00Z","name_a2s":"Uncletopia | Frankfurt | 6 | All Maps","protocol":17,"map":"koth_lakeside_final","folder":"tf","game":"Team Fortress","app_id":440,"player_count":0,"max_players":24,"Bots":0,"server_type":"Dedicated","server_os":"Linux","password":true,"vac":true,"version":"7882260","steam_id":85568392924504278,"keywords":["cp","nocrits","nodmgspread","uncletopia"],"game_id":440,"stv_port":27066,"stv_name":"Uncletopia | Frankfurt | 6 | All Maps | STV","players":null},{"server_id":23,"name":"Uncletopia | Frankfurt | 7 | Stopwatch Beta","name_short":"frk-7","host":"frk-1.de.uncletopia.com","port":27075,"enabled":true,"region":"eu","cc":"de","latitude":50.110924,"longitude":8.682127,"reserved":0,"last_update":"0001-01-01T00:00:00Z","name_a2s":"Uncletopia | Frankfurt | 7 | Stopwatch Beta","protocol":17,"map":"cp_granary","folder":"tf","game":"Team Fortress","app_id":440,"player_count":0,"max_players":24,"Bots":0,"server_type":"Dedicated","server_os":"Linux","password":true,"vac":true,"version":"7882260","steam_id":85568392924742827,"keywords":["cp","nocrits","nodmgspread","uncletopia"],"game_id":440,"stv_port":27076,"stv_name":"Uncletopia | Frankfurt | 7 | Stopwatch Beta | STV","players":null},{"server_id":24,"name":"Uncletopia | Frankfurt | 8 | Community","name_short":"frk-8","host":"frk-1.de.uncletopia.com","port":27085,"enabled":true,"region":"eu","cc":"de","latitude":50.110924,"longitude":8.682127,"reserved":0,"last_update":"0001-01-01T00:00:00Z","name_a2s":"Uncletopia | Frankfurt | 8 | Community","protocol":17,"map":"workshop/pl_emerge_rc2.ugc888027758","folder":"tf","game":"Team Fortress","app_id":440,"player_count":0,"max_players":24,"Bots":0,"server_type":"Dedicated","server_os":"Linux","password":true,"vac":true,"version":"7882260","steam_id":85568392924742828,"keywords":["nocrits","nodmgspread","payload","uncletopia"],"game_id":440,"stv_port":27086,"stv_name":"Uncletopia | Frankfurt | 8 | Community | STV","players":null},{"server_id":202,"name":"Uncletopia | Hong Kong | 1 | All Maps","name_short":"hgk-1","host":"hgk-1.hk.uncletopia.com","port":27015,"enabled":true,"region":"asia","cc":"hk","latitude":22.302711,"longitude":114.177216,"reserved":0,"last_update":"0001-01-01T00:00:00Z","name_a2s":"Uncletopia | Hong Kong | 1 | All Maps","protocol":17,"map":"koth_cascade","folder":"tf","game":"Team Fortress","app_id":440,"player_count":0,"max_players":24,"Bots":0,"server_type":"Dedicated","server_os":"Linux","password":true,"vac":true,"version":"7882260","steam_id":85568392924494504,"keywords":["cp","nocrits","nodmgspread","uncletopia"],"game_id":440,"stv_port":27016,"stv_name":"Uncletopia | Hong Kong | 1 | All Maps | STV","players":null},{"server_id":1,"name":"Uncletopia | Los Angeles | 1 | All Maps","name_short":"lax-1","host":"lax-1.us.uncletopia.com","port":27015,"enabled":true,"region":"us-west","cc":"us","latitude":33.94279,"longitude":-118.41004,"reserved":0,"last_update":"0001-01-01T00:00:00Z","name_a2s":"Uncletopia | Los Angeles | 1 | All Maps","protocol":17,"map":"pl_badwater","folder":"tf","game":"Team Fortress","app_id":440,"player_count":24,"max_players":24,"Bots":0,"server_type":"Dedicated","server_os":"Linux","password":true,"vac":true,"version":"7882260","steam_id":85568392924469991,"keywords":["nocrits","nodmgspread","payload","uncletopia"],"game_id":440,"stv_port":27016,"stv_name":"Uncletopia | Los Angeles | 1 | All Maps | STV","players":[{"user_id":731,"name":"Buswolley","steam_id":76561197995205571,"connected_time":2075000000000,"state":"active","ping":64},{"user_id":720,"name":"thegreatsawyer","steam_id":76561198393604826,"connected_time":2421000000000,"state":"active","ping":93},{"user_id":712,"name":"DemoLiberTF2","steam_id":76561198095378689,"connected_time":2897000000000,"state":"active","ping":78},{"user_id":735,"name":"Dr. Bubs","steam_id":76561198011696595,"connected_time":2018000000000,"state":"active","ping":57},{"user_id":728,"name":"Caspian","steam_id":76561199041466962,"connected_time":2101000000000,"state":"active","ping":53},{"user_id":726,"name":"John Wick's puppy","steam_id":76561198064662875,"connected_time":2230000000000,"state":"active","ping":54},{"user_id":742,"name":"flo rida","steam_id":76561198226169704,"connected_time":678000000000,"state":"active","ping":50},{"user_id":710,"name":"ScoutSecoTF2","steam_id":76561198366212156,"connected_time":3079000000000,"state":"active","ping":115},{"user_id":744,"name":"CBUR","steam_id":76561198437498149,"connected_time":572000000000,"state":"active","ping":64},{"user_id":730,"name":"Michael Realman","steam_id":76561198040597934,"connected_time":2083000000000,"state":"active","ping":63},{"user_id":658,"name":"SanitysEdge","steam_id":76561198130732813,"connected_time":6865000000000,"state":"active","ping":50},{"user_id":749,"name":"-L","steam_id":76561198046074220,"connected_time":436000000000,"state":"active","ping":44},{"user_id":747,"name":"Risky","steam_id":76561198231029328,"connected_time":516000000000,"state":"active","ping":45},{"user_id":718,"name":"Anti","steam_id":76561198408747483,"connected_time":2603000000000,"state":"active","ping":76},{"user_id":737,"name":"Pocket Medic Girlfriend","steam_id":76561198378587138,"connected_time":1796000000000,"state":"active","ping":61},{"user_id":743,"name":"Sadistic Dentist","steam_id":76561198103189993,"connected_time":583000000000,"state":"active","ping":74},{"user_id":661,"name":"riSygneD","steam_id":76561198331618687,"connected_time":6796000000000,"state":"active","ping":32},{"user_id":751,"name":"Spooby","steam_id":76561198168114366,"connected_time":33000000000,"state":"active","ping":121},{"user_id":671,"name":"Nugakku","steam_id":76561198082346219,"connected_time":5015000000000,"state":"active","ping":57},{"user_id":698,"name":"mebbew","steam_id":76561198983462911,"connected_time":3769000000000,"state":"active","ping":60},{"user_id":733,"name":"Giddy","steam_id":76561198271951969,"connected_time":2058000000000,"state":"active","ping":56},{"user_id":750,"name":"Reem0h","steam_id":76561198169848690,"connected_time":388000000000,"state":"active","ping":108},{"user_id":739,"name":"Drakon","steam_id":76561198078210822,"connected_time":1741000000000,"state":"active","ping":68},{"user_id":746,"name":"Diclonius","steam_id":76561198075646647,"connected_time":571000000000,"state":"active","ping":45}]},{"server_id":112,"name":"Uncletopia | Los Angeles | 2 | All Maps","name_short":"lax-2","host":"lax-1.us.uncletopia.com","port":27025,"enabled":true,"region":"us-west","cc":"us","latitude":33.94279,"longitude":-118.41004,"reserved":0,"last_update":"0001-01-01T00:00:00Z","name_a2s":"Uncletopia | Los Angeles | 2 | All Maps","protocol":17,"map":"cp_dustbowl","folder":"tf","game":"Team Fortress","app_id":440,"player_count":24,"max_players":24,"Bots":0,"server_type":"Dedicated","server_os":"Linux","password":true,"vac":true,"version":"7882260","steam_id":85568392924469992,"keywords":["cp","nocrits","nodmgspread","uncletopia"],"game_id":440,"stv_port":27026,"stv_name":"Uncletopia | Los Angeles | 2 | All Maps | STV","players":[{"user_id":357,"name":"Grand","steam_id":76561198290143399,"connected_time":970000000000,"state":"active","ping":78},{"user_id":364,"name":"Killerofzombie23","steam_id":76561198799173778,"connected_time":335000000000,"state":"active","ping":83},{"user_id":328,"name":"commanderfrogger","steam_id":76561198319089417,"connected_time":3493000000000,"state":"active","ping":63},{"user_id":319,"name":"Jolly","steam_id":76561198116357972,"connected_time":4149000000000,"state":"active","ping":45},{"user_id":350,"name":"Walrus","steam_id":76561198001799905,"connected_time":2037000000000,"state":"active","ping":60},{"user_id":339,"name":"Overmeme","steam_id":76561199455124144,"connected_time":2525000000000,"state":"active","ping":298},{"user_id":365,"name":"ronald","steam_id":76561197960691622,"connected_time":197000000000,"state":"active","ping":68},{"user_id":348,"name":"Sky","steam_id":76561198853245153,"connected_time":2170000000000,"state":"active","ping":72},{"user_id":338,"name":"Fachedin","steam_id":76561198041850415,"connected_time":2616000000000,"state":"active","ping":54},{"user_id":325,"name":"JoySlip","steam_id":76561198269476149,"connected_time":3549000000000,"state":"active","ping":47},{"user_id":363,"name":"SpinnerSpecial","steam_id":76561198065661869,"connected_time":376000000000,"state":"active","ping":90},{"user_id":336,"name":"justyn","steam_id":76561198110270421,"connected_time":2689000000000,"state":"active","ping":105},{"user_id":355,"name":"Truffles","steam_id":76561198095868800,"connected_time":1112000000000,"state":"active","ping":110},{"user_id":335,"name":"Basil","steam_id":76561198305988335,"connected_time":2721000000000,"state":"active","ping":134},{"user_id":347,"name":"‡πá","steam_id":76561198067666595,"connected_time":2233000000000,"state":"active","ping":74},{"user_id":334,"name":"SneekiCheekiQbone","steam_id":76561198045077980,"connected_time":3117000000000,"state":"active","ping":42},{"user_id":354,"name":"KellyKapoor","steam_id":76561198040828123,"connected_time":1249000000000,"state":"active","ping":66},{"user_id":337,"name":"rizzy rick","steam_id":76561198167997186,"connected_time":2680000000000,"state":"active","ping":122},{"user_id":358,"name":"witch","steam_id":76561198151071386,"connected_time":891000000000,"state":"active","ping":129},{"user_id":311,"name":"Konrad Vilulf","steam_id":76561198111124481,"connected_time":4481000000000,"state":"active","ping":131},{"user_id":349,"name":"Da Big Beefer‚Ñ¢","steam_id":76561199477267466,"connected_time":2134000000000,"state":"active","ping":56},{"user_id":366,"name":"Courier711","steam_id":76561198053232343,"connected_time":175000000000,"state":"active","ping":56},{"user_id":361,"name":"Thunder","steam_id":76561198097721532,"connected_time":406000000000,"state":"active","ping":51},{"user_id":342,"name":"colby","steam_id":76561198139797454,"connected_time":2329000000000,"state":"active","ping":110}]},{"server_id":324,"name":"Uncletopia | Los Angeles | 3 | All Maps","name_short":"lax-3","host":"lax-1.us.uncletopia.com","port":27035,"enabled":true,"region":"us-west","cc":"us","latitude":33.94279,"longitude":-118.41004,"reserved":0,"last_update":"0001-01-01T00:00:00Z","name_a2s":"Uncletopia | Los Angeles | 3 | All Maps","protocol":17,"map":"koth_highpass","folder":"tf","game":"Team Fortress","app_id":440,"player_count":3,"max_players":24,"Bots":0,"server_type":"Dedicated","server_os":"Linux","password":true,"vac":true,"version":"7882260","steam_id":85568392924510198,"keywords":["cp","nocrits","nodmgspread","uncletopia"],"game_id":440,"stv_port":27036,"stv_name":"Uncletopia | Los Angeles | 3 | All Maps | STV","players":[{"user_id":36,"name":"Lulo","steam_id":76561198200617911,"connected_time":272000000000,"state":"active","ping":60},{"user_id":39,"name":"Zen shroom","steam_id":76561198114959627,"connected_time":129000000000,"state":"active","ping":97},{"user_id":38,"name":"CrackedSanity","steam_id":76561198279841251,"connected_time":252000000000,"state":"active","ping":46}]},{"server_id":25,"name":"Uncletopia | Los Angeles | 4 | Stopwatch Beta","name_short":"lax-4","host":"lax-1.us.uncletopia.com","port":27045,"enabled":true,"region":"us-west","cc":"us","latitude":33.94279,"longitude":-118.41004,"reserved":0,"last_update":"0001-01-01T00:00:00Z","name_a2s":"Uncletopia | Los Angeles | 4 | Stopwatch Beta","protocol":17,"map":"workshop/koth_clearcut_b15.ugc2107050255","folder":"tf","game":"Team Fortress","app_id":440,"player_count":0,"max_players":24,"Bots":0,"server_type":"Dedicated","server_os":"Linux","password":true,"vac":true,"version":"7882260","steam_id":85568392924510199,"keywords":["cp","nocrits","nodmgspread","uncletopia"],"game_id":440,"stv_port":27046,"stv_name":"Uncletopia | Los Angeles | 4 | Stopwatch Beta | STV","players":null},{"server_id":11,"name":"Uncletopia | London | 1 | All Maps","name_short":"lon-1","host":"lon-1.uk.uncletopia.com","port":27015,"enabled":true,"region":"eu","cc":"gb","latitude":51.509865,"longitude":-0.118092,"reserved":0,"last_update":"0001-01-01T00:00:00Z","name_a2s":"Uncletopia | London | 1 | All Maps","protocol":17,"map":"koth_lakeside_final","folder":"tf","game":"Team Fortress","app_id":440,"player_count":0,"max_players":24,"Bots":0,"server_type":"Dedicated","server_os":"Linux","password":true,"vac":true,"version":"7882260","steam_id":85568392924367362,"keywords":["cp","nocrits","nodmgspread","uncletopia"],"game_id":440,"stv_port":27016,"stv_name":"Uncletopia | London | 1 | All Maps | STV","players":null},{"server_id":114,"name":"Uncletopia | London | 2 | All Maps","name_short":"lon-2","host":"lon-1.uk.uncletopia.com","port":27025,"enabled":true,"region":"eu","cc":"gb","latitude":51.509865,"longitude":-0.118092,"reserved":0,"last_update":"0001-01-01T00:00:00Z","name_a2s":"Uncletopia | London | 2 | All Maps","protocol":17,"map":"cp_process_final","folder":"tf","game":"Team Fortress","app_id":440,"player_count":0,"max_players":24,"Bots":0,"server_type":"Dedicated","server_os":"Linux","password":true,"vac":true,"version":"7882260","steam_id":85568392924470941,"keywords":["cp","nocrits","nodmgspread","uncletopia"],"game_id":440,"stv_port":27026,"stv_name":"Uncletopia | London | 2 | All Maps | STV","players":null},{"server_id":320,"name":"Uncletopia | London | 3 | All Maps","name_short":"lon-3","host":"lon-1.uk.uncletopia.com","port":27035,"enabled":true,"region":"eu","cc":"gb","latitude":51.509865,"longitude":-0.118092,"reserved":0,"last_update":"0001-01-01T00:00:00Z","name_a2s":"Uncletopia | London | 3 | All Maps","protocol":17,"map":"cp_dustbowl","folder":"tf","game":"Team Fortress","app_id":440,"player_count":16,"max_players":24,"Bots":0,"server_type":"Dedicated","server_os":"Linux","password":true,"vac":true,"version":"7882260","steam_id":85568392924510192,"keywords":["cp","nocrits","nodmgspread","uncletopia"],"game_id":440,"stv_port":27036,"stv_name":"Uncletopia | London | 3 | All Maps | STV","players":[{"user_id":528,"name":"Neimon","steam_id":76561198343485710,"connected_time":60000000000,"state":"active","ping":140},{"user_id":507,"name":"Girlboy Theenie","steam_id":76561198029025500,"connected_time":2324000000000,"state":"active","ping":55},{"user_id":515,"name":"Bosnian Knight","steam_id":76561198158027614,"connected_time":1269000000000,"state":"active","ping":167},{"user_id":509,"name":"Taste","steam_id":76561197994506978,"connected_time":1957000000000,"state":"active","ping":56},{"user_id":510,"name":"phantASSm","steam_id":76561199480942903,"connected_time":1489000000000,"state":"active","ping":76},{"user_id":511,"name":"DDUUCCKK","steam_id":76561198141953050,"connected_time":1410000000000,"state":"active","ping":53},{"user_id":516,"name":"Big Mamas House","steam_id":76561198169930529,"connected_time":1254000000000,"state":"active","ping":167},{"user_id":513,"name":"Canis[Magnus]Pectus","steam_id":76561198363775072,"connected_time":1350000000000,"state":"active","ping":129},{"user_id":518,"name":"Scrooge Mc Clunk","steam_id":76561198885945084,"connected_time":1175000000000,"state":"active","ping":40},{"user_id":445,"name":"Bambi","steam_id":76561198166972711,"connected_time":10579000000000,"state":"active","ping":48},{"user_id":520,"name":"Just_Chilling","steam_id":76561198036712229,"connected_time":972000000000,"state":"active","ping":66},{"user_id":521,"name":"wide appreciator","steam_id":76561198083286511,"connected_time":969000000000,"state":"active","ping":33},{"user_id":522,"name":"Controller Gaming","steam_id":76561198134805479,"connected_time":821000000000,"state":"active","ping":45},{"user_id":526,"name":"Vinnyboiler","steam_id":76561198048722825,"connected_time":594000000000,"state":"active","ping":31},{"user_id":527,"name":"Tank","steam_id":76561199059174576,"connected_time":441000000000,"state":"active","ping":174},{"user_id":498,"name":"cuboidbird741","steam_id":76561198174823322,"connected_time":5670000000000,"state":"active","ping":69}]},{"server_id":321,"name":"Uncletopia | London | 4 | All Maps","name_short":"lon-4","host":"lon-1.uk.uncletopia.com","port":27045,"enabled":true,"region":"eu","cc":"gb","latitude":51.509865,"longitude":-0.118092,"reserved":0,"last_update":"0001-01-01T00:00:00Z","name_a2s":"Uncletopia | London | 4 | All Maps","protocol":17,"map":"pl_snowycoast","folder":"tf","game":"Team Fortress","app_id":440,"player_count":0,"max_players":24,"Bots":0,"server_type":"Dedicated","server_os":"Linux","password":true,"vac":true,"version":"7882260","steam_id":85568392924510193,"keywords":["nocrits","nodmgspread","payload","uncletopia"],"game_id":440,"stv_port":27046,"stv_name":"Uncletopia | London | 4 | All Maps | STV","players":null},{"server_id":21,"name":"Uncletopia | London | 5 | All Maps","name_short":"lon-5","host":"lon-1.uk.uncletopia.com","port":27055,"enabled":true,"region":"eu","cc":"gb","latitude":51.509865,"longitude":-0.118092,"reserved":0,"last_update":"0001-01-01T00:00:00Z","name_a2s":"Uncletopia | London | 5 | All Maps","protocol":17,"map":"koth_viaduct","folder":"tf","game":"Team Fortress","app_id":440,"player_count":0,"max_players":24,"Bots":0,"server_type":"Dedicated","server_os":"Linux","password":true,"vac":true,"version":"7882260","steam_id":85568392924742829,"keywords":["cp","nocrits","nodmgspread","uncletopia"],"game_id":440,"stv_port":27056,"stv_name":"Uncletopia | London | 5 | All Maps | STV","players":null},{"server_id":22,"name":"Uncletopia | London | 6 | All Maps","name_short":"lon-6","host":"lon-1.uk.uncletopia.com","port":27065,"enabled":true,"region":"eu","cc":"gb","latitude":51.509865,"longitude":-0.118092,"reserved":0,"last_update":"0001-01-01T00:00:00Z","name_a2s":"Uncletopia | London | 6 | All Maps","protocol":17,"map":"pl_pier","folder":"tf","game":"Team Fortress","app_id":440,"player_count":0,"max_players":24,"Bots":0,"server_type":"Dedicated","server_os":"Linux","password":true,"vac":true,"version":"7882260","steam_id":85568392924742830,"keywords":["nocrits","nodmgspread","payload","uncletopia"],"game_id":440,"stv_port":27066,"stv_name":"Uncletopia | London | 6 | All Maps | STV","players":null},{"server_id":40,"name":"Uncletopia | London | 7 | No Payload","name_short":"lon-7","host":"lon-1.uk.uncletopia.com","port":27075,"enabled":true,"region":"eu","cc":"gb","latitude":51.509865,"longitude":-0.118092,"reserved":0,"last_update":"0001-01-01T00:00:00Z","name_a2s":"Uncletopia | London | 7 | No Payload","protocol":17,"map":"cp_freight_final1","folder":"tf","game":"Team Fortress","app_id":440,"player_count":0,"max_players":24,"Bots":0,"server_type":"Dedicated","server_os":"Linux","password":true,"vac":true,"version":"7882260","steam_id":85568392924964314,"keywords":["cp","nocrits","nodmgspread","uncletopia"],"game_id":440,"stv_port":27076,"stv_name":"Uncletopia | London | 7 | No Payload | STV","players":null},{"server_id":41,"name":"Uncletopia | London | 8 | Community","name_short":"lon-8","host":"lon-1.uk.uncletopia.com","port":27085,"enabled":true,"region":"eu","cc":"gb","latitude":51.509865,"longitude":-0.118092,"reserved":0,"last_update":"0001-01-01T00:00:00Z","name_a2s":"Uncletopia | London | 8 | Community","protocol":17,"map":"workshop/koth_ramjam_rc1.ugc459778887","folder":"tf","game":"Team Fortress","app_id":440,"player_count":0,"max_players":24,"Bots":0,"server_type":"Dedicated","server_os":"Linux","password":true,"vac":true,"version":"7882260","steam_id":85568392924964315,"keywords":["cp","nocrits","nodmgspread","uncletopia"],"game_id":440,"stv_port":27086,"stv_name":"Uncletopia | London | 8 | Community | STV","players":null},{"server_id":300,"name":"Uncletopia | Montr√©al | 1 | All Maps","name_short":"mtl-1","host":"mtl-1.ca.uncletopia.com","port":27015,"enabled":true,"region":"us-east","cc":"ca","latitude":45.50889,"longitude":-73.56167,"reserved":0,"last_update":"0001-01-01T00:00:00Z","name_a2s":"Uncletopia | Montr√©al | 1 | All Maps","protocol":17,"map":"pl_swiftwater_final1","folder":"tf","game":"Team Fortress","app_id":440,"player_count":21,"max_players":24,"Bots":0,"server_type":"Dedicated","server_os":"Linux","password":true,"vac":true,"version":"7882260","steam_id":85568392924500087,"keywords":["nocrits","nodmgspread","payload","uncletopia"],"game_id":440,"stv_port":27016,"stv_name":"Uncletopia | Montr√©al | 1 | All Maps | STV","players":[{"user_id":107,"name":"Duck","steam_id":76561198045287701,"connected_time":825000000000,"state":"active","ping":44},{"user_id":84,"name":"RedLetterDay","steam_id":76561198168026154,"connected_time":2716000000000,"state":"active","ping":118},{"user_id":124,"name":"golia","steam_id":76561198000264266,"connected_time":146000000000,"state":"active","ping":122},{"user_id":102,"name":"FazeCumShot69","steam_id":76561199248475270,"connected_time":1060000000000,"state":"active","ping":69},{"user_id":97,"name":"Mrs.Frizzle","steam_id":76561198117157085,"connected_time":1432000000000,"state":"active","ping":63},{"user_id":99,"name":"The Pencil Cunts","steam_id":76561198272606252,"connected_time":1391000000000,"state":"active","ping":85},{"user_id":108,"name":"Good Seed","steam_id":76561198013443319,"connected_time":771000000000,"state":"active","ping":44},{"user_id":109,"name":"Lancer47","steam_id":76561198020481475,"connected_time":682000000000,"state":"active","ping":75},{"user_id":61,"name":"Zigadox","steam_id":76561198079813479,"connected_time":4503000000000,"state":"active","ping":92},{"user_id":110,"name":"Snowbolt","steam_id":76561197974085095,"connected_time":620000000000,"state":"active","ping":41},{"user_id":83,"name":"3xtr3m3rWbyFan2901025","steam_id":76561198042286766,"connected_time":2742000000000,"state":"active","ping":93},{"user_id":117,"name":"jolo","steam_id":76561198042831480,"connected_time":528000000000,"state":"active","ping":62},{"user_id":112,"name":"Feathers","steam_id":76561198045424567,"connected_time":605000000000,"state":"active","ping":64},{"user_id":113,"name":"Bryguy","steam_id":76561198092096120,"connected_time":583000000000,"state":"active","ping":60},{"user_id":126,"name":"T9 Raincool","steam_id":76561198042953645,"connected_time":25000000000,"state":"active","ping":60},{"user_id":120,"name":"Gnome Gaming |HM|","steam_id":76561199034149160,"connected_time":400000000000,"state":"active","ping":121},{"user_id":92,"name":"toastoboi","steam_id":76561199259799042,"connected_time":1704000000000,"state":"active","ping":61},{"user_id":85,"name":"Bob's your Uncle","steam_id":76561197995230744,"connected_time":2712000000000,"state":"active","ping":76},{"user_id":64,"name":"Dogemetri","steam_id":76561198274982830,"connected_time":4473000000000,"state":"active","ping":71},{"user_id":37,"name":"Brigade","steam_id":76561198044656610,"connected_time":7201000000000,"state":"active","ping":59},{"user_id":123,"name":"Raydn","steam_id":76561198418414338,"connected_time":291000000000,"state":"active","ping":94}]},{"server_id":301,"name":"Uncletopia | Montr√©al | 2 | All Maps","name_short":"mtl-2","host":"mtl-1.ca.uncletopia.com","port":27025,"enabled":true,"region":"us-east","cc":"ca","latitude":45.50889,"longitude":-73.56167,"reserved":0,"last_update":"0001-01-01T00:00:00Z","name_a2s":"Uncletopia | Montr√©al | 2 | All Maps","protocol":17,"map":"pl_barnblitz","folder":"tf","game":"Team Fortress","app_id":440,"player_count":24,"max_players":24,"Bots":0,"server_type":"Dedicated","server_os":"Linux","password":true,"vac":true,"version":"7882260","steam_id":85568392924500088,"keywords":["nocrits","nodmgspread","payload","uncletopia"],"game_id":440,"stv_port":27026,"stv_name":"Uncletopia | Montr√©al | 2 | All Maps | STV","players":[{"user_id":75,"name":"the spy from team fortress 2","steam_id":76561198047797306,"connected_time":549000000000,"state":"active","ping":57},{"user_id":50,"name":"||:‚ô©‚ô©‚ô©‚ô™:|| Opplydead","steam_id":76561198028630334,"connected_time":2391000000000,"state":"active","ping":120},{"user_id":14,"name":"StickyWicket","steam_id":76561198000155177,"connected_time":4609000000000,"state":"active","ping":83},{"user_id":15,"name":"erika (dream crusher) furudo","steam_id":76561198196573053,"connected_time":4576000000000,"state":"active","ping":109},{"user_id":16,"name":"Lanky Kong","steam_id":76561198074660454,"connected_time":4574000000000,"state":"active","ping":151},{"user_id":43,"name":"The Amalgam","steam_id":76561198108242116,"connected_time":2927000000000,"state":"active","ping":127},{"user_id":52,"name":"Daft","steam_id":76561198091212723,"connected_time":2121000000000,"state":"active","ping":60},{"user_id":76,"name":"gyozaking","steam_id":76561197972312696,"connected_time":528000000000,"state":"active","ping":63},{"user_id":77,"name":"cheese toes","steam_id":76561198000564263,"connected_time":376000000000,"state":"active","ping":91},{"user_id":54,"name":"CyberWolfe","steam_id":76561198024624367,"connected_time":2037000000000,"state":"active","ping":66},{"user_id":55,"name":"Lavender","steam_id":76561198142770666,"connected_time":1979000000000,"state":"active","ping":71},{"user_id":85,"name":"[chef] iron","steam_id":76561197970888616,"connected_time":95000000000,"state":"active","ping":62},{"user_id":61,"name":"apple pie","steam_id":76561198073215150,"connected_time":1712000000000,"state":"active","ping":68},{"user_id":78,"name":"hoarse whisperer","steam_id":76561198106690989,"connected_time":367000000000,"state":"active","ping":60},{"user_id":62,"name":"Mr.Bady","steam_id":76561199094651706,"connected_time":1679000000000,"state":"active","ping":60},{"user_id":28,"name":"NastyStarchy","steam_id":76561198291849732,"connected_time":3819000000000,"state":"active","ping":42},{"user_id":41,"name":"Smooth - Santana ft. Rob Thomas","steam_id":76561198145283389,"connected_time":3084000000000,"state":"active","ping":70},{"user_id":83,"name":"1001NinjaDucks","steam_id":76561198058169660,"connected_time":151000000000,"state":"active","ping":53},{"user_id":80,"name":"Tuxedo Terrorist","steam_id":76561198374120534,"connected_time":349000000000,"state":"active","ping":58},{"user_id":81,"name":"java","steam_id":76561198030276792,"connected_time":326000000000,"state":"active","ping":63},{"user_id":74,"name":"Phat Cat","steam_id":76561198123017274,"connected_time":694000000000,"state":"active","ping":45},{"user_id":82,"name":"Legit_Jaxer","steam_id":76561198172234053,"connected_time":316000000000,"state":"active","ping":101},{"user_id":84,"name":"honk","steam_id":76561198050398028,"connected_time":145000000000,"state":"active","ping":90},{"user_id":86,"name":"JFKgaming1963","steam_id":76561199110140735,"connected_time":71000000000,"state":"active","ping":154}]},{"server_id":302,"name":"Uncletopia | Montr√©al | 3 | All Maps","name_short":"mtl-3","host":"mtl-1.ca.uncletopia.com","port":27035,"enabled":true,"region":"us-east","cc":"ca","latitude":45.50889,"longitude":-73.56167,"reserved":0,"last_update":"0001-01-01T00:00:00Z","name_a2s":"Uncletopia | Montr√©al | 3 | All Maps","protocol":17,"map":"pl_frontier_final","folder":"tf","game":"Team Fortress","app_id":440,"player_count":22,"max_players":24,"Bots":0,"server_type":"Dedicated","server_os":"Linux","password":true,"vac":true,"version":"7882260","steam_id":85568392924500089,"keywords":["nocrits","nodmgspread","payload","uncletopia"],"game_id":440,"stv_port":27036,"stv_name":"Uncletopia | Montr√©al | 3 | All Maps | STV","players":[{"user_id":129,"name":"Mr. Everett","steam_id":76561198401204033,"connected_time":836000000000,"state":"active","ping":75},{"user_id":122,"name":"Caluber","steam_id":76561198248440118,"connected_time":1682000000000,"state":"active","ping":68},{"user_id":99,"name":"Gock","steam_id":76561198197045587,"connected_time":3234000000000,"state":"active","ping":72},{"user_id":123,"name":"Rew","steam_id":76561198088209263,"connected_time":1615000000000,"state":"active","ping":120},{"user_id":103,"name":"A Shiny Meat Bicycle","steam_id":76561198358757709,"connected_time":2690000000000,"state":"active","ping":119},{"user_id":102,"name":"BaconWizard4","steam_id":76561198384591745,"connected_time":2806000000000,"state":"active","ping":65},{"user_id":144,"name":"Poopy Butthead","steam_id":76561198201862415,"connected_time":345000000000,"state":"active","ping":48},{"user_id":145,"name":"OminousNoises","steam_id":76561198263320321,"connected_time":245000000000,"state":"active","ping":120},{"user_id":146,"name":"Hakon","steam_id":76561198229680520,"connected_time":200000000000,"state":"active","ping":49},{"user_id":147,"name":"oh my goodness","steam_id":76561198275373151,"connected_time":194000000000,"state":"active","ping":68},{"user_id":128,"name":"Lspan","steam_id":76561199002806208,"connected_time":949000000000,"state":"active","ping":134},{"user_id":108,"name":"nucket","steam_id":76561198028658527,"connected_time":2370000000000,"state":"active","ping":122},{"user_id":148,"name":"A Rope, for big pits","steam_id":76561198068044782,"connected_time":106000000000,"state":"active","ping":61},{"user_id":149,"name":"$lime k‚úîng WHYYYTEb0y^-^","steam_id":76561198283687382,"connected_time":96000000000,"state":"active","ping":95},{"user_id":150,"name":"SUUUUUUPER","steam_id":76561198232258524,"connected_time":85000000000,"state":"active","ping":68},{"user_id":143,"name":"extra salty nutz","steam_id":76561197993620971,"connected_time":423000000000,"state":"active","ping":134},{"user_id":112,"name":"bobbymcbobington","steam_id":76561199089411172,"connected_time":2277000000000,"state":"active","ping":125},{"user_id":140,"name":"chiswola","steam_id":76561198046920142,"connected_time":509000000000,"state":"active","ping":88},{"user_id":134,"name":"cornealvase9152","steam_id":76561198851958868,"connected_time":659000000000,"state":"active","ping":108},{"user_id":113,"name":"pink","steam_id":76561198143290835,"connected_time":2153000000000,"state":"active","ping":75},{"user_id":97,"name":"Fiendish Frog","steam_id":76561198029478821,"connected_time":3365000000000,"state":"active","ping":79}]},{"server_id":303,"name":"Uncletopia | Montr√©al | 4 | No Payload","name_short":"mtl-4","host":"mtl-1.ca.uncletopia.com","port":27045,"enabled":true,"region":"us-east","cc":"ca","latitude":45.50889,"longitude":-73.56167,"reserved":0,"last_update":"0001-01-01T00:00:00Z","name_a2s":"Uncletopia | Montr√©al | 4 | No Payload","protocol":17,"map":"koth_suijin","folder":"tf","game":"Team Fortress","app_id":440,"player_count":16,"max_players":24,"Bots":0,"server_type":"Dedicated","server_os":"Linux","password":true,"vac":true,"version":"7882260","steam_id":85568392924500090,"keywords":["cp","nocrits","nodmgspread","uncletopia"],"game_id":440,"stv_port":27046,"stv_name":"Uncletopia | Montr√©al | 4 | No Payload | STV","players":[{"user_id":80,"name":"fartabsorber","steam_id":76561198127211709,"connected_time":667000000000,"state":"active","ping":82},{"user_id":81,"name":"just jazz","steam_id":76561198010637797,"connected_time":645000000000,"state":"active","ping":88},{"user_id":75,"name":"Half-Moon Scoobler","steam_id":76561197994972979,"connected_time":1142000000000,"state":"active","ping":69},{"user_id":82,"name":"Nyko","steam_id":76561198143197549,"connected_time":622000000000,"state":"active","ping":66},{"user_id":43,"name":"acronym","steam_id":76561199043048553,"connected_time":4990000000000,"state":"active","ping":84},{"user_id":52,"name":"BertramFromHeyJessie","steam_id":76561199159329060,"connected_time":2609000000000,"state":"active","ping":58},{"user_id":53,"name":"Sneek","steam_id":76561198368636879,"connected_time":2556000000000,"state":"active","ping":95},{"user_id":54,"name":"trashcanman","steam_id":76561199250076304,"connected_time":2510000000000,"state":"active","ping":93},{"user_id":83,"name":"Aristotle Voulton","steam_id":76561198100174923,"connected_time":386000000000,"state":"active","ping":93},{"user_id":66,"name":"Moonadoo","steam_id":76561198133377546,"connected_time":2095000000000,"state":"active","ping":87},{"user_id":78,"name":"jeremy","steam_id":76561198081332766,"connected_time":899000000000,"state":"active","ping":77},{"user_id":85,"name":"[Champ] Marssygurl","steam_id":76561198014928241,"connected_time":256000000000,"state":"active","ping":103},{"user_id":86,"name":"OrangeFrost","steam_id":76561198015214501,"connected_time":251000000000,"state":"active","ping":100},{"user_id":73,"name":"trooper","steam_id":76561198191364589,"connected_time":1394000000000,"state":"active","ping":73},{"user_id":74,"name":"imp","steam_id":76561198055603569,"connected_time":1383000000000,"state":"active","ping":74},{"user_id":25,"name":"JustLooking","steam_id":76561198207877387,"connected_time":5995000000000,"state":"active","ping":55}]},{"server_id":13,"name":"Uncletopia | New York City | 1 | All Maps","name_short":"nyc-1","host":"nyc-1.us.uncletopia.com","port":27015,"enabled":true,"region":"us-east","cc":"us","latitude":40.73061,"longitude":-73.93524,"reserved":0,"last_update":"0001-01-01T00:00:00Z","name_a2s":"Uncletopia | New York City | 1 | All Maps","protocol":17,"map":"cp_steel","folder":"tf","game":"Team Fortress","app_id":440,"player_count":24,"max_players":24,"Bots":0,"server_type":"Dedicated","server_os":"Linux","password":true,"vac":true,"version":"7882260","steam_id":85568392924469993,"keywords":["cp","nocrits","nodmgspread","uncletopia"],"game_id":440,"stv_port":27016,"stv_name":"Uncletopia | New York City | 1 | All Maps | STV","players":[{"user_id":506,"name":"PieTheMan","steam_id":76561198027825469,"connected_time":629000000000,"state":"active","ping":82},{"user_id":479,"name":"HippieSnake","steam_id":76561198012605321,"connected_time":2926000000000,"state":"active","ping":60},{"user_id":501,"name":"BIG HOG","steam_id":76561198079923652,"connected_time":860000000000,"state":"active","ping":91},{"user_id":484,"name":"Couriadore","steam_id":76561198055814008,"connected_time":2017000000000,"state":"active","ping":64},{"user_id":495,"name":"Bulbasaur","steam_id":76561198160608241,"connected_time":1133000000000,"state":"active","ping":52},{"user_id":511,"name":"YarnballWasHere","steam_id":76561198066796158,"connected_time":324000000000,"state":"active","ping":38},{"user_id":505,"name":"PikaG10","steam_id":76561198179817077,"connected_time":655000000000,"state":"active","ping":79},{"user_id":314,"name":"Gentoo Linux Gaming","steam_id":76561197999657118,"connected_time":13382000000000,"state":"active","ping":64},{"user_id":514,"name":"Aegis","steam_id":76561198272052750,"connected_time":52000000000,"state":"active","ping":73},{"user_id":477,"name":"Kirbs","steam_id":76561198970654800,"connected_time":3047000000000,"state":"active","ping":50},{"user_id":497,"name":"Bocchi the Cock","steam_id":76561198152455316,"connected_time":912000000000,"state":"active","ping":150},{"user_id":440,"name":"23‚Ñ¢","steam_id":76561198314951185,"connected_time":5014000000000,"state":"active","ping":127},{"user_id":503,"name":"InYodieLand","steam_id":76561198228051732,"connected_time":841000000000,"state":"active","ping":42},{"user_id":436,"name":"Virtual Zorua","steam_id":76561198196180302,"connected_time":5113000000000,"state":"active","ping":59},{"user_id":490,"name":"Jeff the 19th","steam_id":76561198189315491,"connected_time":1465000000000,"state":"active","ping":81},{"user_id":512,"name":"mingus dingus the powerful fetu","steam_id":76561198115189870,"connected_time":114000000000,"state":"active","ping":88},{"user_id":462,"name":"PinkLemonade","steam_id":76561198799286228,"connected_time":4058000000000,"state":"active","ping":49},{"user_id":499,"name":"Kuwait Grips","steam_id":76561198292689973,"connected_time":895000000000,"state":"active","ping":66},{"user_id":485,"name":"e0e0","steam_id":76561198293839750,"connected_time":1919000000000,"state":"active","ping":52},{"user_id":476,"name":"scarecrow (evil)","steam_id":76561198082979347,"connected_time":3258000000000,"state":"active","ping":60},{"user_id":508,"name":"Uncle Daniel","steam_id":76561198835825073,"connected_time":603000000000,"state":"active","ping":144},{"user_id":472,"name":"Damonj17","steam_id":76561198062964879,"connected_time":3510000000000,"state":"active","ping":60},{"user_id":452,"name":"muzikelretifhbr","steam_id":76561198445169719,"connected_time":4780000000000,"state":"active","ping":140},{"user_id":459,"name":"sam","steam_id":76561198217362968,"connected_time":4133000000000,"state":"active","ping":68}]},{"server_id":14,"name":"Uncletopia | New York City | 2 | All Maps","name_short":"nyc-2","host":"nyc-1.us.uncletopia.com","port":27025,"enabled":true,"region":"us-east","cc":"us","latitude":40.73061,"longitude":-73.93524,"reserved":0,"last_update":"0001-01-01T00:00:00Z","name_a2s":"Uncletopia | New York City | 2 | All Maps","protocol":17,"map":"pl_upward","folder":"tf","game":"Team Fortress","app_id":440,"player_count":24,"max_players":24,"Bots":0,"server_type":"Dedicated","server_os":"Linux","password":true,"vac":true,"version":"7882260","steam_id":85568392924469994,"keywords":["nocrits","nodmgspread","payload","uncletopia"],"game_id":440,"stv_port":27026,"stv_name":"Uncletopia | New York City | 2 | All Maps | STV","players":[{"user_id":274,"name":"SNOW SNOWER","steam_id":76561198014919412,"connected_time":4284000000000,"state":"active","ping":64},{"user_id":296,"name":"Treeckogeek","steam_id":76561198453328078,"connected_time":1664000000000,"state":"active","ping":75},{"user_id":222,"name":"Sableye","steam_id":76561198061247147,"connected_time":7466000000000,"state":"active","ping":75},{"user_id":317,"name":"N U T T","steam_id":76561198139661511,"connected_time":159000000000,"state":"active","ping":89},{"user_id":293,"name":"AceDeuce","steam_id":76561198049904924,"connected_time":2160000000000,"state":"active","ping":58},{"user_id":301,"name":"Lore","steam_id":76561198098407538,"connected_time":934000000000,"state":"active","ping":60},{"user_id":291,"name":"K.O.","steam_id":76561198114985074,"connected_time":2374000000000,"state":"active","ping":74},{"user_id":228,"name":"moe","steam_id":76561198929586245,"connected_time":7173000000000,"state":"active","ping":111},{"user_id":285,"name":"JollyVG","steam_id":76561198044919633,"connected_time":2822000000000,"state":"active","ping":61},{"user_id":302,"name":"STAR!","steam_id":76561198271612664,"connected_time":927000000000,"state":"active","ping":104},{"user_id":288,"name":"FUSION","steam_id":76561197972659738,"connected_time":2414000000000,"state":"active","ping":31},{"user_id":318,"name":"TheLlamaKang","steam_id":76561198125828837,"connected_time":89000000000,"state":"active","ping":76},{"user_id":319,"name":"Lemony Lilly (She/Her)","steam_id":76561198042479066,"connected_time":84000000000,"state":"active","ping":86},{"user_id":303,"name":"(Œª) Kmart Howitzer","steam_id":76561197982142933,"connected_time":926000000000,"state":"active","ping":72},{"user_id":310,"name":"minecraft","steam_id":76561198104345201,"connected_time":411000000000,"state":"active","ping":83},{"user_id":320,"name":"Gamba","steam_id":76561198069264650,"connected_time":42000000000,"state":"active","ping":78},{"user_id":316,"name":"TheMakoshark","steam_id":76561198332393945,"connected_time":247000000000,"state":"active","ping":45},{"user_id":294,"name":"Scatter (She/Her)","steam_id":76561198405168492,"connected_time":1784000000000,"state":"active","ping":79},{"user_id":312,"name":"starvin like marvin","steam_id":76561198347286009,"connected_time":390000000000,"state":"active","ping":66},{"user_id":272,"name":"Leo","steam_id":76561198088304064,"connected_time":4421000000000,"state":"active","ping":60},{"user_id":306,"name":"Trash Rummager","steam_id":76561198085388962,"connected_time":895000000000,"state":"active","ping":60},{"user_id":279,"name":"Barlon","steam_id":76561198023717515,"connected_time":3317000000000,"state":"active","ping":62},{"user_id":315,"name":"Fatal Top Deficiency","steam_id":76561198141738612,"connected_time":320000000000,"state":"active","ping":91}]},{"server_id":15,"name":"Uncletopia | New York City | 3 | Stopwatch Beta","name_short":"nyc-3","host":"nyc-1.us.uncletopia.com","port":27035,"enabled":true,"region":"us-east","cc":"us","latitude":40.73061,"longitude":-73.93524,"reserved":0,"last_update":"0001-01-01T00:00:00Z","name_a2s":"Uncletopia | New York City | 3 | Stopwatch Beta","protocol":17,"map":"pl_borneo","folder":"tf","game":"Team Fortress","app_id":440,"player_count":0,"max_players":24,"Bots":0,"server_type":"Dedicated","server_os":"Linux","password":true,"vac":true,"version":"7882260","steam_id":85568392924742820,"keywords":["nocrits","nodmgspread","payload","uncletopia"],"game_id":440,"stv_port":27036,"stv_name":"Uncletopia | New York City | 3 | Stopwatch Beta | STV","players":null},{"server_id":16,"name":"Uncletopia | New York City | 4 | Community","name_short":"nyc-4","host":"nyc-1.us.uncletopia.com","port":27045,"enabled":true,"region":"us-east","cc":"us","latitude":40.73061,"longitude":-73.93524,"reserved":0,"last_update":"0001-01-01T00:00:00Z","name_a2s":"Uncletopia | New York City | 4 | Community","protocol":17,"map":"workshop/cp_kalinka_rc6a.ugc1272700588","folder":"tf","game":"Team Fortress","app_id":440,"player_count":24,"max_players":24,"Bots":0,"server_type":"Dedicated","server_os":"Linux","password":true,"vac":true,"version":"7882260","steam_id":85568392924742821,"keywords":["cp","nocrits","nodmgspread","uncletopia"],"game_id":440,"stv_port":27046,"stv_name":"Uncletopia | New York City | 4 | Community | STV","players":[{"user_id":3967,"name":"RectalExam","steam_id":76561197970502312,"connected_time":815000000000,"state":"active","ping":97},{"user_id":3971,"name":"fallin","steam_id":76561198205386960,"connected_time":651000000000,"state":"active","ping":61},{"user_id":3968,"name":"cass","steam_id":76561198074502046,"connected_time":813000000000,"state":"active","ping":86},{"user_id":3969,"name":"john zap","steam_id":76561199029030831,"connected_time":808000000000,"state":"active","ping":63},{"user_id":3972,"name":"JohnnyGitGud","steam_id":76561198401455467,"connected_time":502000000000,"state":"active","ping":127},{"user_id":3958,"name":"Glock in my Toyota","steam_id":76561198194368629,"connected_time":1549000000000,"state":"active","ping":79},{"user_id":3945,"name":"Benanator876","steam_id":76561198275774100,"connected_time":1853000000000,"state":"active","ping":60},{"user_id":3975,"name":"Coffee","steam_id":76561198110835685,"connected_time":283000000000,"state":"active","ping":35},{"user_id":3934,"name":"Goofy Goober","steam_id":76561198065361279,"connected_time":2437000000000,"state":"active","ping":100},{"user_id":3977,"name":"Musica Universalis","steam_id":76561198184794174,"connected_time":210000000000,"state":"active","ping":71},{"user_id":3973,"name":"Bugc97","steam_id":76561198007662645,"connected_time":455000000000,"state":"active","ping":98},{"user_id":3937,"name":"Fox","steam_id":76561198210894876,"connected_time":2139000000000,"state":"active","ping":90},{"user_id":3940,"name":"Cliff Burton","steam_id":76561198116832190,"connected_time":2091000000000,"state":"active","ping":68},{"user_id":3939,"name":"Orn Free taa","steam_id":76561198128077944,"connected_time":2134000000000,"state":"active","ping":84},{"user_id":3946,"name":"Unfeatured","steam_id":76561198140949320,"connected_time":1831000000000,"state":"active","ping":53},{"user_id":3942,"name":"|AG| Level","steam_id":76561198063633592,"connected_time":2019000000000,"state":"active","ping":86},{"user_id":3943,"name":"Spectrilis","steam_id":76561198816047324,"connected_time":2017000000000,"state":"active","ping":77},{"user_id":3944,"name":"jfcc","steam_id":76561198043195127,"connected_time":2006000000000,"state":"active","ping":83},{"user_id":3974,"name":"Furarc","steam_id":76561198078781020,"connected_time":433000000000,"state":"active","ping":46},{"user_id":3966,"name":"artichoke","steam_id":76561198980994364,"connected_time":851000000000,"state":"active","ping":89},{"user_id":3949,"name":"Notation","steam_id":76561198119509319,"connected_time":1795000000000,"state":"active","ping":71},{"user_id":3962,"name":"AverageFan","steam_id":76561199059404278,"connected_time":1077000000000,"state":"active","ping":111},{"user_id":3963,"name":"Gr8M8","steam_id":76561198452729377,"connected_time":1050000000000,"state":"active","ping":86},{"user_id":3978,"name":"Nimdok","steam_id":76561198052213644,"connected_time":105000000000,"state":"active","ping":62}]},{"server_id":142,"name":"Uncletopia | S√£o Paulo | 1 | All Maps","name_short":"sao-1","host":"sao-1.br.uncletopia.com","port":27015,"enabled":true,"region":"sa","cc":"br","latitude":-23.533773,"longitude":-46.62529,"reserved":0,"last_update":"0001-01-01T00:00:00Z","name_a2s":"Uncletopia | S√£o Paulo | 1 | All Maps","protocol":17,"map":"pl_upward","folder":"tf","game":"Team Fortress","app_id":440,"player_count":0,"max_players":24,"Bots":0,"server_type":"Dedicated","server_os":"Linux","password":true,"vac":true,"version":"7882260","steam_id":85568392924469996,"keywords":["nocrits","nodmgspread","payload","uncletopia"],"game_id":440,"stv_port":27016,"stv_name":"Uncletopia | S√£o Paulo | 1 | All Maps | STV","players":null},{"server_id":143,"name":"Uncletopia | S√£o Paulo | 2 | All Maps","name_short":"sao-2","host":"sao-2.br.uncletopia.com","port":27015,"enabled":true,"region":"sa","cc":"br","latitude":-23.533773,"longitude":-46.62529,"reserved":0,"last_update":"0001-01-01T00:00:00Z","name_a2s":"Uncletopia | S√£o Paulo | 2 | All Maps","protocol":17,"map":"cp_altitude","folder":"tf","game":"Team Fortress","app_id":440,"player_count":0,"max_players":24,"Bots":0,"server_type":"Dedicated","server_os":"Linux","password":true,"vac":true,"version":"7882260","steam_id":85568392924485349,"keywords":["cp","nocrits","nodmgspread","uncletopia"],"game_id":440,"stv_port":27016,"stv_name":"Uncletopia | S√£o Paulo | 2 | All Maps | STV","players":null},{"server_id":7,"name":"Uncletopia | Seattle | 1 | All Maps","name_short":"sea-1","host":"sea-1.us.uncletopia.com","port":27015,"enabled":true,"region":"us-west","cc":"us","latitude":47.608013,"longitude":-122.33517,"reserved":0,"last_update":"0001-01-01T00:00:00Z","name_a2s":"Uncletopia | Seattle | 1 | All Maps","protocol":17,"map":"pl_frontier_final","folder":"tf","game":"Team Fortress","app_id":440,"player_count":24,"max_players":24,"Bots":0,"server_type":"Dedicated","server_os":"Linux","password":true,"vac":true,"version":"7882260","steam_id":85568392924469997,"keywords":["nocrits","nodmgspread","payload","uncletopia"],"game_id":440,"stv_port":27016,"stv_name":"Uncletopia | Seattle | 1 | All Maps | STV","players":[{"user_id":483,"name":"doopsies","steam_id":76561198083000867,"connected_time":1201000000000,"state":"active","ping":45},{"user_id":450,"name":"A UsedNom","steam_id":76561198402832756,"connected_time":4585000000000,"state":"active","ping":70},{"user_id":471,"name":"Mr. Ravioli","steam_id":76561197996625649,"connected_time":2825000000000,"state":"active","ping":59},{"user_id":477,"name":"gorlab","steam_id":76561198025089694,"connected_time":1857000000000,"state":"active","ping":61},{"user_id":475,"name":"Astronat","steam_id":76561198096321896,"connected_time":1868000000000,"state":"active","ping":66},{"user_id":486,"name":"Lolz the Unicorn","steam_id":76561199019142767,"connected_time":1189000000000,"state":"active","ping":59},{"user_id":488,"name":"Greskrendtregk","steam_id":76561197969553142,"connected_time":1153000000000,"state":"active","ping":51},{"user_id":402,"name":"how do i control my guy?","steam_id":76561198158855211,"connected_time":7335000000000,"state":"active","ping":45},{"user_id":485,"name":"Tunnelsnakessss","steam_id":76561198962137790,"connected_time":1193000000000,"state":"active","ping":92},{"user_id":468,"name":"dirty30","steam_id":76561198021226566,"connected_time":3031000000000,"state":"active","ping":52},{"user_id":497,"name":"R5-D4","steam_id":76561198025196439,"connected_time":374000000000,"state":"active","ping":58},{"user_id":490,"name":"a problem","steam_id":76561198104086771,"connected_time":1139000000000,"state":"active","ping":75},{"user_id":481,"name":"cobala nomala dd24","steam_id":76561198213385439,"connected_time":1329000000000,"state":"active","ping":74},{"user_id":493,"name":"Keamy","steam_id":76561199471434875,"connected_time":677000000000,"state":"active","ping":44},{"user_id":466,"name":"Username","steam_id":76561198855586261,"connected_time":3136000000000,"state":"active","ping":72},{"user_id":461,"name":"Robuttnik","steam_id":76561198985726752,"connected_time":3644000000000,"state":"active","ping":86},{"user_id":491,"name":"Lumen","steam_id":76561198072783266,"connected_time":1130000000000,"state":"active","ping":85},{"user_id":498,"name":"soup","steam_id":76561198043209046,"connected_time":254000000000,"state":"active","ping":75},{"user_id":495,"name":"Callahan","steam_id":76561197976928457,"connected_time":383000000000,"state":"active","ping":51},{"user_id":500,"name":"Electric 5$ GiftCard","steam_id":76561199252528662,"connected_time":36000000000,"state":"active","ping":75},{"user_id":501,"name":"JellyParrot","steam_id":76561199190990163,"connected_time":36000000000,"state":"active","ping":121},{"user_id":473,"name":"AspenIsPoplar","steam_id":76561198346382060,"connected_time":2670000000000,"state":"active","ping":69},{"user_id":476,"name":"banana slamma","steam_id":76561198848119263,"connected_time":1867000000000,"state":"active","ping":49},{"user_id":480,"name":"Putin","steam_id":76561198973925241,"connected_time":1372000000000,"state":"active","ping":62}]},{"server_id":119,"name":"Uncletopia | Seattle | 2 | All Maps","name_short":"sea-2","host":"sea-1.us.uncletopia.com","port":27025,"enabled":true,"region":"us-west","cc":"us","latitude":47.608013,"longitude":-122.33517,"reserved":0,"last_update":"0001-01-01T00:00:00Z","name_a2s":"Uncletopia | Seattle | 2 | All Maps","protocol":17,"map":"pl_snowycoast","folder":"tf","game":"Team Fortress","app_id":440,"player_count":24,"max_players":24,"Bots":0,"server_type":"Dedicated","server_os":"Linux","password":true,"vac":true,"version":"7882260","steam_id":85568392924469998,"keywords":["nocrits","nodmgspread","payload","uncletopia"],"game_id":440,"stv_port":27026,"stv_name":"Uncletopia | Seattle | 2 | All Maps | STV","players":[{"user_id":467,"name":"HORNY","steam_id":76561198041323939,"connected_time":1609000000000,"state":"active","ping":81},{"user_id":474,"name":"Capitalism","steam_id":76561198068677316,"connected_time":1151000000000,"state":"active","ping":55},{"user_id":426,"name":"Dankeyking2244","steam_id":76561199150457978,"connected_time":4006000000000,"state":"active","ping":75},{"user_id":471,"name":"stubby_cat","steam_id":76561199049115379,"connected_time":1325000000000,"state":"active","ping":127},{"user_id":451,"name":"Ferret","steam_id":76561198060416458,"connected_time":2821000000000,"state":"active","ping":121},{"user_id":470,"name":"H-keyLF","steam_id":76561198376014891,"connected_time":1334000000000,"state":"active","ping":69},{"user_id":428,"name":"X-800","steam_id":76561199077437718,"connected_time":3994000000000,"state":"active","ping":94},{"user_id":456,"name":"GrumpyGrampaKoala","steam_id":76561198020441036,"connected_time":2429000000000,"state":"active","ping":46},{"user_id":484,"name":"Mapachito Lindo","steam_id":76561198031359995,"connected_time":402000000000,"state":"active","ping":44},{"user_id":475,"name":"Deathkillsme","steam_id":76561198059468746,"connected_time":967000000000,"state":"active","ping":47},{"user_id":418,"name":"aspiceeone","steam_id":76561198335426817,"connected_time":4265000000000,"state":"active","ping":103},{"user_id":473,"name":"Red Orbama","steam_id":76561198047002366,"connected_time":1271000000000,"state":"active","ping":47},{"user_id":468,"name":"mocha","steam_id":76561199100342013,"connected_time":1363000000000,"state":"active","ping":75},{"user_id":455,"name":"Cinnifox","steam_id":76561198068773971,"connected_time":2465000000000,"state":"active","ping":69},{"user_id":443,"name":"oh god i'm gonna CHUM","steam_id":76561198019210187,"connected_time":3247000000000,"state":"active","ping":105},{"user_id":481,"name":"porfer","steam_id":76561199118049168,"connected_time":555000000000,"state":"active","ping":76},{"user_id":448,"name":"nav","steam_id":76561198872608266,"connected_time":2960000000000,"state":"active","ping":128},{"user_id":457,"name":"The King of Piss World","steam_id":76561198082806956,"connected_time":2334000000000,"state":"active","ping":128},{"user_id":130,"name":"VerminKing","steam_id":76561198060887391,"connected_time":22712000000000,"state":"active","ping":54},{"user_id":464,"name":"hosewater","steam_id":76561198023383126,"connected_time":1792000000000,"state":"active","ping":54},{"user_id":466,"name":"demomanfan2008","steam_id":76561198077030486,"connected_time":1700000000000,"state":"active","ping":77},{"user_id":483,"name":"Dog Deodorant","steam_id":76561199225832228,"connected_time":440000000000,"state":"active","ping":71},{"user_id":479,"name":"BertWert","steam_id":76561198308277681,"connected_time":670000000000,"state":"active","ping":93},{"user_id":488,"name":"Re-Crix","steam_id":76561198351895601,"connected_time":67000000000,"state":"spawning","ping":83}]},{"server_id":406,"name":"Uncletopia | Seattle | 3 | Stopwatch Beta","name_short":"sea-3","host":"sea-1.us.uncletopia.com","port":27035,"enabled":true,"region":"us-west","cc":"us","latitude":47.608013,"longitude":-122.33517,"reserved":0,"last_update":"0001-01-01T00:00:00Z","name_a2s":"Uncletopia | Seattle | 3 | Stopwatch Beta","protocol":17,"map":"cp_metalworks","folder":"tf","game":"Team Fortress","app_id":440,"player_count":24,"max_players":24,"Bots":0,"server_type":"Dedicated","server_os":"Linux","password":true,"vac":true,"version":"7882260","steam_id":85568392924515217,"keywords":["cp","nocrits","nodmgspread","uncletopia"],"game_id":440,"stv_port":27036,"stv_name":"Uncletopia | Seattle | 3 | Stopwatch Beta | STV","players":[{"user_id":254,"name":"The Goofball","steam_id":76561199022127314,"connected_time":398000000000,"state":"active","ping":136},{"user_id":241,"name":"Captain Hotdog","steam_id":76561198059812666,"connected_time":997000000000,"state":"active","ping":78},{"user_id":242,"name":"Power Jake","steam_id":76561198051510260,"connected_time":979000000000,"state":"active","ping":60},{"user_id":182,"name":"brae","steam_id":76561198047126327,"connected_time":4891000000000,"state":"active","ping":75},{"user_id":244,"name":"John","steam_id":76561198138105188,"connected_time":680000000000,"state":"active","ping":82},{"user_id":206,"name":"Puskinti","steam_id":76561198032120688,"connected_time":3211000000000,"state":"active","ping":66},{"user_id":258,"name":"BANGARANG","steam_id":76561198816597453,"connected_time":158000000000,"state":"active","ping":97},{"user_id":223,"name":"Scrux","steam_id":76561198129763115,"connected_time":2111000000000,"state":"active","ping":85},{"user_id":245,"name":"Noxitril_Enjoyer","steam_id":76561198870649125,"connected_time":664000000000,"state":"active","ping":73},{"user_id":195,"name":"daslukas23","steam_id":76561199229528500,"connected_time":3994000000000,"state":"active","ping":92},{"user_id":222,"name":"mafia is mafia","steam_id":76561198042574722,"connected_time":2461000000000,"state":"active","ping":48},{"user_id":246,"name":"autumnal.messenger","steam_id":76561199345816635,"connected_time":659000000000,"state":"active","ping":52},{"user_id":221,"name":"John Smith","steam_id":76561198185776555,"connected_time":2479000000000,"state":"active","ping":34},{"user_id":201,"name":"neet","steam_id":76561197968115168,"connected_time":3680000000000,"state":"active","ping":107},{"user_id":247,"name":"oil","steam_id":76561198099980149,"connected_time":647000000000,"state":"active","ping":82},{"user_id":257,"name":"Prof. Abedul","steam_id":76561198146171581,"connected_time":227000000000,"state":"active","ping":135},{"user_id":248,"name":"Pipirohnni pitzza","steam_id":76561198414300607,"connected_time":645000000000,"state":"active","ping":88},{"user_id":249,"name":"wget","steam_id":76561198971705338,"connected_time":645000000000,"state":"active","ping":180},{"user_id":237,"name":"Heinz-Harald Hopeless","steam_id":76561199002203593,"connected_time":1295000000000,"state":"active","ping":97},{"user_id":250,"name":"BargainBhin","steam_id":76561198028519689,"connected_time":614000000000,"state":"active","ping":80},{"user_id":256,"name":"ColSnugglebugs","steam_id":76561197997121141,"connected_time":265000000000,"state":"active","ping":66},{"user_id":168,"name":"ExpDelta","steam_id":76561199126443129,"connected_time":5515000000000,"state":"active","ping":58},{"user_id":190,"name":"Woomy Just A Furry :3","steam_id":76561199199877614,"connected_time":4266000000000,"state":"active","ping":77},{"user_id":252,"name":"Blitz","steam_id":76561198138737168,"connected_time":611000000000,"state":"active","ping":59}]},{"server_id":17,"name":"Uncletopia | San Francisco | 1 | All Maps","name_short":"sfo-1","host":"sfo-1.us.uncletopia.com","port":27015,"enabled":true,"region":"us-west","cc":"us","latitude":37.77397,"longitude":-122.4313,"reserved":0,"last_update":"0001-01-01T00:00:00Z","name_a2s":"Uncletopia | San Francisco | 1 | All Maps","protocol":17,"map":"cp_process_final","folder":"tf","game":"Team Fortress","app_id":440,"player_count":0,"max_players":24,"Bots":0,"server_type":"Dedicated","server_os":"Linux","password":true,"vac":true,"version":"7757534","steam_id":85568392924469999,"keywords":["cp","nocrits","nodmgspread","uncletopia"],"game_id":440,"stv_port":27016,"stv_name":"Uncletopia | San Francisco | 1 | All Maps | STV","players":null},{"server_id":18,"name":"Uncletopia | San Francisco | 2 | All Maps","name_short":"sfo-2","host":"sfo-1.us.uncletopia.com","port":27025,"enabled":true,"region":"us-west","cc":"us","latitude":37.77397,"longitude":-122.4313,"reserved":0,"last_update":"0001-01-01T00:00:00Z","name_a2s":"Uncletopia | San Francisco | 2 | All Maps","protocol":17,"map":"koth_highpass","folder":"tf","game":"Team Fortress","app_id":440,"player_count":0,"max_players":24,"Bots":0,"server_type":"Dedicated","server_os":"Linux","password":true,"vac":true,"version":"7757534","steam_id":85568392924470000,"keywords":["cp","nocrits","nodmgspread","uncletopia"],"game_id":440,"stv_port":27026,"stv_name":"Uncletopia | San Francisco | 2 | All Maps | STV","players":null},{"server_id":19,"name":"Uncletopia | San Francisco | 3 | Stopwatch Beta","name_short":"sfo-3","host":"sfo-1.us.uncletopia.com","port":27035,"enabled":true,"region":"us-west","cc":"us","latitude":37.77397,"longitude":-122.4313,"reserved":0,"last_update":"0001-01-01T00:00:00Z","name_a2s":"Uncletopia | San Francisco | 3 | Stopwatch Beta","protocol":17,"map":"koth_lakeside_final","folder":"tf","game":"Team Fortress","app_id":440,"player_count":0,"max_players":24,"Bots":0,"server_type":"Dedicated","server_os":"Linux","password":true,"vac":true,"version":"7757534","steam_id":85568392924742824,"keywords":["cp","nocrits","nodmgspread","uncletopia"],"game_id":440,"stv_port":27036,"stv_name":"Uncletopia | San Francisco | 3 | Stopwatch Beta | STV","players":null},{"server_id":20,"name":"Uncletopia | San Francisco | 4 | Community","name_short":"sfo-4","host":"sfo-1.us.uncletopia.com","port":27045,"enabled":true,"region":"us-west","cc":"us","latitude":37.77397,"longitude":-122.4313,"reserved":0,"last_update":"0001-01-01T00:00:00Z","name_a2s":"Uncletopia | San Francisco | 4 | Community","protocol":17,"map":"cp_altitude","folder":"tf","game":"Team Fortress","app_id":440,"player_count":0,"max_players":24,"Bots":0,"server_type":"Dedicated","server_os":"Linux","password":true,"vac":true,"version":"7757534","steam_id":85568392924742826,"keywords":["cp","nocrits","nodmgspread","uncletopia"],"game_id":440,"stv_port":27046,"stv_name":"Uncletopia | San Francisco | 4 | Community | STV","players":null},{"server_id":141,"name":"Uncletopia | Sydney | 1 | All Maps","name_short":"syd-1","host":"syd-1.au.uncletopia.com","port":27015,"enabled":true,"region":"au","cc":"au","latitude":-33.865143,"longitude":151.2099,"reserved":0,"last_update":"0001-01-01T00:00:00Z","name_a2s":"Uncletopia | Sydney | 1 | All Maps","protocol":17,"map":"pl_upward","folder":"tf","game":"Team Fortress","app_id":440,"player_count":22,"max_players":24,"Bots":0,"server_type":"Dedicated","server_os":"Linux","password":true,"vac":true,"version":"7882260","steam_id":85568392924470001,"keywords":["nocrits","nodmgspread","payload","uncletopia"],"game_id":440,"stv_port":27016,"stv_name":"Uncletopia | Sydney | 1 | All Maps | STV","players":[{"user_id":81,"name":"Luscious_Lucifer","steam_id":76561198064993980,"connected_time":1827000000000,"state":"active","ping":111},{"user_id":97,"name":"Sentry Gun (EpicGuy4227)","steam_id":76561198094132328,"connected_time":511000000000,"state":"active","ping":49},{"user_id":76,"name":"[FTW] RonnieD'","steam_id":76561197993957267,"connected_time":2296000000000,"state":"active","ping":56},{"user_id":40,"name":"beamerfork","steam_id":76561199013115354,"connected_time":4000000000000,"state":"active","ping":80},{"user_id":94,"name":"Creamy Gusset","steam_id":76561198001544539,"connected_time":955000000000,"state":"active","ping":59},{"user_id":67,"name":"Tiggerex","steam_id":76561198049006869,"connected_time":2690000000000,"state":"active","ping":102},{"user_id":103,"name":"tetrx","steam_id":76561197996427098,"connected_time":293000000000,"state":"active","ping":89},{"user_id":42,"name":"Muffin","steam_id":76561198075391119,"connected_time":3869000000000,"state":"active","ping":51},{"user_id":54,"name":"Gnat","steam_id":76561198109747863,"connected_time":3004000000000,"state":"active","ping":96},{"user_id":55,"name":"leptonlord","steam_id":76561198970783919,"connected_time":2993000000000,"state":"active","ping":86},{"user_id":106,"name":"ALCHE","steam_id":76561198815730749,"connected_time":105000000000,"state":"active","ping":54},{"user_id":77,"name":"OofImDuck","steam_id":76561198806600517,"connected_time":2291000000000,"state":"active","ping":66},{"user_id":92,"name":"Marvin","steam_id":76561198202181742,"connected_time":1065000000000,"state":"active","ping":44},{"user_id":79,"name":"hobo","steam_id":76561199046481213,"connected_time":2132000000000,"state":"active","ping":72},{"user_id":49,"name":"YeahJJ","steam_id":76561198838332365,"connected_time":3575000000000,"state":"active","ping":62},{"user_id":86,"name":"Elbox","steam_id":76561198277799857,"connected_time":1559000000000,"state":"active","ping":57},{"user_id":61,"name":"miyamoto is daddy","steam_id":76561199483818230,"connected_time":2854000000000,"state":"active","ping":79},{"user_id":107,"name":"Gohanball","steam_id":76561198194215882,"connected_time":31000000000,"state":"active","ping":87},{"user_id":68,"name":"Gamma","steam_id":76561198281131757,"connected_time":2684000000000,"state":"active","ping":80},{"user_id":95,"name":"G_XIII","steam_id":76561199177841277,"connected_time":666000000000,"state":"active","ping":174},{"user_id":105,"name":"Anthony Norman Albanese","steam_id":76561198137929060,"connected_time":274000000000,"state":"active","ping":44},{"user_id":85,"name":"AbruptPuppet","steam_id":76561198241538390,"connected_time":1652000000000,"state":"active","ping":67}]},{"server_id":123,"name":"Uncletopia | Sydney | 2 | All Maps","name_short":"syd-2","host":"syd-1.au.uncletopia.com","port":27025,"enabled":true,"region":"au","cc":"au","latitude":-33.865143,"longitude":151.2099,"reserved":0,"last_update":"0001-01-01T00:00:00Z","name_a2s":"Uncletopia | Sydney | 2 | All Maps","protocol":17,"map":"pl_swiftwater_final1","folder":"tf","game":"Team Fortress","app_id":440,"player_count":0,"max_players":24,"Bots":0,"server_type":"Dedicated","server_os":"Linux","password":true,"vac":true,"version":"7882260","steam_id":85568392924470002,"keywords":["nocrits","nodmgspread","payload","uncletopia"],"game_id":440,"stv_port":27026,"stv_name":"Uncletopia | Sydney | 2 | All Maps | STV","players":null},{"server_id":395,"name":"Uncletopia | Sydney | 3 | All Maps","name_short":"syd-3","host":"syd-1.au.uncletopia.com","port":27035,"enabled":true,"region":"au","cc":"au","latitude":-33.865143,"longitude":151.2099,"reserved":0,"last_update":"0001-01-01T00:00:00Z","name_a2s":"Uncletopia | Sydney | 3 | All Maps","protocol":17,"map":"pl_upward","folder":"tf","game":"Team Fortress","app_id":440,"player_count":0,"max_players":24,"Bots":0,"server_type":"Dedicated","server_os":"Linux","password":true,"vac":true,"version":"7882260","steam_id":85568392925194467,"keywords":["nocrits","nodmgspread","payload","uncletopia"],"game_id":440,"stv_port":27036,"stv_name":"Uncletopia | Sydney | 3 | All Maps | STV","players":null},{"server_id":396,"name":"Uncletopia | Sydney | 4 | All Maps","name_short":"syd-4","host":"syd-1.au.uncletopia.com","port":27045,"enabled":true,"region":"au","cc":"au","latitude":-33.865143,"longitude":151.2099,"reserved":0,"last_update":"0001-01-01T00:00:00Z","name_a2s":"Uncletopia | Sydney | 4 | All Maps","protocol":17,"map":"pl_frontier_final","folder":"tf","game":"Team Fortress","app_id":440,"player_count":0,"max_players":24,"Bots":0,"server_type":"Dedicated","server_os":"Linux","password":true,"vac":true,"version":"7882260","steam_id":85568392925397958,"keywords":["nocrits","nodmgspread","payload","uncletopia"],"game_id":440,"stv_port":27046,"stv_name":"Uncletopia | Sydney | 4 | All Maps | STV","players":null},{"server_id":58,"name":"Uncletopia | Sydney | 5 | Stopwatch Beta","name_short":"syd-5","host":"syd-1.au.uncletopia.com","port":27055,"enabled":true,"region":"au","cc":"au","latitude":-33.865143,"longitude":151.2099,"reserved":0,"last_update":"0001-01-01T00:00:00Z","name_a2s":"Uncletopia | Sydney | 5 | Stopwatch Beta","protocol":17,"map":"pl_swiftwater_final1","folder":"tf","game":"Team Fortress","app_id":440,"player_count":0,"max_players":24,"Bots":0,"server_type":"Dedicated","server_os":"Linux","password":true,"vac":true,"version":"7882260","steam_id":85568392925397959,"keywords":["nocrits","nodmgspread","payload","uncletopia"],"game_id":440,"stv_port":27056,"stv_name":"Uncletopia | Sydney | 5 | Stopwatch Beta | STV","players":null},{"server_id":59,"name":"Uncletopia | Sydney | 6 | Community","name_short":"syd-6","host":"syd-1.au.uncletopia.com","port":27065,"enabled":true,"region":"au","cc":"au","latitude":-33.865143,"longitude":151.2099,"reserved":0,"last_update":"0001-01-01T00:00:00Z","name_a2s":"Uncletopia | Sydney | 6 | Community","protocol":17,"map":"pl_snowycoast","folder":"tf","game":"Team Fortress","app_id":440,"player_count":0,"max_players":24,"Bots":0,"server_type":"Dedicated","server_os":"Linux","password":true,"vac":true,"version":"7882260","steam_id":85568392925397960,"keywords":["nocrits","nodmgspread","payload","uncletopia"],"game_id":440,"stv_port":27066,"stv_name":"Uncletopia | Sydney | 6 | Community | STV","players":null},{"server_id":49,"name":"Uncletopia | Warsaw | 1 | All Maps","name_short":"waw-1","host":"waw-1.pl.uncletopia.com","port":27015,"enabled":true,"region":"eu","cc":"pl","latitude":52.2297,"longitude":21.017532,"reserved":0,"last_update":"0001-01-01T00:00:00Z","name_a2s":"","protocol":0,"map":"","folder":"","game":"","app_id":0,"player_count":0,"max_players":0,"Bots":0,"server_type":"","server_os":"","password":false,"vac":false,"version":"","steam_id":0,"keywords":null,"game_id":0,"stv_port":0,"stv_name":"","players":null},{"server_id":50,"name":"Uncletopia | Warsaw | 2 | All Maps","name_short":"waw-2","host":"waw-1.pl.uncletopia.com","port":27025,"enabled":true,"region":"eu","cc":"pl","latitude":52.2297,"longitude":21.017532,"reserved":0,"last_update":"0001-01-01T00:00:00Z","name_a2s":"Uncletopia | Warsaw | 2 | All Maps","protocol":17,"map":"koth_highpass","folder":"tf","game":"Team Fortress","app_id":440,"player_count":0,"max_players":24,"Bots":0,"server_type":"Dedicated","server_os":"Linux","password":true,"vac":true,"version":"7882260","steam_id":85568392925397851,"keywords":["cp","nocrits","nodmgspread","uncletopia"],"game_id":440,"stv_port":27026,"stv_name":"Uncletopia | Warsaw | 2 | All Maps | STV","players":null},{"server_id":51,"name":"Uncletopia | Warsaw | 3 | All Maps","name_short":"waw-3","host":"waw-1.pl.uncletopia.com","port":27035,"enabled":true,"region":"eu","cc":"pl","latitude":52.2297,"longitude":21.017532,"reserved":0,"last_update":"0001-01-01T00:00:00Z","name_a2s":"Uncletopia | Warsaw | 3 | All Maps","protocol":17,"map":"koth_viaduct","folder":"tf","game":"Team Fortress","app_id":440,"player_count":0,"max_players":24,"Bots":0,"server_type":"Dedicated","server_os":"Linux","password":true,"vac":true,"version":"7882260","steam_id":85568392925397852,"keywords":["cp","nocrits","nodmgspread","uncletopia"],"game_id":440,"stv_port":27036,"stv_name":"Uncletopia | Warsaw | 3 | All Maps | STV","players":null},{"server_id":52,"name":"Uncletopia | Warsaw | 4 | All Maps","name_short":"waw-4","host":"waw-1.pl.uncletopia.com","port":27045,"enabled":true,"region":"eu","cc":"pl","latitude":52.2297,"longitude":21.017532,"reserved":0,"last_update":"0001-01-01T00:00:00Z","name_a2s":"Uncletopia | Warsaw | 4 | All Maps","protocol":17,"map":"koth_highpass","folder":"tf","game":"Team Fortress","app_id":440,"player_count":0,"max_players":24,"Bots":0,"server_type":"Dedicated","server_os":"Linux","password":true,"vac":true,"version":"7882260","steam_id":85568392925397853,"keywords":["cp","nocrits","nodmgspread","uncletopia"],"game_id":440,"stv_port":27046,"stv_name":"Uncletopia | Warsaw | 4 | All Maps | STV","players":null},{"server_id":53,"name":"Uncletopia | Warsaw | 5 | Stopwatch Beta","name_short":"waw-5","host":"waw-1.pl.uncletopia.com","port":27055,"enabled":true,"region":"eu","cc":"pl","latitude":52.2297,"longitude":21.017532,"reserved":0,"last_update":"0001-01-01T00:00:00Z","name_a2s":"Uncletopia | Warsaw | 5 | Stopwatch Beta","protocol":17,"map":"pl_upward","folder":"tf","game":"Team Fortress","app_id":440,"player_count":0,"max_players":24,"Bots":0,"server_type":"Dedicated","server_os":"Linux","password":true,"vac":true,"version":"7882260","steam_id":85568392925397854,"keywords":["nocrits","nodmgspread","payload","uncletopia"],"game_id":440,"stv_port":27056,"stv_name":"Uncletopia | Warsaw | 5 | Stopwatch Beta | STV","players":null},{"server_id":54,"name":"Uncletopia | Warsaw | 6 | Community","name_short":"waw-6","host":"waw-1.pl.uncletopia.com","port":27065,"enabled":true,"region":"eu","cc":"pl","latitude":52.2297,"longitude":21.017532,"reserved":0,"last_update":"0001-01-01T00:00:00Z","name_a2s":"Uncletopia | Warsaw | 6 | Community","protocol":17,"map":"workshop/cp_fulgur_rc2a.ugc2068252300","folder":"tf","game":"Team Fortress","app_id":440,"player_count":0,"max_players":24,"Bots":0,"server_type":"Dedicated","server_os":"Linux","password":true,"vac":true,"version":"7882260","steam_id":85568392925397856,"keywords":["cp","nocrits","nodmgspread","uncletopia"],"game_id":440,"stv_port":27066,"stv_name":"Uncletopia | Warsaw | 6 | Community | STV","players":null}]}