{"status":true,"message":"","result":[{"server_id":9,"name":"Uncletopia | Atlanta | 1 | All Maps","name_short":"atl-1","host":"atl-1.us.uncletopia.com","port":27015,"enabled":true,"region":"us-east","cc":"us","latitude":33.753746,"longitude":-84.38633,"reserved":0,"last_update":"0001-01-01T00:00:00Z","name_a2s":"Uncletopia | Atlanta | 1 | All Maps","protocol":17,"map":"pl_frontier_final","folder":"tf","game":"Team Fortress","app_id":440,"player_count":24,"max_players":24,"Bots":0,"server_type":"Dedicated","server_os":"Linux","password":true,"vac":true,"version":"7757534","steam_id":85568392924469982,"keywords":["nocrits","nodmgspread","payload","uncletopia"],"game_id":440,"stv_port":27016,"stv_name":"Uncletopia | Atlanta | 1 | All Maps | STV","players":[{"user_id":414,"name":"Dr.Zarann","steam_id":76561198163952958,"connected_time":2757000000000,"state":"active","ping":61},{"user_id":424,"name":"The_Epic_Conclusion","steam_id":76561198084250179,"connected_time":1402000000000,"state":"active","ping":76},{"user_id":427,"name":"izzydex","steam_id":76561199101531034,"connected_time":798000000000,"state":"active","ping":68},{"user_id":436,"name":"good christian boy","steam_id":76561199125213263,"connected_time":49000000000,"state":"active","ping":52},{"user_id":433,"name":"RyInc","steam_id":76561198874261643,"connected_time":404000000000,"state":"active","ping":60},{"user_id":426,"name":"Scrumpy Main","steam_id":76561198146302597,"connected_time":992000000000,"state":"active","ping":71},{"user_id":416,"name":"Bubu!","steam_id":76561198188722751,"connected_time":2569000000000,"state":"active","ping":104},{"user_id":404,"name":"TheRealMud","steam_id":76561198138312993,"connected_time":3307000000000,"state":"active","ping":85},{"user_id":338,"name":"Onyx","steam_id":76561198275349640,"connected_time":8509000000000,"state":"active","ping":79},{"user_id":405,"name":"eish","steam_id":76561198089463603,"connected_time":3303000000000,"state":"active","ping":116},{"user_id":431,"name":"Kami","steam_id":76561199039249396,"connected_time":412000000000,"state":"active","ping":101},{"user_id":411,"name":"Nox(She/They)","steam_id":76561198141950842,"connected_time":3012000000000,"state":"active","ping":48},{"user_id":432,"name":"backwoods missile","steam_id":76561199100342013,"connected_time":409000000000,"state":"active","ping":106},{"user_id":384,"name":"morphine","steam_id":76561198072124799,"connected_time":4330000000000,"state":"active","ping":97},{"user_id":406,"name":"BurningPride","steam_id":76561198080592800,"connected_time":3286000000000,"state":"active","ping":115},{"user_id":434,"name":"Toonice","steam_id":76561198402994885,"connected_time":397000000000,"state":"active","ping":82},{"user_id":409,"name":"Sophie","steam_id":76561198170408057,"connected_time":3274000000000,"state":"active","ping":57},{"user_id":393,"name":"Brian","steam_id":76561198089908485,"connected_time":3955000000000,"state":"active","ping":60},{"user_id":430,"name":"abomination","steam_id":76561198167974713,"connected_time":655000000000,"state":"active","ping":56},{"user_id":365,"name":"Ghetto Smosh Fan","steam_id":76561198097272509,"connected_time":6037000000000,"state":"active","ping":40},{"user_id":435,"name":"Broken Cereal√","steam_id":76561198087489795,"connected_time":277000000000,"state":"active","ping":65},{"user_id":398,"name":"RelativeTitan1 λC","steam_id":76561198073717608,"connected_time":3914000000000,"state":"active","ping":104},{"user_id":425,"name":"Motreir","steam_id":76561198151717946,"connected_time":1044000000000,"state":"active","ping":81},{"user_id":422,"name":"General Mischief","steam_id":76561198163825955,"connected_time":1620000000000,"state":"active","ping":108}]},{"server_id":104,"name":"Uncletopia | Atlanta | 2 | All Maps","name_short":"atl-2","host":"atl-1.us.uncletopia.com","port":27025,"enabled":true,"region":"us-east","cc":"us","latitude":33.753746,"longitude":-84.38633,"reserved":0,"last_update":"0001-01-01T00:00:00Z","name_a2s":"Uncletopia | Atlanta | 2 | All Maps","protocol":17,"map":"cp_snakewater_final1","folder":"tf","game":"Team Fortress","app_id":440,"player_count":23,"max_players":24,"Bots":0,"server_type":"Dedicated","server_os":"Linux","password":true,"vac":true,"version":"7757534","steam_id":85568392924469983,"keywords":["cp","nocrits","nodmgspread","uncletopia"],"game_id":440,"stv_port":27026,"stv_name":"Uncletopia | Atlanta | 2 | All Maps | STV","players":[{"user_id":295,"name":"Gian","steam_id":76561198041434512,"connected_time":2819000000000,"state":"active","ping":90},{"user_id":58,"name":"Mike Charlie","steam_id":76561199470538309,"connected_time":20956000000000,"state":"active","ping":75},{"user_id":318,"name":"! F i s h !","steam_id":76561198397755357,"connected_time":1164000000000,"state":"active","ping":99},{"user_id":330,"name":"swan","steam_id":76561198012569200,"connected_time":149000000000,"state":"active","ping":74},{"user_id":303,"name":"big pancake","steam_id":76561198068580322,"connected_time":2414000000000,"state":"active","ping":60},{"user_id":308,"name":"how do i girl???","steam_id":76561198050290565,"connected_time":1837000000000,"state":"active","ping":57},{"user_id":327,"name":"crimmson","steam_id":76561198416325300,"connected_time":395000000000,"state":"active","ping":78},{"user_id":310,"name":"Vaah","steam_id":76561197998614380,"connected_time":1568000000000,"state":"active","ping":57},{"user_id":331,"name":"jack〜o〜lantern","steam_id":76561198108685037,"connected_time":7000000000,"state":"active","ping":350},{"user_id":290,"name":"sasharudzik","steam_id":76561199126617781,"connected_time":3244000000000,"state":"active","ping":84},{"user_id":311,"name":"fruitlogic","steam_id":76561198071251588,"connected_time":1561000000000,"state":"active","ping":58},{"user_id":329,"name":"God's Drunkest Driver","steam_id":76561198165175875,"connected_time":232000000000,"state":"active","ping":44},{"user_id":296,"name":"Mr.Oxiclean","steam_id":76561198144729009,"connected_time":2657000000000,"state":"active","ping":52},{"user_id":286,"name":"lemon","steam_id":76561198329179651,"connected_time":3799000000000,"state":"active","ping":90},{"user_id":326,"name":"Weasel Smack","steam_id":76561198023116430,"connected_time":601000000000,"state":"active","ping":86},{"user_id":319,"name":"Emails","steam_id":76561198836919458,"connected_time":1162000000000,"state":"active","ping":66},{"user_id":323,"name":"Mechann","steam_id":76561198136491236,"connected_time":786000000000,"state":"active","ping":84},{"user_id":279,"name":"Yummy Kabobz","steam_id":76561198067661705,"connected_time":4235000000000,"state":"active","ping":53},{"user_id":325,"name":"Nyko","steam_id":76561198143197549,"connected_time":770000000000,"state":"active","ping":81},{"user_id":313,"name":"Mint Jelly","steam_id":76561197991286751,"connected_time":1464000000000,"state":"active","ping":45},{"user_id":320,"name":"Tank_guy1498","steam_id":76561198103210665,"connected_time":1130000000000,"state":"active","ping":64},{"user_id":297,"name":"Kickpuncher","steam_id":76561198121528357,"connected_time":2616000000000,"state":"active","ping":73},{"user_id":262,"name":".-.","steam_id":76561198820617005,"connected_time":6209000000000,"state":"active","ping":87}]},{"server_id":400,"name":"Uncletopia | Atlanta | 3 | Community","name_short":"atl-3","host":"atl-1.us.uncletopia.com","port":27035,"enabled":true,"region":"us-east","cc":"us","latitude":33.753746,"longitude":-84.38633,"reserved":0,"last_update":"0001-01-01T00:00:00Z","name_a2s":"Uncletopia | Atlanta | 3 | Community","protocol":17,"map":"workshop/cp_glassworks_rc6a.ugc454118349","folder":"tf","game":"Team Fortress","app_id":440,"player_count":6,"max_players":24,"Bots":0,"server_type":"Dedicated","server_os":"Linux","password":true,"vac":true,"version":"7757534","steam_id":85568392924515187,"keywords":["cp","nocrits","nodmgspread","uncletopia"],"game_id":440,"stv_port":27036,"stv_name":"Uncletopia | Atlanta | 3 | Community | STV","players":[{"user_id":24,"name":"trajectory collapse beam","steam_id":76561198994634058,"connected_time":547000000000,"state":"active","ping":63},{"user_id":14,"name":"jerry","steam_id":76561198422891994,"connected_time":1985000000000,"state":"active","ping":144},{"user_id":18,"name":"Rin \"Hindwing\" Redtail","steam_id":76561199074865638,"connected_time":1485000000000,"state":"active","ping":56},{"user_id":26,"name":"Hashyterps Visioncs.de","steam_id":76561198110563958,"connected_time":197000000000,"state":"active","ping":87},{"user_id":20,"name":"Zombiehunter11","steam_id":76561198237517830,"connected_time":1445000000000,"state":"active","ping":100},{"user_id":28,"name":"Sludgelord Bahama Mama","steam_id":76561198042906001,"connected_time":118000000000,"state":"active","ping":105}]},{"server_id":401,"name":"Uncletopia | Atlanta | 4 | No Payload","name_short":"atl-4","host":"atl-1.us.uncletopia.com","port":27045,"enabled":true,"region":"us-east","cc":"us","latitude":33.753746,"longitude":-84.38633,"reserved":0,"last_update":"0001-01-01T00:00:00Z","name_a2s":"","protocol":0,"map":"","folder":"","game":"","app_id":0,"player_count":0,"max_players":0,"Bots":0,"server_type":"","server_os":"","password":false,"vac":false,"version":"","steam_id":0,"keywords":null,"game_id":0,"stv_port":0,"stv_name":"","players":null},{"server_id":2,"name":"Uncletopia | Chicago | 1 | All Maps","name_short":"chi-1","host":"chi-1.us.uncletopia.com","port":27015,"enabled":true,"region":"us-central","cc":"us","latitude":41.881832,"longitude":-87.62318,"reserved":0,"last_update":"0001-01-01T00:00:00Z","name_a2s":"Uncletopia | Chicago | 1 | All Maps","protocol":17,"map":"cp_dustbowl","folder":"tf","game":"Team Fortress","app_id":440,"player_count":24,"max_players":24,"Bots":0,"server_type":"Dedicated","server_os":"Linux","password":true,"vac":true,"version":"7757534","steam_id":85568392924469984,"keywords":["cp","nocrits","nodmgspread","uncletopia"],"game_id":440,"stv_port":27016,"stv_name":"Uncletopia | Chicago | 1 | All Maps | STV","players":[{"user_id":388,"name":"asbestos","steam_id":76561198079178866,"connected_time":199000000000,"state":"active","ping":61},{"user_id":383,"name":"capybapy","steam_id":76561198798828328,"connected_time":390000000000,"state":"active","ping":44},{"user_id":350,"name":"Not_Douglas","steam_id":76561199024184136,"connected_time":2566000000000,"state":"active","ping":60},{"user_id":387,"name":"Grenade_Addict","steam_id":76561199212037850,"connected_time":270000000000,"state":"active","ping":95},{"user_id":378,"name":"neonblack","steam_id":76561198060316801,"connected_time":1106000000000,"state":"active","ping":69},{"user_id":379,"name":"farteater22","steam_id":76561198848710113,"connected_time":1064000000000,"state":"active","ping":75},{"user_id":328,"name":"ghastlierest gamer","steam_id":76561198057374871,"connected_time":3790000000000,"state":"active","ping":60},{"user_id":362,"name":"Axities","steam_id":76561198278008225,"connected_time":2096000000000,"state":"active","ping":75},{"user_id":351,"name":"DaggerDouk","steam_id":76561199035811769,"connected_time":2485000000000,"state":"active","ping":70},{"user_id":384,"name":"Magnet Dood","steam_id":76561198364178746,"connected_time":382000000000,"state":"active","ping":60},{"user_id":380,"name":"sh333ts","steam_id":76561197979938489,"connected_time":1053000000000,"state":"active","ping":69},{"user_id":339,"name":"Aiden939","steam_id":76561198860530097,"connected_time":3041000000000,"state":"active","ping":83},{"user_id":345,"name":"Man Man","steam_id":76561199068338634,"connected_time":2866000000000,"state":"active","ping":82},{"user_id":295,"name":"Ademar","steam_id":76561199391802581,"connected_time":6502000000000,"state":"active","ping":58},{"user_id":316,"name":"bappo","steam_id":76561199294792123,"connected_time":4687000000000,"state":"active","ping":54},{"user_id":385,"name":"FieryRainbowDog","steam_id":76561199047810065,"connected_time":336000000000,"state":"active","ping":66},{"user_id":372,"name":"Captain Baxter","steam_id":76561198100587328,"connected_time":1495000000000,"state":"active","ping":84},{"user_id":357,"name":"DeadErebus","steam_id":76561198286117045,"connected_time":2247000000000,"state":"active","ping":30},{"user_id":358,"name":"raidlps","steam_id":76561199208003679,"connected_time":2222000000000,"state":"active","ping":82},{"user_id":373,"name":"Highphin","steam_id":76561198986584680,"connected_time":1476000000000,"state":"active","ping":68},{"user_id":343,"name":"DarthEthanBoy","steam_id":76561198441643581,"connected_time":2901000000000,"state":"active","ping":68},{"user_id":374,"name":"ShawnLmao","steam_id":76561198350691501,"connected_time":1449000000000,"state":"active","ping":77},{"user_id":349,"name":"AppleTruffle","steam_id":76561198031299571,"connected_time":2591000000000,"state":"active","ping":60},{"user_id":386,"name":"Try Gardening","steam_id":76561198120311340,"connected_time":286000000000,"state":"active","ping":47}]},{"server_id":106,"name":"Uncletopia | Chicago | 2 | All Maps","name_short":"chi-2","host":"chi-1.us.uncletopia.com","port":27025,"enabled":true,"region":"us-central","cc":"us","latitude":41.881832,"longitude":-87.62318,"reserved":0,"last_update":"0001-01-01T00:00:00Z","name_a2s":"Uncletopia | Chicago | 2 | All Maps","protocol":17,"map":"pl_upward","folder":"tf","game":"Team Fortress","app_id":440,"player_count":24,"max_players":24,"Bots":0,"server_type":"Dedicated","server_os":"Linux","password":true,"vac":true,"version":"7757534","steam_id":85568392924469985,"keywords":["nocrits","nodmgspread","payload","uncletopia"],"game_id":440,"stv_port":27026,"stv_name":"Uncletopia | Chicago | 2 | All Maps | STV","players":[{"user_id":338,"name":"drinking water (extra sulfur)","steam_id":76561198066566813,"connected_time":1292000000000,"state":"active","ping":119},{"user_id":341,"name":"yaRn","steam_id":76561199221219848,"connected_time":1231000000000,"state":"active","ping":70},{"user_id":347,"name":"darkjustin54","steam_id":76561198060056280,"connected_time":1093000000000,"state":"active","ping":56},{"user_id":329,"name":"tim-","steam_id":76561199119101315,"connected_time":2356000000000,"state":"active","ping":66},{"user_id":328,"name":"cold spaghetti","steam_id":76561198983037944,"connected_time":2372000000000,"state":"active","ping":54},{"user_id":318,"name":"Sheev Palpatine","steam_id":76561198252332430,"connected_time":3197000000000,"state":"active","ping":72},{"user_id":353,"name":"tesagi","steam_id":76561198026664629,"connected_time":919000000000,"state":"active","ping":52},{"user_id":322,"name":"LICK A SHOT","steam_id":76561198165567310,"connected_time":3148000000000,"state":"active","ping":60},{"user_id":348,"name":"ThePizzaMaster3","steam_id":76561199137307151,"connected_time":1079000000000,"state":"active","ping":77},{"user_id":272,"name":"Hunstman sniper","steam_id":76561199187764012,"connected_time":6790000000000,"state":"active","ping":73},{"user_id":303,"name":"Succubus_Lilith","steam_id":76561198240578890,"connected_time":4777000000000,"state":"active","ping":74},{"user_id":336,"name":"Blagoni","steam_id":76561198079134230,"connected_time":1533000000000,"state":"active","ping":97},{"user_id":349,"name":"Zer0","steam_id":76561199174562614,"connected_time":1041000000000,"state":"active","ping":64},{"user_id":350,"name":"i fell in luv w dah bandz","steam_id":76561198042600523,"connected_time":966000000000,"state":"active","ping":59},{"user_id":340,"name":"twizted","steam_id":76561197960407274,"connected_time":1263000000000,"state":"active","ping":65},{"user_id":314,"name":"Kyle H. McCloud","steam_id":76561198025050432,"connected_time":3395000000000,"state":"active","ping":88},{"user_id":327,"name":"American Dad","steam_id":76561198059711448,"connected_time":2409000000000,"state":"active","ping":71},{"user_id":305,"name":"vanilla gorilla","steam_id":76561197989019617,"connected_time":4596000000000,"state":"active","ping":48},{"user_id":331,"name":"B o o g","steam_id":76561199267535506,"connected_time":2339000000000,"state":"active","ping":71},{"user_id":345,"name":"Sp","steam_id":76561199436322525,"connected_time":1199000000000,"state":"active","ping":56},{"user_id":354,"name":"orcluvr69","steam_id":76561198068712028,"connected_time":845000000000,"state":"active","ping":83},{"user_id":355,"name":"Major_Pippy","steam_id":76561198004482878,"connected_time":792000000000,"state":"active","ping":100},{"user_id":258,"name":"lawnmower that hates flowers","steam_id":76561198354284591,"connected_time":7568000000000,"state":"active","ping":54},{"user_id":309,"name":"verk","steam_id":76561198846135515,"connected_time":3630000000000,"state":"active","ping":65}]},{"server_id":402,"name":"Uncletopia | Chicago | 3 | All Maps","name_short":"chi-3","host":"chi-1.us.uncletopia.com","port":27035,"enabled":true,"region":"us-central","cc":"us","latitude":41.881832,"longitude":-87.62318,"reserved":0,"last_update":"0001-01-01T00:00:00Z","name_a2s":"Uncletopia | Chicago | 3 | All Maps","protocol":17,"map":"pl_pier","folder":"tf","game":"Team Fortress","app_id":440,"player_count":24,"max_players":24,"Bots":0,"server_type":"Dedicated","server_os":"Linux","password":true,"vac":true,"version":"7757534","steam_id":85568392924515191,"keywords":["nocrits","nodmgspread","payload","uncletopia"],"game_id":440,"stv_port":27036,"stv_name":"Uncletopia | Chicago | 3 | All Maps | STV","players":[{"user_id":154,"name":"Fencer!","steam_id":76561198029081038,"connected_time":4463000000000,"state":"active","ping":66},{"user_id":197,"name":"evnobev","steam_id":76561198038966462,"connected_time":584000000000,"state":"active","ping":52},{"user_id":196,"name":"OlympicChamp_12 | Trade.tf","steam_id":76561198830574526,"connected_time":774000000000,"state":"active","ping":101},{"user_id":206,"name":"noel","steam_id":76561198128280883,"connected_time":233000000000,"state":"active","ping":82},{"user_id":124,"name":"rustyorion","steam_id":76561198439186347,"connected_time":5874000000000,"state":"active","ping":98},{"user_id":162,"name":"The Poot","steam_id":76561198093889730,"connected_time":3581000000000,"state":"active","ping":47},{"user_id":188,"name":"autumnal.messenger","steam_id":76561199345816635,"connected_time":1794000000000,"state":"active","ping":103},{"user_id":177,"name":"J1407B","steam_id":76561199003447981,"connected_time":2298000000000,"state":"active","ping":82},{"user_id":180,"name":"Blaze2.0","steam_id":76561199098688888,"connected_time":2205000000000,"state":"active","ping":109},{"user_id":181,"name":"Penjamin city","steam_id":76561198202216091,"connected_time":2173000000000,"state":"active","ping":67},{"user_id":199,"name":"Riku","steam_id":76561198047287940,"connected_time":564000000000,"state":"active","ping":75},{"user_id":205,"name":"Sev","steam_id":76561198248814700,"connected_time":440000000000,"state":"active","ping":91},{"user_id":171,"name":"Vaudeville Villain","steam_id":76561199212093339,"connected_time":2954000000000,"state":"active","ping":67},{"user_id":200,"name":"1 Great Wooden Dad","steam_id":76561198377126974,"connected_time":548000000000,"state":"active","ping":65},{"user_id":201,"name":".jpg","steam_id":76561198137237377,"connected_time":528000000000,"state":"active","ping":70},{"user_id":202,"name":"Queen Frau the Round","steam_id":76561197999942134,"connected_time":525000000000,"state":"active","ping":47},{"user_id":192,"name":"Smokey","steam_id":76561198071523590,"connected_time":1410000000000,"state":"active","ping":85},{"user_id":207,"name":"dooby","steam_id":76561198304712507,"connected_time":74000000000,"state":"active","ping":59},{"user_id":187,"name":"bill","steam_id":76561199142779872,"connected_time":2038000000000,"state":"active","ping":73},{"user_id":203,"name":"Manu","steam_id":76561198145330934,"connected_time":524000000000,"state":"active","ping":124},{"user_id":150,"name":"Harold","steam_id":76561198057317770,"connected_time":4891000000000,"state":"active","ping":89},{"user_id":152,"name":"Ellen Baker","steam_id":76561198065712435,"connected_time":4722000000000,"state":"active","ping":145},{"user_id":148,"name":"Bow_","steam_id":76561198109608134,"connected_time":4915000000000,"state":"active","ping":82},{"user_id":204,"name":"Pluto","steam_id":76561198338593690,"connected_time":502000000000,"state":"active","ping":76}]},{"server_id":403,"name":"Uncletopia | Chicago | 4 | All Maps","name_short":"chi-4","host":"chi-1.us.uncletopia.com","port":27045,"enabled":true,"region":"us-central","cc":"us","latitude":41.881832,"longitude":-87.62318,"reserved":0,"last_update":"0001-01-01T00:00:00Z","name_a2s":"Uncletopia | Chicago | 4 | All Maps","protocol":17,"map":"pl_snowycoast","folder":"tf","game":"Team Fortress","app_id":440,"player_count":23,"max_players":24,"Bots":0,"server_type":"Dedicated","server_os":"Linux","password":true,"vac":true,"version":"7757534","steam_id":85568392924515193,"keywords":["nocrits","nodmgspread","payload","uncletopia"],"game_id":440,"stv_port":27046,"stv_name":"Uncletopia | Chicago | 4 | All Maps | STV","players":[{"user_id":301,"name":"spooky","steam_id":76561198122964663,"connected_time":1813000000000,"state":"active","ping":60},{"user_id":268,"name":"The Law","steam_id":76561198080974454,"connected_time":4138000000000,"state":"active","ping":61},{"user_id":312,"name":"the meat man","steam_id":76561198037921140,"connected_time":443000000000,"state":"active","ping":87},{"user_id":300,"name":"Fobby #Savetf2","steam_id":76561198047681469,"connected_time":1862000000000,"state":"active","ping":68},{"user_id":330,"name":"Milkman","steam_id":76561199089290269,"connected_time":8000000000,"state":"spawning","ping":156},{"user_id":303,"name":"-W3E- grim10465","steam_id":76561198045698581,"connected_time":1075000000000,"state":"active","ping":45},{"user_id":318,"name":"CyberZayne","steam_id":76561198002351356,"connected_time":278000000000,"state":"active","ping":84},{"user_id":327,"name":"feenman","steam_id":76561199383834799,"connected_time":155000000000,"state":"active","ping":100},{"user_id":264,"name":"1rhythm","steam_id":76561199159347310,"connected_time":4630000000000,"state":"active","ping":73},{"user_id":323,"name":"Mikmoomamimocki","steam_id":76561199077167536,"connected_time":199000000000,"state":"active","ping":65},{"user_id":308,"name":"Ultimate Gohan","steam_id":76561198065614782,"connected_time":705000000000,"state":"active","ping":55},{"user_id":326,"name":"ElBentz","steam_id":76561199059582221,"connected_time":171000000000,"state":"active","ping":92},{"user_id":309,"name":"fish enjoyer","steam_id":76561198307447918,"connected_time":670000000000,"state":"active","ping":57},{"user_id":328,"name":"objective permanence","steam_id":76561198050393061,"connected_time":69000000000,"state":"active","ping":75},{"user_id":311,"name":"Korporal K. Reep","steam_id":76561199098222561,"connected_time":511000000000,"state":"active","ping":133},{"user_id":297,"name":"Mina's Ninas","steam_id":76561198046502179,"connected_time":2106000000000,"state":"active","ping":91},{"user_id":284,"name":"いちごまろ","steam_id":76561198166100997,"connected_time":2974000000000,"state":"active","ping":63},{"user_id":314,"name":"SuperFresh","steam_id":76561198200723198,"connected_time":428000000000,"state":"active","ping":41},{"user_id":298,"name":"astron","steam_id":76561198058546328,"connected_time":2096000000000,"state":"active","ping":77},{"user_id":329,"name":"zeplinnn","steam_id":76561198301300987,"connected_time":13000000000,"state":"spawning","ping":88},{"user_id":286,"name":"Theory-Y","steam_id":76561198116419931,"connected_time":2756000000000,"state":"active","ping":107},{"user_id":306,"name":"Ginger Jesus","steam_id":76561198052386458,"connected_time":1020000000000,"state":"active","ping":61},{"user_id":266,"name":"ShadBad","steam_id":76561198248287390,"connected_time":4505000000000,"state":"active","ping":102}]},{"server_id":36,"name":"Uncletopia | Chicago | 5 | All Maps","name_short":"chi-5","host":"chi-2.us.uncletopia.com","port":27015,"enabled":true,"region":"us-central","cc":"us","latitude":41.881832,"longitude":-87.62318,"reserved":0,"last_update":"0001-01-01T00:00:00Z","name_a2s":"Uncletopia | Chicago | 5 | All Maps","protocol":17,"map":"cp_dustbowl","folder":"tf","game":"Team Fortress","app_id":440,"player_count":22,"max_players":24,"Bots":0,"server_type":"Dedicated","server_os":"Linux","password":true,"vac":true,"version":"7757534","steam_id":85568392924866362,"keywords":["cp","nocrits","nodmgspread","uncletopia"],"game_id":440,"stv_port":27016,"stv_name":"Uncletopia | Chicago | 5 | All Maps | STV","players":[{"user_id":247,"name":"THinkBOX546","steam_id":76561198928550867,"connected_time":1557000000000,"state":"active","ping":94},{"user_id":241,"name":"4oh4","steam_id":76561198388047861,"connected_time":1841000000000,"state":"active","ping":77},{"user_id":222,"name":"Peter Popoff","steam_id":76561198027171160,"connected_time":3509000000000,"state":"active","ping":44},{"user_id":191,"name":"RX 6500 XT","steam_id":76561197999657118,"connected_time":5339000000000,"state":"active","ping":96},{"user_id":248,"name":"ocarina0001","steam_id":76561199380265537,"connected_time":1458000000000,"state":"active","ping":50},{"user_id":240,"name":"Furious George","steam_id":76561198405111646,"connected_time":1849000000000,"state":"active","ping":97},{"user_id":244,"name":"ZofoJackson","steam_id":76561197998366861,"connected_time":1732000000000,"state":"active","ping":51},{"user_id":200,"name":"uhooter","steam_id":76561198007829078,"connected_time":4519000000000,"state":"active","ping":56},{"user_id":274,"name":"nerd gaming","steam_id":76561198066018972,"connected_time":278000000000,"state":"active","ping":73},{"user_id":237,"name":"MEGATRON","steam_id":76561198820480684,"connected_time":2585000000000,"state":"active","ping":55},{"user_id":273,"name":"Name","steam_id":76561199111748012,"connected_time":584000000000,"state":"active","ping":73},{"user_id":223,"name":"SHADY SWEATER SALESMAN","steam_id":76561198014616865,"connected_time":3499000000000,"state":"active","ping":75},{"user_id":251,"name":"Why Me...","steam_id":76561199124019937,"connected_time":1297000000000,"state":"active","ping":99},{"user_id":236,"name":"PageBoiSkull","steam_id":76561198237353578,"connected_time":2640000000000,"state":"active","ping":101},{"user_id":275,"name":"Mr. Hankey","steam_id":76561198872852200,"connected_time":50000000000,"state":"active","ping":164},{"user_id":230,"name":"『 Ethereal 』","steam_id":76561199385170644,"connected_time":3383000000000,"state":"active","ping":56},{"user_id":207,"name":"Illuminaughty","steam_id":76561199163662910,"connected_time":4464000000000,"state":"active","ping":75},{"user_id":231,"name":"Surfing Garchomp","steam_id":76561199107236884,"connected_time":3367000000000,"state":"active","ping":111},{"user_id":276,"name":"astr1d","steam_id":76561198272996700,"connected_time":42000000000,"state":"active","ping":78},{"user_id":208,"name":"nnobi","steam_id":76561198878729277,"connected_time":4439000000000,"state":"active","ping":75},{"user_id":198,"name":"Tako","steam_id":76561199264073138,"connected_time":4639000000000,"state":"active","ping":88},{"user_id":266,"name":"Rain","steam_id":76561198346977332,"connected_time":875000000000,"state":"active","ping":46}]},{"server_id":37,"name":"Uncletopia | Chicago | 6 | All Maps","name_short":"chi-6","host":"chi-2.us.uncletopia.com","port":27025,"enabled":true,"region":"us-central","cc":"us","latitude":41.881832,"longitude":-87.62318,"reserved":0,"last_update":"0001-01-01T00:00:00Z","name_a2s":"Uncletopia | Chicago | 6 | All Maps","protocol":17,"map":"pl_upward","folder":"tf","game":"Team Fortress","app_id":440,"player_count":24,"max_players":24,"Bots":0,"server_type":"Dedicated","server_os":"Linux","password":true,"vac":true,"version":"7757534","steam_id":85568392924866363,"keywords":["nocrits","nodmgspread","payload","uncletopia"],"game_id":440,"stv_port":27026,"stv_name":"Uncletopia | Chicago | 6 | All Maps | STV","players":[{"user_id":86,"name":"๖Ðiestow","steam_id":76561198046662484,"connected_time":3295000000000,"state":"active","ping":71},{"user_id":135,"name":"Ticktockman","steam_id":76561198170071647,"connected_time":266000000000,"state":"active","ping":75},{"user_id":117,"name":"ali oop","steam_id":76561198057516213,"connected_time":1950000000000,"state":"active","ping":77},{"user_id":138,"name":"Psychosis","steam_id":76561198078659070,"connected_time":239000000000,"state":"active","ping":80},{"user_id":130,"name":"Nekoknight","steam_id":76561198400058665,"connected_time":702000000000,"state":"active","ping":82},{"user_id":84,"name":"shadow","steam_id":76561198194231953,"connected_time":3626000000000,"state":"active","ping":180},{"user_id":136,"name":"reymundo","steam_id":76561197989412830,"connected_time":256000000000,"state":"active","ping":113},{"user_id":132,"name":"Assitins","steam_id":76561198041572892,"connected_time":590000000000,"state":"active","ping":68},{"user_id":137,"name":"gamerlegend47","steam_id":76561198122776598,"connected_time":241000000000,"state":"active","ping":71},{"user_id":89,"name":"ayecodex","steam_id":76561199477598858,"connected_time":3232000000000,"state":"active","ping":66},{"user_id":110,"name":"Lakhesis","steam_id":76561197969796919,"connected_time":2354000000000,"state":"active","ping":63},{"user_id":105,"name":"Giggles™","steam_id":76561198058708019,"connected_time":2746000000000,"state":"active","ping":56},{"user_id":119,"name":"aquatic ambiance","steam_id":76561198042788986,"connected_time":1912000000000,"state":"active","ping":85},{"user_id":100,"name":"minerkid2004","steam_id":76561198044262827,"connected_time":2936000000000,"state":"active","ping":97},{"user_id":133,"name":"蛋捲:D","steam_id":76561198353606160,"connected_time":300000000000,"state":"active","ping":49},{"user_id":139,"name":"Worriedinsect","steam_id":76561199291879621,"connected_time":6000000000,"state":"spawning","ping":66},{"user_id":123,"name":"BossMan3l1t3","steam_id":76561199379894807,"connected_time":1542000000000,"state":"active","ping":63},{"user_id":108,"name":"anonion","steam_id":76561198056477584,"connected_time":2445000000000,"state":"active","ping":90},{"user_id":124,"name":"KevCraft","steam_id":76561199000622939,"connected_time":1515000000000,"state":"active","ping":77},{"user_id":120,"name":"hud_saytext_time 0","steam_id":76561198010327228,"connected_time":1904000000000,"state":"active","ping":171},{"user_id":131,"name":"nonagon infinity","steam_id":76561198397662124,"connected_time":618000000000,"state":"active","ping":91},{"user_id":116,"name":"Arbor ☃","steam_id":76561199084367216,"connected_time":1974000000000,"state":"active","ping":79},{"user_id":77,"name":"Maverick","steam_id":76561198322829814,"connected_time":4393000000000,"state":"active","ping":79},{"user_id":122,"name":"Lunacy","steam_id":76561199386273760,"connected_time":1847000000000,"state":"active","ping":115}]},{"server_id":38,"name":"Uncletopia | Chicago | 7 | Stopwatch Beta","name_short":"chi-7","host":"chi-2.us.uncletopia.com","port":27035,"enabled":true,"region":"us-central","cc":"us","latitude":41.881832,"longitude":-87.62318,"reserved":0,"last_update":"0001-01-01T00:00:00Z","name_a2s":"Uncletopia | Chicago | 7 | Stopwatch Beta","protocol":17,"map":"workshop/pl_vigil_rc9.ugc1266210012","folder":"tf","game":"Team Fortress","app_id":440,"player_count":0,"max_players":24,"Bots":0,"server_type":"Dedicated","server_os":"Linux","password":true,"vac":true,"version":"7757534","steam_id":85568392924866364,"keywords":["nocrits","nodmgspread","payload","uncletopia"],"game_id":440,"stv_port":27036,"stv_name":"Uncletopia | Chicago | 7 | Stopwatch Beta | STV","players":null},{"server_id":39,"name":"Uncletopia | Chicago | 8 | Community","name_short":"chi-8","host":"chi-2.us.uncletopia.com","port":27045,"enabled":true,"region":"us-central","cc":"us","latitude":41.881832,"longitude":-87.62318,"reserved":0,"last_update":"0001-01-01T00:00:00Z","name_a2s":"Uncletopia | Chicago | 8 | Community","protocol":17,"map":"workshop/cp_fulgur_rc2a.ugc2068252300","folder":"tf","game":"Team Fortress","app_id":440,"player_count":0,"max_players":24,"Bots":0,"server_type":"Dedicated","server_os":"Linux","password":true,"vac":true,"version":"7757534","steam_id":85568392924866365,"keywords":["cp","nocrits","nodmgspread","uncletopia"],"game_id":440,"stv_port":27046,"stv_name":"Uncletopia | Chicago | 8 | Community | STV","players":null},{"server_id":8,"name":"Uncletopia | Dallas | 1 | All Maps","name_short":"dal-1","host":"dal-1.us.uncletopia.com","port":27015,"enabled":true,"region":"us-central","cc":"us","latitude":32.779167,"longitude":-96.80889,"reserved":0,"last_update":"0001-01-01T00:00:00Z","name_a2s":"Uncletopia | Dallas | 1 | All Maps","protocol":17,"map":"pl_thundermountain","folder":"tf","game":"Team Fortress","app_id":440,"player_count":24,"max_players":24,"Bots":0,"server_type":"Dedicated","server_os":"Linux","password":true,"vac":true,"version":"7757534","steam_id":85568392924469986,"keywords":["nocrits","nodmgspread","payload","uncletopia"],"game_id":440,"stv_port":27016,"stv_name":"Uncletopia | Dallas | 1 | All Maps | STV","players":[{"user_id":464,"name":"Womp","steam_id":76561198245103000,"connected_time":2236000000000,"state":"active","ping":85},{"user_id":477,"name":"diabetes the rebel","steam_id":76561198039260648,"connected_time":1128000000000,"state":"active","ping":87},{"user_id":478,"name":"KingKata","steam_id":76561198289610011,"connected_time":1078000000000,"state":"active","ping":128},{"user_id":463,"name":"Rafl","steam_id":76561198055222756,"connected_time":2246000000000,"state":"active","ping":45},{"user_id":367,"name":"A Straw","steam_id":76561199367935846,"connected_time":8284000000000,"state":"active","ping":69},{"user_id":499,"name":"herb","steam_id":76561198185980055,"connected_time":49000000000,"state":"active","ping":70},{"user_id":450,"name":"ArnoldGamingﾠٴ","steam_id":76561198040140247,"connected_time":2690000000000,"state":"active","ping":97},{"user_id":491,"name":"Renota","steam_id":76561198058224488,"connected_time":671000000000,"state":"active","ping":89},{"user_id":496,"name":"Project_Counter","steam_id":76561198152786076,"connected_time":185000000000,"state":"active","ping":58},{"user_id":479,"name":"B12","steam_id":76561198353018186,"connected_time":1023000000000,"state":"active","ping":91},{"user_id":495,"name":"Worst Scenario","steam_id":76561199052130229,"connected_time":319000000000,"state":"active","ping":85},{"user_id":481,"name":"earthbound393","steam_id":76561199444276547,"connected_time":1009000000000,"state":"active","ping":110},{"user_id":438,"name":"Cofi","steam_id":76561199026721822,"connected_time":3863000000000,"state":"active","ping":90},{"user_id":452,"name":"Cedric","steam_id":76561198072090580,"connected_time":2680000000000,"state":"active","ping":102},{"user_id":488,"name":"Derply","steam_id":76561198871211642,"connected_time":736000000000,"state":"active","ping":75},{"user_id":492,"name":"Mcfighter2","steam_id":76561198168073956,"connected_time":635000000000,"state":"active","ping":90},{"user_id":484,"name":"brock","steam_id":76561199015537819,"connected_time":989000000000,"state":"active","ping":55},{"user_id":487,"name":"Gary Gaming","steam_id":76561198853378233,"connected_time":929000000000,"state":"active","ping":100},{"user_id":472,"name":"Moonflower ✦","steam_id":76561198191782483,"connected_time":1537000000000,"state":"active","ping":50},{"user_id":462,"name":"Dallas","steam_id":76561198106184089,"connected_time":2348000000000,"state":"active","ping":58},{"user_id":460,"name":"Critical","steam_id":76561198123744966,"connected_time":2482000000000,"state":"active","ping":94},{"user_id":457,"name":"Butter Beyond The Binary","steam_id":76561198128408544,"connected_time":2643000000000,"state":"active","ping":74},{"user_id":498,"name":"PlanktonTheWayICumBuckets","steam_id":76561198074678273,"connected_time":96000000000,"state":"active","ping":75},{"user_id":486,"name":"Crackmire","steam_id":76561199016285746,"connected_time":979000000000,"state":"active","ping":65}]},{"server_id":108,"name":"Uncletopia | Dallas | 2 | All Maps","name_short":"dal-2","host":"dal-1.us.uncletopia.com","port":27025,"enabled":true,"region":"us-central","cc":"us","latitude":32.779167,"longitude":-96.80889,"reserved":0,"last_update":"0001-01-01T00:00:00Z","name_a2s":"Uncletopia | Dallas | 2 | All Maps","protocol":17,"map":"cp_dustbowl","folder":"tf","game":"Team Fortress","app_id":440,"player_count":24,"max_players":24,"Bots":0,"server_type":"Dedicated","server_os":"Linux","password":true,"vac":true,"version":"7757534","steam_id":85568392924469988,"keywords":["cp","nocrits","nodmgspread","uncletopia"],"game_id":440,"stv_port":27026,"stv_name":"Uncletopia | Dallas | 2 | All Maps | STV","players":[{"user_id":240,"name":"creechure!","steam_id":76561198804556517,"connected_time":613000000000,"state":"active","ping":58},{"user_id":241,"name":"Jerphf","steam_id":76561198328825964,"connected_time":338000000000,"state":"active","ping":60},{"user_id":242,"name":"tighty walter whities","steam_id":76561199122915452,"connected_time":317000000000,"state":"active","ping":103},{"user_id":211,"name":"ray (the based god)","steam_id":76561198311984941,"connected_time":2413000000000,"state":"active","ping":81},{"user_id":193,"name":"Trenos301","steam_id":76561198081155226,"connected_time":3200000000000,"state":"active","ping":48},{"user_id":231,"name":"Faraday","steam_id":76561198089928357,"connected_time":1373000000000,"state":"active","ping":54},{"user_id":176,"name":"SmokeyGalaxy","steam_id":76561198118780516,"connected_time":5294000000000,"state":"active","ping":60},{"user_id":192,"name":"Eden","steam_id":76561198081284664,"connected_time":3243000000000,"state":"active","ping":75},{"user_id":217,"name":"Gamoy","steam_id":76561198036434902,"connected_time":2005000000000,"state":"active","ping":71},{"user_id":243,"name":"sirsmit1","steam_id":76561199129778001,"connected_time":274000000000,"state":"active","ping":104},{"user_id":232,"name":"suika_suika","steam_id":76561198096910438,"connected_time":1368000000000,"state":"active","ping":126},{"user_id":237,"name":"Titos Soda","steam_id":76561197965837845,"connected_time":1172000000000,"state":"active","ping":100},{"user_id":226,"name":"SPREAD SPRING GROWTH AND WARMTH","steam_id":76561198800386026,"connected_time":1554000000000,"state":"active","ping":90},{"user_id":244,"name":"SC|Formuoli","steam_id":76561198254354595,"connected_time":248000000000,"state":"active","ping":61},{"user_id":238,"name":"KyePerson","steam_id":76561198145597212,"connected_time":841000000000,"state":"active","ping":84},{"user_id":215,"name":"WorminCrazy","steam_id":76561198927509821,"connected_time":2286000000000,"state":"active","ping":102},{"user_id":245,"name":"poppy ヅ ●ᴥ● #savetf2","steam_id":76561199183188798,"connected_time":235000000000,"state":"active","ping":48},{"user_id":225,"name":"matt","steam_id":76561198174529235,"connected_time":1576000000000,"state":"active","ping":100},{"user_id":239,"name":"Ttugy21","steam_id":76561199217721359,"connected_time":784000000000,"state":"active","ping":64},{"user_id":246,"name":"THE Bucket Man","steam_id":76561198851816161,"connected_time":235000000000,"state":"active","ping":46},{"user_id":236,"name":"superx","steam_id":76561198044976613,"connected_time":1285000000000,"state":"active","ping":93},{"user_id":228,"name":"corpach","steam_id":76561198150418268,"connected_time":1408000000000,"state":"active","ping":102},{"user_id":184,"name":"Luna","steam_id":76561198131342156,"connected_time":4027000000000,"state":"active","ping":52},{"user_id":190,"name":"Avem","steam_id":76561198058763710,"connected_time":3715000000000,"state":"active","ping":75}]},{"server_id":5,"name":"Uncletopia | Frankfurt | 1 | All Maps","name_short":"frk-1","host":"frk-1.de.uncletopia.com","port":27015,"enabled":true,"region":"eu","cc":"de","latitude":50.110924,"longitude":8.682127,"reserved":0,"last_update":"0001-01-01T00:00:00Z","name_a2s":"Uncletopia | Frankfurt | 1 | All Maps","protocol":17,"map":"pl_pier","folder":"tf","game":"Team Fortress","app_id":440,"player_count":0,"max_players":24,"Bots":0,"server_type":"Dedicated","server_os":"Linux","password":true,"vac":true,"version":"7757534","steam_id":85568392924469989,"keywords":["nocrits","nodmgspread","payload","uncletopia"],"game_id":440,"stv_port":27016,"stv_name":"Uncletopia | Frankfurt | 1 | All Maps | STV","players":null},{"server_id":110,"name":"Uncletopia | Frankfurt | 2 | All Maps","name_short":"frk-2","host":"frk-1.de.uncletopia.com","port":27025,"enabled":true,"region":"eu","cc":"de","latitude":50.110924,"longitude":8.682127,"reserved":0,"last_update":"0001-01-01T00:00:00Z","name_a2s":"Uncletopia | Frankfurt | 2 | All Maps","protocol":17,"map":"cp_dustbowl","folder":"tf","game":"Team Fortress","app_id":440,"player_count":0,"max_players":24,"Bots":0,"server_type":"Dedicated","server_os":"Linux","password":true,"vac":true,"version":"7757534","steam_id":85568392924469990,"keywords":["cp","nocrits","nodmgspread","uncletopia"],"game_id":440,"stv_port":27026,"stv_name":"Uncletopia | Frankfurt | 2 | All Maps | STV","players":null},{"server_id":308,"name":"Uncletopia | Frankfurt | 3 | All Maps","name_short":"frk-3","host":"frk-1.de.uncletopia.com","port":27035,"enabled":true,"region":"eu","cc":"de","latitude":50.110924,"longitude":8.682127,"reserved":0,"last_update":"0001-01-01T00:00:00Z","name_a2s":"Uncletopia | Frankfurt | 3 | All Maps","protocol":17,"map":"pl_badwater","folder":"tf","game":"Team Fortress","app_id":440,"player_count":24,"max_players":24,"Bots":0,"server_type":"Dedicated","server_os":"Linux","password":true,"vac":true,"version":"7757534","steam_id":85568392924504274,"keywords":["nocrits","nodmgspread","payload","uncletopia"],"game_id":440,"stv_port":27036,"stv_name":"Uncletopia | Frankfurt | 3 | All Maps | STV","players":[{"user_id":621,"name":"SuperBob103","steam_id":76561199175360012,"connected_time":192000000000,"state":"active","ping":68},{"user_id":606,"name":"vi","steam_id":76561198303147966,"connected_time":1526000000000,"state":"active","ping":60},{"user_id":598,"name":"Johnny \"Purps\" The Waifu Hunter","steam_id":76561198018688536,"connected_time":2611000000000,"state":"active","ping":146},{"user_id":616,"name":"Bonca","steam_id":76561198137503531,"connected_time":437000000000,"state":"active","ping":75},{"user_id":603,"name":"TidB","steam_id":76561198055342304,"connected_time":2396000000000,"state":"active","ping":54},{"user_id":615,"name":"rummy","steam_id":76561197997573379,"connected_time":462000000000,"state":"active","ping":66},{"user_id":597,"name":"Mach","steam_id":76561198952487564,"connected_time":2731000000000,"state":"active","ping":154},{"user_id":613,"name":"Enforcer02","steam_id":76561197966045944,"connected_time":540000000000,"state":"active","ping":53},{"user_id":590,"name":"Carrotcracker","steam_id":76561198034862396,"connected_time":3935000000000,"state":"active","ping":68},{"user_id":568,"name":"Jon","steam_id":76561199380849468,"connected_time":4726000000000,"state":"active","ping":60},{"user_id":461,"name":"Nyhde","steam_id":76561198012771416,"connected_time":12305000000000,"state":"active","ping":83},{"user_id":609,"name":"Fish","steam_id":76561198182278770,"connected_time":1388000000000,"state":"active","ping":73},{"user_id":584,"name":"Eno","steam_id":76561198387892963,"connected_time":4402000000000,"state":"active","ping":72},{"user_id":548,"name":"tallen","steam_id":76561198061708595,"connected_time":6363000000000,"state":"active","ping":75},{"user_id":572,"name":"frosty","steam_id":76561198094560834,"connected_time":4704000000000,"state":"active","ping":66},{"user_id":594,"name":"Hildreth","steam_id":76561197995254867,"connected_time":3783000000000,"state":"active","ping":58},{"user_id":596,"name":"cinny","steam_id":76561198832112629,"connected_time":3317000000000,"state":"active","ping":84},{"user_id":619,"name":"✪ qua ✪","steam_id":76561198066408333,"connected_time":267000000000,"state":"active","ping":73},{"user_id":522,"name":"Radegast the Brown","steam_id":76561198075489505,"connected_time":8776000000000,"state":"active","ping":60},{"user_id":601,"name":"Труп Володя","steam_id":76561198035718457,"connected_time":2546000000000,"state":"active","ping":91},{"user_id":620,"name":"ToTenLis","steam_id":76561198168581334,"connected_time":232000000000,"state":"active","ping":90},{"user_id":618,"name":"scott steiners strongest warrio","steam_id":76561198148888622,"connected_time":382000000000,"state":"active","ping":74},{"user_id":604,"name":"dn4k","steam_id":76561199221755690,"connected_time":1985000000000,"state":"active","ping":82},{"user_id":623,"name":"The Punch","steam_id":76561198212488780,"connected_time":106000000000,"state":"active","ping":60}]},{"server_id":309,"name":"Uncletopia | Frankfurt | 4 | All Maps","name_short":"frk-4","host":"frk-1.de.uncletopia.com","port":27045,"enabled":true,"region":"eu","cc":"de","latitude":50.110924,"longitude":8.682127,"reserved":0,"last_update":"0001-01-01T00:00:00Z","name_a2s":"Uncletopia | Frankfurt | 4 | All Maps","protocol":17,"map":"pl_barnblitz","folder":"tf","game":"Team Fortress","app_id":440,"player_count":24,"max_players":24,"Bots":0,"server_type":"Dedicated","server_os":"Linux","password":true,"vac":true,"version":"7757534","steam_id":85568392924504275,"keywords":["nocrits","nodmgspread","payload","uncletopia"],"game_id":440,"stv_port":27046,"stv_name":"Uncletopia | Frankfurt | 4 | All Maps | STV","players":[{"user_id":206,"name":"randompixel","steam_id":76561198003941207,"connected_time":688000000000,"state":"active","ping":69},{"user_id":194,"name":"El Gato Volador","steam_id":76561198021296882,"connected_time":1454000000000,"state":"active","ping":76},{"user_id":209,"name":"Uncle Dale","steam_id":76561199144302768,"connected_time":186000000000,"state":"active","ping":143},{"user_id":185,"name":"David \"Crash\" Murphy","steam_id":76561198292845505,"connected_time":2423000000000,"state":"active","ping":92},{"user_id":190,"name":"Ostara","steam_id":76561198200054489,"connected_time":2005000000000,"state":"active","ping":69},{"user_id":159,"name":"anders McFlanders","steam_id":76561198022811995,"connected_time":4046000000000,"state":"active","ping":60},{"user_id":200,"name":"Economic crisis","steam_id":76561198063562843,"connected_time":955000000000,"state":"active","ping":52},{"user_id":152,"name":"Dewotter","steam_id":76561198007653168,"connected_time":4905000000000,"state":"active","ping":66},{"user_id":163,"name":"mtdrewski gaming","steam_id":76561198033408919,"connected_time":3738000000000,"state":"active","ping":36},{"user_id":161,"name":"Kelpy G gaming","steam_id":76561198056995633,"connected_time":4000000000000,"state":"active","ping":71},{"user_id":208,"name":"teddy","steam_id":76561198007436837,"connected_time":270000000000,"state":"active","ping":53},{"user_id":203,"name":"Gravy","steam_id":76561198029548074,"connected_time":852000000000,"state":"active","ping":72},{"user_id":202,"name":"Knösta","steam_id":76561198143422139,"connected_time":917000000000,"state":"active","ping":103},{"user_id":193,"name":"Rigby","steam_id":76561198021552128,"connected_time":1631000000000,"state":"active","ping":109},{"user_id":174,"name":"Just Navlis","steam_id":76561198090479609,"connected_time":2603000000000,"state":"active","ping":45},{"user_id":165,"name":"Hapsly","steam_id":76561198312557108,"connected_time":3445000000000,"state":"active","ping":70},{"user_id":180,"name":"Liggi","steam_id":76561198344511334,"connected_time":2517000000000,"state":"active","ping":63},{"user_id":188,"name":"monclëezy","steam_id":76561199143737200,"connected_time":2264000000000,"state":"active","ping":98},{"user_id":204,"name":"_Starlight_","steam_id":76561197993885738,"connected_time":825000000000,"state":"active","ping":90},{"user_id":172,"name":"Vershal Smershal","steam_id":76561198116223995,"connected_time":2957000000000,"state":"active","ping":59},{"user_id":189,"name":"Whisper","steam_id":76561197990890595,"connected_time":2243000000000,"state":"active","ping":69},{"user_id":207,"name":"Pumpkin Pie","steam_id":76561198115230959,"connected_time":318000000000,"state":"active","ping":83},{"user_id":210,"name":"yurkur","steam_id":76561198407108497,"connected_time":11000000000,"state":"spawning","ping":57},{"user_id":136,"name":"Shromide","steam_id":76561198140382935,"connected_time":6070000000000,"state":"active","ping":71}]},{"server_id":310,"name":"Uncletopia | Frankfurt | 5 | All Maps","name_short":"frk-5","host":"frk-1.de.uncletopia.com","port":27055,"enabled":true,"region":"eu","cc":"de","latitude":50.110924,"longitude":8.682127,"reserved":0,"last_update":"0001-01-01T00:00:00Z","name_a2s":"Uncletopia | Frankfurt | 5 | All Maps","protocol":17,"map":"pl_upward","folder":"tf","game":"Team Fortress","app_id":440,"player_count":24,"max_players":24,"Bots":0,"server_type":"Dedicated","server_os":"Linux","password":true,"vac":true,"version":"7757534","steam_id":85568392924504277,"keywords":["nocrits","nodmgspread","payload","uncletopia"],"game_id":440,"stv_port":27056,"stv_name":"Uncletopia | Frankfurt | 5 | All Maps | STV","players":[{"user_id":661,"name":"Arcader","steam_id":76561198109860110,"connected_time":2144000000000,"state":"active","ping":52},{"user_id":644,"name":"ScarredPixel123","steam_id":76561199165112703,"connected_time":2987000000000,"state":"active","ping":68},{"user_id":670,"name":"laser","steam_id":76561198036030697,"connected_time":758000000000,"state":"active","ping":47},{"user_id":679,"name":"hbi*venomcrosshairs","steam_id":76561197996468677,"connected_time":331000000000,"state":"active","ping":46},{"user_id":673,"name":"Doctor Marijuana","steam_id":76561198288289879,"connected_time":669000000000,"state":"active","ping":62},{"user_id":647,"name":"Endi","steam_id":76561198914938199,"connected_time":2846000000000,"state":"active","ping":91},{"user_id":612,"name":"milk man","steam_id":76561199091084794,"connected_time":6783000000000,"state":"active","ping":154},{"user_id":640,"name":"BenteBent","steam_id":76561198297920637,"connected_time":3774000000000,"state":"active","ping":46},{"user_id":665,"name":"Cabbch","steam_id":76561198045955679,"connected_time":1282000000000,"state":"active","ping":54},{"user_id":630,"name":"Sugar","steam_id":76561198283947732,"connected_time":4516000000000,"state":"active","ping":84},{"user_id":663,"name":"¬°Nice","steam_id":76561198387871867,"connected_time":1698000000000,"state":"active","ping":74},{"user_id":678,"name":"THEJamiboi","steam_id":76561198034696965,"connected_time":436000000000,"state":"active","ping":72},{"user_id":654,"name":"Doggen","steam_id":76561198061152504,"connected_time":2565000000000,"state":"active","ping":77},{"user_id":596,"name":"thepro-strong","steam_id":76561198047359132,"connected_time":8406000000000,"state":"active","ping":72},{"user_id":675,"name":"ุ","steam_id":76561198045466919,"connected_time":660000000000,"state":"active","ping":61},{"user_id":607,"name":"alan","steam_id":76561198306947435,"connected_time":7041000000000,"state":"active","ping":64},{"user_id":676,"name":"r4s1","steam_id":76561198024034917,"connected_time":646000000000,"state":"active","ping":63},{"user_id":606,"name":"TheEventGuy","steam_id":76561197972797744,"connected_time":7047000000000,"state":"active","ping":58},{"user_id":613,"name":"Mrbluuub","steam_id":76561199273847084,"connected_time":6625000000000,"state":"active","ping":82},{"user_id":637,"name":"Balls","steam_id":76561198086400484,"connected_time":4181000000000,"state":"active","ping":74},{"user_id":677,"name":"the most schizo med main","steam_id":76561198048530109,"connected_time":597000000000,"state":"active","ping":69},{"user_id":597,"name":"vividatant","steam_id":76561198367913885,"connected_time":8400000000000,"state":"active","ping":70},{"user_id":656,"name":"BoopBerry","steam_id":76561198871571711,"connected_time":2537000000000,"state":"active","ping":165},{"user_id":668,"name":"giclure :;","steam_id":76561197986362828,"connected_time":1027000000000,"state":"active","ping":70}]},{"server_id":311,"name":"Uncletopia | Frankfurt | 6 | All Maps","name_short":"frk-6","host":"frk-1.de.uncletopia.com","port":27065,"enabled":true,"region":"eu","cc":"de","latitude":50.110924,"longitude":8.682127,"reserved":0,"last_update":"0001-01-01T00:00:00Z","name_a2s":"Uncletopia | Frankfurt | 6 | All Maps","protocol":17,"map":"pl_upward","folder":"tf","game":"Team Fortress","app_id":440,"player_count":0,"max_players":24,"Bots":0,"server_type":"Dedicated","server_os":"Linux","password":true,"vac":true,"version":"7757534","steam_id":85568392924504278,"keywords":["nocrits","nodmgspread","payload","uncletopia"],"game_id":440,"stv_port":27066,"stv_name":"Uncletopia | Frankfurt | 6 | All Maps | STV","players":null},{"server_id":23,"name":"Uncletopia | Frankfurt | 7 | Stopwatch Beta","name_short":"frk-7","host":"frk-1.de.uncletopia.com","port":27075,"enabled":true,"region":"eu","cc":"de","latitude":50.110924,"longitude":8.682127,"reserved":0,"last_update":"0001-01-01T00:00:00Z","name_a2s":"Uncletopia | Frankfurt | 7 | Stopwatch Beta","protocol":17,"map":"workshop/koth_ramjam_rc1.ugc459778887","folder":"tf","game":"Team Fortress","app_id":440,"player_count":0,"max_players":24,"Bots":0,"server_type":"Dedicated","server_os":"Linux","password":true,"vac":true,"version":"7757534","steam_id":85568392924742827,"keywords":["cp","nocrits","nodmgspread","uncletopia"],"game_id":440,"stv_port":27076,"stv_name":"Uncletopia | Frankfurt | 7 | Stopwatch Beta | STV","players":null},{"server_id":24,"name":"Uncletopia | Frankfurt | 8 | Community","name_short":"frk-8","host":"frk-1.de.uncletopia.com","port":27085,"enabled":true,"region":"eu","cc":"de","latitude":50.110924,"longitude":8.682127,"reserved":0,"last_update":"0001-01-01T00:00:00Z","name_a2s":"Uncletopia | Frankfurt | 8 | Community","protocol":17,"map":"workshop/pl_fifthcurve_rc1.ugc648227046","folder":"tf","game":"Team Fortress","app_id":440,"player_count":0,"max_players":24,"Bots":0,"server_type":"Dedicated","server_os":"Linux","password":true,"vac":true,"version":"7757534","steam_id":85568392924742828,"keywords":["nocrits","nodmgspread","payload","uncletopia"],"game_id":440,"stv_port":27086,"stv_name":"Uncletopia | Frankfurt | 8 | Community | STV","players":null},{"server_id":202,"name":"Uncletopia | Hong Kong | 1 | All Maps","name_short":"hgk-1","host":"hgk-1.hk.uncletopia.com","port":27015,"enabled":true,"region":"asia","cc":"hk","latitude":22.302711,"longitude":114.177216,"reserved":0,"last_update":"0001-01-01T00:00:00Z","name_a2s":"Uncletopia | Hong Kong | 1 | All Maps","protocol":17,"map":"pl_borneo","folder":"tf","game":"Team Fortress","app_id":440,"player_count":0,"max_players":24,"Bots":0,"server_type":"Dedicated","server_os":"Linux","password":true,"vac":true,"version":"7757534","steam_id":85568392924494504,"keywords":["nocrits","nodmgspread","payload","uncletopia"],"game_id":440,"stv_port":27016,"stv_name":"Uncletopia | Hong Kong | 1 | All Maps | STV","players":null},{"server_id":1,"name":"Uncletopia | Los Angeles | 1 | All Maps","name_short":"lax-1","host":"lax-1.us.uncletopia.com","port":27015,"enabled":true,"region":"us-west","cc":"us","latitude":33.94279,"longitude":-118.41004,"reserved":0,"last_update":"0001-01-01T00:00:00Z","name_a2s":"Uncletopia | Los Angeles | 1 | All Maps","protocol":17,"map":"cp_mountainlab","folder":"tf","game":"Team Fortress","app_id":440,"player_count":24,"max_players":24,"Bots":0,"server_type":"Dedicated","server_os":"Linux","password":true,"vac":true,"version":"7757534","steam_id":85568392924469991,"keywords":["cp","nocrits","nodmgspread","uncletopia"],"game_id":440,"stv_port":27016,"stv_name":"Uncletopia | Los Angeles | 1 | All Maps | STV","players":[{"user_id":49,"name":"CPTforever","steam_id":76561198237767198,"connected_time":167000000000,"state":"active","ping":49},{"user_id":16,"name":"DeathSushi","steam_id":76561199156131540,"connected_time":2094000000000,"state":"active","ping":84},{"user_id":17,"name":"Ectomonkey","steam_id":76561198125417062,"connected_time":1953000000000,"state":"active","ping":55},{"user_id":31,"name":"Instant Ramen","steam_id":76561198303631736,"connected_time":540000000000,"state":"active","ping":51},{"user_id":19,"name":"stboncho","steam_id":76561198172275301,"connected_time":1771000000000,"state":"active","ping":68},{"user_id":20,"name":"Wormhole","steam_id":76561199008302939,"connected_time":1744000000000,"state":"active","ping":74},{"user_id":54,"name":"[72Vs] Far_Beyond_Liber-tea","steam_id":76561198070649733,"connected_time":31000000000,"state":"active","ping":74},{"user_id":24,"name":"BagOfGrug","steam_id":76561199189004854,"connected_time":769000000000,"state":"active","ping":79},{"user_id":45,"name":"xerro","steam_id":76561198323340524,"connected_time":246000000000,"state":"active","ping":95},{"user_id":46,"name":"PrinterLights","steam_id":76561198145909722,"connected_time":201000000000,"state":"active","ping":45},{"user_id":50,"name":"[chef] iron","steam_id":76561197970888616,"connected_time":145000000000,"state":"active","ping":91},{"user_id":51,"name":"Sh¡T_in_the_walls","steam_id":76561198950820621,"connected_time":127000000000,"state":"active","ping":117},{"user_id":29,"name":"crumbles","steam_id":76561198168707036,"connected_time":651000000000,"state":"active","ping":50},{"user_id":34,"name":"Cash Money AP","steam_id":76561198870787508,"connected_time":490000000000,"state":"active","ping":184},{"user_id":35,"name":"Roon","steam_id":76561198381478636,"connected_time":437000000000,"state":"active","ping":59},{"user_id":38,"name":"Wacks","steam_id":76561198079476100,"connected_time":350000000000,"state":"active","ping":59},{"user_id":55,"name":"J.G. Klaus","steam_id":76561198001111196,"connected_time":20000000000,"state":"active","ping":80},{"user_id":52,"name":"Harry Baldini","steam_id":76561198800715684,"connected_time":88000000000,"state":"active","ping":79},{"user_id":42,"name":"BorstchBag","steam_id":76561198155294045,"connected_time":286000000000,"state":"active","ping":107},{"user_id":43,"name":"shadowbunz","steam_id":76561198064484797,"connected_time":265000000000,"state":"active","ping":85},{"user_id":44,"name":"EleventhGoose","steam_id":76561198912390211,"connected_time":264000000000,"state":"active","ping":63},{"user_id":47,"name":"Zādok","steam_id":76561199111024480,"connected_time":198000000000,"state":"active","ping":114},{"user_id":48,"name":"Robespierre Gaming","steam_id":76561198025476774,"connected_time":189000000000,"state":"active","ping":62},{"user_id":53,"name":"D_10.Shin","steam_id":76561198209278033,"connected_time":52000000000,"state":"active","ping":91}]},{"server_id":112,"name":"Uncletopia | Los Angeles | 2 | All Maps","name_short":"lax-2","host":"lax-1.us.uncletopia.com","port":27025,"enabled":true,"region":"us-west","cc":"us","latitude":33.94279,"longitude":-118.41004,"reserved":0,"last_update":"0001-01-01T00:00:00Z","name_a2s":"Uncletopia | Los Angeles | 2 | All Maps","protocol":17,"map":"pl_upward","folder":"tf","game":"Team Fortress","app_id":440,"player_count":24,"max_players":24,"Bots":0,"server_type":"Dedicated","server_os":"Linux","password":true,"vac":true,"version":"7757534","steam_id":85568392924469992,"keywords":["nocrits","nodmgspread","payload","uncletopia"],"game_id":440,"stv_port":27026,"stv_name":"Uncletopia | Los Angeles | 2 | All Maps | STV","players":[{"user_id":194,"name":"SolarusD","steam_id":76561198029279861,"connected_time":2521000000000,"state":"active","ping":57},{"user_id":148,"name":"roach","steam_id":76561198354811369,"connected_time":6372000000000,"state":"active","ping":45},{"user_id":245,"name":"bauxoffdagloop","steam_id":76561199196442823,"connected_time":137000000000,"state":"spawning","ping":119},{"user_id":175,"name":"a chicken","steam_id":76561198313121580,"connected_time":3714000000000,"state":"active","ping":50},{"user_id":207,"name":"Slondermin","steam_id":76561198320301349,"connected_time":1099000000000,"state":"active","ping":130},{"user_id":167,"name":"The Benefactor","steam_id":76561198307247913,"connected_time":4345000000000,"state":"active","ping":48},{"user_id":246,"name":"Retesaurus","steam_id":76561198045189319,"connected_time":80000000000,"state":"active","ping":87},{"user_id":157,"name":"Sleuth","steam_id":76561198418288939,"connected_time":5235000000000,"state":"active","ping":56},{"user_id":156,"name":"SpringIvan","steam_id":76561199133179509,"connected_time":5251000000000,"state":"active","ping":60},{"user_id":203,"name":"Amateur Glaswegian","steam_id":76561198030851956,"connected_time":1301000000000,"state":"active","ping":78},{"user_id":197,"name":"Aryze #SaveTF2","steam_id":76561198119561581,"connected_time":2145000000000,"state":"active","ping":47},{"user_id":248,"name":"Florist","steam_id":76561198009121060,"connected_time":6000000000,"state":"spawning","ping":358},{"user_id":182,"name":"ThePalmTopSushi","steam_id":76561198847076153,"connected_time":3001000000000,"state":"active","ping":51},{"user_id":204,"name":"TTV/ChadMorningWood","steam_id":76561198139832291,"connected_time":1260000000000,"state":"active","ping":52},{"user_id":199,"name":"The Angel of Death","steam_id":76561198026079349,"connected_time":1979000000000,"state":"active","ping":97},{"user_id":189,"name":"diversity hire","steam_id":76561198022967929,"connected_time":2592000000000,"state":"active","ping":49},{"user_id":243,"name":"Doony","steam_id":76561198073472571,"connected_time":155000000000,"state":"active","ping":75},{"user_id":224,"name":"Ken-Sama","steam_id":76561198040465331,"connected_time":658000000000,"state":"active","ping":53},{"user_id":219,"name":"monkey squirts","steam_id":76561197983101644,"connected_time":766000000000,"state":"active","ping":44},{"user_id":247,"name":"onyxmckoy","steam_id":76561198047037902,"connected_time":68000000000,"state":"active","ping":44},{"user_id":146,"name":"[El Fail] MR.BadassMCLee","steam_id":76561198043787818,"connected_time":6956000000000,"state":"active","ping":62},{"user_id":172,"name":"Dat1SpenceyBoi","steam_id":76561199446171976,"connected_time":3944000000000,"state":"active","ping":48},{"user_id":171,"name":"Jolly","steam_id":76561198116357972,"connected_time":4217000000000,"state":"active","ping":47},{"user_id":244,"name":"TMP","steam_id":76561197995400066,"connected_time":152000000000,"state":"active","ping":77}]},{"server_id":324,"name":"Uncletopia | Los Angeles | 3 | All Maps","name_short":"lax-3","host":"lax-1.us.uncletopia.com","port":27035,"enabled":true,"region":"us-west","cc":"us","latitude":33.94279,"longitude":-118.41004,"reserved":0,"last_update":"0001-01-01T00:00:00Z","name_a2s":"Uncletopia | Los Angeles | 3 | All Maps","protocol":17,"map":"pl_frontier_final","folder":"tf","game":"Team Fortress","app_id":440,"player_count":25,"max_players":24,"Bots":0,"server_type":"Dedicated","server_os":"Linux","password":true,"vac":true,"version":"7757534","steam_id":85568392924510198,"keywords":["nocrits","nodmgspread","payload","uncletopia"],"game_id":440,"stv_port":27036,"stv_name":"Uncletopia | Los Angeles | 3 | All Maps | STV","players":[{"user_id":4,"name":"Kdash","steam_id":76561198043829155,"connected_time":4611000000000,"state":"active","ping":85},{"user_id":63,"name":"Fishandfish","steam_id":76561198298483804,"connected_time":1280000000000,"state":"active","ping":78},{"user_id":6,"name":"senzzz","steam_id":76561198089674742,"connected_time":4211000000000,"state":"active","ping":64},{"user_id":76,"name":"Erebus","steam_id":76561199061956673,"connected_time":948000000000,"state":"active","ping":127},{"user_id":41,"name":"speakers #4jammies","steam_id":76561198138221795,"connected_time":2855000000000,"state":"active","ping":104},{"user_id":75,"name":"TheGhost","steam_id":76561199373968569,"connected_time":974000000000,"state":"active","ping":123},{"user_id":35,"name":"FiddyFoMike","steam_id":76561198057072581,"connected_time":3267000000000,"state":"active","ping":55},{"user_id":73,"name":"Bman253","steam_id":76561198089945659,"connected_time":1013000000000,"state":"active","ping":114},{"user_id":96,"name":"clash.royale.fan.22","steam_id":76561198309760791,"connected_time":263000000000,"state":"active","ping":101},{"user_id":67,"name":"Plain Toast","steam_id":76561198451580251,"connected_time":1160000000000,"state":"active","ping":134},{"user_id":102,"name":"finman","steam_id":76561198127639913,"connected_time":6000000000,"state":"spawning","ping":44},{"user_id":59,"name":"twinnipple","steam_id":76561198032259680,"connected_time":1903000000000,"state":"active","ping":113},{"user_id":19,"name":"Shalom","steam_id":76561198410005222,"connected_time":3622000000000,"state":"active","ping":82},{"user_id":20,"name":"CadenLCheese","steam_id":76561199105517435,"connected_time":3618000000000,"state":"active","ping":83},{"user_id":60,"name":"emukill","steam_id":76561198053143720,"connected_time":1655000000000,"state":"active","ping":87},{"user_id":70,"name":"i forgor","steam_id":76561199120622265,"connected_time":1136000000000,"state":"active","ping":86},{"user_id":71,"name":"MasterAqua","steam_id":76561198044807380,"connected_time":1125000000000,"state":"active","ping":87},{"user_id":26,"name":"Loxic","steam_id":76561198043617388,"connected_time":3530000000000,"state":"active","ping":75},{"user_id":47,"name":"mike","steam_id":76561198163265338,"connected_time":2818000000000,"state":"active","ping":80},{"user_id":72,"name":"A Fruit","steam_id":76561198951830050,"connected_time":1095000000000,"state":"active","ping":74},{"user_id":61,"name":"Kamin","steam_id":76561198255299559,"connected_time":1623000000000,"state":"active","ping":96},{"user_id":62,"name":"DonoC","steam_id":76561198274473338,"connected_time":1413000000000,"state":"active","ping":96},{"user_id":56,"name":"Rowmaster","steam_id":76561198271659574,"connected_time":2312000000000,"state":"active","ping":97},{"user_id":74,"name":"pumbloom","steam_id":76561199161322235,"connected_time":996000000000,"state":"active","ping":52},{"user_id":80,"name":"MrChez198","steam_id":76561199243583673,"connected_time":743000000000,"state":"active","ping":114}]},{"server_id":25,"name":"Uncletopia | Los Angeles | 4 | Stopwatch Beta","name_short":"lax-4","host":"lax-1.us.uncletopia.com","port":27045,"enabled":true,"region":"us-west","cc":"us","latitude":33.94279,"longitude":-118.41004,"reserved":0,"last_update":"0001-01-01T00:00:00Z","name_a2s":"Uncletopia | Los Angeles | 4 | Stopwatch Beta","protocol":17,"map":"pl_swiftwater_final1","folder":"tf","game":"Team Fortress","app_id":440,"player_count":0,"max_players":24,"Bots":0,"server_type":"Dedicated","server_os":"Linux","password":true,"vac":true,"version":"7757534","steam_id":85568392924510199,"keywords":["nocrits","nodmgspread","payload","uncletopia"],"game_id":440,"stv_port":27046,"stv_name":"Uncletopia | Los Angeles | 4 | Stopwatch Beta | STV","players":null},{"server_id":11,"name":"Uncletopia | London | 1 | All Maps","name_short":"lon-1","host":"lon-1.uk.uncletopia.com","port":27015,"enabled":true,"region":"eu","cc":"gb","latitude":51.509865,"longitude":-0.118092,"reserved":0,"last_update":"0001-01-01T00:00:00Z","name_a2s":"Uncletopia | London | 1 | All Maps","protocol":17,"map":"cp_snakewater_final1","folder":"tf","game":"Team Fortress","app_id":440,"player_count":2,"max_players":24,"Bots":0,"server_type":"Dedicated","server_os":"Linux","password":true,"vac":true,"version":"7757534","steam_id":85568392924367362,"keywords":["cp","nocrits","nodmgspread","uncletopia"],"game_id":440,"stv_port":27016,"stv_name":"Uncletopia | London | 1 | All Maps | STV","players":[{"user_id":771,"name":"Will or Mole","steam_id":76561198046415938,"connected_time":57000000000,"state":"active","ping":56},{"user_id":772,"name":"Aaron","steam_id":76561197990046953,"connected_time":29000000000,"state":"active","ping":60}]},{"server_id":114,"name":"Uncletopia | London | 2 | All Maps","name_short":"lon-2","host":"lon-1.uk.uncletopia.com","port":27025,"enabled":true,"region":"eu","cc":"gb","latitude":51.509865,"longitude":-0.118092,"reserved":0,"last_update":"0001-01-01T00:00:00Z","name_a2s":"Uncletopia | London | 2 | All Maps","protocol":17,"map":"pl_badwater","folder":"tf","game":"Team Fortress","app_id":440,"player_count":24,"max_players":24,"Bots":0,"server_type":"Dedicated","server_os":"Linux","password":true,"vac":true,"version":"7757534","steam_id":85568392924470941,"keywords":["nocrits","nodmgspread","payload","uncletopia"],"game_id":440,"stv_port":27026,"stv_name":"Uncletopia | London | 2 | All Maps | STV","players":[{"user_id":663,"name":"Zonts","steam_id":76561198850176432,"connected_time":470000000000,"state":"active","ping":81},{"user_id":592,"name":"øpossum","steam_id":76561198056152479,"connected_time":4615000000000,"state":"active","ping":45},{"user_id":626,"name":"Minimi","steam_id":76561198873850443,"connected_time":2725000000000,"state":"active","ping":45},{"user_id":639,"name":"♥ aura ♥","steam_id":76561198066258544,"connected_time":2049000000000,"state":"active","ping":60},{"user_id":669,"name":"Sayu","steam_id":76561198395421637,"connected_time":168000000000,"state":"active","ping":60},{"user_id":648,"name":"Een schaap zonder slaap","steam_id":76561198084808410,"connected_time":1667000000000,"state":"active","ping":58},{"user_id":668,"name":"Gnarville","steam_id":76561198006373329,"connected_time":169000000000,"state":"active","ping":45},{"user_id":661,"name":"Squirrel Enthusiast","steam_id":76561198048759212,"connected_time":944000000000,"state":"active","ping":47},{"user_id":670,"name":"Haha?","steam_id":76561198056882245,"connected_time":143000000000,"state":"active","ping":117},{"user_id":671,"name":"!!!","steam_id":76561198026037217,"connected_time":141000000000,"state":"active","ping":86},{"user_id":657,"name":"Fran","steam_id":76561199070516960,"connected_time":1300000000000,"state":"active","ping":71},{"user_id":652,"name":"tm`","steam_id":76561197993580412,"connected_time":1473000000000,"state":"active","ping":60},{"user_id":658,"name":"Baki ඞ","steam_id":76561198193615529,"connected_time":1195000000000,"state":"active","ping":65},{"user_id":655,"name":"two fork","steam_id":76561199088913787,"connected_time":1440000000000,"state":"active","ping":53},{"user_id":674,"name":"Pinkchup","steam_id":76561198106802803,"connected_time":117000000000,"state":"active","ping":75},{"user_id":470,"name":"wide appreciator","steam_id":76561198083286511,"connected_time":12715000000000,"state":"active","ping":34},{"user_id":631,"name":"oldy","steam_id":76561198031899043,"connected_time":2653000000000,"state":"active","ping":69},{"user_id":673,"name":"BrownBreadMan","steam_id":76561199092834214,"connected_time":128000000000,"state":"active","ping":66},{"user_id":660,"name":"Storm","steam_id":76561198978140369,"connected_time":1028000000000,"state":"active","ping":59},{"user_id":598,"name":"Mammut","steam_id":76561198056773933,"connected_time":4536000000000,"state":"active","ping":55},{"user_id":632,"name":"Night Fury","steam_id":76561197995207032,"connected_time":2649000000000,"state":"active","ping":75},{"user_id":647,"name":"Glaze!","steam_id":76561199063223088,"connected_time":1731000000000,"state":"active","ping":163},{"user_id":659,"name":"Shovelhalfrusty","steam_id":76561198346447513,"connected_time":1186000000000,"state":"active","ping":67},{"user_id":665,"name":"Mr_Pulse_","steam_id":76561198095001602,"connected_time":261000000000,"state":"active","ping":104}]},{"server_id":320,"name":"Uncletopia | London | 3 | All Maps","name_short":"lon-3","host":"lon-1.uk.uncletopia.com","port":27035,"enabled":true,"region":"eu","cc":"gb","latitude":51.509865,"longitude":-0.118092,"reserved":0,"last_update":"0001-01-01T00:00:00Z","name_a2s":"Uncletopia | London | 3 | All Maps","protocol":17,"map":"pl_badwater","folder":"tf","game":"Team Fortress","app_id":440,"player_count":10,"max_players":24,"Bots":0,"server_type":"Dedicated","server_os":"Linux","password":true,"vac":true,"version":"7757534","steam_id":85568392924510192,"keywords":["nocrits","nodmgspread","payload","uncletopia"],"game_id":440,"stv_port":27036,"stv_name":"Uncletopia | London | 3 | All Maps | STV","players":[{"user_id":694,"name":"milk coke","steam_id":76561198122814249,"connected_time":1255000000000,"state":"active","ping":45},{"user_id":713,"name":"Bobo","steam_id":76561198052308399,"connected_time":30000000000,"state":"active","ping":63},{"user_id":691,"name":"Femboy Portal Radio Uncompresse","steam_id":76561198072320671,"connected_time":1307000000000,"state":"active","ping":44},{"user_id":708,"name":"jackirosss","steam_id":76561199403718993,"connected_time":560000000000,"state":"active","ping":151},{"user_id":697,"name":"♡ Mͨuͧfͭfͤin ♡","steam_id":76561198377242969,"connected_time":1203000000000,"state":"active","ping":50},{"user_id":696,"name":"Galex","steam_id":76561198045637579,"connected_time":1227000000000,"state":"active","ping":53},{"user_id":710,"name":"crafteen","steam_id":76561198362185755,"connected_time":480000000000,"state":"active","ping":49},{"user_id":701,"name":"Fifourche","steam_id":76561198078209480,"connected_time":1127000000000,"state":"active","ping":55},{"user_id":699,"name":"engie?","steam_id":76561198331852832,"connected_time":1180000000000,"state":"active","ping":44},{"user_id":632,"name":"Shearman360","steam_id":76561198193909685,"connected_time":5817000000000,"state":"active","ping":66}]},{"server_id":321,"name":"Uncletopia | London | 4 | All Maps","name_short":"lon-4","host":"lon-1.uk.uncletopia.com","port":27045,"enabled":true,"region":"eu","cc":"gb","latitude":51.509865,"longitude":-0.118092,"reserved":0,"last_update":"0001-01-01T00:00:00Z","name_a2s":"Uncletopia | London | 4 | All Maps","protocol":17,"map":"cp_sunshine","folder":"tf","game":"Team Fortress","app_id":440,"player_count":25,"max_players":24,"Bots":0,"server_type":"Dedicated","server_os":"Linux","password":true,"vac":true,"version":"7757534","steam_id":85568392924510193,"keywords":["cp","nocrits","nodmgspread","uncletopia"],"game_id":440,"stv_port":27046,"stv_name":"Uncletopia | London | 4 | All Maps | STV","players":[{"user_id":198,"name":"Atse","steam_id":76561199019974513,"connected_time":1093000000000,"state":"active","ping":117},{"user_id":201,"name":"Pruff","steam_id":76561198377084417,"connected_time":580000000000,"state":"active","ping":75},{"user_id":193,"name":"Yogfan800","steam_id":76561198089699429,"connected_time":1500000000000,"state":"active","ping":145},{"user_id":185,"name":"Sabi","steam_id":76561198202111522,"connected_time":1747000000000,"state":"active","ping":61},{"user_id":209,"name":"Alfred","steam_id":76561198348799252,"connected_time":78000000000,"state":"active","ping":45},{"user_id":203,"name":"mimiga","steam_id":76561198119449463,"connected_time":355000000000,"state":"active","ping":50},{"user_id":204,"name":"Milosz52","steam_id":76561199060940204,"connected_time":332000000000,"state":"active","ping":86},{"user_id":186,"name":"crackus #savetf2","steam_id":76561198230384788,"connected_time":1742000000000,"state":"active","ping":67},{"user_id":196,"name":"CiVillain","steam_id":76561198059617732,"connected_time":1298000000000,"state":"active","ping":66},{"user_id":205,"name":"Mirage","steam_id":76561199013190566,"connected_time":317000000000,"state":"active","ping":50},{"user_id":206,"name":"jawA","steam_id":76561198070341774,"connected_time":312000000000,"state":"active","ping":79},{"user_id":178,"name":"cow tools","steam_id":76561198216447231,"connected_time":2077000000000,"state":"active","ping":38},{"user_id":166,"name":"and i'm javert!","steam_id":76561198117033273,"connected_time":2672000000000,"state":"active","ping":52},{"user_id":211,"name":"S_ApplePie","steam_id":76561198106947669,"connected_time":18000000000,"state":"spawning","ping":487},{"user_id":194,"name":"elio","steam_id":76561198142662131,"connected_time":1481000000000,"state":"active","ping":66},{"user_id":187,"name":"Avarus","steam_id":76561198040324008,"connected_time":1741000000000,"state":"active","ping":61},{"user_id":179,"name":"MILKY","steam_id":76561199261620682,"connected_time":2066000000000,"state":"active","ping":84},{"user_id":188,"name":"Sirwλst3d","steam_id":76561198201935008,"connected_time":1741000000000,"state":"active","ping":74},{"user_id":128,"name":"AshieTheVixen","steam_id":76561199061018034,"connected_time":6562000000000,"state":"active","ping":84},{"user_id":208,"name":"eNine the FOREVER","steam_id":76561198890193313,"connected_time":236000000000,"state":"active","ping":65},{"user_id":175,"name":"Nero Claudius","steam_id":76561198173936397,"connected_time":2141000000000,"state":"active","ping":91},{"user_id":181,"name":"Trevor James","steam_id":76561198174510235,"connected_time":2055000000000,"state":"active","ping":49},{"user_id":190,"name":"Racco Slava Ukraina","steam_id":76561198198855238,"connected_time":1707000000000,"state":"active","ping":60},{"user_id":168,"name":"Blue⛧Melon","steam_id":76561197970926435,"connected_time":2551000000000,"state":"active","ping":125},{"user_id":212,"name":"JujuBalu","steam_id":76561198207253071,"connected_time":9000000000,"state":"spawning","ping":55}]},{"server_id":21,"name":"Uncletopia | London | 5 | All Maps","name_short":"lon-5","host":"lon-1.uk.uncletopia.com","port":27055,"enabled":true,"region":"eu","cc":"gb","latitude":51.509865,"longitude":-0.118092,"reserved":0,"last_update":"0001-01-01T00:00:00Z","name_a2s":"Uncletopia | London | 5 | All Maps","protocol":17,"map":"pl_thundermountain","folder":"tf","game":"Team Fortress","app_id":440,"player_count":0,"max_players":24,"Bots":0,"server_type":"Dedicated","server_os":"Linux","password":true,"vac":true,"version":"7757534","steam_id":85568392924742829,"keywords":["nocrits","nodmgspread","payload","uncletopia"],"game_id":440,"stv_port":27056,"stv_name":"Uncletopia | London | 5 | All Maps | STV","players":null},{"server_id":22,"name":"Uncletopia | London | 6 | All Maps","name_short":"lon-6","host":"lon-1.uk.uncletopia.com","port":27065,"enabled":true,"region":"eu","cc":"gb","latitude":51.509865,"longitude":-0.118092,"reserved":0,"last_update":"0001-01-01T00:00:00Z","name_a2s":"Uncletopia | London | 6 | All Maps","protocol":17,"map":"koth_cascade","folder":"tf","game":"Team Fortress","app_id":440,"player_count":0,"max_players":24,"Bots":0,"server_type":"Dedicated","server_os":"Linux","password":true,"vac":true,"version":"7757534","steam_id":85568392924742830,"keywords":["cp","nocrits","nodmgspread","uncletopia"],"game_id":440,"stv_port":27066,"stv_name":"Uncletopia | London | 6 | All Maps | STV","players":null},{"server_id":40,"name":"Uncletopia | London | 7 | No Payload","name_short":"lon-7","host":"lon-1.uk.uncletopia.com","port":27075,"enabled":true,"region":"eu","cc":"gb","latitude":51.509865,"longitude":-0.118092,"reserved":0,"last_update":"0001-01-01T00:00:00Z","name_a2s":"Uncletopia | London | 7 | No Payload","protocol":17,"map":"koth_nucleus","folder":"tf","game":"Team Fortress","app_id":440,"player_count":23,"max_players":24,"Bots":0,"server_type":"Dedicated","server_os":"Linux","password":true,"vac":true,"version":"7757534","steam_id":85568392924964314,"keywords":["cp","nocrits","nodmgspread","uncletopia"],"game_id":440,"stv_port":27076,"stv_name":"Uncletopia | London | 7 | No Payload | STV","players":[{"user_id":283,"name":"Littleyoshifan","steam_id":76561198445491045,"connected_time":669000000000,"state":"active","ping":39},{"user_id":284,"name":"Carl","steam_id":76561198285931413,"connected_time":573000000000,"state":"active","ping":122},{"user_id":285,"name":"Jonno","steam_id":76561198023443744,"connected_time":366000000000,"state":"active","ping":54},{"user_id":286,"name":"BELADIT","steam_id":76561198011911501,"connected_time":258000000000,"state":"active","ping":77},{"user_id":238,"name":"Wattoz","steam_id":76561198127779511,"connected_time":2907000000000,"state":"active","ping":60},{"user_id":265,"name":"Mussolini","steam_id":76561198218384865,"connected_time":1404000000000,"state":"active","ping":100},{"user_id":275,"name":"pensami forte","steam_id":76561198066071855,"connected_time":1253000000000,"state":"active","ping":74},{"user_id":290,"name":"Olaznot","steam_id":76561199111472610,"connected_time":61000000000,"state":"active","ping":79},{"user_id":257,"name":"Kolargole","steam_id":76561198159322070,"connected_time":1705000000000,"state":"active","ping":56},{"user_id":277,"name":"Tom Foolery","steam_id":76561198358895809,"connected_time":1219000000000,"state":"active","ping":46},{"user_id":239,"name":"Minus Rep","steam_id":76561198065992476,"connected_time":2864000000000,"state":"active","ping":146},{"user_id":266,"name":"Mike","steam_id":76561198021730102,"connected_time":1402000000000,"state":"active","ping":46},{"user_id":205,"name":"Reeder0417","steam_id":76561198160340032,"connected_time":5398000000000,"state":"active","ping":165},{"user_id":206,"name":"Zeora","steam_id":76561198799145251,"connected_time":5376000000000,"state":"active","ping":130},{"user_id":267,"name":"arcSolver","steam_id":76561198212013944,"connected_time":1387000000000,"state":"active","ping":58},{"user_id":273,"name":"yeyegoncas","steam_id":76561198061217656,"connected_time":1291000000000,"state":"active","ping":87},{"user_id":291,"name":"mrdko-šlápek","steam_id":76561198318109631,"connected_time":54000000000,"state":"active","ping":75},{"user_id":246,"name":"A Succulent Chinese Meal","steam_id":76561198069472440,"connected_time":2476000000000,"state":"active","ping":111},{"user_id":235,"name":"skindiver376","steam_id":76561198056533071,"connected_time":3222000000000,"state":"active","ping":63},{"user_id":278,"name":"Cuthbert","steam_id":76561199372499185,"connected_time":1178000000000,"state":"active","ping":57},{"user_id":292,"name":"tiiyama","steam_id":76561198046196005,"connected_time":49000000000,"state":"active","ping":45},{"user_id":250,"name":"cock wizard","steam_id":76561198045826293,"connected_time":2333000000000,"state":"active","ping":40},{"user_id":289,"name":"☁⭍ qBowN∼","steam_id":76561198000980532,"connected_time":216000000000,"state":"active","ping":59}]},{"server_id":41,"name":"Uncletopia | London | 8 | Community","name_short":"lon-8","host":"lon-1.uk.uncletopia.com","port":27085,"enabled":true,"region":"eu","cc":"gb","latitude":51.509865,"longitude":-0.118092,"reserved":0,"last_update":"0001-01-01T00:00:00Z","name_a2s":"Uncletopia | London | 8 | Community","protocol":17,"map":"workshop/koth_ashville_final.ugc2130459942","folder":"tf","game":"Team Fortress","app_id":440,"player_count":2,"max_players":24,"Bots":0,"server_type":"Dedicated","server_os":"Linux","password":true,"vac":true,"version":"7757534","steam_id":85568392924964315,"keywords":["cp","nocrits","nodmgspread","uncletopia"],"game_id":440,"stv_port":27086,"stv_name":"Uncletopia | London | 8 | Community | STV","players":[{"user_id":33,"name":"Kiz","steam_id":76561198811732820,"connected_time":2418000000000,"state":"active","ping":76},{"user_id":38,"name":"DicyPicky","steam_id":76561198078873335,"connected_time":200000000000,"state":"active","ping":60}]},{"server_id":300,"name":"Uncletopia | Montréal | 1 | All Maps","name_short":"mtl-1","host":"mtl-1.ca.uncletopia.com","port":27015,"enabled":true,"region":"us-east","cc":"ca","latitude":45.50889,"longitude":-73.56167,"reserved":0,"last_update":"0001-01-01T00:00:00Z","name_a2s":"Uncletopia | Montréal | 1 | All Maps","protocol":17,"map":"cp_process_final","folder":"tf","game":"Team Fortress","app_id":440,"player_count":13,"max_players":24,"Bots":0,"server_type":"Dedicated","server_os":"Linux","password":true,"vac":true,"version":"7757534","steam_id":85568392924500087,"keywords":["cp","nocrits","nodmgspread","uncletopia"],"game_id":440,"stv_port":27016,"stv_name":"Uncletopia | Montréal | 1 | All Maps | STV","players":[{"user_id":192,"name":"GanZ","steam_id":76561199378883538,"connected_time":1458000000000,"state":"active","ping":58},{"user_id":203,"name":"hightower npc","steam_id":76561198097588802,"connected_time":114000000000,"state":"active","ping":60},{"user_id":195,"name":"Roasty","steam_id":76561198071079859,"connected_time":610000000000,"state":"active","ping":59},{"user_id":198,"name":"Waaagh!","steam_id":76561197995317887,"connected_time":336000000000,"state":"active","ping":45},{"user_id":183,"name":"FS Jorda (She/Her)","steam_id":76561198071421459,"connected_time":1839000000000,"state":"active","ping":44},{"user_id":202,"name":"shawty say i smell","steam_id":76561198059560324,"connected_time":203000000000,"state":"active","ping":67},{"user_id":200,"name":"Krusty Nut","steam_id":76561198120637924,"connected_time":285000000000,"state":"active","ping":48},{"user_id":196,"name":"Tito","steam_id":76561198041702529,"connected_time":489000000000,"state":"active","ping":68},{"user_id":190,"name":"the the the","steam_id":76561198102521839,"connected_time":1614000000000,"state":"active","ping":60},{"user_id":115,"name":"dog","steam_id":76561198090737207,"connected_time":6693000000000,"state":"active","ping":106},{"user_id":116,"name":"Rickysuper_52","steam_id":76561198067865179,"connected_time":6682000000000,"state":"active","ping":133},{"user_id":191,"name":"77IM","steam_id":76561198043703684,"connected_time":1595000000000,"state":"active","ping":59},{"user_id":189,"name":"owen nine","steam_id":76561198041809679,"connected_time":1706000000000,"state":"active","ping":59}]},{"server_id":301,"name":"Uncletopia | Montréal | 2 | All Maps","name_short":"mtl-2","host":"mtl-1.ca.uncletopia.com","port":27025,"enabled":true,"region":"us-east","cc":"ca","latitude":45.50889,"longitude":-73.56167,"reserved":0,"last_update":"0001-01-01T00:00:00Z","name_a2s":"Uncletopia | Montréal | 2 | All Maps","protocol":17,"map":"koth_lakeside_final","folder":"tf","game":"Team Fortress","app_id":440,"player_count":0,"max_players":24,"Bots":0,"server_type":"Dedicated","server_os":"Linux","password":true,"vac":true,"version":"7757534","steam_id":85568392924500088,"keywords":["cp","nocrits","nodmgspread","uncletopia"],"game_id":440,"stv_port":27026,"stv_name":"Uncletopia | Montréal | 2 | All Maps | STV","players":null},{"server_id":302,"name":"Uncletopia | Montréal | 3 | All Maps","name_short":"mtl-3","host":"mtl-1.ca.uncletopia.com","port":27035,"enabled":true,"region":"us-east","cc":"ca","latitude":45.50889,"longitude":-73.56167,"reserved":0,"last_update":"0001-01-01T00:00:00Z","name_a2s":"Uncletopia | Montréal | 3 | All Maps","protocol":17,"map":"pl_badwater","folder":"tf","game":"Team Fortress","app_id":440,"player_count":0,"max_players":24,"Bots":0,"server_type":"Dedicated","server_os":"Linux","password":true,"vac":true,"version":"7757534","steam_id":85568392924500089,"keywords":["nocrits","nodmgspread","payload","uncletopia"],"game_id":440,"stv_port":27036,"stv_name":"Uncletopia | Montréal | 3 | All Maps | STV","players":null},{"server_id":303,"name":"Uncletopia | Montréal | 4 | No Payload","name_short":"mtl-4","host":"mtl-1.ca.uncletopia.com","port":27045,"enabled":true,"region":"us-east","cc":"ca","latitude":45.50889,"longitude":-73.56167,"reserved":0,"last_update":"0001-01-01T00:00:00Z","name_a2s":"Uncletopia | Montréal | 4 | No Payload","protocol":17,"map":"ctf_doublecross","folder":"tf","game":"Team Fortress","app_id":440,"player_count":0,"max_players":24,"Bots":0,"server_type":"Dedicated","server_os":"Linux","password":true,"vac":true,"version":"7757534","steam_id":85568392924500090,"keywords":["ctf","nocrits","nodmgspread","uncletopia"],"game_id":440,"stv_port":27046,"stv_name":"Uncletopia | Montréal | 4 | No Payload | STV","players":null},{"server_id":13,"name":"Uncletopia | New York City | 1 | All Maps","name_short":"nyc-1","host":"nyc-1.us.uncletopia.com","port":27015,"enabled":true,"region":"us-east","cc":"us","latitude":40.73061,"longitude":-73.93524,"reserved":0,"last_update":"0001-01-01T00:00:00Z","name_a2s":"Uncletopia | New York City | 1 | All Maps","protocol":17,"map":"cp_5gorge","folder":"tf","game":"Team Fortress","app_id":440,"player_count":24,"max_players":24,"Bots":0,"server_type":"Dedicated","server_os":"Linux","password":true,"vac":true,"version":"7757534","steam_id":85568392924469993,"keywords":["cp","nocrits","nodmgspread","uncletopia"],"game_id":440,"stv_port":27016,"stv_name":"Uncletopia | New York City | 1 | All Maps | STV","players":[{"user_id":435,"name":"Victor Skull","steam_id":76561198352212864,"connected_time":209000000000,"state":"active","ping":38},{"user_id":426,"name":"TheRealJake_12","steam_id":76561198991960738,"connected_time":830000000000,"state":"active","ping":94},{"user_id":376,"name":"JimmyNeutron","steam_id":76561197993353322,"connected_time":4995000000000,"state":"active","ping":84},{"user_id":419,"name":"Fancy Bed","steam_id":76561198007172366,"connected_time":1508000000000,"state":"active","ping":47},{"user_id":391,"name":"frying pan gaming","steam_id":76561199097866312,"connected_time":2793000000000,"state":"active","ping":105},{"user_id":282,"name":"MrrPamplemousse","steam_id":76561198072241333,"connected_time":10711000000000,"state":"active","ping":56},{"user_id":425,"name":"pg13","steam_id":76561198313032934,"connected_time":859000000000,"state":"active","ping":44},{"user_id":420,"name":"RomanLegate","steam_id":76561198931699640,"connected_time":1447000000000,"state":"active","ping":70},{"user_id":428,"name":"I'm Going Goblin Mode","steam_id":76561198084167611,"connected_time":815000000000,"state":"active","ping":85},{"user_id":382,"name":"boiled hotdog water","steam_id":76561198121236148,"connected_time":3828000000000,"state":"active","ping":45},{"user_id":421,"name":"booyah! cumshot!","steam_id":76561198044034546,"connected_time":1177000000000,"state":"active","ping":53},{"user_id":427,"name":"Penis but it rhymes with Venice","steam_id":76561197986420836,"connected_time":825000000000,"state":"active","ping":56},{"user_id":434,"name":"CHILD SOLDIER #2","steam_id":76561198381199862,"connected_time":233000000000,"state":"active","ping":72},{"user_id":409,"name":"Leyor","steam_id":76561199037658406,"connected_time":2020000000000,"state":"active","ping":120},{"user_id":410,"name":"xAndrew","steam_id":76561199203948381,"connected_time":2006000000000,"state":"active","ping":160},{"user_id":436,"name":"Dwarfo","steam_id":76561198119220289,"connected_time":192000000000,"state":"active","ping":73},{"user_id":411,"name":"xXcLaImEd__ReApErXx [F2P]","steam_id":76561198067232540,"connected_time":2000000000000,"state":"active","ping":90},{"user_id":404,"name":"Queso2469","steam_id":76561197993024580,"connected_time":2225000000000,"state":"active","ping":45},{"user_id":437,"name":"Gamba","steam_id":76561198069264650,"connected_time":155000000000,"state":"active","ping":75},{"user_id":431,"name":"RaixaR","steam_id":76561198025289430,"connected_time":328000000000,"state":"active","ping":91},{"user_id":429,"name":"craf","steam_id":76561198163535075,"connected_time":793000000000,"state":"active","ping":55},{"user_id":430,"name":"BIGGEST MAC","steam_id":76561198847517098,"connected_time":768000000000,"state":"active","ping":83},{"user_id":368,"name":"Sire Salty","steam_id":76561198079639072,"connected_time":5291000000000,"state":"active","ping":60},{"user_id":416,"name":"chiswola","steam_id":76561198046920142,"connected_time":1852000000000,"state":"active","ping":88}]},{"server_id":14,"name":"Uncletopia | New York City | 2 | All Maps","name_short":"nyc-2","host":"nyc-1.us.uncletopia.com","port":27025,"enabled":true,"region":"us-east","cc":"us","latitude":40.73061,"longitude":-73.93524,"reserved":0,"last_update":"0001-01-01T00:00:00Z","name_a2s":"Uncletopia | New York City | 2 | All Maps","protocol":17,"map":"cp_gravelpit","folder":"tf","game":"Team Fortress","app_id":440,"player_count":17,"max_players":24,"Bots":0,"server_type":"Dedicated","server_os":"Linux","password":true,"vac":true,"version":"7757534","steam_id":85568392924469994,"keywords":["cp","nocrits","nodmgspread","uncletopia"],"game_id":440,"stv_port":27026,"stv_name":"Uncletopia | New York City | 2 | All Maps | STV","players":[{"user_id":363,"name":"CupcakeWarlock","steam_id":76561198179963697,"connected_time":170000000000,"state":"active","ping":52},{"user_id":364,"name":"spacekatz","steam_id":76561199233534887,"connected_time":166000000000,"state":"active","ping":81},{"user_id":357,"name":"who is gavin?","steam_id":76561198069415057,"connected_time":620000000000,"state":"active","ping":43},{"user_id":353,"name":"Al Cabone","steam_id":76561198956823243,"connected_time":825000000000,"state":"active","ping":54},{"user_id":343,"name":"Gocel","steam_id":76561198071467515,"connected_time":1440000000000,"state":"active","ping":46},{"user_id":365,"name":"BarrowBaron","steam_id":76561198013633236,"connected_time":156000000000,"state":"active","ping":73},{"user_id":366,"name":"Stupid Sexy Flanders","steam_id":76561198136311983,"connected_time":100000000000,"state":"active","ping":57},{"user_id":367,"name":"That Fluoride Stare","steam_id":76561198047377080,"connected_time":100000000000,"state":"active","ping":83},{"user_id":368,"name":"Crazy Ivan","steam_id":76561197993072059,"connected_time":85000000000,"state":"active","ping":55},{"user_id":351,"name":"Lt. Ghosty","steam_id":76561198044980501,"connected_time":1192000000000,"state":"active","ping":61},{"user_id":370,"name":"pee man","steam_id":76561199134435413,"connected_time":4000000000,"state":"spawning","ping":109},{"user_id":346,"name":"MEDIC GAMING BOI","steam_id":76561198303608388,"connected_time":1382000000000,"state":"active","ping":60},{"user_id":369,"name":"Arinikus","steam_id":76561198025652136,"connected_time":73000000000,"state":"active","ping":44},{"user_id":349,"name":"Punished Mura","steam_id":76561198111407699,"connected_time":1335000000000,"state":"active","ping":90},{"user_id":264,"name":"Atlas","steam_id":76561198127975050,"connected_time":7364000000000,"state":"active","ping":66},{"user_id":358,"name":"Sychke","steam_id":76561198067144055,"connected_time":576000000000,"state":"active","ping":72},{"user_id":329,"name":"King Sans","steam_id":76561198294198517,"connected_time":2484000000000,"state":"active","ping":43}]},{"server_id":15,"name":"Uncletopia | New York City | 3 | Stopwatch Beta","name_short":"nyc-3","host":"nyc-1.us.uncletopia.com","port":27035,"enabled":true,"region":"us-east","cc":"us","latitude":40.73061,"longitude":-73.93524,"reserved":0,"last_update":"0001-01-01T00:00:00Z","name_a2s":"Uncletopia | New York City | 3 | Stopwatch Beta","protocol":17,"map":"pl_upward","folder":"tf","game":"Team Fortress","app_id":440,"player_count":0,"max_players":24,"Bots":0,"server_type":"Dedicated","server_os":"Linux","password":true,"vac":true,"version":"7757534","steam_id":85568392924742820,"keywords":["nocrits","nodmgspread","payload","uncletopia"],"game_id":440,"stv_port":27036,"stv_name":"Uncletopia | New York City | 3 | Stopwatch Beta | STV","players":null},{"server_id":16,"name":"Uncletopia | New York City | 4 | Community","name_short":"nyc-4","host":"nyc-1.us.uncletopia.com","port":27045,"enabled":true,"region":"us-east","cc":"us","latitude":40.73061,"longitude":-73.93524,"reserved":0,"last_update":"0001-01-01T00:00:00Z","name_a2s":"Uncletopia | New York City | 4 | Community","protocol":17,"map":"workshop/pl_divulgence_b4b.ugc2884808746","folder":"tf","game":"Team Fortress","app_id":440,"player_count":1,"max_players":24,"Bots":0,"server_type":"Dedicated","server_os":"Linux","password":true,"vac":true,"version":"7757534","steam_id":85568392924742821,"keywords":["nocrits","nodmgspread","payload","uncletopia"],"game_id":440,"stv_port":27046,"stv_name":"Uncletopia | New York City | 4 | Community | STV","players":[{"user_id":8,"name":"Dozer","steam_id":76561197998742338,"connected_time":31000000000,"state":"active","ping":135}]},{"server_id":142,"name":"Uncletopia | São Paulo | 1 | All Maps","name_short":"sao-1","host":"sao-1.br.uncletopia.com","port":27015,"enabled":true,"region":"sa","cc":"br","latitude":-23.533773,"longitude":-46.62529,"reserved":0,"last_update":"0001-01-01T00:00:00Z","name_a2s":"Uncletopia | São Paulo | 1 | All Maps","protocol":17,"map":"koth_viaduct","folder":"tf","game":"Team Fortress","app_id":440,"player_count":0,"max_players":24,"Bots":0,"server_type":"Dedicated","server_os":"Linux","password":true,"vac":true,"version":"7757534","steam_id":85568392924469996,"keywords":["cp","nocrits","nodmgspread","uncletopia"],"game_id":440,"stv_port":27016,"stv_name":"Uncletopia | São Paulo | 1 | All Maps | STV","players":null},{"server_id":143,"name":"Uncletopia | São Paulo | 2 | All Maps","name_short":"sao-2","host":"sao-2.br.uncletopia.com","port":27015,"enabled":true,"region":"sa","cc":"br","latitude":-23.533773,"longitude":-46.62529,"reserved":0,"last_update":"0001-01-01T00:00:00Z","name_a2s":"Uncletopia | São Paulo | 2 | All Maps","protocol":17,"map":"cp_sunshine","folder":"tf","game":"Team Fortress","app_id":440,"player_count":0,"max_players":24,"Bots":0,"server_type":"Dedicated","server_os":"Linux","password":true,"vac":true,"version":"7757534","steam_id":85568392924485349,"keywords":["cp","nocrits","nodmgspread","uncletopia"],"game_id":440,"stv_port":27016,"stv_name":"Uncletopia | São Paulo | 2 | All Maps | STV","players":null},{"server_id":7,"name":"Uncletopia | Seattle | 1 | All Maps","name_short":"sea-1","host":"sea-1.us.uncletopia.com","port":27015,"enabled":true,"region":"us-west","cc":"us","latitude":47.608013,"longitude":-122.33517,"reserved":0,"last_update":"0001-01-01T00:00:00Z","name_a2s":"Uncletopia | Seattle | 1 | All Maps","protocol":17,"map":"pl_thundermountain","folder":"tf","game":"Team Fortress","app_id":440,"player_count":21,"max_players":24,"Bots":0,"server_type":"Dedicated","server_os":"Linux","password":true,"vac":true,"version":"7757534","steam_id":85568392924469997,"keywords":["cp","nocrits","nodmgspread","uncletopia"],"game_id":440,"stv_port":27016,"stv_name":"Uncletopia | Seattle | 1 | All Maps | STV","players":[{"user_id":262,"name":"lavender","steam_id":76561199069518286,"connected_time":6615000000000,"state":"connecting","ping":89},{"user_id":312,"name":"Uta","steam_id":76561198271964253,"connected_time":2271000000000,"state":"connecting","ping":82},{"user_id":319,"name":"EnbySeven","steam_id":76561198981899169,"connected_time":2142000000000,"state":"connecting","ping":68},{"user_id":324,"name":"THE_DARK_TRICKSTER","steam_id":76561198870649125,"connected_time":1908000000000,"state":"connecting","ping":107},{"user_id":333,"name":"gloobern","steam_id":76561198341190679,"connected_time":52000000000,"state":"connecting","ping":354},{"user_id":240,"name":"Corpe","steam_id":76561198054490549,"connected_time":9386000000000,"state":"connecting","ping":75},{"user_id":318,"name":"yaoi knight","steam_id":76561199047969318,"connected_time":2153000000000,"state":"connecting","ping":79},{"user_id":329,"name":"Nakasmacka","steam_id":76561198049787270,"connected_time":934000000000,"state":"connecting","ping":38},{"user_id":327,"name":"Saint Pablo","steam_id":76561198083300159,"connected_time":1498000000000,"state":"connecting","ping":93},{"user_id":325,"name":"( ● 3 - ) ©","steam_id":76561199196821524,"connected_time":1675000000000,"state":"connecting","ping":77},{"user_id":310,"name":"Peppy","steam_id":76561198866629645,"connected_time":2552000000000,"state":"connecting","ping":148},{"user_id":330,"name":"ZEKKER","steam_id":76561197967968980,"connected_time":653000000000,"state":"connecting","ping":53},{"user_id":328,"name":"sudoku_fiend","steam_id":76561198152029104,"connected_time":1379000000000,"state":"connecting","ping":103},{"user_id":332,"name":"pogchampion","steam_id":76561198848661766,"connected_time":613000000000,"state":"connecting","ping":65},{"user_id":326,"name":"Benny","steam_id":76561198169559422,"connected_time":1673000000000,"state":"connecting","ping":78},{"user_id":301,"name":"Boyaredeen","steam_id":76561198880492636,"connected_time":3029000000000,"state":"connecting","ping":74},{"user_id":323,"name":"BreadQuest","steam_id":76561198082425960,"connected_time":1934000000000,"state":"connecting","ping":53},{"user_id":289,"name":"LWebb","steam_id":76561199162936929,"connected_time":3937000000000,"state":"connecting","ping":94},{"user_id":297,"name":"DazedBunny","steam_id":76561198243610560,"connected_time":3076000000000,"state":"connecting","ping":78}]},{"server_id":119,"name":"Uncletopia | Seattle | 2 | All Maps","name_short":"sea-2","host":"sea-1.us.uncletopia.com","port":27025,"enabled":true,"region":"us-west","cc":"us","latitude":47.608013,"longitude":-122.33517,"reserved":0,"last_update":"0001-01-01T00:00:00Z","name_a2s":"Uncletopia | Seattle | 2 | All Maps","protocol":17,"map":"cp_snakewater_final1","folder":"tf","game":"Team Fortress","app_id":440,"player_count":24,"max_players":24,"Bots":0,"server_type":"Dedicated","server_os":"Linux","password":true,"vac":true,"version":"7757534","steam_id":85568392924469998,"keywords":["cp","nocrits","nodmgspread","uncletopia"],"game_id":440,"stv_port":27026,"stv_name":"Uncletopia | Seattle | 2 | All Maps | STV","players":[{"user_id":171,"name":"COOL master_9","steam_id":76561198073041151,"connected_time":3090000000000,"state":"active","ping":105},{"user_id":203,"name":"The dreaded jar","steam_id":76561199087010656,"connected_time":301000000000,"state":"active","ping":60},{"user_id":191,"name":"Thanatos","steam_id":76561198103077571,"connected_time":1265000000000,"state":"active","ping":60},{"user_id":161,"name":"Shadow","steam_id":76561199020345303,"connected_time":3954000000000,"state":"active","ping":85},{"user_id":198,"name":"Algibruh","steam_id":76561199221599415,"connected_time":1050000000000,"state":"active","ping":59},{"user_id":204,"name":"themadlad67","steam_id":76561199309554436,"connected_time":43000000000,"state":"active","ping":56},{"user_id":190,"name":"slapnuts","steam_id":76561198170404082,"connected_time":1391000000000,"state":"active","ping":53},{"user_id":194,"name":"Bastee1021","steam_id":76561199456141163,"connected_time":1180000000000,"state":"active","ping":108},{"user_id":153,"name":"Hindmost","steam_id":76561199081837220,"connected_time":4178000000000,"state":"active","ping":112},{"user_id":188,"name":"tconnors1976","steam_id":76561198840033336,"connected_time":1739000000000,"state":"active","ping":59},{"user_id":178,"name":"Evanb","steam_id":76561198042057792,"connected_time":2330000000000,"state":"active","ping":43},{"user_id":200,"name":"Feldspaten","steam_id":76561199122059102,"connected_time":819000000000,"state":"active","ping":84},{"user_id":189,"name":"Lonestar827","steam_id":76561198035533639,"connected_time":1407000000000,"state":"active","ping":57},{"user_id":168,"name":"Snippykeegan","steam_id":76561198274529343,"connected_time":3424000000000,"state":"active","ping":66},{"user_id":196,"name":"zephyr","steam_id":76561198436431109,"connected_time":1149000000000,"state":"active","ping":52},{"user_id":165,"name":"「💨」 SONIC .ᐟ","steam_id":76561198082985910,"connected_time":3909000000000,"state":"active","ping":130},{"user_id":197,"name":"Jerry Bondle","steam_id":76561198337512213,"connected_time":1097000000000,"state":"active","ping":117},{"user_id":182,"name":"♦Benji♦","steam_id":76561198313529973,"connected_time":2093000000000,"state":"active","ping":37},{"user_id":202,"name":"DIGGY","steam_id":76561198991238982,"connected_time":550000000000,"state":"active","ping":58},{"user_id":170,"name":"Tea","steam_id":76561198004133638,"connected_time":3105000000000,"state":"active","ping":85},{"user_id":177,"name":"Swampdonkey","steam_id":76561197998832682,"connected_time":2470000000000,"state":"active","ping":55},{"user_id":185,"name":"Rav","steam_id":76561198358105415,"connected_time":1873000000000,"state":"active","ping":93},{"user_id":75,"name":"Fire_box41238","steam_id":76561199185673650,"connected_time":9174000000000,"state":"active","ping":54},{"user_id":187,"name":"Tomoko2001","steam_id":76561198047117990,"connected_time":1837000000000,"state":"active","ping":134}]},{"server_id":406,"name":"Uncletopia | Seattle | 3 | Stopwatch Beta","name_short":"sea-3","host":"sea-1.us.uncletopia.com","port":27035,"enabled":true,"region":"us-west","cc":"us","latitude":47.608013,"longitude":-122.33517,"reserved":0,"last_update":"0001-01-01T00:00:00Z","name_a2s":"Uncletopia | Seattle | 3 | Stopwatch Beta","protocol":17,"map":"workshop/pl_badwater_pro_v12.ugc2142942074","folder":"tf","game":"Team Fortress","app_id":440,"player_count":0,"max_players":24,"Bots":0,"server_type":"Dedicated","server_os":"Linux","password":true,"vac":true,"version":"7757534","steam_id":85568392924515217,"keywords":["nocrits","nodmgspread","payload","uncletopia"],"game_id":440,"stv_port":27036,"stv_name":"Uncletopia | Seattle | 3 | Stopwatch Beta | STV","players":null},{"server_id":17,"name":"Uncletopia | San Francisco | 1 | All Maps","name_short":"sfo-1","host":"sfo-1.us.uncletopia.com","port":27015,"enabled":true,"region":"us-west","cc":"us","latitude":37.77397,"longitude":-122.4313,"reserved":0,"last_update":"0001-01-01T00:00:00Z","name_a2s":"Uncletopia | San Francisco | 1 | All Maps","protocol":17,"map":"cp_dustbowl","folder":"tf","game":"Team Fortress","app_id":440,"player_count":24,"max_players":24,"Bots":0,"server_type":"Dedicated","server_os":"Linux","password":true,"vac":true,"version":"7757534","steam_id":85568392924469999,"keywords":["cp","nocrits","nodmgspread","uncletopia"],"game_id":440,"stv_port":27016,"stv_name":"Uncletopia | San Francisco | 1 | All Maps | STV","players":[{"user_id":23,"name":"Jimmy","steam_id":76561198857959855,"connected_time":1949000000000,"state":"active","ping":47},{"user_id":38,"name":"A Skilled Player","steam_id":76561198075619480,"connected_time":933000000000,"state":"active","ping":60},{"user_id":39,"name":"Red.Dude115","steam_id":76561198093069044,"connected_time":928000000000,"state":"active","ping":93},{"user_id":27,"name":"INFINITY","steam_id":76561199104514098,"connected_time":1475000000000,"state":"active","ping":189},{"user_id":28,"name":"cookypuss","steam_id":76561197961275239,"connected_time":1452000000000,"state":"active","ping":67},{"user_id":29,"name":"Funkmaster Yee","steam_id":76561198037738918,"connected_time":1333000000000,"state":"active","ping":73},{"user_id":40,"name":"Sadodere Grimace","steam_id":76561198008332028,"connected_time":916000000000,"state":"active","ping":66},{"user_id":31,"name":"my teammates are why we win","steam_id":76561198023324513,"connected_time":1155000000000,"state":"active","ping":59},{"user_id":53,"name":"Sax","steam_id":76561198055425123,"connected_time":589000000000,"state":"active","ping":77},{"user_id":58,"name":"Spring Heeled Jack","steam_id":76561198285772643,"connected_time":39000000000,"state":"active","ping":121},{"user_id":34,"name":"Big Mean Mother Hubbard","steam_id":76561199440310323,"connected_time":1121000000000,"state":"active","ping":115},{"user_id":35,"name":"Leonardo Doujinshi","steam_id":76561198073531273,"connected_time":1099000000000,"state":"active","ping":62},{"user_id":36,"name":"Sports Anime Protagonist","steam_id":76561198112635823,"connected_time":964000000000,"state":"active","ping":79},{"user_id":37,"name":"Wicki","steam_id":76561198122590990,"connected_time":952000000000,"state":"active","ping":85},{"user_id":56,"name":"my teammates are why we lose","steam_id":76561198306393090,"connected_time":209000000000,"state":"active","ping":115},{"user_id":43,"name":"whcolours999","steam_id":76561199107378268,"connected_time":814000000000,"state":"active","ping":96},{"user_id":57,"name":"HeloYeloFelo","steam_id":76561198128628781,"connected_time":185000000000,"state":"active","ping":112},{"user_id":46,"name":"CashBin","steam_id":76561199382865598,"connected_time":669000000000,"state":"active","ping":93},{"user_id":47,"name":"Ayyyy","steam_id":76561198121729211,"connected_time":663000000000,"state":"active","ping":55},{"user_id":48,"name":"fukfuk the friendly dinosaur","steam_id":76561198111878431,"connected_time":658000000000,"state":"active","ping":83},{"user_id":59,"name":"Flyingcat9000","steam_id":76561198179561797,"connected_time":39000000000,"state":"active","ping":35},{"user_id":50,"name":"Sandwich Sam","steam_id":76561198170089546,"connected_time":628000000000,"state":"active","ping":106},{"user_id":55,"name":"RIP Bashar Jackson","steam_id":76561198062940197,"connected_time":258000000000,"state":"active","ping":61}]},{"server_id":18,"name":"Uncletopia | San Francisco | 2 | All Maps","name_short":"sfo-2","host":"sfo-1.us.uncletopia.com","port":27025,"enabled":true,"region":"us-west","cc":"us","latitude":37.77397,"longitude":-122.4313,"reserved":0,"last_update":"0001-01-01T00:00:00Z","name_a2s":"Uncletopia | San Francisco | 2 | All Maps","protocol":17,"map":"koth_highpass","folder":"tf","game":"Team Fortress","app_id":440,"player_count":0,"max_players":24,"Bots":0,"server_type":"Dedicated","server_os":"Linux","password":true,"vac":true,"version":"7757534","steam_id":85568392924470000,"keywords":["cp","nocrits","nodmgspread","uncletopia"],"game_id":440,"stv_port":27026,"stv_name":"Uncletopia | San Francisco | 2 | All Maps | STV","players":null},{"server_id":19,"name":"Uncletopia | San Francisco | 3 | Stopwatch Beta","name_short":"sfo-3","host":"sfo-1.us.uncletopia.com","port":27035,"enabled":true,"region":"us-west","cc":"us","latitude":37.77397,"longitude":-122.4313,"reserved":0,"last_update":"0001-01-01T00:00:00Z","name_a2s":"Uncletopia | San Francisco | 3 | Stopwatch Beta","protocol":17,"map":"workshop/koth_clearcut_b15.ugc2107050255","folder":"tf","game":"Team Fortress","app_id":440,"player_count":0,"max_players":24,"Bots":0,"server_type":"Dedicated","server_os":"Linux","password":true,"vac":true,"version":"7757534","steam_id":85568392924742824,"keywords":["cp","nocrits","nodmgspread","uncletopia"],"game_id":440,"stv_port":27036,"stv_name":"Uncletopia | San Francisco | 3 | Stopwatch Beta | STV","players":null},{"server_id":20,"name":"Uncletopia | San Francisco | 4 | Community","name_short":"sfo-4","host":"sfo-1.us.uncletopia.com","port":27045,"enabled":true,"region":"us-west","cc":"us","latitude":37.77397,"longitude":-122.4313,"reserved":0,"last_update":"0001-01-01T00:00:00Z","name_a2s":"Uncletopia | San Francisco | 4 | Community","protocol":17,"map":"workshop/pl_cactuscanyon_redux_final2.ugc2579644293","folder":"tf","game":"Team Fortress","app_id":440,"player_count":0,"max_players":24,"Bots":0,"server_type":"Dedicated","server_os":"Linux","password":true,"vac":true,"version":"7757534","steam_id":85568392924742826,"keywords":["nocrits","nodmgspread","payload","uncletopia"],"game_id":440,"stv_port":27046,"stv_name":"Uncletopia | San Francisco | 4 | Community | STV","players":null},{"server_id":141,"name":"Uncletopia | Sydney | 1 | All Maps","name_short":"syd-1","host":"syd-1.au.uncletopia.com","port":27015,"enabled":true,"region":"au","cc":"au","latitude":-33.865143,"longitude":151.2099,"reserved":0,"last_update":"0001-01-01T00:00:00Z","name_a2s":"Uncletopia | Sydney | 1 | All Maps","protocol":17,"map":"koth_viaduct","folder":"tf","game":"Team Fortress","app_id":440,"player_count":0,"max_players":24,"Bots":0,"server_type":"Dedicated","server_os":"Linux","password":true,"vac":true,"version":"7757534","steam_id":85568392924470001,"keywords":["cp","nocrits","nodmgspread","uncletopia"],"game_id":440,"stv_port":27016,"stv_name":"Uncletopia | Sydney | 1 | All Maps | STV","players":null},{"server_id":123,"name":"Uncletopia | Sydney | 2 | All Maps","name_short":"syd-2","host":"syd-1.au.uncletopia.com","port":27025,"enabled":true,"region":"au","cc":"au","latitude":-33.865143,"longitude":151.2099,"reserved":0,"last_update":"0001-01-01T00:00:00Z","name_a2s":"Uncletopia | Sydney | 2 | All Maps","protocol":17,"map":"cp_mountainlab","folder":"tf","game":"Team Fortress","app_id":440,"player_count":0,"max_players":24,"Bots":0,"server_type":"Dedicated","server_os":"Linux","password":true,"vac":true,"version":"7757534","steam_id":85568392924470002,"keywords":["cp","nocrits","nodmgspread","uncletopia"],"game_id":440,"stv_port":27026,"stv_name":"Uncletopia | Sydney | 2 | All Maps | STV","players":null},{"server_id":395,"name":"Uncletopia | Sydney | 3 | All Maps","name_short":"syd-3","host":"syd-1.au.uncletopia.com","port":27035,"enabled":true,"region":"au","cc":"au","latitude":-33.865143,"longitude":151.2099,"reserved":0,"last_update":"0001-01-01T00:00:00Z","name_a2s":"Uncletopia | Sydney | 3 | All Maps","protocol":17,"map":"pl_swiftwater_final1","folder":"tf","game":"Team Fortress","app_id":440,"player_count":0,"max_players":24,"Bots":0,"server_type":"Dedicated","server_os":"Linux","password":true,"vac":true,"version":"7757534","steam_id":85568392925194467,"keywords":["nocrits","nodmgspread","payload","uncletopia"],"game_id":440,"stv_port":27036,"stv_name":"Uncletopia | Sydney | 3 | All Maps | STV","players":null},{"server_id":396,"name":"Uncletopia | Sydney | 4 | All Maps","name_short":"syd-4","host":"syd-1.au.uncletopia.com","port":27045,"enabled":true,"region":"au","cc":"au","latitude":-33.865143,"longitude":151.2099,"reserved":0,"last_update":"0001-01-01T00:00:00Z","name_a2s":"Uncletopia | Sydney | 4 | All Maps","protocol":17,"map":"koth_highpass","folder":"tf","game":"Team Fortress","app_id":440,"player_count":0,"max_players":24,"Bots":0,"server_type":"Dedicated","server_os":"Linux","password":true,"vac":true,"version":"7757534","steam_id":85568392925397958,"keywords":["cp","nocrits","nodmgspread","uncletopia"],"game_id":440,"stv_port":27046,"stv_name":"Uncletopia | Sydney | 4 | All Maps | STV","players":null},{"server_id":58,"name":"Uncletopia | Sydney | 5 | Stopwatch Beta","name_short":"syd-5","host":"syd-1.au.uncletopia.com","port":27055,"enabled":true,"region":"au","cc":"au","latitude":-33.865143,"longitude":151.2099,"reserved":0,"last_update":"0001-01-01T00:00:00Z","name_a2s":"Uncletopia | Sydney | 5 | Stopwatch Beta","protocol":17,"map":"koth_cascade","folder":"tf","game":"Team Fortress","app_id":440,"player_count":0,"max_players":24,"Bots":0,"server_type":"Dedicated","server_os":"Linux","password":true,"vac":true,"version":"7757534","steam_id":85568392925397959,"keywords":["cp","nocrits","nodmgspread","uncletopia"],"game_id":440,"stv_port":27056,"stv_name":"Uncletopia | Sydney | 5 | Stopwatch Beta | STV","players":null},{"server_id":59,"name":"Uncletopia | Sydney | 6 | Community","name_short":"syd-6","host":"syd-1.au.uncletopia.com","port":27065,"enabled":true,"region":"au","cc":"au","latitude":-33.865143,"longitude":151.2099,"reserved":0,"last_update":"0001-01-01T00:00:00Z","name_a2s":"Uncletopia | Sydney | 6 | Community","protocol":17,"map":"workshop/cp_mannbase_rc2a.ugc1900737467","folder":"tf","game":"Team Fortress","app_id":440,"player_count":0,"max_players":24,"Bots":0,"server_type":"Dedicated","server_os":"Linux","password":true,"vac":true,"version":"7757534","steam_id":85568392925397960,"keywords":["cp","nocrits","nodmgspread","uncletopia"],"game_id":440,"stv_port":27066,"stv_name":"Uncletopia | Sydney | 6 | Community | STV","players":null},{"server_id":49,"name":"Uncletopia | Warsaw | 1 | All Maps","name_short":"waw-1","host":"waw-1.pl.uncletopia.com","port":27015,"enabled":true,"region":"eu","cc":"pl","latitude":52.2297,"longitude":21.017532,"reserved":0,"last_update":"0001-01-01T00:00:00Z","name_a2s":"","protocol":0,"map":"","folder":"","game":"","app_id":0,"player_count":0,"max_players":0,"Bots":0,"server_type":"","server_os":"","password":false,"vac":false,"version":"","steam_id":0,"keywords":null,"game_id":0,"stv_port":0,"stv_name":"","players":null},{"server_id":50,"name":"Uncletopia | Warsaw | 2 | All Maps","name_short":"waw-2","host":"waw-1.pl.uncletopia.com","port":27025,"enabled":true,"region":"eu","cc":"pl","latitude":52.2297,"longitude":21.017532,"reserved":0,"last_update":"0001-01-01T00:00:00Z","name_a2s":"Uncletopia | Warsaw | 2 | All Maps","protocol":17,"map":"koth_highpass","folder":"tf","game":"Team Fortress","app_id":440,"player_count":0,"max_players":24,"Bots":0,"server_type":"Dedicated","server_os":"Linux","password":true,"vac":true,"version":"7757534","steam_id":85568392925397851,"keywords":["cp","nocrits","nodmgspread","uncletopia"],"game_id":440,"stv_port":27026,"stv_name":"Uncletopia | Warsaw | 2 | All Maps | STV","players":null},{"server_id":51,"name":"Uncletopia | Warsaw | 3 | All Maps","name_short":"waw-3","host":"waw-1.pl.uncletopia.com","port":27035,"enabled":true,"region":"eu","cc":"pl","latitude":52.2297,"longitude":21.017532,"reserved":0,"last_update":"0001-01-01T00:00:00Z","name_a2s":"Uncletopia | Warsaw | 3 | All Maps","protocol":17,"map":"koth_cascade","folder":"tf","game":"Team Fortress","app_id":440,"player_count":0,"max_players":24,"Bots":0,"server_type":"Dedicated","server_os":"Linux","password":true,"vac":true,"version":"7757534","steam_id":85568392925397852,"keywords":["cp","nocrits","nodmgspread","uncletopia"],"game_id":440,"stv_port":27036,"stv_name":"Uncletopia | Warsaw | 3 | All Maps | STV","players":null},{"server_id":52,"name":"Uncletopia | Warsaw | 4 | All Maps","name_short":"waw-4","host":"waw-1.pl.uncletopia.com","port":27045,"enabled":true,"region":"eu","cc":"pl","latitude":52.2297,"longitude":21.017532,"reserved":0,"last_update":"0001-01-01T00:00:00Z","name_a2s":"Uncletopia | Warsaw | 4 | All Maps","protocol":17,"map":"koth_lakeside_final","folder":"tf","game":"Team Fortress","app_id":440,"player_count":0,"max_players":24,"Bots":0,"server_type":"Dedicated","server_os":"Linux","password":true,"vac":true,"version":"7757534","steam_id":85568392925397853,"keywords":["cp","nocrits","nodmgspread","uncletopia"],"game_id":440,"stv_port":27046,"stv_name":"Uncletopia | Warsaw | 4 | All Maps | STV","players":null},{"server_id":53,"name":"Uncletopia | Warsaw | 5 | Stopwatch Beta","name_short":"waw-5","host":"waw-1.pl.uncletopia.com","port":27055,"enabled":true,"region":"eu","cc":"pl","latitude":52.2297,"longitude":21.017532,"reserved":0,"last_update":"0001-01-01T00:00:00Z","name_a2s":"Uncletopia | Warsaw | 5 | Stopwatch Beta","protocol":17,"map":"pl_borneo","folder":"tf","game":"Team Fortress","app_id":440,"player_count":0,"max_players":24,"Bots":0,"server_type":"Dedicated","server_os":"Linux","password":true,"vac":true,"version":"7757534","steam_id":85568392925397854,"keywords":["nocrits","nodmgspread","payload","uncletopia"],"game_id":440,"stv_port":27056,"stv_name":"Uncletopia | Warsaw | 5 | Stopwatch Beta | STV","players":null},{"server_id":54,"name":"Uncletopia | Warsaw | 6 | Community","name_short":"waw-6","host":"waw-1.pl.uncletopia.com","port":27065,"enabled":true,"region":"eu","cc":"pl","latitude":52.2297,"longitude":21.017532,"reserved":0,"last_update":"0001-01-01T00:00:00Z","name_a2s":"Uncletopia | Warsaw | 6 | Community","protocol":17,"map":"workshop/cp_glacier_rc6.ugc2905735376","folder":"tf","game":"Team Fortress","app_id":440,"player_count":0,"max_players":24,"Bots":0,"server_type":"Dedicated","server_os":"Linux","password":true,"vac":true,"version":"7757534","steam_id":85568392925397856,"keywords":["cp","nocrits","nodmgspread","uncletopia"],"game_id":440,"stv_port":27066,"stv_name":"Uncletopia | Warsaw | 6 | Community | STV","players":null}]}