{"status":true,"message":"","result":[{"server_id":9,"name":"Uncletopia | Atlanta | 1 | All Maps","name_short":"atl-1","host":"atl-1.us.uncletopia.com","port":27015,"enabled":true,"region":"us-east","cc":"us","latitude":33.753746,"longitude":-84.38633,"reserved":0,"last_update":"0001-01-01T00:00:00Z","name_a2s":"Uncletopia | Atlanta | 1 | All Maps","protocol":17,"map":"pl_borneo","folder":"tf","game":"Team Fortress","app_id":440,"player_count":24,"max_players":24,"Bots":0,"server_type":"Dedicated","server_os":"Linux","password":true,"vac":true,"version":"7757534","steam_id":85568392924469982,"keywords":["nocrits","nodmgspread","payload","uncletopia"],"game_id":440,"stv_port":27016,"stv_name":"Uncletopia | Atlanta | 1 | All Maps | STV","players":[{"user_id":332,"name":"HAT-WEARING™ Maggot Gamer Cat","steam_id":76561197973992705,"connected_time":4667000000000,"state":"active","ping":113},{"user_id":377,"name":"i love machine girl","steam_id":76561199187747394,"connected_time":70000000000,"state":"active","ping":62},{"user_id":270,"name":"Intro Bonito","steam_id":76561198119478838,"connected_time":10406000000000,"state":"active","ping":45},{"user_id":302,"name":"fortnite.jimmy.2014","steam_id":76561199177672325,"connected_time":8517000000000,"state":"active","ping":43},{"user_id":366,"name":"DuckKey","steam_id":76561198904477889,"connected_time":1500000000000,"state":"active","ping":58},{"user_id":372,"name":"PerpetuaForever","steam_id":76561198347444353,"connected_time":681000000000,"state":"active","ping":77},{"user_id":374,"name":"Inkmix (F2P","steam_id":76561198854070384,"connected_time":267000000000,"state":"spawning","ping":124},{"user_id":378,"name":"Franz","steam_id":76561198041929745,"connected_time":68000000000,"state":"active","ping":106},{"user_id":338,"name":"inky (Coolest)","steam_id":76561198968337022,"connected_time":3579000000000,"state":"active","ping":53},{"user_id":320,"name":"xX_HimboSwallower_Xx","steam_id":76561198016029965,"connected_time":6266000000000,"state":"active","ping":62},{"user_id":322,"name":"ATL1 | Avo","steam_id":76561197993340494,"connected_time":6027000000000,"state":"active","ping":59},{"user_id":371,"name":"The Pope","steam_id":76561198313560302,"connected_time":700000000000,"state":"active","ping":35},{"user_id":359,"name":"Dr. drippenstein","steam_id":76561198209380493,"connected_time":2162000000000,"state":"active","ping":65},{"user_id":363,"name":"pewdiepie","steam_id":76561199145173282,"connected_time":1868000000000,"state":"active","ping":100},{"user_id":343,"name":"krabby","steam_id":76561199072773402,"connected_time":3269000000000,"state":"active","ping":64},{"user_id":344,"name":"p4ka","steam_id":76561198315291317,"connected_time":3267000000000,"state":"active","ping":215},{"user_id":348,"name":"The rat","steam_id":76561198050432341,"connected_time":3221000000000,"state":"active","ping":124},{"user_id":376,"name":"giant crate of raw meat","steam_id":76561198289333345,"connected_time":92000000000,"state":"active","ping":75},{"user_id":312,"name":"ATL1 | on my hunting trip","steam_id":76561198315341646,"connected_time":6664000000000,"state":"active","ping":71},{"user_id":375,"name":"Broken Cereal√","steam_id":76561198087489795,"connected_time":98000000000,"state":"active","ping":60},{"user_id":373,"name":"ok","steam_id":76561198445140249,"connected_time":616000000000,"state":"active","ping":110},{"user_id":340,"name":"V!CT!M","steam_id":76561198962721502,"connected_time":3285000000000,"state":"active","ping":87},{"user_id":369,"name":"Oddball","steam_id":76561198040440984,"connected_time":797000000000,"state":"active","ping":83},{"user_id":331,"name":"lil hog","steam_id":76561199230929836,"connected_time":4951000000000,"state":"active","ping":101}]},{"server_id":104,"name":"Uncletopia | Atlanta | 2 | All Maps","name_short":"atl-2","host":"atl-1.us.uncletopia.com","port":27025,"enabled":true,"region":"us-east","cc":"us","latitude":33.753746,"longitude":-84.38633,"reserved":0,"last_update":"0001-01-01T00:00:00Z","name_a2s":"Uncletopia | Atlanta | 2 | All Maps","protocol":17,"map":"pl_barnblitz","folder":"tf","game":"Team Fortress","app_id":440,"player_count":24,"max_players":24,"Bots":0,"server_type":"Dedicated","server_os":"Linux","password":true,"vac":true,"version":"7757534","steam_id":85568392924469983,"keywords":["nocrits","nodmgspread","payload","uncletopia"],"game_id":440,"stv_port":27026,"stv_name":"Uncletopia | Atlanta | 2 | All Maps | STV","players":[{"user_id":151,"name":"Myn","steam_id":76561198055438857,"connected_time":1662000000000,"state":"active","ping":73},{"user_id":135,"name":"Gibus Man","steam_id":76561198257241062,"connected_time":3155000000000,"state":"active","ping":109},{"user_id":162,"name":"Definitely Not A Cat","steam_id":76561198123464621,"connected_time":871000000000,"state":"active","ping":82},{"user_id":155,"name":"cactus eater","steam_id":76561199107499844,"connected_time":1375000000000,"state":"active","ping":116},{"user_id":137,"name":"SuperViolence","steam_id":76561198973670368,"connected_time":3103000000000,"state":"active","ping":111},{"user_id":153,"name":"why the wig?","steam_id":76561199084109885,"connected_time":1537000000000,"state":"active","ping":65},{"user_id":163,"name":"brent8382","steam_id":76561198212374755,"connected_time":824000000000,"state":"active","ping":106},{"user_id":124,"name":"Potassium_","steam_id":76561199085021046,"connected_time":4755000000000,"state":"active","ping":69},{"user_id":167,"name":"Spag Hekki","steam_id":76561198207579353,"connected_time":538000000000,"state":"active","ping":68},{"user_id":157,"name":"ayecodex","steam_id":76561199477598858,"connected_time":1360000000000,"state":"active","ping":59},{"user_id":149,"name":"O Dog","steam_id":76561198133498912,"connected_time":1762000000000,"state":"active","ping":106},{"user_id":152,"name":"munch","steam_id":76561198086615208,"connected_time":1578000000000,"state":"active","ping":43},{"user_id":93,"name":"Just_Bad","steam_id":76561198145153093,"connected_time":6741000000000,"state":"active","ping":39},{"user_id":161,"name":"Jrock","steam_id":76561198045715996,"connected_time":1199000000000,"state":"active","ping":87},{"user_id":159,"name":"trobin120","steam_id":76561199122420273,"connected_time":1299000000000,"state":"active","ping":59},{"user_id":166,"name":"loudpizzer","steam_id":76561198078802110,"connected_time":661000000000,"state":"active","ping":88},{"user_id":90,"name":"HighJingo","steam_id":76561198846814390,"connected_time":6900000000000,"state":"active","ping":72},{"user_id":173,"name":"Mr_Frosty","steam_id":76561199380389079,"connected_time":18000000000,"state":"active","ping":74},{"user_id":150,"name":"*","steam_id":76561198173047169,"connected_time":1714000000000,"state":"active","ping":66},{"user_id":128,"name":"the doo doo man","steam_id":76561198057076267,"connected_time":4706000000000,"state":"active","ping":76},{"user_id":164,"name":"mangoface","steam_id":76561199028760996,"connected_time":821000000000,"state":"active","ping":169},{"user_id":171,"name":"bachphong760","steam_id":76561199433780443,"connected_time":230000000000,"state":"active","ping":108},{"user_id":168,"name":"coolfalcon168","steam_id":76561198948665710,"connected_time":525000000000,"state":"active","ping":78},{"user_id":169,"name":"ALonelyGhostE","steam_id":76561198184787290,"connected_time":504000000000,"state":"active","ping":76}]},{"server_id":400,"name":"Uncletopia | Atlanta | 3 | Community","name_short":"atl-3","host":"atl-1.us.uncletopia.com","port":27035,"enabled":true,"region":"us-east","cc":"us","latitude":33.753746,"longitude":-84.38633,"reserved":0,"last_update":"0001-01-01T00:00:00Z","name_a2s":"Uncletopia | Atlanta | 3 | Community","protocol":17,"map":"workshop/cp_sulfur_rc2.ugc619869471","folder":"tf","game":"Team Fortress","app_id":440,"player_count":0,"max_players":24,"Bots":0,"server_type":"Dedicated","server_os":"Linux","password":true,"vac":true,"version":"7757534","steam_id":85568392924515187,"keywords":["cp","nocrits","nodmgspread","uncletopia"],"game_id":440,"stv_port":27036,"stv_name":"Uncletopia | Atlanta | 3 | Community | STV","players":null},{"server_id":401,"name":"Uncletopia | Atlanta | 4 | No Payload","name_short":"atl-4","host":"atl-1.us.uncletopia.com","port":27045,"enabled":true,"region":"us-east","cc":"us","latitude":33.753746,"longitude":-84.38633,"reserved":0,"last_update":"0001-01-01T00:00:00Z","name_a2s":"","protocol":0,"map":"","folder":"","game":"","app_id":0,"player_count":0,"max_players":0,"Bots":0,"server_type":"","server_os":"","password":false,"vac":false,"version":"","steam_id":0,"keywords":null,"game_id":0,"stv_port":0,"stv_name":"","players":null},{"server_id":2,"name":"Uncletopia | Chicago | 1 | All Maps","name_short":"chi-1","host":"chi-1.us.uncletopia.com","port":27015,"enabled":true,"region":"us-central","cc":"us","latitude":41.881832,"longitude":-87.62318,"reserved":0,"last_update":"0001-01-01T00:00:00Z","name_a2s":"Uncletopia | Chicago | 1 | All Maps","protocol":17,"map":"pl_borneo","folder":"tf","game":"Team Fortress","app_id":440,"player_count":24,"max_players":24,"Bots":0,"server_type":"Dedicated","server_os":"Linux","password":true,"vac":true,"version":"7757534","steam_id":85568392924469984,"keywords":["nocrits","nodmgspread","payload","uncletopia"],"game_id":440,"stv_port":27016,"stv_name":"Uncletopia | Chicago | 1 | All Maps | STV","players":[{"user_id":394,"name":"Pawn Cushman","steam_id":76561198221635676,"connected_time":3389000000000,"state":"active","ping":62},{"user_id":373,"name":"Acehay14","steam_id":76561198052373291,"connected_time":4252000000000,"state":"active","ping":58},{"user_id":435,"name":"AkimboAoki","steam_id":76561198158323058,"connected_time":498000000000,"state":"active","ping":90},{"user_id":428,"name":"Guns Blazing","steam_id":76561198379461118,"connected_time":1276000000000,"state":"active","ping":69},{"user_id":416,"name":"Retesaurus","steam_id":76561198045189319,"connected_time":2053000000000,"state":"active","ping":120},{"user_id":412,"name":"cringe","steam_id":76561198104086771,"connected_time":2876000000000,"state":"active","ping":102},{"user_id":436,"name":"hatsune miku","steam_id":76561199445009981,"connected_time":496000000000,"state":"active","ping":94},{"user_id":408,"name":"Nic0","steam_id":76561198305690218,"connected_time":3012000000000,"state":"active","ping":62},{"user_id":425,"name":"４０ ＦＰＳ","steam_id":76561198272394965,"connected_time":1300000000000,"state":"active","ping":134},{"user_id":427,"name":"Zoot","steam_id":76561198121944243,"connected_time":1287000000000,"state":"active","ping":75},{"user_id":409,"name":"xX_boogmeister7_Xx","steam_id":76561199276955274,"connected_time":2969000000000,"state":"active","ping":50},{"user_id":420,"name":"stupid ape","steam_id":76561198350027075,"connected_time":1494000000000,"state":"active","ping":50},{"user_id":372,"name":"[_Dr.Scythe_]","steam_id":76561198845245858,"connected_time":4268000000000,"state":"active","ping":82},{"user_id":415,"name":"Daehypeels","steam_id":76561198268981599,"connected_time":2075000000000,"state":"active","ping":72},{"user_id":438,"name":"Not_Douglas","steam_id":76561199024184136,"connected_time":9000000000,"state":"spawning","ping":44},{"user_id":385,"name":"c/\\rbine","steam_id":76561198294739913,"connected_time":3886000000000,"state":"active","ping":95},{"user_id":419,"name":"The Domb Loid","steam_id":76561198295791203,"connected_time":1822000000000,"state":"active","ping":57},{"user_id":405,"name":"Fredrick","steam_id":76561197981419964,"connected_time":3138000000000,"state":"active","ping":68},{"user_id":413,"name":"meo ♥","steam_id":76561197992719272,"connected_time":2340000000000,"state":"active","ping":52},{"user_id":422,"name":"CHEEKY EUNUCH","steam_id":76561198990825232,"connected_time":1349000000000,"state":"active","ping":58},{"user_id":387,"name":"6t26j","steam_id":76561198278282836,"connected_time":3789000000000,"state":"active","ping":54},{"user_id":389,"name":"asbestos","steam_id":76561198079178866,"connected_time":3675000000000,"state":"active","ping":71},{"user_id":431,"name":"bot pov","steam_id":76561198197408802,"connected_time":1066000000000,"state":"active","ping":76},{"user_id":429,"name":"Horsey Chobunso","steam_id":76561198044668050,"connected_time":1197000000000,"state":"active","ping":52}]},{"server_id":106,"name":"Uncletopia | Chicago | 2 | All Maps","name_short":"chi-2","host":"chi-1.us.uncletopia.com","port":27025,"enabled":true,"region":"us-central","cc":"us","latitude":41.881832,"longitude":-87.62318,"reserved":0,"last_update":"0001-01-01T00:00:00Z","name_a2s":"Uncletopia | Chicago | 2 | All Maps","protocol":17,"map":"cp_dustbowl","folder":"tf","game":"Team Fortress","app_id":440,"player_count":24,"max_players":24,"Bots":0,"server_type":"Dedicated","server_os":"Linux","password":true,"vac":true,"version":"7757534","steam_id":85568392924469985,"keywords":["cp","nocrits","nodmgspread","uncletopia"],"game_id":440,"stv_port":27026,"stv_name":"Uncletopia | Chicago | 2 | All Maps | STV","players":[{"user_id":243,"name":"Stoa","steam_id":76561198332519926,"connected_time":176000000000,"state":"active","ping":90},{"user_id":221,"name":"Dorchito","steam_id":76561198295809145,"connected_time":2147000000000,"state":"active","ping":51},{"user_id":217,"name":"pipis","steam_id":76561198140971525,"connected_time":2240000000000,"state":"active","ping":60},{"user_id":197,"name":"Mr. Cheesey","steam_id":76561198153462183,"connected_time":3473000000000,"state":"active","ping":68},{"user_id":239,"name":"imthepogmanwatchout","steam_id":76561199071897683,"connected_time":300000000000,"state":"active","ping":70},{"user_id":240,"name":"dabri88","steam_id":76561198103645497,"connected_time":260000000000,"state":"active","ping":67},{"user_id":249,"name":"Cat in Your Backyard","steam_id":76561197979078330,"connected_time":71000000000,"state":"active","ping":61},{"user_id":232,"name":"Lspan","steam_id":76561199002806208,"connected_time":1337000000000,"state":"active","ping":139},{"user_id":244,"name":"blossom","steam_id":76561198042735130,"connected_time":172000000000,"state":"active","ping":100},{"user_id":238,"name":"Lost","steam_id":76561198093713427,"connected_time":317000000000,"state":"active","ping":60},{"user_id":142,"name":"Krumbl","steam_id":76561197972793357,"connected_time":6366000000000,"state":"active","ping":65},{"user_id":215,"name":"O o g","steam_id":76561199267535506,"connected_time":2297000000000,"state":"active","ping":70},{"user_id":241,"name":"thigh enjoyer","steam_id":76561198088003193,"connected_time":181000000000,"state":"active","ping":84},{"user_id":242,"name":"Henry Ota-Clay","steam_id":76561198053232470,"connected_time":178000000000,"state":"active","ping":57},{"user_id":245,"name":"Pathetic","steam_id":76561198347660282,"connected_time":170000000000,"state":"active","ping":113},{"user_id":247,"name":"griftwood","steam_id":76561198070923665,"connected_time":135000000000,"state":"active","ping":74},{"user_id":219,"name":"CreativeUsername","steam_id":76561198186045503,"connected_time":2223000000000,"state":"active","ping":50},{"user_id":248,"name":"creeeeeee","steam_id":76561198392539722,"connected_time":130000000000,"state":"active","ping":77},{"user_id":251,"name":"Zackariah","steam_id":76561198269224342,"connected_time":27000000000,"state":"spawning","ping":65},{"user_id":226,"name":"DededeMain | trade.tf","steam_id":76561198310951632,"connected_time":1832000000000,"state":"active","ping":84},{"user_id":214,"name":"△","steam_id":76561198060642242,"connected_time":2512000000000,"state":"active","ping":86},{"user_id":252,"name":"RaixaR","steam_id":76561198025289430,"connected_time":20000000000,"state":"spawning","ping":77},{"user_id":253,"name":"Ask Toolbar","steam_id":76561198072487507,"connected_time":20000000000,"state":"spawning","ping":46},{"user_id":237,"name":"BananaPeel6","steam_id":76561198995137156,"connected_time":372000000000,"state":"active","ping":85}]},{"server_id":402,"name":"Uncletopia | Chicago | 3 | All Maps","name_short":"chi-3","host":"chi-1.us.uncletopia.com","port":27035,"enabled":true,"region":"us-central","cc":"us","latitude":41.881832,"longitude":-87.62318,"reserved":0,"last_update":"0001-01-01T00:00:00Z","name_a2s":"Uncletopia | Chicago | 3 | All Maps","protocol":17,"map":"cp_dustbowl","folder":"tf","game":"Team Fortress","app_id":440,"player_count":24,"max_players":24,"Bots":0,"server_type":"Dedicated","server_os":"Linux","password":true,"vac":true,"version":"7757534","steam_id":85568392924515191,"keywords":["cp","nocrits","nodmgspread","uncletopia"],"game_id":440,"stv_port":27036,"stv_name":"Uncletopia | Chicago | 3 | All Maps | STV","players":[{"user_id":232,"name":"CamSoup","steam_id":76561198202483168,"connected_time":6877000000000,"state":"active","ping":65},{"user_id":298,"name":"Ozirion","steam_id":76561198108901767,"connected_time":2083000000000,"state":"active","ping":68},{"user_id":299,"name":"Zoéyyy❤","steam_id":76561198368944263,"connected_time":2066000000000,"state":"active","ping":87},{"user_id":271,"name":"Ragnoratsu","steam_id":76561198189688723,"connected_time":4380000000000,"state":"active","ping":44},{"user_id":272,"name":"unchi","steam_id":76561198130813230,"connected_time":4367000000000,"state":"active","ping":45},{"user_id":287,"name":"Gaskranx","steam_id":76561198020269547,"connected_time":2439000000000,"state":"active","ping":70},{"user_id":302,"name":"Rhutebeer","steam_id":76561198018302761,"connected_time":1153000000000,"state":"active","ping":100},{"user_id":312,"name":"ZeN | #SaveTF2","steam_id":76561199098746585,"connected_time":334000000000,"state":"active","ping":63},{"user_id":311,"name":"Aino","steam_id":76561198053662930,"connected_time":353000000000,"state":"active","ping":102},{"user_id":248,"name":"Cherry Bomb!","steam_id":76561198017947020,"connected_time":6086000000000,"state":"active","ping":59},{"user_id":292,"name":"Kasodani Kyouko","steam_id":76561198023178589,"connected_time":2256000000000,"state":"active","ping":87},{"user_id":223,"name":"Kaleb","steam_id":76561198331013248,"connected_time":7356000000000,"state":"active","ping":73},{"user_id":307,"name":"nines","steam_id":76561198078992548,"connected_time":616000000000,"state":"active","ping":76},{"user_id":296,"name":"Hylic","steam_id":76561199051314589,"connected_time":2136000000000,"state":"active","ping":66},{"user_id":313,"name":"SomeGuyTM","steam_id":76561198842319482,"connected_time":271000000000,"state":"active","ping":112},{"user_id":301,"name":"Blake...","steam_id":76561198064090974,"connected_time":1961000000000,"state":"active","ping":94},{"user_id":306,"name":"Derpydude2002","steam_id":76561198811719519,"connected_time":793000000000,"state":"active","ping":66},{"user_id":252,"name":"geeWIZ","steam_id":76561198067909242,"connected_time":6077000000000,"state":"active","ping":75},{"user_id":291,"name":"TheChickenChuck","steam_id":76561199192686708,"connected_time":2402000000000,"state":"active","ping":120},{"user_id":263,"name":"Bottom feeder","steam_id":76561198181298169,"connected_time":5544000000000,"state":"active","ping":59},{"user_id":304,"name":"noahjwarner09","steam_id":76561199444479988,"connected_time":979000000000,"state":"active","ping":69},{"user_id":270,"name":"MacchuPeachu","steam_id":76561199093242587,"connected_time":4558000000000,"state":"active","ping":75},{"user_id":297,"name":"Little Beerus","steam_id":76561198855187570,"connected_time":2105000000000,"state":"active","ping":77},{"user_id":266,"name":"TheTimin8or","steam_id":76561197994448726,"connected_time":5295000000000,"state":"active","ping":72}]},{"server_id":403,"name":"Uncletopia | Chicago | 4 | All Maps","name_short":"chi-4","host":"chi-1.us.uncletopia.com","port":27045,"enabled":true,"region":"us-central","cc":"us","latitude":41.881832,"longitude":-87.62318,"reserved":0,"last_update":"0001-01-01T00:00:00Z","name_a2s":"Uncletopia | Chicago | 4 | All Maps","protocol":17,"map":"cp_gorge","folder":"tf","game":"Team Fortress","app_id":440,"player_count":24,"max_players":24,"Bots":0,"server_type":"Dedicated","server_os":"Linux","password":true,"vac":true,"version":"7757534","steam_id":85568392924515193,"keywords":["cp","nocrits","nodmgspread","uncletopia"],"game_id":440,"stv_port":27046,"stv_name":"Uncletopia | Chicago | 4 | All Maps | STV","players":[{"user_id":91,"name":"J_Bug","steam_id":76561198163362175,"connected_time":2183000000000,"state":"active","ping":74},{"user_id":78,"name":"Tlaloc","steam_id":76561198375215983,"connected_time":3568000000000,"state":"active","ping":118},{"user_id":14,"name":"coxen","steam_id":76561198095125557,"connected_time":7865000000000,"state":"active","ping":63},{"user_id":123,"name":"Toast","steam_id":76561198401995265,"connected_time":178000000000,"state":"active","ping":55},{"user_id":125,"name":"023e20902o0239ee02390o239e","steam_id":76561198175741741,"connected_time":137000000000,"state":"active","ping":72},{"user_id":106,"name":"geoff","steam_id":76561198038448355,"connected_time":923000000000,"state":"active","ping":39},{"user_id":95,"name":"orcluvr69","steam_id":76561198068712028,"connected_time":1366000000000,"state":"active","ping":72},{"user_id":116,"name":"SLaPPy- oNaSiS","steam_id":76561198009286862,"connected_time":373000000000,"state":"active","ping":70},{"user_id":126,"name":"Kickbakk","steam_id":76561198042335947,"connected_time":106000000000,"state":"active","ping":71},{"user_id":89,"name":"Rockcrusher","steam_id":76561199012666353,"connected_time":2507000000000,"state":"active","ping":57},{"user_id":117,"name":"Granlet","steam_id":76561199244312225,"connected_time":351000000000,"state":"active","ping":103},{"user_id":118,"name":"B.","steam_id":76561198040445907,"connected_time":268000000000,"state":"active","ping":73},{"user_id":108,"name":"OMGimAnoobLOLOL","steam_id":76561198879677475,"connected_time":830000000000,"state":"active","ping":88},{"user_id":109,"name":"j0hnson","steam_id":76561198119631987,"connected_time":774000000000,"state":"active","ping":57},{"user_id":119,"name":"Lovedaddy","steam_id":76561198006569710,"connected_time":261000000000,"state":"active","ping":82},{"user_id":98,"name":"Kiwimpediment","steam_id":76561198322781400,"connected_time":1256000000000,"state":"active","ping":88},{"user_id":74,"name":"Dr_Spek","steam_id":76561198128667701,"connected_time":4253000000000,"state":"active","ping":59},{"user_id":99,"name":"igotmail","steam_id":76561198070631899,"connected_time":1254000000000,"state":"active","ping":68},{"user_id":120,"name":"Nukem","steam_id":76561198166236574,"connected_time":258000000000,"state":"active","ping":82},{"user_id":110,"name":"Mongoose_Madness420","steam_id":76561198892433113,"connected_time":765000000000,"state":"active","ping":68},{"user_id":121,"name":"Scut","steam_id":76561198973734291,"connected_time":254000000000,"state":"active","ping":93},{"user_id":124,"name":"Darkmaen","steam_id":76561198060543390,"connected_time":171000000000,"state":"active","ping":142},{"user_id":103,"name":"Cerabond","steam_id":76561199230915333,"connected_time":1154000000000,"state":"active","ping":86},{"user_id":127,"name":"THE","steam_id":76561199248859751,"connected_time":85000000000,"state":"active","ping":121}]},{"server_id":36,"name":"Uncletopia | Chicago | 5 | All Maps","name_short":"chi-5","host":"chi-2.us.uncletopia.com","port":27015,"enabled":true,"region":"us-central","cc":"us","latitude":41.881832,"longitude":-87.62318,"reserved":0,"last_update":"0001-01-01T00:00:00Z","name_a2s":"Uncletopia | Chicago | 5 | All Maps","protocol":17,"map":"koth_cascade","folder":"tf","game":"Team Fortress","app_id":440,"player_count":0,"max_players":24,"Bots":0,"server_type":"Dedicated","server_os":"Linux","password":true,"vac":true,"version":"7757534","steam_id":85568392924866362,"keywords":["cp","nocrits","nodmgspread","uncletopia"],"game_id":440,"stv_port":27016,"stv_name":"Uncletopia | Chicago | 5 | All Maps | STV","players":null},{"server_id":37,"name":"Uncletopia | Chicago | 6 | All Maps","name_short":"chi-6","host":"chi-2.us.uncletopia.com","port":27025,"enabled":true,"region":"us-central","cc":"us","latitude":41.881832,"longitude":-87.62318,"reserved":0,"last_update":"0001-01-01T00:00:00Z","name_a2s":"Uncletopia | Chicago | 6 | All Maps","protocol":17,"map":"pl_snowycoast","folder":"tf","game":"Team Fortress","app_id":440,"player_count":23,"max_players":24,"Bots":0,"server_type":"Dedicated","server_os":"Linux","password":true,"vac":true,"version":"7757534","steam_id":85568392924866363,"keywords":["nocrits","nodmgspread","payload","uncletopia"],"game_id":440,"stv_port":27026,"stv_name":"Uncletopia | Chicago | 6 | All Maps | STV","players":[{"user_id":425,"name":"Gad","steam_id":76561198020792373,"connected_time":599000000000,"state":"active","ping":52},{"user_id":396,"name":"Biggles","steam_id":76561198126576389,"connected_time":2338000000000,"state":"active","ping":65},{"user_id":419,"name":"twix","steam_id":76561198040912048,"connected_time":793000000000,"state":"active","ping":58},{"user_id":402,"name":"oh","steam_id":76561198076596506,"connected_time":2244000000000,"state":"active","ping":73},{"user_id":432,"name":"jumbo","steam_id":76561198024192770,"connected_time":66000000000,"state":"active","ping":95},{"user_id":430,"name":"wakeupbdot","steam_id":76561198160786631,"connected_time":292000000000,"state":"active","ping":96},{"user_id":431,"name":"anonion","steam_id":76561198056477584,"connected_time":176000000000,"state":"active","ping":82},{"user_id":408,"name":"Stryder","steam_id":76561199387418697,"connected_time":1519000000000,"state":"active","ping":97},{"user_id":415,"name":"smartfrog21","steam_id":76561198063099828,"connected_time":1248000000000,"state":"active","ping":45},{"user_id":427,"name":"whats an egg","steam_id":76561198991039398,"connected_time":541000000000,"state":"active","ping":72},{"user_id":365,"name":"DroidX19","steam_id":76561198867783457,"connected_time":3839000000000,"state":"active","ping":73},{"user_id":389,"name":"OttotheTomato","steam_id":76561198272610597,"connected_time":2513000000000,"state":"active","ping":72},{"user_id":417,"name":"Jerphf","steam_id":76561198328825964,"connected_time":1163000000000,"state":"active","ping":59},{"user_id":373,"name":"twizted","steam_id":76561197960407274,"connected_time":3309000000000,"state":"active","ping":68},{"user_id":421,"name":"slayer of commies","steam_id":76561199260467614,"connected_time":756000000000,"state":"active","ping":96},{"user_id":424,"name":"tyg","steam_id":76561198056246867,"connected_time":688000000000,"state":"active","ping":75},{"user_id":380,"name":"Gary Gaming","steam_id":76561198853378233,"connected_time":3004000000000,"state":"active","ping":132},{"user_id":398,"name":"Your Local NPR Station","steam_id":76561198143830279,"connected_time":2302000000000,"state":"active","ping":62},{"user_id":383,"name":"Midnight Flame","steam_id":76561198279692754,"connected_time":2890000000000,"state":"active","ping":75},{"user_id":429,"name":"Malikar (fake)","steam_id":76561199037497493,"connected_time":442000000000,"state":"active","ping":57},{"user_id":422,"name":"Wang of Wall St","steam_id":76561198047460598,"connected_time":748000000000,"state":"active","ping":74},{"user_id":428,"name":"Yogfan800","steam_id":76561198089699429,"connected_time":538000000000,"state":"active","ping":73},{"user_id":412,"name":" taiwan ##","steam_id":76561198328109873,"connected_time":1383000000000,"state":"active","ping":71}]},{"server_id":38,"name":"Uncletopia | Chicago | 7 | Stopwatch Beta","name_short":"chi-7","host":"chi-2.us.uncletopia.com","port":27035,"enabled":true,"region":"us-central","cc":"us","latitude":41.881832,"longitude":-87.62318,"reserved":0,"last_update":"0001-01-01T00:00:00Z","name_a2s":"Uncletopia | Chicago | 7 | Stopwatch Beta","protocol":17,"map":"pl_barnblitz","folder":"tf","game":"Team Fortress","app_id":440,"player_count":0,"max_players":24,"Bots":0,"server_type":"Dedicated","server_os":"Linux","password":true,"vac":true,"version":"7757534","steam_id":85568392924866364,"keywords":["nocrits","nodmgspread","payload","uncletopia"],"game_id":440,"stv_port":27036,"stv_name":"Uncletopia | Chicago | 7 | Stopwatch Beta | STV","players":null},{"server_id":39,"name":"Uncletopia | Chicago | 8 | Community","name_short":"chi-8","host":"chi-2.us.uncletopia.com","port":27045,"enabled":true,"region":"us-central","cc":"us","latitude":41.881832,"longitude":-87.62318,"reserved":0,"last_update":"0001-01-01T00:00:00Z","name_a2s":"Uncletopia | Chicago | 8 | Community","protocol":17,"map":"workshop/pl_fifthcurve_rc1.ugc648227046","folder":"tf","game":"Team Fortress","app_id":440,"player_count":4,"max_players":24,"Bots":0,"server_type":"Dedicated","server_os":"Linux","password":true,"vac":true,"version":"7757534","steam_id":85568392924866365,"keywords":["nocrits","nodmgspread","payload","uncletopia"],"game_id":440,"stv_port":27046,"stv_name":"Uncletopia | Chicago | 8 | Community | STV","players":[{"user_id":15,"name":"KatTheCookiCat","steam_id":76561199054643392,"connected_time":847000000000,"state":"active","ping":145},{"user_id":5,"name":"justNO11","steam_id":76561198915411375,"connected_time":4059000000000,"state":"active","ping":94},{"user_id":19,"name":"WM1 PYRO","steam_id":76561198045893896,"connected_time":85000000000,"state":"active","ping":86},{"user_id":17,"name":"Explodingrayman","steam_id":76561198185783005,"connected_time":798000000000,"state":"active","ping":123}]},{"server_id":8,"name":"Uncletopia | Dallas | 1 | All Maps","name_short":"dal-1","host":"dal-1.us.uncletopia.com","port":27015,"enabled":true,"region":"us-central","cc":"us","latitude":32.779167,"longitude":-96.80889,"reserved":0,"last_update":"0001-01-01T00:00:00Z","name_a2s":"Uncletopia | Dallas | 1 | All Maps","protocol":17,"map":"pl_snowycoast","folder":"tf","game":"Team Fortress","app_id":440,"player_count":24,"max_players":24,"Bots":0,"server_type":"Dedicated","server_os":"Linux","password":true,"vac":true,"version":"7757534","steam_id":85568392924469986,"keywords":["nocrits","nodmgspread","payload","uncletopia"],"game_id":440,"stv_port":27016,"stv_name":"Uncletopia | Dallas | 1 | All Maps | STV","players":[{"user_id":322,"name":"Mao Zedong (real)","steam_id":76561198768280951,"connected_time":995000000000,"state":"active","ping":87},{"user_id":233,"name":"iluvtoust","steam_id":76561198869269207,"connected_time":7276000000000,"state":"active","ping":49},{"user_id":332,"name":"A Straw","steam_id":76561199367935846,"connected_time":586000000000,"state":"active","ping":69},{"user_id":340,"name":"Local","steam_id":76561198069537437,"connected_time":106000000000,"state":"active","ping":81},{"user_id":301,"name":"It's a Doggydog World","steam_id":76561198018232414,"connected_time":2646000000000,"state":"active","ping":97},{"user_id":320,"name":"freak","steam_id":76561198049544552,"connected_time":1117000000000,"state":"active","ping":33},{"user_id":290,"name":"liftin'","steam_id":76561199089515791,"connected_time":3935000000000,"state":"active","ping":90},{"user_id":310,"name":"Taco","steam_id":76561198034670953,"connected_time":2116000000000,"state":"active","ping":63},{"user_id":326,"name":"Drunk_Wombat","steam_id":76561197960544847,"connected_time":776000000000,"state":"active","ping":69},{"user_id":291,"name":"◇Maple Cinnamon◇ (She/Her)","steam_id":76561198976821898,"connected_time":3927000000000,"state":"active","ping":73},{"user_id":266,"name":"Eggster","steam_id":76561198871014814,"connected_time":6052000000000,"state":"active","ping":92},{"user_id":257,"name":"quiteabizarreone","steam_id":76561198407122862,"connected_time":6816000000000,"state":"active","ping":98},{"user_id":325,"name":"LACTOSE","steam_id":76561198282604344,"connected_time":814000000000,"state":"active","ping":87},{"user_id":312,"name":"dr sex, md (sexologist)","steam_id":76561198115874625,"connected_time":1954000000000,"state":"active","ping":101},{"user_id":321,"name":"RetroWave Enjoyer","steam_id":76561198354078799,"connected_time":1096000000000,"state":"active","ping":87},{"user_id":236,"name":"Apoc","steam_id":76561198376855927,"connected_time":7252000000000,"state":"active","ping":58},{"user_id":331,"name":"choppa 凸(►˛◄'!)","steam_id":76561198123236186,"connected_time":669000000000,"state":"active","ping":84},{"user_id":307,"name":"Faust main","steam_id":76561198971799149,"connected_time":2260000000000,"state":"active","ping":73},{"user_id":313,"name":"Lemmers235","steam_id":76561199192668922,"connected_time":1950000000000,"state":"active","ping":85},{"user_id":329,"name":"TechnoBear2099","steam_id":76561198238863596,"connected_time":740000000000,"state":"active","ping":42},{"user_id":315,"name":"That one rocking chair","steam_id":76561197991063200,"connected_time":1312000000000,"state":"active","ping":64},{"user_id":337,"name":"Rusted Cake","steam_id":76561198209755931,"connected_time":270000000000,"state":"active","ping":86},{"user_id":339,"name":"Samercam","steam_id":76561198189403190,"connected_time":144000000000,"state":"active","ping":66},{"user_id":215,"name":"Project_Counter","steam_id":76561198152786076,"connected_time":8872000000000,"state":"active","ping":58}]},{"server_id":108,"name":"Uncletopia | Dallas | 2 | All Maps","name_short":"dal-2","host":"dal-1.us.uncletopia.com","port":27025,"enabled":true,"region":"us-central","cc":"us","latitude":32.779167,"longitude":-96.80889,"reserved":0,"last_update":"0001-01-01T00:00:00Z","name_a2s":"Uncletopia | Dallas | 2 | All Maps","protocol":17,"map":"pl_upward","folder":"tf","game":"Team Fortress","app_id":440,"player_count":24,"max_players":24,"Bots":0,"server_type":"Dedicated","server_os":"Linux","password":true,"vac":true,"version":"7757534","steam_id":85568392924469988,"keywords":["nocrits","nodmgspread","payload","uncletopia"],"game_id":440,"stv_port":27026,"stv_name":"Uncletopia | Dallas | 2 | All Maps | STV","players":[{"user_id":305,"name":"KVWI","steam_id":76561197971352904,"connected_time":1009000000000,"state":"active","ping":60},{"user_id":319,"name":"J.G. Klaus","steam_id":76561198001111196,"connected_time":520000000000,"state":"active","ping":47},{"user_id":267,"name":"vegas stan","steam_id":76561198126029630,"connected_time":5905000000000,"state":"active","ping":92},{"user_id":306,"name":"dark_sourcery624","steam_id":76561198083607304,"connected_time":994000000000,"state":"active","ping":89},{"user_id":285,"name":"Frost","steam_id":76561198083694664,"connected_time":4037000000000,"state":"active","ping":75},{"user_id":320,"name":"happy camper","steam_id":76561198209813328,"connected_time":399000000000,"state":"active","ping":49},{"user_id":296,"name":"Kuvorious","steam_id":76561198153729934,"connected_time":2092000000000,"state":"active","ping":72},{"user_id":327,"name":"OmniMoto","steam_id":76561198091298557,"connected_time":20000000000,"state":"spawning","ping":67},{"user_id":298,"name":"Koffy","steam_id":76561198184386039,"connected_time":1901000000000,"state":"active","ping":124},{"user_id":324,"name":"Elm","steam_id":76561198127972568,"connected_time":268000000000,"state":"active","ping":91},{"user_id":308,"name":"Bobby Ray","steam_id":76561198044131188,"connected_time":973000000000,"state":"active","ping":63},{"user_id":309,"name":"NANOBITES","steam_id":76561198186944363,"connected_time":967000000000,"state":"active","ping":75},{"user_id":326,"name":"Mellou","steam_id":76561198212048740,"connected_time":142000000000,"state":"active","ping":36},{"user_id":314,"name":"grate_fiter-232","steam_id":76561198073424589,"connected_time":806000000000,"state":"active","ping":98},{"user_id":227,"name":"james may","steam_id":76561198043857339,"connected_time":7619000000000,"state":"active","ping":80},{"user_id":278,"name":"dicksnip","steam_id":76561198356515396,"connected_time":4694000000000,"state":"active","ping":55},{"user_id":315,"name":"Kid B8","steam_id":76561198086764710,"connected_time":790000000000,"state":"active","ping":78},{"user_id":247,"name":"Taco+Taco=Burrito","steam_id":76561198063128663,"connected_time":7242000000000,"state":"active","ping":70},{"user_id":321,"name":"wahooka","steam_id":76561197981211922,"connected_time":327000000000,"state":"active","ping":83},{"user_id":322,"name":"highmechs","steam_id":76561198013650292,"connected_time":318000000000,"state":"active","ping":113},{"user_id":323,"name":"Oni","steam_id":76561198112066584,"connected_time":312000000000,"state":"active","ping":67},{"user_id":325,"name":"cow","steam_id":76561198198453117,"connected_time":219000000000,"state":"active","ping":62},{"user_id":297,"name":"SpinnerSpecial","steam_id":76561198065661869,"connected_time":1964000000000,"state":"active","ping":120},{"user_id":318,"name":"Phoysh","steam_id":76561198137111021,"connected_time":603000000000,"state":"active","ping":104}]},{"server_id":5,"name":"Uncletopia | Frankfurt | 1 | All Maps","name_short":"frk-1","host":"frk-1.de.uncletopia.com","port":27015,"enabled":true,"region":"eu","cc":"de","latitude":50.110924,"longitude":8.682127,"reserved":0,"last_update":"0001-01-01T00:00:00Z","name_a2s":"Uncletopia | Frankfurt | 1 | All Maps","protocol":17,"map":"pl_snowycoast","folder":"tf","game":"Team Fortress","app_id":440,"player_count":19,"max_players":24,"Bots":0,"server_type":"Dedicated","server_os":"Linux","password":true,"vac":true,"version":"7757534","steam_id":85568392924469989,"keywords":["nocrits","nodmgspread","payload","uncletopia"],"game_id":440,"stv_port":27016,"stv_name":"Uncletopia | Frankfurt | 1 | All Maps | STV","players":[{"user_id":175,"name":"Penology","steam_id":76561198192805279,"connected_time":6207000000000,"state":"active","ping":78},{"user_id":275,"name":"_lesadams_","steam_id":76561198876047711,"connected_time":277000000000,"state":"active","ping":60},{"user_id":256,"name":"Fuvuk","steam_id":76561198044458593,"connected_time":1686000000000,"state":"active","ping":88},{"user_id":274,"name":"the indomitable human spirit","steam_id":76561198718760200,"connected_time":311000000000,"state":"active","ping":47},{"user_id":249,"name":"Franticlamp","steam_id":76561198339698995,"connected_time":2019000000000,"state":"active","ping":72},{"user_id":158,"name":"ereh","steam_id":76561198061239823,"connected_time":7232000000000,"state":"active","ping":65},{"user_id":266,"name":"Boki","steam_id":76561198044553351,"connected_time":1163000000000,"state":"active","ping":74},{"user_id":264,"name":"mary","steam_id":76561198014828037,"connected_time":1409000000000,"state":"active","ping":63},{"user_id":277,"name":"kas skaitys tas gaidys","steam_id":76561198128664132,"connected_time":160000000000,"state":"active","ping":63},{"user_id":262,"name":"Cock Thief","steam_id":76561199213400234,"connected_time":1509000000000,"state":"active","ping":62},{"user_id":278,"name":"NormalCube","steam_id":76561198820007900,"connected_time":33000000000,"state":"spawning","ping":47},{"user_id":272,"name":"BasLutnya","steam_id":76561198050575776,"connected_time":446000000000,"state":"active","ping":75},{"user_id":265,"name":"Makumba","steam_id":76561198057014708,"connected_time":1295000000000,"state":"active","ping":67},{"user_id":253,"name":"w presser","steam_id":76561197994600818,"connected_time":1827000000000,"state":"active","ping":45},{"user_id":270,"name":"kryhu","steam_id":76561198293327713,"connected_time":650000000000,"state":"active","ping":65},{"user_id":140,"name":"Femboypawnguy","steam_id":76561198274894771,"connected_time":9016000000000,"state":"active","ping":50},{"user_id":235,"name":"Omni","steam_id":76561197964320557,"connected_time":3228000000000,"state":"active","ping":58},{"user_id":269,"name":"Ohad","steam_id":76561198067989324,"connected_time":757000000000,"state":"active","ping":116},{"user_id":271,"name":"My wife took the kids","steam_id":76561198388750592,"connected_time":562000000000,"state":"active","ping":63}]},{"server_id":110,"name":"Uncletopia | Frankfurt | 2 | All Maps","name_short":"frk-2","host":"frk-1.de.uncletopia.com","port":27025,"enabled":true,"region":"eu","cc":"de","latitude":50.110924,"longitude":8.682127,"reserved":0,"last_update":"0001-01-01T00:00:00Z","name_a2s":"Uncletopia | Frankfurt | 2 | All Maps","protocol":17,"map":"pl_upward","folder":"tf","game":"Team Fortress","app_id":440,"player_count":21,"max_players":24,"Bots":0,"server_type":"Dedicated","server_os":"Linux","password":true,"vac":true,"version":"7757534","steam_id":85568392924469990,"keywords":["nocrits","nodmgspread","payload","uncletopia"],"game_id":440,"stv_port":27026,"stv_name":"Uncletopia | Frankfurt | 2 | All Maps | STV","players":[{"user_id":440,"name":"FreeYoungThug","steam_id":76561198079277466,"connected_time":7689000000000,"state":"active","ping":60},{"user_id":575,"name":"LightOfKshahrewar","steam_id":76561198860938097,"connected_time":2501000000000,"state":"active","ping":89},{"user_id":613,"name":"professional car consumer","steam_id":76561198977420882,"connected_time":750000000000,"state":"active","ping":53},{"user_id":606,"name":"Threon","steam_id":76561198826783545,"connected_time":1661000000000,"state":"active","ping":77},{"user_id":623,"name":"Bad Medic","steam_id":76561198117539276,"connected_time":10000000000,"state":"spawning","ping":89},{"user_id":435,"name":"rigel_","steam_id":76561198148640847,"connected_time":7879000000000,"state":"active","ping":75},{"user_id":576,"name":"mmmmmmmmm","steam_id":76561198283192660,"connected_time":2497000000000,"state":"active","ping":71},{"user_id":607,"name":"esheen","steam_id":76561198139376665,"connected_time":1652000000000,"state":"active","ping":59},{"user_id":604,"name":"Kaiser","steam_id":76561198024490825,"connected_time":1841000000000,"state":"active","ping":29},{"user_id":621,"name":"MARCEL","steam_id":76561198083122029,"connected_time":26000000000,"state":"spawning","ping":431},{"user_id":591,"name":"Melonyoshi","steam_id":76561198294182303,"connected_time":2177000000000,"state":"active","ping":61},{"user_id":612,"name":"a convicted felon","steam_id":76561198058012525,"connected_time":758000000000,"state":"active","ping":65},{"user_id":594,"name":"Klokov","steam_id":76561198240633534,"connected_time":2110000000000,"state":"active","ping":55},{"user_id":492,"name":"Mingo","steam_id":76561199191245650,"connected_time":4468000000000,"state":"active","ping":96},{"user_id":616,"name":"LoliLover69","steam_id":76561199001105496,"connected_time":690000000000,"state":"active","ping":54},{"user_id":605,"name":"エゼキエル","steam_id":76561199275353719,"connected_time":1706000000000,"state":"active","ping":46},{"user_id":597,"name":"Akane","steam_id":76561197990407312,"connected_time":2042000000000,"state":"active","ping":68},{"user_id":600,"name":"Dwayne 'The Rock' Johnson","steam_id":76561198080072997,"connected_time":2015000000000,"state":"active","ping":67},{"user_id":601,"name":"OMG IS THAT SPY FROM TF2?","steam_id":76561199291684647,"connected_time":2012000000000,"state":"active","ping":64},{"user_id":617,"name":"Nigelson","steam_id":76561198259261287,"connected_time":501000000000,"state":"active","ping":75},{"user_id":620,"name":"drippin jimmy","steam_id":76561198219243969,"connected_time":250000000000,"state":"active","ping":75}]},{"server_id":308,"name":"Uncletopia | Frankfurt | 3 | All Maps","name_short":"frk-3","host":"frk-1.de.uncletopia.com","port":27035,"enabled":true,"region":"eu","cc":"de","latitude":50.110924,"longitude":8.682127,"reserved":0,"last_update":"0001-01-01T00:00:00Z","name_a2s":"Uncletopia | Frankfurt | 3 | All Maps","protocol":17,"map":"pl_borneo","folder":"tf","game":"Team Fortress","app_id":440,"player_count":24,"max_players":24,"Bots":0,"server_type":"Dedicated","server_os":"Linux","password":true,"vac":true,"version":"7757534","steam_id":85568392924504274,"keywords":["nocrits","nodmgspread","payload","uncletopia"],"game_id":440,"stv_port":27036,"stv_name":"Uncletopia | Frankfurt | 3 | All Maps | STV","players":[{"user_id":199,"name":"Vanilla","steam_id":76561198073933435,"connected_time":5170000000000,"state":"active","ping":73},{"user_id":233,"name":"tïger","steam_id":76561198260483157,"connected_time":777000000000,"state":"active","ping":82},{"user_id":234,"name":"gaz","steam_id":76561198843714742,"connected_time":772000000000,"state":"active","ping":102},{"user_id":223,"name":"Quartzy","steam_id":76561198313301520,"connected_time":1464000000000,"state":"active","ping":56},{"user_id":220,"name":"sven5011","steam_id":76561198064398200,"connected_time":2236000000000,"state":"active","ping":57},{"user_id":210,"name":"WasGone","steam_id":76561198120027170,"connected_time":3366000000000,"state":"active","ping":71},{"user_id":211,"name":"TidB","steam_id":76561198055342304,"connected_time":3364000000000,"state":"active","ping":56},{"user_id":195,"name":"DOG_BOT :)","steam_id":76561198380654485,"connected_time":5528000000000,"state":"active","ping":105},{"user_id":189,"name":"tallen","steam_id":76561198061708595,"connected_time":5725000000000,"state":"active","ping":80},{"user_id":236,"name":"Burpman","steam_id":76561198022897937,"connected_time":439000000000,"state":"active","ping":61},{"user_id":216,"name":"Kapitan Dagistan","steam_id":76561198010500289,"connected_time":3328000000000,"state":"active","ping":88},{"user_id":237,"name":"flyfish","steam_id":76561198382712689,"connected_time":416000000000,"state":"active","ping":85},{"user_id":238,"name":"Hypso","steam_id":76561198076375880,"connected_time":364000000000,"state":"active","ping":68},{"user_id":245,"name":"BanMeta","steam_id":76561198967456827,"connected_time":248000000000,"state":"active","ping":63},{"user_id":240,"name":"KnugenIV","steam_id":76561198127091993,"connected_time":341000000000,"state":"active","ping":77},{"user_id":226,"name":"balanced diet","steam_id":76561198240320806,"connected_time":1402000000000,"state":"active","ping":70},{"user_id":227,"name":"Creamy","steam_id":76561198063907478,"connected_time":1397000000000,"state":"active","ping":78},{"user_id":228,"name":"Absolute Chaos","steam_id":76561198036946311,"connected_time":1390000000000,"state":"active","ping":63},{"user_id":241,"name":"smörgåstårta","steam_id":76561198149967445,"connected_time":304000000000,"state":"active","ping":47},{"user_id":242,"name":"rebalint","steam_id":76561198283840674,"connected_time":290000000000,"state":"active","ping":86},{"user_id":188,"name":"Lyncurion","steam_id":76561199260022725,"connected_time":5902000000000,"state":"active","ping":84},{"user_id":243,"name":"Turbulence","steam_id":76561199129796130,"connected_time":284000000000,"state":"active","ping":89},{"user_id":244,"name":"Saint","steam_id":76561198003296382,"connected_time":273000000000,"state":"active","ping":61},{"user_id":168,"name":"AddyD","steam_id":76561198201834415,"connected_time":7908000000000,"state":"active","ping":66}]},{"server_id":309,"name":"Uncletopia | Frankfurt | 4 | All Maps","name_short":"frk-4","host":"frk-1.de.uncletopia.com","port":27045,"enabled":true,"region":"eu","cc":"de","latitude":50.110924,"longitude":8.682127,"reserved":0,"last_update":"0001-01-01T00:00:00Z","name_a2s":"Uncletopia | Frankfurt | 4 | All Maps","protocol":17,"map":"pl_borneo","folder":"tf","game":"Team Fortress","app_id":440,"player_count":23,"max_players":24,"Bots":0,"server_type":"Dedicated","server_os":"Linux","password":true,"vac":true,"version":"7757534","steam_id":85568392924504275,"keywords":["nocrits","nodmgspread","payload","uncletopia"],"game_id":440,"stv_port":27046,"stv_name":"Uncletopia | Frankfurt | 4 | All Maps | STV","players":[{"user_id":536,"name":"Mr. Mietsch","steam_id":76561198077516818,"connected_time":2631000000000,"state":"active","ping":50},{"user_id":529,"name":"generic alias","steam_id":76561198271607226,"connected_time":2888000000000,"state":"active","ping":90},{"user_id":554,"name":"BreadAcres","steam_id":76561198098217082,"connected_time":349000000000,"state":"active","ping":57},{"user_id":532,"name":"Nickbro101","steam_id":76561198044271692,"connected_time":2781000000000,"state":"active","ping":59},{"user_id":561,"name":"Tesla","steam_id":76561198378649144,"connected_time":29000000000,"state":"active","ping":60},{"user_id":556,"name":"Depakine 500","steam_id":76561198214267967,"connected_time":225000000000,"state":"active","ping":63},{"user_id":557,"name":"Bosnian Terminator","steam_id":76561198865873695,"connected_time":181000000000,"state":"active","ping":100},{"user_id":518,"name":"Myrmodion","steam_id":76561198054746247,"connected_time":4043000000000,"state":"active","ping":59},{"user_id":558,"name":"cream gravy","steam_id":76561198973069177,"connected_time":155000000000,"state":"active","ping":49},{"user_id":560,"name":"RocK Knight","steam_id":76561198186054573,"connected_time":31000000000,"state":"active","ping":72},{"user_id":470,"name":"Zirom","steam_id":76561198132532365,"connected_time":7372000000000,"state":"active","ping":61},{"user_id":471,"name":"Snowy Days","steam_id":76561198160896583,"connected_time":7347000000000,"state":"active","ping":104},{"user_id":530,"name":"Vᴀʟᴀꜰᴀʀ","steam_id":76561198069723799,"connected_time":2881000000000,"state":"active","ping":43},{"user_id":540,"name":"Smasher","steam_id":76561198094288793,"connected_time":2578000000000,"state":"active","ping":63},{"user_id":543,"name":"Mario3ghj","steam_id":76561198069804561,"connected_time":2053000000000,"state":"active","ping":97},{"user_id":546,"name":"walluu","steam_id":76561198121830870,"connected_time":1313000000000,"state":"active","ping":75},{"user_id":562,"name":"rhost","steam_id":76561199230709660,"connected_time":26000000000,"state":"active","ping":53},{"user_id":552,"name":"no weed","steam_id":76561199024279010,"connected_time":754000000000,"state":"active","ping":81},{"user_id":527,"name":"XPullaHiiri","steam_id":76561198031652375,"connected_time":3080000000000,"state":"active","ping":83},{"user_id":563,"name":"aether","steam_id":76561198178293861,"connected_time":15000000000,"state":"spawning","ping":149},{"user_id":564,"name":"Salih","steam_id":76561198287934839,"connected_time":3000000000,"state":"spawning","ping":43},{"user_id":542,"name":"Arturias","steam_id":76561198188720263,"connected_time":2167000000000,"state":"active","ping":54},{"user_id":544,"name":"Svilar","steam_id":76561198828348612,"connected_time":1347000000000,"state":"active","ping":71}]},{"server_id":310,"name":"Uncletopia | Frankfurt | 5 | All Maps","name_short":"frk-5","host":"frk-1.de.uncletopia.com","port":27055,"enabled":true,"region":"eu","cc":"de","latitude":50.110924,"longitude":8.682127,"reserved":0,"last_update":"0001-01-01T00:00:00Z","name_a2s":"Uncletopia | Frankfurt | 5 | All Maps","protocol":17,"map":"pl_snowycoast","folder":"tf","game":"Team Fortress","app_id":440,"player_count":24,"max_players":24,"Bots":0,"server_type":"Dedicated","server_os":"Linux","password":true,"vac":true,"version":"7757534","steam_id":85568392924504277,"keywords":["nocrits","nodmgspread","payload","uncletopia"],"game_id":440,"stv_port":27056,"stv_name":"Uncletopia | Frankfurt | 5 | All Maps | STV","players":[{"user_id":401,"name":"Raulca25","steam_id":76561199068256964,"connected_time":57000000000,"state":"active","ping":86},{"user_id":399,"name":"Insain Bolt!","steam_id":76561198025687726,"connected_time":177000000000,"state":"active","ping":71},{"user_id":369,"name":"Españaa","steam_id":76561198879587832,"connected_time":1954000000000,"state":"active","ping":84},{"user_id":353,"name":"NotChloe","steam_id":76561198080658092,"connected_time":2241000000000,"state":"active","ping":75},{"user_id":286,"name":"RandomSoul","steam_id":76561198887698759,"connected_time":6119000000000,"state":"active","ping":87},{"user_id":340,"name":"Soerlssoelssöen","steam_id":76561197993060585,"connected_time":3037000000000,"state":"active","ping":74},{"user_id":402,"name":"Ankle Dane","steam_id":76561198134378108,"connected_time":29000000000,"state":"active","ping":68},{"user_id":315,"name":".::[SerafeTTiN]::.","steam_id":76561198009471724,"connected_time":4741000000000,"state":"active","ping":80},{"user_id":400,"name":"Dispenser","steam_id":76561198088898260,"connected_time":138000000000,"state":"active","ping":57},{"user_id":384,"name":"Cheshireycat","steam_id":76561198067204908,"connected_time":996000000000,"state":"active","ping":61},{"user_id":325,"name":"MAKENTAKEN","steam_id":76561199127359587,"connected_time":4300000000000,"state":"active","ping":99},{"user_id":291,"name":"soup","steam_id":76561198386933065,"connected_time":6007000000000,"state":"active","ping":66},{"user_id":392,"name":"JujuBalu","steam_id":76561198207253071,"connected_time":739000000000,"state":"active","ping":53},{"user_id":386,"name":"BlackFireHealer","steam_id":76561198035912038,"connected_time":935000000000,"state":"active","ping":77},{"user_id":387,"name":"LionKing","steam_id":76561198023399545,"connected_time":914000000000,"state":"active","ping":53},{"user_id":377,"name":"Endi","steam_id":76561198914938199,"connected_time":1436000000000,"state":"active","ping":88},{"user_id":397,"name":"2028","steam_id":76561198095560087,"connected_time":314000000000,"state":"active","ping":64},{"user_id":389,"name":"sup3rfr3ddy.","steam_id":76561198119371683,"connected_time":858000000000,"state":"active","ping":51},{"user_id":390,"name":"AmadStatistician","steam_id":76561198163654770,"connected_time":818000000000,"state":"active","ping":68},{"user_id":382,"name":"Family Guy funny moments","steam_id":76561198170609049,"connected_time":1179000000000,"state":"active","ping":72},{"user_id":391,"name":"Jan.","steam_id":76561197974066329,"connected_time":767000000000,"state":"active","ping":73},{"user_id":403,"name":"M1rkus","steam_id":76561198171215447,"connected_time":6000000000,"state":"spawning","ping":58},{"user_id":398,"name":"DeanAdamFry","steam_id":76561198054153160,"connected_time":291000000000,"state":"active","ping":69},{"user_id":383,"name":"pizzaboob","steam_id":76561198097507847,"connected_time":1179000000000,"state":"active","ping":74}]},{"server_id":311,"name":"Uncletopia | Frankfurt | 6 | All Maps","name_short":"frk-6","host":"frk-1.de.uncletopia.com","port":27065,"enabled":true,"region":"eu","cc":"de","latitude":50.110924,"longitude":8.682127,"reserved":0,"last_update":"0001-01-01T00:00:00Z","name_a2s":"Uncletopia | Frankfurt | 6 | All Maps","protocol":17,"map":"pl_thundermountain","folder":"tf","game":"Team Fortress","app_id":440,"player_count":23,"max_players":24,"Bots":0,"server_type":"Dedicated","server_os":"Linux","password":true,"vac":true,"version":"7757534","steam_id":85568392924504278,"keywords":["nocrits","nodmgspread","payload","uncletopia"],"game_id":440,"stv_port":27066,"stv_name":"Uncletopia | Frankfurt | 6 | All Maps | STV","players":[{"user_id":542,"name":"Guru","steam_id":76561198093853069,"connected_time":975000000000,"state":"active","ping":60},{"user_id":536,"name":"kamekame","steam_id":76561198047108054,"connected_time":1434000000000,"state":"active","ping":108},{"user_id":511,"name":"I fucking hate this game","steam_id":76561198347336086,"connected_time":3225000000000,"state":"active","ping":64},{"user_id":480,"name":"Bob Sacamano","steam_id":76561198085610701,"connected_time":6347000000000,"state":"active","ping":93},{"user_id":553,"name":"metamikko","steam_id":76561198324704234,"connected_time":362000000000,"state":"active","ping":128},{"user_id":530,"name":"Leiv","steam_id":76561198087165610,"connected_time":1607000000000,"state":"active","ping":96},{"user_id":547,"name":"sm0ke","steam_id":76561198198977226,"connected_time":719000000000,"state":"active","ping":69},{"user_id":408,"name":"Toasty5050","steam_id":76561198073540881,"connected_time":11943000000000,"state":"active","ping":44},{"user_id":518,"name":"увынск","steam_id":76561198172046813,"connected_time":2862000000000,"state":"active","ping":74},{"user_id":551,"name":"Balls","steam_id":76561198086400484,"connected_time":479000000000,"state":"active","ping":70},{"user_id":512,"name":"Woman (Real)","steam_id":76561199151823932,"connected_time":3214000000000,"state":"active","ping":81},{"user_id":499,"name":"Shearman360","steam_id":76561198193909685,"connected_time":4302000000000,"state":"active","ping":78},{"user_id":549,"name":"🃔 Nugg1t(she/they)","steam_id":76561198065652251,"connected_time":604000000000,"state":"active","ping":39},{"user_id":462,"name":"Wimpyfox","steam_id":76561198096687561,"connected_time":8518000000000,"state":"active","ping":54},{"user_id":519,"name":"Killer Queen","steam_id":76561198860424456,"connected_time":2857000000000,"state":"active","ping":62},{"user_id":532,"name":"Proto-arc","steam_id":76561198012776747,"connected_time":1550000000000,"state":"active","ping":60},{"user_id":555,"name":"Penis Contortionist","steam_id":76561198073663784,"connected_time":124000000000,"state":"active","ping":53},{"user_id":546,"name":"The Czech Inflation Rate","steam_id":76561198339197295,"connected_time":736000000000,"state":"active","ping":63},{"user_id":556,"name":"finbar","steam_id":76561198056812396,"connected_time":97000000000,"state":"active","ping":76},{"user_id":543,"name":"Mammut","steam_id":76561198056773933,"connected_time":958000000000,"state":"active","ping":52},{"user_id":541,"name":"PEXON","steam_id":76561198045035611,"connected_time":1206000000000,"state":"active","ping":69},{"user_id":466,"name":"Rimx","steam_id":76561198053034840,"connected_time":8266000000000,"state":"active","ping":95},{"user_id":525,"name":"Doctor Mobius","steam_id":76561197971281806,"connected_time":2244000000000,"state":"active","ping":66}]},{"server_id":23,"name":"Uncletopia | Frankfurt | 7 | Stopwatch Beta","name_short":"frk-7","host":"frk-1.de.uncletopia.com","port":27075,"enabled":true,"region":"eu","cc":"de","latitude":50.110924,"longitude":8.682127,"reserved":0,"last_update":"0001-01-01T00:00:00Z","name_a2s":"Uncletopia | Frankfurt | 7 | Stopwatch Beta","protocol":17,"map":"workshop/koth_ramjam_rc1.ugc459778887","folder":"tf","game":"Team Fortress","app_id":440,"player_count":0,"max_players":24,"Bots":0,"server_type":"Dedicated","server_os":"Linux","password":true,"vac":true,"version":"7757534","steam_id":85568392924742827,"keywords":["cp","nocrits","nodmgspread","uncletopia"],"game_id":440,"stv_port":27076,"stv_name":"Uncletopia | Frankfurt | 7 | Stopwatch Beta | STV","players":null},{"server_id":24,"name":"Uncletopia | Frankfurt | 8 | Community","name_short":"frk-8","host":"frk-1.de.uncletopia.com","port":27085,"enabled":true,"region":"eu","cc":"de","latitude":50.110924,"longitude":8.682127,"reserved":0,"last_update":"0001-01-01T00:00:00Z","name_a2s":"Uncletopia | Frankfurt | 8 | Community","protocol":17,"map":"workshop/cp_kalinka_rc6a.ugc1272700588","folder":"tf","game":"Team Fortress","app_id":440,"player_count":23,"max_players":24,"Bots":0,"server_type":"Dedicated","server_os":"Linux","password":true,"vac":true,"version":"7757534","steam_id":85568392924742828,"keywords":["cp","nocrits","nodmgspread","uncletopia"],"game_id":440,"stv_port":27086,"stv_name":"Uncletopia | Frankfurt | 8 | Community | STV","players":[{"user_id":367,"name":"Fiddleford","steam_id":76561198156111003,"connected_time":1197000000000,"state":"active","ping":79},{"user_id":327,"name":"PizzaPete123","steam_id":76561198089478290,"connected_time":3892000000000,"state":"active","ping":54},{"user_id":372,"name":"Step back","steam_id":76561198063855616,"connected_time":1062000000000,"state":"active","ping":71},{"user_id":329,"name":"dimitrij_6ix_god","steam_id":76561199023275543,"connected_time":3878000000000,"state":"active","ping":75},{"user_id":384,"name":"mumbler","steam_id":76561197970641239,"connected_time":712000000000,"state":"active","ping":54},{"user_id":343,"name":"certified","steam_id":76561198181368101,"connected_time":3279000000000,"state":"active","ping":49},{"user_id":276,"name":"Nithle","steam_id":76561198025372740,"connected_time":7033000000000,"state":"active","ping":46},{"user_id":368,"name":"frosty","steam_id":76561198094560834,"connected_time":1166000000000,"state":"active","ping":61},{"user_id":378,"name":"flr","steam_id":76561198249327786,"connected_time":1003000000000,"state":"active","ping":64},{"user_id":369,"name":"Johan","steam_id":76561199380849468,"connected_time":1161000000000,"state":"active","ping":66},{"user_id":291,"name":"Fat Pigeon","steam_id":76561198817940142,"connected_time":6386000000000,"state":"active","ping":55},{"user_id":351,"name":"Jonathan","steam_id":76561198087988880,"connected_time":2733000000000,"state":"active","ping":46},{"user_id":370,"name":"Tea guy","steam_id":76561198797847641,"connected_time":1156000000000,"state":"active","ping":80},{"user_id":379,"name":"padillacampos","steam_id":76561198161923970,"connected_time":976000000000,"state":"active","ping":89},{"user_id":374,"name":"Drakar","steam_id":76561198214827371,"connected_time":1051000000000,"state":"active","ping":60},{"user_id":375,"name":"Mari Christmas","steam_id":76561197997020707,"connected_time":1047000000000,"state":"active","ping":68},{"user_id":366,"name":"teabix SLAVA UKRAINI","steam_id":76561198320719793,"connected_time":1622000000000,"state":"active","ping":65},{"user_id":376,"name":"hananamanna","steam_id":76561198006570285,"connected_time":1039000000000,"state":"active","ping":105},{"user_id":377,"name":"Hooli","steam_id":76561198083632269,"connected_time":1035000000000,"state":"active","ping":71},{"user_id":347,"name":"Tails8521","steam_id":76561198051747164,"connected_time":2815000000000,"state":"active","ping":64},{"user_id":386,"name":"BlinkedUp","steam_id":76561198249985618,"connected_time":395000000000,"state":"active","ping":58},{"user_id":387,"name":"MrBanana","steam_id":76561198116021623,"connected_time":204000000000,"state":"active","ping":59},{"user_id":382,"name":"Vershal Smershal","steam_id":76561198116223995,"connected_time":948000000000,"state":"active","ping":66}]},{"server_id":202,"name":"Uncletopia | Hong Kong | 1 | All Maps","name_short":"hgk-1","host":"hgk-1.hk.uncletopia.com","port":27015,"enabled":true,"region":"asia","cc":"hk","latitude":22.302711,"longitude":114.177216,"reserved":0,"last_update":"0001-01-01T00:00:00Z","name_a2s":"Uncletopia | Hong Kong | 1 | All Maps","protocol":17,"map":"cp_mountainlab","folder":"tf","game":"Team Fortress","app_id":440,"player_count":0,"max_players":24,"Bots":0,"server_type":"Dedicated","server_os":"Linux","password":true,"vac":true,"version":"7757534","steam_id":85568392924494504,"keywords":["cp","nocrits","nodmgspread","uncletopia"],"game_id":440,"stv_port":27016,"stv_name":"Uncletopia | Hong Kong | 1 | All Maps | STV","players":null},{"server_id":1,"name":"Uncletopia | Los Angeles | 1 | All Maps","name_short":"lax-1","host":"lax-1.us.uncletopia.com","port":27015,"enabled":true,"region":"us-west","cc":"us","latitude":33.94279,"longitude":-118.41004,"reserved":0,"last_update":"0001-01-01T00:00:00Z","name_a2s":"Uncletopia | Los Angeles | 1 | All Maps","protocol":17,"map":"pl_badwater","folder":"tf","game":"Team Fortress","app_id":440,"player_count":24,"max_players":24,"Bots":0,"server_type":"Dedicated","server_os":"Linux","password":true,"vac":true,"version":"7757534","steam_id":85568392924469991,"keywords":["nocrits","nodmgspread","payload","uncletopia"],"game_id":440,"stv_port":27016,"stv_name":"Uncletopia | Los Angeles | 1 | All Maps | STV","players":[{"user_id":222,"name":"jayzak24","steam_id":76561198354267509,"connected_time":945000000000,"state":"active","ping":47},{"user_id":229,"name":"AceOfBlaze","steam_id":76561198323568171,"connected_time":21000000000,"state":"spawning","ping":49},{"user_id":199,"name":"19037189","steam_id":76561198053960810,"connected_time":2191000000000,"state":"active","ping":91},{"user_id":200,"name":"moisty","steam_id":76561198235861606,"connected_time":2185000000000,"state":"active","ping":32},{"user_id":225,"name":"milj","steam_id":76561198354473513,"connected_time":588000000000,"state":"active","ping":102},{"user_id":197,"name":"Shamrock Shake Oct.10.2020 @8pm","steam_id":76561198833313201,"connected_time":2238000000000,"state":"active","ping":55},{"user_id":224,"name":"Livin' Like Larry","steam_id":76561198313360974,"connected_time":664000000000,"state":"active","ping":47},{"user_id":228,"name":"scrapheap","steam_id":76561198202407087,"connected_time":295000000000,"state":"active","ping":125},{"user_id":205,"name":"Idiotden","steam_id":76561199340950135,"connected_time":2069000000000,"state":"active","ping":52},{"user_id":208,"name":"Harold","steam_id":76561198057317770,"connected_time":1959000000000,"state":"active","ping":45},{"user_id":209,"name":"Pulse","steam_id":76561198445854315,"connected_time":1954000000000,"state":"active","ping":55},{"user_id":84,"name":"roach","steam_id":76561198354811369,"connected_time":9585000000000,"state":"active","ping":48},{"user_id":215,"name":"✿ teafy","steam_id":76561198406252824,"connected_time":1654000000000,"state":"active","ping":77},{"user_id":144,"name":"Hindmost","steam_id":76561199081837220,"connected_time":5990000000000,"state":"active","ping":100},{"user_id":217,"name":"sapphrodite","steam_id":76561198279341789,"connected_time":1574000000000,"state":"active","ping":135},{"user_id":226,"name":"fish gaming","steam_id":76561198067029049,"connected_time":585000000000,"state":"active","ping":105},{"user_id":191,"name":"Ernbergler","steam_id":76561198042583426,"connected_time":2754000000000,"state":"active","ping":71},{"user_id":223,"name":"HeartAttack","steam_id":76561198135833968,"connected_time":709000000000,"state":"active","ping":65},{"user_id":218,"name":"triph","steam_id":76561198067196509,"connected_time":1422000000000,"state":"active","ping":43},{"user_id":227,"name":"crunchy and spicy wasp snack","steam_id":76561199322728703,"connected_time":398000000000,"state":"active","ping":113},{"user_id":221,"name":"KeyframeTheAwesome","steam_id":76561198152060892,"connected_time":1110000000000,"state":"active","ping":69},{"user_id":212,"name":"The Pestilence","steam_id":76561199081252282,"connected_time":1842000000000,"state":"active","ping":111},{"user_id":164,"name":"PunyHappyFace","steam_id":76561198118059305,"connected_time":4618000000000,"state":"active","ping":50},{"user_id":210,"name":"SiskoSenpai","steam_id":76561198053701833,"connected_time":1953000000000,"state":"active","ping":63}]},{"server_id":112,"name":"Uncletopia | Los Angeles | 2 | All Maps","name_short":"lax-2","host":"lax-1.us.uncletopia.com","port":27025,"enabled":true,"region":"us-west","cc":"us","latitude":33.94279,"longitude":-118.41004,"reserved":0,"last_update":"0001-01-01T00:00:00Z","name_a2s":"Uncletopia | Los Angeles | 2 | All Maps","protocol":17,"map":"cp_mountainlab","folder":"tf","game":"Team Fortress","app_id":440,"player_count":0,"max_players":24,"Bots":0,"server_type":"Dedicated","server_os":"Linux","password":true,"vac":true,"version":"7757534","steam_id":85568392924469992,"keywords":["cp","nocrits","nodmgspread","uncletopia"],"game_id":440,"stv_port":27026,"stv_name":"Uncletopia | Los Angeles | 2 | All Maps | STV","players":null},{"server_id":324,"name":"Uncletopia | Los Angeles | 3 | All Maps","name_short":"lax-3","host":"lax-1.us.uncletopia.com","port":27035,"enabled":true,"region":"us-west","cc":"us","latitude":33.94279,"longitude":-118.41004,"reserved":0,"last_update":"0001-01-01T00:00:00Z","name_a2s":"Uncletopia | Los Angeles | 3 | All Maps","protocol":17,"map":"pl_badwater","folder":"tf","game":"Team Fortress","app_id":440,"player_count":10,"max_players":24,"Bots":0,"server_type":"Dedicated","server_os":"Linux","password":true,"vac":true,"version":"7757534","steam_id":85568392924510198,"keywords":["nocrits","nodmgspread","payload","uncletopia"],"game_id":440,"stv_port":27036,"stv_name":"Uncletopia | Los Angeles | 3 | All Maps | STV","players":[{"user_id":21,"name":"Pyrolimited","steam_id":76561198195455657,"connected_time":239000000000,"state":"active","ping":72},{"user_id":14,"name":"Just Dez","steam_id":76561199327664719,"connected_time":2379000000000,"state":"active","ping":123},{"user_id":15,"name":"cringy","steam_id":76561198323000455,"connected_time":2358000000000,"state":"active","ping":65},{"user_id":22,"name":"beans","steam_id":76561199082781884,"connected_time":208000000000,"state":"active","ping":49},{"user_id":23,"name":"tacofever","steam_id":76561198010966507,"connected_time":198000000000,"state":"active","ping":48},{"user_id":24,"name":"ｎｉａｉｓｅｒｉｅ","steam_id":76561198007042683,"connected_time":126000000000,"state":"active","ping":84},{"user_id":25,"name":"DraGoN","steam_id":76561198006224312,"connected_time":55000000000,"state":"active","ping":111},{"user_id":26,"name":"Firedust19","steam_id":76561198153238631,"connected_time":53000000000,"state":"active","ping":115},{"user_id":28,"name":"Dov-Ah-Bob","steam_id":76561198147798338,"connected_time":32000000000,"state":"active","ping":45},{"user_id":29,"name":"MBK®Furryy","steam_id":76561198200785531,"connected_time":14000000000,"state":"active","ping":35}]},{"server_id":25,"name":"Uncletopia | Los Angeles | 4 | Stopwatch Beta","name_short":"lax-4","host":"lax-1.us.uncletopia.com","port":27045,"enabled":true,"region":"us-west","cc":"us","latitude":33.94279,"longitude":-118.41004,"reserved":0,"last_update":"0001-01-01T00:00:00Z","name_a2s":"Uncletopia | Los Angeles | 4 | Stopwatch Beta","protocol":17,"map":"pl_swiftwater_final1","folder":"tf","game":"Team Fortress","app_id":440,"player_count":0,"max_players":24,"Bots":0,"server_type":"Dedicated","server_os":"Linux","password":true,"vac":true,"version":"7757534","steam_id":85568392924510199,"keywords":["nocrits","nodmgspread","payload","uncletopia"],"game_id":440,"stv_port":27046,"stv_name":"Uncletopia | Los Angeles | 4 | Stopwatch Beta | STV","players":null},{"server_id":11,"name":"Uncletopia | London | 1 | All Maps","name_short":"lon-1","host":"lon-1.uk.uncletopia.com","port":27015,"enabled":true,"region":"eu","cc":"gb","latitude":51.509865,"longitude":-0.118092,"reserved":0,"last_update":"0001-01-01T00:00:00Z","name_a2s":"Uncletopia | London | 1 | All Maps","protocol":17,"map":"pl_borneo","folder":"tf","game":"Team Fortress","app_id":440,"player_count":24,"max_players":24,"Bots":0,"server_type":"Dedicated","server_os":"Linux","password":true,"vac":true,"version":"7757534","steam_id":85568392924367362,"keywords":["nocrits","nodmgspread","payload","uncletopia"],"game_id":440,"stv_port":27016,"stv_name":"Uncletopia | London | 1 | All Maps | STV","players":[{"user_id":577,"name":"The Feminine Urge To Play Pyro","steam_id":76561198124944045,"connected_time":743000000000,"state":"active","ping":49},{"user_id":586,"name":"Shovelhalfrusty","steam_id":76561198346447513,"connected_time":421000000000,"state":"active","ping":67},{"user_id":579,"name":"rented","steam_id":76561198302716983,"connected_time":738000000000,"state":"active","ping":51},{"user_id":575,"name":"just a little guy","steam_id":76561198178250598,"connected_time":773000000000,"state":"active","ping":61},{"user_id":582,"name":"beebo","steam_id":76561199120277007,"connected_time":625000000000,"state":"active","ping":38},{"user_id":568,"name":"t.tv/goatcanon","steam_id":76561198109415404,"connected_time":1733000000000,"state":"active","ping":54},{"user_id":539,"name":"unconditional love","steam_id":76561199026097466,"connected_time":4228000000000,"state":"active","ping":75},{"user_id":486,"name":"Jofiah/TTV","steam_id":76561197977233962,"connected_time":8236000000000,"state":"active","ping":48},{"user_id":550,"name":"bonehead","steam_id":76561198261870384,"connected_time":3743000000000,"state":"active","ping":53},{"user_id":583,"name":"глеб v3.1","steam_id":76561198291044793,"connected_time":624000000000,"state":"active","ping":90},{"user_id":584,"name":"Rinmaru","steam_id":76561198256820097,"connected_time":613000000000,"state":"active","ping":101},{"user_id":557,"name":"dec","steam_id":76561198009660168,"connected_time":3125000000000,"state":"active","ping":59},{"user_id":553,"name":"impossible whopper eater","steam_id":76561198058641805,"connected_time":3478000000000,"state":"active","ping":51},{"user_id":446,"name":"goff","steam_id":76561198118989010,"connected_time":12537000000000,"state":"active","ping":45},{"user_id":543,"name":"JownCenta","steam_id":76561198121397124,"connected_time":3970000000000,"state":"active","ping":51},{"user_id":587,"name":"KPhii","steam_id":76561198970587061,"connected_time":407000000000,"state":"active","ping":70},{"user_id":578,"name":"Jingle","steam_id":76561198169060708,"connected_time":742000000000,"state":"active","ping":35},{"user_id":581,"name":"Baki ඞ","steam_id":76561198193615529,"connected_time":714000000000,"state":"active","ping":71},{"user_id":546,"name":"Wyro","steam_id":76561199176835169,"connected_time":3832000000000,"state":"active","ping":52},{"user_id":585,"name":"-_-Steve-_-","steam_id":76561198318786687,"connected_time":572000000000,"state":"active","ping":47},{"user_id":534,"name":"J3LLY","steam_id":76561198048453764,"connected_time":4401000000000,"state":"active","ping":51},{"user_id":560,"name":"NuGs","steam_id":76561198305550934,"connected_time":2682000000000,"state":"active","ping":56},{"user_id":548,"name":"Skatnaset","steam_id":76561198298457353,"connected_time":3800000000000,"state":"active","ping":69},{"user_id":572,"name":"Zinnia_64","steam_id":76561199158994121,"connected_time":1470000000000,"state":"active","ping":153}]},{"server_id":114,"name":"Uncletopia | London | 2 | All Maps","name_short":"lon-2","host":"lon-1.uk.uncletopia.com","port":27025,"enabled":true,"region":"eu","cc":"gb","latitude":51.509865,"longitude":-0.118092,"reserved":0,"last_update":"0001-01-01T00:00:00Z","name_a2s":"Uncletopia | London | 2 | All Maps","protocol":17,"map":"koth_viaduct","folder":"tf","game":"Team Fortress","app_id":440,"player_count":1,"max_players":24,"Bots":0,"server_type":"Dedicated","server_os":"Linux","password":true,"vac":true,"version":"7757534","steam_id":85568392924470941,"keywords":["cp","nocrits","nodmgspread","uncletopia"],"game_id":440,"stv_port":27026,"stv_name":"Uncletopia | London | 2 | All Maps | STV","players":[{"user_id":369,"name":"Nils","steam_id":76561198254882979,"connected_time":110000000000,"state":"active","ping":56}]},{"server_id":320,"name":"Uncletopia | London | 3 | All Maps","name_short":"lon-3","host":"lon-1.uk.uncletopia.com","port":27035,"enabled":true,"region":"eu","cc":"gb","latitude":51.509865,"longitude":-0.118092,"reserved":0,"last_update":"0001-01-01T00:00:00Z","name_a2s":"Uncletopia | London | 3 | All Maps","protocol":17,"map":"pl_borneo","folder":"tf","game":"Team Fortress","app_id":440,"player_count":24,"max_players":24,"Bots":0,"server_type":"Dedicated","server_os":"Linux","password":true,"vac":true,"version":"7757534","steam_id":85568392924510192,"keywords":["nocrits","nodmgspread","payload","uncletopia"],"game_id":440,"stv_port":27036,"stv_name":"Uncletopia | London | 3 | All Maps | STV","players":[{"user_id":402,"name":"British Disapproval","steam_id":76561198001375260,"connected_time":1838000000000,"state":"active","ping":54},{"user_id":346,"name":"hlug2340","steam_id":76561198087970118,"connected_time":4765000000000,"state":"active","ping":73},{"user_id":393,"name":"King Crimson","steam_id":76561198133665338,"connected_time":2609000000000,"state":"active","ping":82},{"user_id":347,"name":"|Zomaxx|","steam_id":76561198138925802,"connected_time":4764000000000,"state":"active","ping":70},{"user_id":334,"name":"KeTlEr","steam_id":76561198100957443,"connected_time":6360000000000,"state":"active","ping":69},{"user_id":396,"name":"джегеми хэпкингс","steam_id":76561198131531394,"connected_time":2396000000000,"state":"active","ping":104},{"user_id":414,"name":"Lukas","steam_id":76561198009118452,"connected_time":928000000000,"state":"active","ping":69},{"user_id":422,"name":"Alfred","steam_id":76561198348799252,"connected_time":475000000000,"state":"active","ping":45},{"user_id":413,"name":"saul goodman gaming","steam_id":76561199010713883,"connected_time":1528000000000,"state":"active","ping":60},{"user_id":417,"name":"How can I be homophobic?","steam_id":76561198152813004,"connected_time":804000000000,"state":"active","ping":51},{"user_id":401,"name":"˹Fate's·Marionette˼","steam_id":76561198034197381,"connected_time":2137000000000,"state":"active","ping":51},{"user_id":410,"name":"Hannü","steam_id":76561197969886128,"connected_time":1673000000000,"state":"active","ping":53},{"user_id":426,"name":"Lemon","steam_id":76561198188535947,"connected_time":361000000000,"state":"active","ping":84},{"user_id":388,"name":"molly","steam_id":76561198029399151,"connected_time":2762000000000,"state":"active","ping":65},{"user_id":345,"name":"gibb (official)","steam_id":76561198074097655,"connected_time":4908000000000,"state":"active","ping":35},{"user_id":424,"name":"Mobster Tortoise","steam_id":76561199036837091,"connected_time":449000000000,"state":"active","ping":90},{"user_id":427,"name":"Brasidas","steam_id":76561197966629582,"connected_time":311000000000,"state":"active","ping":61},{"user_id":412,"name":"pezza","steam_id":76561197995173247,"connected_time":1623000000000,"state":"active","ping":60},{"user_id":399,"name":"Yaz","steam_id":76561198110613175,"connected_time":2340000000000,"state":"active","ping":105},{"user_id":394,"name":"Flying skyhigh","steam_id":76561198372971096,"connected_time":2542000000000,"state":"active","ping":86},{"user_id":395,"name":"Flying Objects","steam_id":76561198018207813,"connected_time":2519000000000,"state":"active","ping":48},{"user_id":360,"name":"Carrot Arc","steam_id":76561198164957006,"connected_time":4384000000000,"state":"active","ping":85},{"user_id":403,"name":"Ruvix","steam_id":76561198239689346,"connected_time":1733000000000,"state":"active","ping":69},{"user_id":405,"name":"♥ aura ♥","steam_id":76561198066258544,"connected_time":1725000000000,"state":"active","ping":64}]},{"server_id":321,"name":"Uncletopia | London | 4 | All Maps","name_short":"lon-4","host":"lon-1.uk.uncletopia.com","port":27045,"enabled":true,"region":"eu","cc":"gb","latitude":51.509865,"longitude":-0.118092,"reserved":0,"last_update":"0001-01-01T00:00:00Z","name_a2s":"Uncletopia | London | 4 | All Maps","protocol":17,"map":"pl_upward","folder":"tf","game":"Team Fortress","app_id":440,"player_count":24,"max_players":24,"Bots":0,"server_type":"Dedicated","server_os":"Linux","password":true,"vac":true,"version":"7757534","steam_id":85568392924510193,"keywords":["nocrits","nodmgspread","payload","uncletopia"],"game_id":440,"stv_port":27046,"stv_name":"Uncletopia | London | 4 | All Maps | STV","players":[{"user_id":389,"name":"maybe blw.tf","steam_id":76561199028670732,"connected_time":651000000000,"state":"active","ping":59},{"user_id":382,"name":"meatpet","steam_id":76561198891774011,"connected_time":1523000000000,"state":"active","ping":50},{"user_id":373,"name":"Bman253","steam_id":76561198089945659,"connected_time":2469000000000,"state":"active","ping":132},{"user_id":374,"name":"I only use huntsman","steam_id":76561199192434258,"connected_time":2429000000000,"state":"active","ping":91},{"user_id":342,"name":"strohkopf9","steam_id":76561198059349860,"connected_time":5128000000000,"state":"active","ping":73},{"user_id":381,"name":"HilldogGaming","steam_id":76561198082209322,"connected_time":1588000000000,"state":"active","ping":84},{"user_id":376,"name":"Kestrel","steam_id":76561198144033005,"connected_time":1830000000000,"state":"active","ping":47},{"user_id":377,"name":"metodmiha","steam_id":76561199111498575,"connected_time":1808000000000,"state":"active","ping":86},{"user_id":363,"name":"After8","steam_id":76561198090750865,"connected_time":3841000000000,"state":"active","ping":75},{"user_id":364,"name":"Pingu","steam_id":76561198271948591,"connected_time":3828000000000,"state":"active","ping":56},{"user_id":319,"name":"slowdown heavy","steam_id":76561198025916703,"connected_time":7462000000000,"state":"active","ping":69},{"user_id":386,"name":"Sirzen","steam_id":76561198170155434,"connected_time":758000000000,"state":"active","ping":46},{"user_id":371,"name":"skill","steam_id":76561198106012909,"connected_time":2519000000000,"state":"active","ping":81},{"user_id":365,"name":"BayanTheBear","steam_id":76561198134537476,"connected_time":3780000000000,"state":"active","ping":162},{"user_id":345,"name":"Red Dynamite","steam_id":76561199073167935,"connected_time":5092000000000,"state":"active","ping":145},{"user_id":334,"name":"Mr.noob","steam_id":76561199200442395,"connected_time":5805000000000,"state":"active","ping":80},{"user_id":366,"name":"Anri Okita's Massive Milkers","steam_id":76561199186352720,"connected_time":3777000000000,"state":"active","ping":60},{"user_id":368,"name":"AWP Bodyshot :) ❤","steam_id":76561198029928533,"connected_time":3738000000000,"state":"active","ping":59},{"user_id":378,"name":"✪ Danny","steam_id":76561198104483241,"connected_time":1800000000000,"state":"active","ping":52},{"user_id":390,"name":"Elix","steam_id":76561199072306920,"connected_time":0,"state":"spawning","ping":0},{"user_id":388,"name":"Doohickey mechanic","steam_id":76561198146180114,"connected_time":714000000000,"state":"active","ping":95},{"user_id":384,"name":"The destroyer of foreskin","steam_id":76561198135275966,"connected_time":863000000000,"state":"active","ping":160},{"user_id":302,"name":"ROX","steam_id":76561198272289320,"connected_time":7953000000000,"state":"active","ping":63},{"user_id":387,"name":"The Death I Deservioli","steam_id":76561198320506848,"connected_time":734000000000,"state":"active","ping":72}]},{"server_id":21,"name":"Uncletopia | London | 5 | All Maps","name_short":"lon-5","host":"lon-1.uk.uncletopia.com","port":27055,"enabled":true,"region":"eu","cc":"gb","latitude":51.509865,"longitude":-0.118092,"reserved":0,"last_update":"0001-01-01T00:00:00Z","name_a2s":"Uncletopia | London | 5 | All Maps","protocol":17,"map":"pl_badwater","folder":"tf","game":"Team Fortress","app_id":440,"player_count":24,"max_players":24,"Bots":0,"server_type":"Dedicated","server_os":"Linux","password":true,"vac":true,"version":"7757534","steam_id":85568392924742829,"keywords":["nocrits","nodmgspread","payload","uncletopia"],"game_id":440,"stv_port":27056,"stv_name":"Uncletopia | London | 5 | All Maps | STV","players":[{"user_id":168,"name":"Providence","steam_id":76561198003920270,"connected_time":378000000000,"state":"active","ping":72},{"user_id":121,"name":"Holy f stewie, I am shítting.","steam_id":76561198147173457,"connected_time":3733000000000,"state":"active","ping":76},{"user_id":134,"name":"bachusa1657","steam_id":76561198202175911,"connected_time":3208000000000,"state":"active","ping":83},{"user_id":172,"name":"jovi_","steam_id":76561198449280552,"connected_time":58000000000,"state":"active","ping":49},{"user_id":169,"name":"Oak","steam_id":76561198067315672,"connected_time":296000000000,"state":"active","ping":45},{"user_id":70,"name":"Mabert","steam_id":76561198436058407,"connected_time":7104000000000,"state":"active","ping":76},{"user_id":158,"name":"Lil Ari","steam_id":76561198218178180,"connected_time":746000000000,"state":"active","ping":83},{"user_id":150,"name":"flub_","steam_id":76561198337519315,"connected_time":1287000000000,"state":"active","ping":44},{"user_id":116,"name":"Team Fortress","steam_id":76561198058722801,"connected_time":4010000000000,"state":"active","ping":49},{"user_id":124,"name":"holykyckling","steam_id":76561198040661615,"connected_time":3635000000000,"state":"active","ping":83},{"user_id":162,"name":"Matt","steam_id":76561199242133658,"connected_time":592000000000,"state":"active","ping":77},{"user_id":163,"name":"KLAMA  ❤","steam_id":76561198351549661,"connected_time":509000000000,"state":"active","ping":75},{"user_id":164,"name":"I have aids","steam_id":76561198860347851,"connected_time":507000000000,"state":"active","ping":125},{"user_id":156,"name":"Roachy","steam_id":76561198004508448,"connected_time":920000000000,"state":"active","ping":45},{"user_id":171,"name":"Bonca","steam_id":76561198137503531,"connected_time":112000000000,"state":"active","ping":74},{"user_id":153,"name":"R4yzan","steam_id":76561198085146731,"connected_time":957000000000,"state":"active","ping":49},{"user_id":141,"name":"gagalak","steam_id":76561198089979108,"connected_time":2767000000000,"state":"active","ping":102},{"user_id":139,"name":"pepper","steam_id":76561198059782462,"connected_time":2821000000000,"state":"active","ping":61},{"user_id":173,"name":"YOU´RE A LEBANON, LEGO CITIZEN","steam_id":76561199011293286,"connected_time":42000000000,"state":"active","ping":108},{"user_id":129,"name":"pistol.peter65","steam_id":76561198415564349,"connected_time":3555000000000,"state":"active","ping":61},{"user_id":130,"name":"edgar","steam_id":76561198212862423,"connected_time":3540000000000,"state":"active","ping":38},{"user_id":174,"name":"Stivo","steam_id":76561198026547999,"connected_time":26000000000,"state":"active","ping":97},{"user_id":167,"name":"mespe","steam_id":76561198121530649,"connected_time":382000000000,"state":"active","ping":75},{"user_id":148,"name":"SynthBox3","steam_id":76561199094075745,"connected_time":1811000000000,"state":"active","ping":100}]},{"server_id":22,"name":"Uncletopia | London | 6 | All Maps","name_short":"lon-6","host":"lon-1.uk.uncletopia.com","port":27065,"enabled":true,"region":"eu","cc":"gb","latitude":51.509865,"longitude":-0.118092,"reserved":0,"last_update":"0001-01-01T00:00:00Z","name_a2s":"Uncletopia | London | 6 | All Maps","protocol":17,"map":"cp_snakewater_final1","folder":"tf","game":"Team Fortress","app_id":440,"player_count":3,"max_players":24,"Bots":0,"server_type":"Dedicated","server_os":"Linux","password":true,"vac":true,"version":"7757534","steam_id":85568392924742830,"keywords":["cp","nocrits","nodmgspread","uncletopia"],"game_id":440,"stv_port":27066,"stv_name":"Uncletopia | London | 6 | All Maps | STV","players":[{"user_id":504,"name":"SÜLEYMAN ÇAKIR","steam_id":76561199068170005,"connected_time":1600000000000,"state":"active","ping":89},{"user_id":505,"name":"efsoemir7","steam_id":76561199466793563,"connected_time":1299000000000,"state":"active","ping":121},{"user_id":507,"name":"Mc Cheezy","steam_id":76561198834780242,"connected_time":68000000000,"state":"spawning","ping":90}]},{"server_id":40,"name":"Uncletopia | London | 7 | No Payload","name_short":"lon-7","host":"lon-1.uk.uncletopia.com","port":27075,"enabled":true,"region":"eu","cc":"gb","latitude":51.509865,"longitude":-0.118092,"reserved":0,"last_update":"0001-01-01T00:00:00Z","name_a2s":"Uncletopia | London | 7 | No Payload","protocol":17,"map":"cp_powerhouse","folder":"tf","game":"Team Fortress","app_id":440,"player_count":24,"max_players":24,"Bots":0,"server_type":"Dedicated","server_os":"Linux","password":true,"vac":true,"version":"7757534","steam_id":85568392924964314,"keywords":["cp","nocrits","nodmgspread","uncletopia"],"game_id":440,"stv_port":27076,"stv_name":"Uncletopia | London | 7 | No Payload | STV","players":[{"user_id":311,"name":"Jackie Chan","steam_id":76561199378865926,"connected_time":1962000000000,"state":"active","ping":82},{"user_id":312,"name":"Poodle","steam_id":76561198015483504,"connected_time":1932000000000,"state":"active","ping":78},{"user_id":258,"name":"Ember from Hungary","steam_id":76561198269211299,"connected_time":6008000000000,"state":"active","ping":84},{"user_id":267,"name":"eedefeed","steam_id":76561198045716254,"connected_time":5058000000000,"state":"active","ping":44},{"user_id":343,"name":"Ash","steam_id":76561198148738525,"connected_time":340000000000,"state":"active","ping":117},{"user_id":313,"name":"The Daniella","steam_id":76561198023075547,"connected_time":1905000000000,"state":"active","ping":60},{"user_id":263,"name":"Sloth","steam_id":76561198812115469,"connected_time":5281000000000,"state":"active","ping":87},{"user_id":283,"name":"Toelar_Bear","steam_id":76561197971153708,"connected_time":4076000000000,"state":"active","ping":67},{"user_id":346,"name":"auls","steam_id":76561198111229919,"connected_time":262000000000,"state":"active","ping":95},{"user_id":304,"name":"protëin","steam_id":76561197998423616,"connected_time":3102000000000,"state":"active","ping":66},{"user_id":338,"name":"Andebil","steam_id":76561198131829815,"connected_time":852000000000,"state":"active","ping":82},{"user_id":345,"name":"swallowed 10 pennies please hel","steam_id":76561198055816412,"connected_time":294000000000,"state":"active","ping":47},{"user_id":329,"name":"RudiPrico4","steam_id":76561199014381495,"connected_time":1405000000000,"state":"active","ping":53},{"user_id":348,"name":"r4s1","steam_id":76561198024034917,"connected_time":96000000000,"state":"active","ping":47},{"user_id":331,"name":"MeKaRkAn","steam_id":76561198123824965,"connected_time":1270000000000,"state":"active","ping":63},{"user_id":349,"name":"MEGOS","steam_id":76561198172740637,"connected_time":80000000000,"state":"active","ping":60},{"user_id":319,"name":"!Trying to have fun!","steam_id":76561198151370212,"connected_time":1851000000000,"state":"active","ping":74},{"user_id":350,"name":"DuckGod","steam_id":76561198333027986,"connected_time":71000000000,"state":"active","ping":69},{"user_id":351,"name":"Leprosy","steam_id":76561199206159814,"connected_time":23000000000,"state":"spawning","ping":49},{"user_id":322,"name":"toino_PT","steam_id":76561199008999046,"connected_time":1783000000000,"state":"active","ping":79},{"user_id":337,"name":"The 2Fort Goblin","steam_id":76561199074308159,"connected_time":894000000000,"state":"active","ping":134},{"user_id":339,"name":"Garden Freeman","steam_id":76561199073314677,"connected_time":778000000000,"state":"active","ping":80},{"user_id":334,"name":":3","steam_id":76561199469547832,"connected_time":1222000000000,"state":"active","ping":104},{"user_id":335,"name":"△catfood","steam_id":76561198024321232,"connected_time":1202000000000,"state":"active","ping":59}]},{"server_id":41,"name":"Uncletopia | London | 8 | Community","name_short":"lon-8","host":"lon-1.uk.uncletopia.com","port":27085,"enabled":true,"region":"eu","cc":"gb","latitude":51.509865,"longitude":-0.118092,"reserved":0,"last_update":"0001-01-01T00:00:00Z","name_a2s":"Uncletopia | London | 8 | Community","protocol":17,"map":"workshop/cp_logjam_rc12.ugc454812035","folder":"tf","game":"Team Fortress","app_id":440,"player_count":0,"max_players":24,"Bots":0,"server_type":"Dedicated","server_os":"Linux","password":true,"vac":true,"version":"7757534","steam_id":85568392924964315,"keywords":["cp","nocrits","nodmgspread","uncletopia"],"game_id":440,"stv_port":27086,"stv_name":"Uncletopia | London | 8 | Community | STV","players":null},{"server_id":300,"name":"Uncletopia | Montréal | 1 | All Maps","name_short":"mtl-1","host":"mtl-1.ca.uncletopia.com","port":27015,"enabled":true,"region":"us-east","cc":"ca","latitude":45.50889,"longitude":-73.56167,"reserved":0,"last_update":"0001-01-01T00:00:00Z","name_a2s":"Uncletopia | Montréal | 1 | All Maps","protocol":17,"map":"koth_highpass","folder":"tf","game":"Team Fortress","app_id":440,"player_count":0,"max_players":24,"Bots":0,"server_type":"Dedicated","server_os":"Linux","password":true,"vac":true,"version":"7757534","steam_id":85568392924500087,"keywords":["cp","nocrits","nodmgspread","uncletopia"],"game_id":440,"stv_port":27016,"stv_name":"Uncletopia | Montréal | 1 | All Maps | STV","players":null},{"server_id":301,"name":"Uncletopia | Montréal | 2 | All Maps","name_short":"mtl-2","host":"mtl-1.ca.uncletopia.com","port":27025,"enabled":true,"region":"us-east","cc":"ca","latitude":45.50889,"longitude":-73.56167,"reserved":0,"last_update":"0001-01-01T00:00:00Z","name_a2s":"Uncletopia | Montréal | 2 | All Maps","protocol":17,"map":"pl_snowycoast","folder":"tf","game":"Team Fortress","app_id":440,"player_count":0,"max_players":24,"Bots":0,"server_type":"Dedicated","server_os":"Linux","password":true,"vac":true,"version":"7757534","steam_id":85568392924500088,"keywords":["nocrits","nodmgspread","payload","uncletopia"],"game_id":440,"stv_port":27026,"stv_name":"Uncletopia | Montréal | 2 | All Maps | STV","players":null},{"server_id":302,"name":"Uncletopia | Montréal | 3 | All Maps","name_short":"mtl-3","host":"mtl-1.ca.uncletopia.com","port":27035,"enabled":true,"region":"us-east","cc":"ca","latitude":45.50889,"longitude":-73.56167,"reserved":0,"last_update":"0001-01-01T00:00:00Z","name_a2s":"Uncletopia | Montréal | 3 | All Maps","protocol":17,"map":"koth_lakeside_final","folder":"tf","game":"Team Fortress","app_id":440,"player_count":0,"max_players":24,"Bots":0,"server_type":"Dedicated","server_os":"Linux","password":true,"vac":true,"version":"7757534","steam_id":85568392924500089,"keywords":["cp","nocrits","nodmgspread","uncletopia"],"game_id":440,"stv_port":27036,"stv_name":"Uncletopia | Montréal | 3 | All Maps | STV","players":null},{"server_id":303,"name":"Uncletopia | Montréal | 4 | No Payload","name_short":"mtl-4","host":"mtl-1.ca.uncletopia.com","port":27045,"enabled":true,"region":"us-east","cc":"ca","latitude":45.50889,"longitude":-73.56167,"reserved":0,"last_update":"0001-01-01T00:00:00Z","name_a2s":"Uncletopia | Montréal | 4 | No Payload","protocol":17,"map":"plr_pipeline","folder":"tf","game":"Team Fortress","app_id":440,"player_count":0,"max_players":24,"Bots":0,"server_type":"Dedicated","server_os":"Linux","password":true,"vac":true,"version":"7757534","steam_id":85568392924500090,"keywords":["nocrits","nodmgspread","payload","uncletopia"],"game_id":440,"stv_port":27046,"stv_name":"Uncletopia | Montréal | 4 | No Payload | STV","players":null},{"server_id":13,"name":"Uncletopia | New York City | 1 | All Maps","name_short":"nyc-1","host":"nyc-1.us.uncletopia.com","port":27015,"enabled":true,"region":"us-east","cc":"us","latitude":40.73061,"longitude":-73.93524,"reserved":0,"last_update":"0001-01-01T00:00:00Z","name_a2s":"Uncletopia | New York City | 1 | All Maps","protocol":17,"map":"pl_badwater","folder":"tf","game":"Team Fortress","app_id":440,"player_count":24,"max_players":24,"Bots":0,"server_type":"Dedicated","server_os":"Linux","password":true,"vac":true,"version":"7757534","steam_id":85568392924469993,"keywords":["nocrits","nodmgspread","payload","uncletopia"],"game_id":440,"stv_port":27016,"stv_name":"Uncletopia | New York City | 1 | All Maps | STV","players":[{"user_id":338,"name":"roby","steam_id":76561198044660393,"connected_time":4355000000000,"state":"active","ping":128},{"user_id":373,"name":"Heropon","steam_id":76561198105224481,"connected_time":633000000000,"state":"active","ping":58},{"user_id":297,"name":"meteora by linkin park","steam_id":76561198332694127,"connected_time":8328000000000,"state":"active","ping":54},{"user_id":371,"name":"aquatic ambiance","steam_id":76561198042788986,"connected_time":754000000000,"state":"active","ping":65},{"user_id":374,"name":"funny weed dot com","steam_id":76561198843967834,"connected_time":442000000000,"state":"active","ping":73},{"user_id":341,"name":"felted","steam_id":76561198099507130,"connected_time":4252000000000,"state":"active","ping":100},{"user_id":366,"name":"Poi","steam_id":76561198176914898,"connected_time":1169000000000,"state":"active","ping":85},{"user_id":369,"name":"chilis baby back ribs","steam_id":76561198813516435,"connected_time":938000000000,"state":"active","ping":106},{"user_id":340,"name":"Ghieldian","steam_id":76561198138009635,"connected_time":4298000000000,"state":"active","ping":116},{"user_id":281,"name":"Aeonspassed","steam_id":76561198014016451,"connected_time":9694000000000,"state":"active","ping":84},{"user_id":368,"name":"Dr. Enforcicle (real)","steam_id":76561198964471859,"connected_time":1091000000000,"state":"active","ping":70},{"user_id":325,"name":"The Gaper","steam_id":76561198053389698,"connected_time":5544000000000,"state":"active","ping":131},{"user_id":286,"name":"Ritzy","steam_id":76561198381955342,"connected_time":9161000000000,"state":"active","ping":117},{"user_id":358,"name":"BubbyBoy27","steam_id":76561199102009679,"connected_time":1674000000000,"state":"active","ping":96},{"user_id":229,"name":"Tsukiortu","steam_id":76561198086796109,"connected_time":12262000000000,"state":"active","ping":56},{"user_id":364,"name":"red gatorade","steam_id":76561199168999314,"connected_time":1500000000000,"state":"active","ping":73},{"user_id":370,"name":"StormyBoyo","steam_id":76561198273482774,"connected_time":933000000000,"state":"active","ping":92},{"user_id":353,"name":"Grebnedulgo The Elder","steam_id":76561199123285878,"connected_time":2035000000000,"state":"active","ping":65},{"user_id":362,"name":"Rock Kickass","steam_id":76561198450510841,"connected_time":1569000000000,"state":"active","ping":130},{"user_id":367,"name":"LocaKola","steam_id":76561198173435430,"connected_time":1136000000000,"state":"active","ping":66},{"user_id":295,"name":"p","steam_id":76561198030291655,"connected_time":8445000000000,"state":"active","ping":61},{"user_id":363,"name":"blue gatorade","steam_id":76561199091800420,"connected_time":1522000000000,"state":"active","ping":61},{"user_id":375,"name":"Jester","steam_id":76561198156746320,"connected_time":418000000000,"state":"active","ping":61},{"user_id":346,"name":"turd ferguson","steam_id":76561198071620782,"connected_time":3848000000000,"state":"active","ping":66}]},{"server_id":14,"name":"Uncletopia | New York City | 2 | All Maps","name_short":"nyc-2","host":"nyc-1.us.uncletopia.com","port":27025,"enabled":true,"region":"us-east","cc":"us","latitude":40.73061,"longitude":-73.93524,"reserved":0,"last_update":"0001-01-01T00:00:00Z","name_a2s":"Uncletopia | New York City | 2 | All Maps","protocol":17,"map":"koth_cascade","folder":"tf","game":"Team Fortress","app_id":440,"player_count":21,"max_players":24,"Bots":0,"server_type":"Dedicated","server_os":"Linux","password":true,"vac":true,"version":"7757534","steam_id":85568392924469994,"keywords":["cp","nocrits","nodmgspread","uncletopia"],"game_id":440,"stv_port":27026,"stv_name":"Uncletopia | New York City | 2 | All Maps | STV","players":[{"user_id":398,"name":"jamzine","steam_id":76561198186168293,"connected_time":103000000000,"state":"active","ping":59},{"user_id":387,"name":"Olifont","steam_id":76561198141162919,"connected_time":1559000000000,"state":"active","ping":62},{"user_id":395,"name":"Sickmind33","steam_id":76561198036248611,"connected_time":840000000000,"state":"active","ping":68},{"user_id":397,"name":"Ruth Linsborough #GAMERMOM","steam_id":76561199055437006,"connected_time":710000000000,"state":"active","ping":46},{"user_id":402,"name":"20 miles for a Quaalude","steam_id":76561198042579477,"connected_time":68000000000,"state":"active","ping":52},{"user_id":403,"name":"techturkey","steam_id":76561199154637989,"connected_time":22000000000,"state":"active","ping":51},{"user_id":399,"name":"UUUURT","steam_id":76561198047468140,"connected_time":94000000000,"state":"active","ping":183},{"user_id":347,"name":"peace dog","steam_id":76561198267988522,"connected_time":3016000000000,"state":"active","ping":54},{"user_id":404,"name":"canid","steam_id":76561198103496593,"connected_time":6000000000,"state":"spawning","ping":70},{"user_id":400,"name":"Waluigi","steam_id":76561199226994840,"connected_time":93000000000,"state":"active","ping":49},{"user_id":405,"name":"splongerto","steam_id":76561198007792525,"connected_time":6000000000,"state":"spawning","ping":105},{"user_id":388,"name":"Cervidé","steam_id":76561198098579497,"connected_time":1498000000000,"state":"active","ping":63},{"user_id":360,"name":"SEWER RODENT","steam_id":76561198858984051,"connected_time":2687000000000,"state":"active","ping":50},{"user_id":339,"name":"GrimDaReaper","steam_id":76561199038948822,"connected_time":3344000000000,"state":"active","ping":90},{"user_id":392,"name":"The Greendale Human Beings","steam_id":76561198055433422,"connected_time":1141000000000,"state":"active","ping":69},{"user_id":366,"name":"Devinish","steam_id":76561198024927243,"connected_time":2382000000000,"state":"active","ping":80},{"user_id":384,"name":"Monsieur l'INGENIEUR","steam_id":76561198090504334,"connected_time":1750000000000,"state":"active","ping":69},{"user_id":368,"name":"joethefool","steam_id":76561199015436319,"connected_time":2132000000000,"state":"active","ping":47},{"user_id":394,"name":"TransFUNKe","steam_id":76561199234098237,"connected_time":897000000000,"state":"active","ping":84},{"user_id":334,"name":"Bad Rollout","steam_id":76561197971948876,"connected_time":3547000000000,"state":"active","ping":70},{"user_id":386,"name":"erm what the scallop","steam_id":76561199121341864,"connected_time":1620000000000,"state":"active","ping":97}]},{"server_id":15,"name":"Uncletopia | New York City | 3 | Stopwatch Beta","name_short":"nyc-3","host":"nyc-1.us.uncletopia.com","port":27035,"enabled":true,"region":"us-east","cc":"us","latitude":40.73061,"longitude":-73.93524,"reserved":0,"last_update":"0001-01-01T00:00:00Z","name_a2s":"Uncletopia | New York City | 3 | Stopwatch Beta","protocol":17,"map":"pl_upward","folder":"tf","game":"Team Fortress","app_id":440,"player_count":0,"max_players":24,"Bots":0,"server_type":"Dedicated","server_os":"Linux","password":true,"vac":true,"version":"7757534","steam_id":85568392924742820,"keywords":["nocrits","nodmgspread","payload","uncletopia"],"game_id":440,"stv_port":27036,"stv_name":"Uncletopia | New York City | 3 | Stopwatch Beta | STV","players":null},{"server_id":16,"name":"Uncletopia | New York City | 4 | Community","name_short":"nyc-4","host":"nyc-1.us.uncletopia.com","port":27045,"enabled":true,"region":"us-east","cc":"us","latitude":40.73061,"longitude":-73.93524,"reserved":0,"last_update":"0001-01-01T00:00:00Z","name_a2s":"Uncletopia | New York City | 4 | Community","protocol":17,"map":"workshop/koth_synthetic_rc6a.ugc1549817316","folder":"tf","game":"Team Fortress","app_id":440,"player_count":0,"max_players":24,"Bots":0,"server_type":"Dedicated","server_os":"Linux","password":true,"vac":true,"version":"7757534","steam_id":85568392924742821,"keywords":["cp","nocrits","nodmgspread","uncletopia"],"game_id":440,"stv_port":27046,"stv_name":"Uncletopia | New York City | 4 | Community | STV","players":null},{"server_id":142,"name":"Uncletopia | São Paulo | 1 | All Maps","name_short":"sao-1","host":"sao-1.br.uncletopia.com","port":27015,"enabled":true,"region":"sa","cc":"br","latitude":-23.533773,"longitude":-46.62529,"reserved":0,"last_update":"0001-01-01T00:00:00Z","name_a2s":"Uncletopia | São Paulo | 1 | All Maps","protocol":17,"map":"koth_lakeside_final","folder":"tf","game":"Team Fortress","app_id":440,"player_count":0,"max_players":24,"Bots":0,"server_type":"Dedicated","server_os":"Linux","password":true,"vac":true,"version":"7757534","steam_id":85568392924469996,"keywords":["cp","nocrits","nodmgspread","uncletopia"],"game_id":440,"stv_port":27016,"stv_name":"Uncletopia | São Paulo | 1 | All Maps | STV","players":null},{"server_id":143,"name":"Uncletopia | São Paulo | 2 | All Maps","name_short":"sao-2","host":"sao-2.br.uncletopia.com","port":27015,"enabled":true,"region":"sa","cc":"br","latitude":-23.533773,"longitude":-46.62529,"reserved":0,"last_update":"0001-01-01T00:00:00Z","name_a2s":"Uncletopia | São Paulo | 2 | All Maps","protocol":17,"map":"koth_harvest_final","folder":"tf","game":"Team Fortress","app_id":440,"player_count":8,"max_players":24,"Bots":0,"server_type":"Dedicated","server_os":"Linux","password":true,"vac":true,"version":"7757534","steam_id":85568392924485349,"keywords":["cp","nocrits","nodmgspread","uncletopia"],"game_id":440,"stv_port":27016,"stv_name":"Uncletopia | São Paulo | 2 | All Maps | STV","players":[{"user_id":20,"name":"Tj","steam_id":76561199144268605,"connected_time":3903000000000,"state":"active","ping":77},{"user_id":41,"name":"Solonely(z)","steam_id":76561198847899152,"connected_time":168000000000,"state":"active","ping":35},{"user_id":22,"name":"牛肉とクリーム","steam_id":76561198391399039,"connected_time":3677000000000,"state":"active","ping":64},{"user_id":32,"name":"Vlad","steam_id":76561198089311495,"connected_time":955000000000,"state":"active","ping":61},{"user_id":30,"name":"João Limão","steam_id":76561198866969619,"connected_time":1623000000000,"state":"active","ping":59},{"user_id":35,"name":"thims","steam_id":76561199252537253,"connected_time":703000000000,"state":"active","ping":58},{"user_id":34,"name":"ailuros","steam_id":76561198171349369,"connected_time":758000000000,"state":"active","ping":32},{"user_id":36,"name":"med","steam_id":76561198317090330,"connected_time":426000000000,"state":"active","ping":55}]},{"server_id":7,"name":"Uncletopia | Seattle | 1 | All Maps","name_short":"sea-1","host":"sea-1.us.uncletopia.com","port":27015,"enabled":true,"region":"us-west","cc":"us","latitude":47.608013,"longitude":-122.33517,"reserved":0,"last_update":"0001-01-01T00:00:00Z","name_a2s":"Uncletopia | Seattle | 1 | All Maps","protocol":17,"map":"pl_snowycoast","folder":"tf","game":"Team Fortress","app_id":440,"player_count":24,"max_players":24,"Bots":0,"server_type":"Dedicated","server_os":"Linux","password":true,"vac":true,"version":"7757534","steam_id":85568392924469997,"keywords":["nocrits","nodmgspread","payload","uncletopia"],"game_id":440,"stv_port":27016,"stv_name":"Uncletopia | Seattle | 1 | All Maps | STV","players":[{"user_id":355,"name":"Matches *♥‧₊˚           ","steam_id":76561198048925904,"connected_time":499000000000,"state":"active","ping":89},{"user_id":342,"name":"Lochanside","steam_id":76561198137080309,"connected_time":1199000000000,"state":"active","ping":108},{"user_id":343,"name":"Saul Goodman","steam_id":76561198354289529,"connected_time":1172000000000,"state":"active","ping":88},{"user_id":311,"name":"frying pan gaming","steam_id":76561199097866312,"connected_time":4028000000000,"state":"active","ping":154},{"user_id":291,"name":"Tea","steam_id":76561198004133638,"connected_time":5510000000000,"state":"active","ping":96},{"user_id":326,"name":"Themasterman75","steam_id":76561199385573293,"connected_time":2637000000000,"state":"active","ping":75},{"user_id":325,"name":"Mr. Ravioli","steam_id":76561197996625649,"connected_time":2708000000000,"state":"active","ping":60},{"user_id":316,"name":"Cam","steam_id":76561198285054047,"connected_time":3042000000000,"state":"active","ping":84},{"user_id":350,"name":"ITSPICE","steam_id":76561198173274042,"connected_time":793000000000,"state":"active","ping":61},{"user_id":354,"name":"Cyanotype","steam_id":76561198164984732,"connected_time":549000000000,"state":"active","ping":150},{"user_id":309,"name":"mutedx10","steam_id":76561198253556858,"connected_time":4139000000000,"state":"active","ping":94},{"user_id":345,"name":"SolarusD","steam_id":76561198029279861,"connected_time":1110000000000,"state":"active","ping":63},{"user_id":353,"name":"Idontknow","steam_id":76561199207044048,"connected_time":589000000000,"state":"active","ping":41},{"user_id":361,"name":"HaphazardHazel","steam_id":76561198316812693,"connected_time":35000000000,"state":"active","ping":150},{"user_id":357,"name":"brg","steam_id":76561197998415548,"connected_time":401000000000,"state":"active","ping":90},{"user_id":349,"name":"Pudsla","steam_id":76561198258974036,"connected_time":798000000000,"state":"active","ping":71},{"user_id":337,"name":"fwoov","steam_id":76561198129166260,"connected_time":1666000000000,"state":"active","ping":79},{"user_id":360,"name":"Chmiken","steam_id":76561199041966499,"connected_time":62000000000,"state":"active","ping":59},{"user_id":359,"name":"LennyClan","steam_id":76561198182959074,"connected_time":190000000000,"state":"active","ping":74},{"user_id":358,"name":"reiidaya","steam_id":76561198325306660,"connected_time":395000000000,"state":"active","ping":58},{"user_id":336,"name":"TR1PS","steam_id":76561198256497058,"connected_time":1822000000000,"state":"active","ping":93},{"user_id":332,"name":"Protospro","steam_id":76561198057909425,"connected_time":2086000000000,"state":"active","ping":98},{"user_id":341,"name":"Samuel","steam_id":76561197997462801,"connected_time":1255000000000,"state":"active","ping":61},{"user_id":324,"name":"o o o o o o o o o","steam_id":76561197993757506,"connected_time":2806000000000,"state":"active","ping":73}]},{"server_id":119,"name":"Uncletopia | Seattle | 2 | All Maps","name_short":"sea-2","host":"sea-1.us.uncletopia.com","port":27025,"enabled":true,"region":"us-west","cc":"us","latitude":47.608013,"longitude":-122.33517,"reserved":0,"last_update":"0001-01-01T00:00:00Z","name_a2s":"Uncletopia | Seattle | 2 | All Maps","protocol":17,"map":"koth_cascade","folder":"tf","game":"Team Fortress","app_id":440,"player_count":24,"max_players":24,"Bots":0,"server_type":"Dedicated","server_os":"Linux","password":true,"vac":true,"version":"7757534","steam_id":85568392924469998,"keywords":["cp","nocrits","nodmgspread","uncletopia"],"game_id":440,"stv_port":27026,"stv_name":"Uncletopia | Seattle | 2 | All Maps | STV","players":[{"user_id":231,"name":"Brainless Robot","steam_id":76561198045775128,"connected_time":5268000000000,"state":"active","ping":72},{"user_id":230,"name":"D0VE","steam_id":76561198151618566,"connected_time":5374000000000,"state":"active","ping":56},{"user_id":232,"name":"-Red-","steam_id":76561198092200560,"connected_time":5187000000000,"state":"active","ping":36},{"user_id":270,"name":"hank suckle","steam_id":76561198122622916,"connected_time":1060000000000,"state":"active","ping":128},{"user_id":271,"name":"Grognak","steam_id":76561198044710527,"connected_time":972000000000,"state":"active","ping":52},{"user_id":259,"name":"aomo","steam_id":76561198170381402,"connected_time":2239000000000,"state":"active","ping":106},{"user_id":234,"name":"comet","steam_id":76561198149217841,"connected_time":5176000000000,"state":"active","ping":55},{"user_id":250,"name":"Drake from State Farm","steam_id":76561199069029812,"connected_time":3414000000000,"state":"active","ping":76},{"user_id":242,"name":"Steve Burns","steam_id":76561198069968316,"connected_time":4137000000000,"state":"active","ping":67},{"user_id":272,"name":"picea","steam_id":76561198134664196,"connected_time":938000000000,"state":"active","ping":68},{"user_id":258,"name":"vλughn","steam_id":76561198144165856,"connected_time":2328000000000,"state":"active","ping":120},{"user_id":187,"name":"hoOmIN","steam_id":76561198334947079,"connected_time":9475000000000,"state":"active","ping":71},{"user_id":182,"name":"worker","steam_id":76561198039608940,"connected_time":10189000000000,"state":"active","ping":71},{"user_id":253,"name":"SaltyFlump","steam_id":76561199379601288,"connected_time":2813000000000,"state":"active","ping":58},{"user_id":268,"name":"Sky","steam_id":76561198853245153,"connected_time":1252000000000,"state":"active","ping":44},{"user_id":265,"name":"ItzGhXst","steam_id":76561198129761524,"connected_time":1810000000000,"state":"active","ping":65},{"user_id":204,"name":"Cinnifox","steam_id":76561198068773971,"connected_time":7897000000000,"state":"active","ping":86},{"user_id":240,"name":"Cr0w!","steam_id":76561198178437265,"connected_time":4369000000000,"state":"active","ping":56},{"user_id":263,"name":"Feldspaten","steam_id":76561199122059102,"connected_time":2001000000000,"state":"active","ping":78},{"user_id":273,"name":"Yoyo","steam_id":76561199122577289,"connected_time":927000000000,"state":"active","ping":126},{"user_id":276,"name":"Orca?","steam_id":76561198164341099,"connected_time":238000000000,"state":"active","ping":94},{"user_id":277,"name":"AssassinSnake","steam_id":76561198128124895,"connected_time":194000000000,"state":"active","ping":71},{"user_id":264,"name":"James Dong","steam_id":76561198130434298,"connected_time":1837000000000,"state":"active","ping":63},{"user_id":275,"name":"Flooder","steam_id":76561198043792818,"connected_time":882000000000,"state":"active","ping":50}]},{"server_id":406,"name":"Uncletopia | Seattle | 3 | Stopwatch Beta","name_short":"sea-3","host":"sea-1.us.uncletopia.com","port":27035,"enabled":true,"region":"us-west","cc":"us","latitude":47.608013,"longitude":-122.33517,"reserved":0,"last_update":"0001-01-01T00:00:00Z","name_a2s":"Uncletopia | Seattle | 3 | Stopwatch Beta","protocol":17,"map":"pl_borneo","folder":"tf","game":"Team Fortress","app_id":440,"player_count":0,"max_players":24,"Bots":0,"server_type":"Dedicated","server_os":"Linux","password":true,"vac":true,"version":"7757534","steam_id":85568392924515217,"keywords":["nocrits","nodmgspread","payload","uncletopia"],"game_id":440,"stv_port":27036,"stv_name":"Uncletopia | Seattle | 3 | Stopwatch Beta | STV","players":null},{"server_id":17,"name":"Uncletopia | San Francisco | 1 | All Maps","name_short":"sfo-1","host":"sfo-1.us.uncletopia.com","port":27015,"enabled":true,"region":"us-west","cc":"us","latitude":37.77397,"longitude":-122.4313,"reserved":0,"last_update":"0001-01-01T00:00:00Z","name_a2s":"Uncletopia | San Francisco | 1 | All Maps","protocol":17,"map":"koth_viaduct","folder":"tf","game":"Team Fortress","app_id":440,"player_count":0,"max_players":24,"Bots":0,"server_type":"Dedicated","server_os":"Linux","password":true,"vac":true,"version":"7757534","steam_id":85568392924469999,"keywords":["cp","nocrits","nodmgspread","uncletopia"],"game_id":440,"stv_port":27016,"stv_name":"Uncletopia | San Francisco | 1 | All Maps | STV","players":null},{"server_id":18,"name":"Uncletopia | San Francisco | 2 | All Maps","name_short":"sfo-2","host":"sfo-1.us.uncletopia.com","port":27025,"enabled":true,"region":"us-west","cc":"us","latitude":37.77397,"longitude":-122.4313,"reserved":0,"last_update":"0001-01-01T00:00:00Z","name_a2s":"Uncletopia | San Francisco | 2 | All Maps","protocol":17,"map":"pl_borneo","folder":"tf","game":"Team Fortress","app_id":440,"player_count":0,"max_players":24,"Bots":0,"server_type":"Dedicated","server_os":"Linux","password":true,"vac":true,"version":"7757534","steam_id":85568392924470000,"keywords":["nocrits","nodmgspread","payload","uncletopia"],"game_id":440,"stv_port":27026,"stv_name":"Uncletopia | San Francisco | 2 | All Maps | STV","players":null},{"server_id":19,"name":"Uncletopia | San Francisco | 3 | Stopwatch Beta","name_short":"sfo-3","host":"sfo-1.us.uncletopia.com","port":27035,"enabled":true,"region":"us-west","cc":"us","latitude":37.77397,"longitude":-122.4313,"reserved":0,"last_update":"0001-01-01T00:00:00Z","name_a2s":"Uncletopia | San Francisco | 3 | Stopwatch Beta","protocol":17,"map":"koth_highpass","folder":"tf","game":"Team Fortress","app_id":440,"player_count":0,"max_players":24,"Bots":0,"server_type":"Dedicated","server_os":"Linux","password":true,"vac":true,"version":"7757534","steam_id":85568392924742824,"keywords":["cp","nocrits","nodmgspread","uncletopia"],"game_id":440,"stv_port":27036,"stv_name":"Uncletopia | San Francisco | 3 | Stopwatch Beta | STV","players":null},{"server_id":20,"name":"Uncletopia | San Francisco | 4 | Community","name_short":"sfo-4","host":"sfo-1.us.uncletopia.com","port":27045,"enabled":true,"region":"us-west","cc":"us","latitude":37.77397,"longitude":-122.4313,"reserved":0,"last_update":"0001-01-01T00:00:00Z","name_a2s":"Uncletopia | San Francisco | 4 | Community","protocol":17,"map":"workshop/cp_glassworks_rc6a.ugc454118349","folder":"tf","game":"Team Fortress","app_id":440,"player_count":23,"max_players":24,"Bots":0,"server_type":"Dedicated","server_os":"Linux","password":true,"vac":true,"version":"7757534","steam_id":85568392924742826,"keywords":["cp","nocrits","nodmgspread","uncletopia"],"game_id":440,"stv_port":27046,"stv_name":"Uncletopia | San Francisco | 4 | Community | STV","players":[{"user_id":110,"name":"Walrus","steam_id":76561198001799905,"connected_time":634000000000,"state":"active","ping":60},{"user_id":83,"name":"frequent urinator","steam_id":76561198084335030,"connected_time":1914000000000,"state":"active","ping":130},{"user_id":100,"name":"Chafn","steam_id":76561197969386702,"connected_time":1179000000000,"state":"active","ping":65},{"user_id":72,"name":"Tech Deck","steam_id":76561199070437675,"connected_time":2026000000000,"state":"active","ping":66},{"user_id":88,"name":"Dreyma","steam_id":76561198227372596,"connected_time":1759000000000,"state":"active","ping":56},{"user_id":75,"name":"Wadsworth M.D.","steam_id":76561198845246815,"connected_time":2016000000000,"state":"active","ping":58},{"user_id":101,"name":"monsterkill4567","steam_id":76561198272986367,"connected_time":1156000000000,"state":"active","ping":65},{"user_id":96,"name":"Fredorando","steam_id":76561198242546842,"connected_time":1285000000000,"state":"active","ping":64},{"user_id":97,"name":"LockVonAugustus","steam_id":76561198407273649,"connected_time":1272000000000,"state":"active","ping":113},{"user_id":105,"name":"Xevon","steam_id":76561198355618921,"connected_time":1020000000000,"state":"active","ping":85},{"user_id":102,"name":"intek","steam_id":76561198052705291,"connected_time":1133000000000,"state":"active","ping":92},{"user_id":103,"name":"bananabanana","steam_id":76561199121970386,"connected_time":1099000000000,"state":"active","ping":157},{"user_id":106,"name":"CareFree Brie","steam_id":76561198868697407,"connected_time":880000000000,"state":"active","ping":48},{"user_id":64,"name":"Phlogging Solly","steam_id":76561198020580071,"connected_time":2323000000000,"state":"active","ping":53},{"user_id":82,"name":"JimGrimm","steam_id":76561198044573050,"connected_time":1928000000000,"state":"active","ping":124},{"user_id":107,"name":"Bilgecrank","steam_id":76561197967191751,"connected_time":869000000000,"state":"active","ping":42},{"user_id":92,"name":"Jewish Democrat","steam_id":76561198978422268,"connected_time":1389000000000,"state":"active","ping":115},{"user_id":108,"name":"shannievan","steam_id":76561199229532901,"connected_time":845000000000,"state":"active","ping":120},{"user_id":109,"name":"stellatheknave","steam_id":76561198264327844,"connected_time":792000000000,"state":"active","ping":87},{"user_id":31,"name":"mu","steam_id":76561197997530228,"connected_time":4475000000000,"state":"active","ping":76},{"user_id":85,"name":"Maid 'n' China","steam_id":76561198423392976,"connected_time":1867000000000,"state":"active","ping":48},{"user_id":113,"name":"Luke","steam_id":76561198072441047,"connected_time":316000000000,"state":"active","ping":76},{"user_id":114,"name":"The Indomitable Human Spirit","steam_id":76561198158260129,"connected_time":275000000000,"state":"active","ping":134}]},{"server_id":141,"name":"Uncletopia | Sydney | 1 | All Maps","name_short":"syd-1","host":"syd-1.au.uncletopia.com","port":27015,"enabled":true,"region":"au","cc":"au","latitude":-33.865143,"longitude":151.2099,"reserved":0,"last_update":"0001-01-01T00:00:00Z","name_a2s":"Uncletopia | Sydney | 1 | All Maps","protocol":17,"map":"pl_swiftwater_final1","folder":"tf","game":"Team Fortress","app_id":440,"player_count":0,"max_players":24,"Bots":0,"server_type":"Dedicated","server_os":"Linux","password":true,"vac":true,"version":"7757534","steam_id":85568392924470001,"keywords":["nocrits","nodmgspread","payload","uncletopia"],"game_id":440,"stv_port":27016,"stv_name":"Uncletopia | Sydney | 1 | All Maps | STV","players":null},{"server_id":123,"name":"Uncletopia | Sydney | 2 | All Maps","name_short":"syd-2","host":"syd-1.au.uncletopia.com","port":27025,"enabled":true,"region":"au","cc":"au","latitude":-33.865143,"longitude":151.2099,"reserved":0,"last_update":"0001-01-01T00:00:00Z","name_a2s":"Uncletopia | Sydney | 2 | All Maps","protocol":17,"map":"cp_process_final","folder":"tf","game":"Team Fortress","app_id":440,"player_count":0,"max_players":24,"Bots":0,"server_type":"Dedicated","server_os":"Linux","password":true,"vac":true,"version":"7757534","steam_id":85568392924470002,"keywords":["cp","nocrits","nodmgspread","uncletopia"],"game_id":440,"stv_port":27026,"stv_name":"Uncletopia | Sydney | 2 | All Maps | STV","players":null},{"server_id":395,"name":"Uncletopia | Sydney | 3 | All Maps","name_short":"syd-3","host":"syd-1.au.uncletopia.com","port":27035,"enabled":true,"region":"au","cc":"au","latitude":-33.865143,"longitude":151.2099,"reserved":0,"last_update":"0001-01-01T00:00:00Z","name_a2s":"Uncletopia | Sydney | 3 | All Maps","protocol":17,"map":"pl_swiftwater_final1","folder":"tf","game":"Team Fortress","app_id":440,"player_count":0,"max_players":24,"Bots":0,"server_type":"Dedicated","server_os":"Linux","password":true,"vac":true,"version":"7757534","steam_id":85568392925194467,"keywords":["nocrits","nodmgspread","payload","uncletopia"],"game_id":440,"stv_port":27036,"stv_name":"Uncletopia | Sydney | 3 | All Maps | STV","players":null},{"server_id":396,"name":"Uncletopia | Sydney | 4 | All Maps","name_short":"syd-4","host":"syd-1.au.uncletopia.com","port":27045,"enabled":true,"region":"au","cc":"au","latitude":-33.865143,"longitude":151.2099,"reserved":0,"last_update":"0001-01-01T00:00:00Z","name_a2s":"Uncletopia | Sydney | 4 | All Maps","protocol":17,"map":"koth_highpass","folder":"tf","game":"Team Fortress","app_id":440,"player_count":0,"max_players":24,"Bots":0,"server_type":"Dedicated","server_os":"Linux","password":true,"vac":true,"version":"7757534","steam_id":85568392925397958,"keywords":["cp","nocrits","nodmgspread","uncletopia"],"game_id":440,"stv_port":27046,"stv_name":"Uncletopia | Sydney | 4 | All Maps | STV","players":null},{"server_id":58,"name":"Uncletopia | Sydney | 5 | Stopwatch Beta","name_short":"syd-5","host":"syd-1.au.uncletopia.com","port":27055,"enabled":true,"region":"au","cc":"au","latitude":-33.865143,"longitude":151.2099,"reserved":0,"last_update":"0001-01-01T00:00:00Z","name_a2s":"Uncletopia | Sydney | 5 | Stopwatch Beta","protocol":17,"map":"koth_cascade","folder":"tf","game":"Team Fortress","app_id":440,"player_count":0,"max_players":24,"Bots":0,"server_type":"Dedicated","server_os":"Linux","password":true,"vac":true,"version":"7757534","steam_id":85568392925397959,"keywords":["cp","nocrits","nodmgspread","uncletopia"],"game_id":440,"stv_port":27056,"stv_name":"Uncletopia | Sydney | 5 | Stopwatch Beta | STV","players":null},{"server_id":59,"name":"Uncletopia | Sydney | 6 | Community","name_short":"syd-6","host":"syd-1.au.uncletopia.com","port":27065,"enabled":true,"region":"au","cc":"au","latitude":-33.865143,"longitude":151.2099,"reserved":0,"last_update":"0001-01-01T00:00:00Z","name_a2s":"Uncletopia | Sydney | 6 | Community","protocol":17,"map":"cp_snakewater_final1","folder":"tf","game":"Team Fortress","app_id":440,"player_count":0,"max_players":24,"Bots":0,"server_type":"Dedicated","server_os":"Linux","password":true,"vac":true,"version":"7757534","steam_id":85568392925397960,"keywords":["cp","nocrits","nodmgspread","uncletopia"],"game_id":440,"stv_port":27066,"stv_name":"Uncletopia | Sydney | 6 | Community | STV","players":null},{"server_id":49,"name":"Uncletopia | Warsaw | 1 | All Maps","name_short":"waw-1","host":"waw-1.pl.uncletopia.com","port":27015,"enabled":true,"region":"eu","cc":"pl","latitude":52.2297,"longitude":21.017532,"reserved":0,"last_update":"0001-01-01T00:00:00Z","name_a2s":"","protocol":0,"map":"","folder":"","game":"","app_id":0,"player_count":0,"max_players":0,"Bots":0,"server_type":"","server_os":"","password":false,"vac":false,"version":"","steam_id":0,"keywords":null,"game_id":0,"stv_port":0,"stv_name":"","players":null},{"server_id":50,"name":"Uncletopia | Warsaw | 2 | All Maps","name_short":"waw-2","host":"waw-1.pl.uncletopia.com","port":27025,"enabled":true,"region":"eu","cc":"pl","latitude":52.2297,"longitude":21.017532,"reserved":0,"last_update":"0001-01-01T00:00:00Z","name_a2s":"Uncletopia | Warsaw | 2 | All Maps","protocol":17,"map":"pl_borneo","folder":"tf","game":"Team Fortress","app_id":440,"player_count":0,"max_players":24,"Bots":0,"server_type":"Dedicated","server_os":"Linux","password":true,"vac":true,"version":"7757534","steam_id":85568392925397851,"keywords":["nocrits","nodmgspread","payload","uncletopia"],"game_id":440,"stv_port":27026,"stv_name":"Uncletopia | Warsaw | 2 | All Maps | STV","players":null},{"server_id":51,"name":"Uncletopia | Warsaw | 3 | All Maps","name_short":"waw-3","host":"waw-1.pl.uncletopia.com","port":27035,"enabled":true,"region":"eu","cc":"pl","latitude":52.2297,"longitude":21.017532,"reserved":0,"last_update":"0001-01-01T00:00:00Z","name_a2s":"Uncletopia | Warsaw | 3 | All Maps","protocol":17,"map":"koth_viaduct","folder":"tf","game":"Team Fortress","app_id":440,"player_count":0,"max_players":24,"Bots":0,"server_type":"Dedicated","server_os":"Linux","password":true,"vac":true,"version":"7757534","steam_id":85568392925397852,"keywords":["cp","nocrits","nodmgspread","uncletopia"],"game_id":440,"stv_port":27036,"stv_name":"Uncletopia | Warsaw | 3 | All Maps | STV","players":null},{"server_id":52,"name":"Uncletopia | Warsaw | 4 | All Maps","name_short":"waw-4","host":"waw-1.pl.uncletopia.com","port":27045,"enabled":true,"region":"eu","cc":"pl","latitude":52.2297,"longitude":21.017532,"reserved":0,"last_update":"0001-01-01T00:00:00Z","name_a2s":"Uncletopia | Warsaw | 4 | All Maps","protocol":17,"map":"koth_highpass","folder":"tf","game":"Team Fortress","app_id":440,"player_count":0,"max_players":24,"Bots":0,"server_type":"Dedicated","server_os":"Linux","password":true,"vac":true,"version":"7757534","steam_id":85568392925397853,"keywords":["cp","nocrits","nodmgspread","uncletopia"],"game_id":440,"stv_port":27046,"stv_name":"Uncletopia | Warsaw | 4 | All Maps | STV","players":null},{"server_id":53,"name":"Uncletopia | Warsaw | 5 | Stopwatch Beta","name_short":"waw-5","host":"waw-1.pl.uncletopia.com","port":27055,"enabled":true,"region":"eu","cc":"pl","latitude":52.2297,"longitude":21.017532,"reserved":0,"last_update":"0001-01-01T00:00:00Z","name_a2s":"Uncletopia | Warsaw | 5 | Stopwatch Beta","protocol":17,"map":"pl_borneo","folder":"tf","game":"Team Fortress","app_id":440,"player_count":0,"max_players":24,"Bots":0,"server_type":"Dedicated","server_os":"Linux","password":true,"vac":true,"version":"7757534","steam_id":85568392925397854,"keywords":["nocrits","nodmgspread","payload","uncletopia"],"game_id":440,"stv_port":27056,"stv_name":"Uncletopia | Warsaw | 5 | Stopwatch Beta | STV","players":null},{"server_id":54,"name":"Uncletopia | Warsaw | 6 | Community","name_short":"waw-6","host":"waw-1.pl.uncletopia.com","port":27065,"enabled":true,"region":"eu","cc":"pl","latitude":52.2297,"longitude":21.017532,"reserved":0,"last_update":"0001-01-01T00:00:00Z","name_a2s":"Uncletopia | Warsaw | 6 | Community","protocol":17,"map":"koth_lakeside_final","folder":"tf","game":"Team Fortress","app_id":440,"player_count":0,"max_players":24,"Bots":0,"server_type":"Dedicated","server_os":"Linux","password":true,"vac":true,"version":"7757534","steam_id":85568392925397856,"keywords":["cp","nocrits","nodmgspread","uncletopia"],"game_id":440,"stv_port":27066,"stv_name":"Uncletopia | Warsaw | 6 | Community | STV","players":null}]}